{"status":true,"message":"","result":[{"server_id":9,"name":"Uncletopia | Atlanta | 1 | All Maps","name_short":"atl-1","host":"atl-1.us.uncletopia.com","port":27015,"enabled":true,"region":"us-east","cc":"us","latitude":33.753746,"longitude":-84.38633,"reserved":0,"last_update":"0001-01-01T00:00:00Z","name_a2s":"Uncletopia | Atlanta | 1 | All Maps","protocol":17,"map":"pl_hoodoo_final","folder":"tf","game":"Team Fortress","app_id":440,"player_count":24,"max_players":24,"Bots":0,"server_type":"Dedicated","server_os":"Linux","password":true,"vac":true,"version":"7757534","steam_id":85568392924469982,"keywords":["nocrits","nodmgspread","payload","uncletopia"],"game_id":440,"stv_port":27016,"stv_name":"Uncletopia | Atlanta | 1 | All Maps | STV","players":[{"user_id":531,"name":"lu","steam_id":76561198080731872,"connected_time":639000000000,"state":"active","ping":74},{"user_id":535,"name":"BLU1 Save your wifi","steam_id":76561198286147372,"connected_time":317000000000,"state":"active","ping":57},{"user_id":529,"name":"BLU1 | cola","steam_id":76561198374390458,"connected_time":1195000000000,"state":"active","ping":56},{"user_id":525,"name":"DFR Wingm4n","steam_id":76561198064127012,"connected_time":1547000000000,"state":"active","ping":46},{"user_id":536,"name":"Angel","steam_id":76561198175654911,"connected_time":301000000000,"state":"active","ping":71},{"user_id":512,"name":"lker","steam_id":76561197976975075,"connected_time":3099000000000,"state":"active","ping":43},{"user_id":527,"name":"Kapreesi","steam_id":76561198163361200,"connected_time":1537000000000,"state":"active","ping":86},{"user_id":524,"name":"rizzard of oz","steam_id":76561198040907214,"connected_time":1557000000000,"state":"active","ping":59},{"user_id":514,"name":"Mage","steam_id":76561198285026879,"connected_time":3066000000000,"state":"active","ping":78},{"user_id":502,"name":"blu lil hog","steam_id":76561199230929836,"connected_time":4081000000000,"state":"active","ping":81},{"user_id":483,"name":"BLU1 | Flint","steam_id":76561198066547582,"connected_time":4742000000000,"state":"active","ping":108},{"user_id":526,"name":"⇌ StriKeR ⇋","steam_id":76561199389089862,"connected_time":1545000000000,"state":"active","ping":135},{"user_id":506,"name":"cheeks","steam_id":76561197993371179,"connected_time":3649000000000,"state":"active","ping":56},{"user_id":515,"name":"火星 | Marsy","steam_id":76561198014979892,"connected_time":3051000000000,"state":"active","ping":81},{"user_id":522,"name":"OddSlaush","steam_id":76561198043898488,"connected_time":1650000000000,"state":"active","ping":90},{"user_id":433,"name":"number 4","steam_id":76561198066867150,"connected_time":8735000000000,"state":"active","ping":73},{"user_id":538,"name":"You Want Me","steam_id":76561198135492119,"connected_time":175000000000,"state":"active","ping":70},{"user_id":507,"name":"years","steam_id":76561197994098627,"connected_time":3145000000000,"state":"active","ping":129},{"user_id":537,"name":"Cam(era)","steam_id":76561198285054047,"connected_time":263000000000,"state":"active","ping":90},{"user_id":503,"name":"Im High","steam_id":76561198049954886,"connected_time":3931000000000,"state":"active","ping":74},{"user_id":516,"name":"Ketasive","steam_id":76561198102350323,"connected_time":3036000000000,"state":"active","ping":80},{"user_id":488,"name":"RED1 | eish","steam_id":76561198089463603,"connected_time":4732000000000,"state":"active","ping":119},{"user_id":530,"name":"Towns","steam_id":76561198984662863,"connected_time":725000000000,"state":"active","ping":64},{"user_id":534,"name":"Boop","steam_id":76561198376703875,"connected_time":622000000000,"state":"active","ping":65}]},{"server_id":400,"name":"Uncletopia | Atlanta | 3 | Community","name_short":"atl-3","host":"atl-1.us.uncletopia.com","port":27035,"enabled":true,"region":"us-east","cc":"us","latitude":33.753746,"longitude":-84.38633,"reserved":0,"last_update":"0001-01-01T00:00:00Z","name_a2s":"Uncletopia | Atlanta | 3 | Community","protocol":17,"map":"workshop/koth_bagel_rc5.ugc2514036946","folder":"tf","game":"Team Fortress","app_id":440,"player_count":24,"max_players":24,"Bots":0,"server_type":"Dedicated","server_os":"Linux","password":true,"vac":true,"version":"7757534","steam_id":85568392924515187,"keywords":["cp","nocrits","nodmgspread","uncletopia"],"game_id":440,"stv_port":27036,"stv_name":"Uncletopia | Atlanta | 3 | Community | STV","players":[{"user_id":33,"name":"Naramon","steam_id":76561198025645021,"connected_time":4087000000000,"state":"active","ping":86},{"user_id":23,"name":"Munchyjr","steam_id":76561198041498014,"connected_time":4469000000000,"state":"active","ping":59},{"user_id":24,"name":"Futo","steam_id":76561198023185653,"connected_time":4457000000000,"state":"active","ping":98},{"user_id":25,"name":"mud drater","steam_id":76561198018680492,"connected_time":4453000000000,"state":"active","ping":61},{"user_id":26,"name":"CheddarCake","steam_id":76561198061993725,"connected_time":4448000000000,"state":"active","ping":68},{"user_id":27,"name":"Yams","steam_id":76561198068084541,"connected_time":4430000000000,"state":"active","ping":73},{"user_id":28,"name":"Waterzuka","steam_id":76561198254454489,"connected_time":4412000000000,"state":"active","ping":156},{"user_id":82,"name":"Uung","steam_id":76561198183956731,"connected_time":457000000000,"state":"active","ping":51},{"user_id":76,"name":"20 pc mcnugget","steam_id":76561198056330171,"connected_time":1350000000000,"state":"active","ping":111},{"user_id":83,"name":"✪kook ♥  ♥","steam_id":76561198037846151,"connected_time":150000000000,"state":"active","ping":59},{"user_id":61,"name":"paisano","steam_id":76561198065575472,"connected_time":2699000000000,"state":"active","ping":61},{"user_id":77,"name":"approx. 72 bees","steam_id":76561198078782043,"connected_time":1304000000000,"state":"active","ping":69},{"user_id":60,"name":"thundermuffin","steam_id":76561198067770965,"connected_time":2762000000000,"state":"active","ping":75},{"user_id":84,"name":"HarambeCBT","steam_id":76561198963065339,"connected_time":117000000000,"state":"active","ping":104},{"user_id":38,"name":"Gelidus","steam_id":76561198817304634,"connected_time":3790000000000,"state":"active","ping":62},{"user_id":40,"name":"Colin102004","steam_id":76561198202384334,"connected_time":3716000000000,"state":"active","ping":57},{"user_id":80,"name":"John “Charmer” Rodriguez","steam_id":76561198024374954,"connected_time":941000000000,"state":"active","ping":70},{"user_id":85,"name":"Tyrone","steam_id":76561198189429665,"connected_time":48000000000,"state":"active","ping":61},{"user_id":43,"name":"Cindernaut","steam_id":76561198034274982,"connected_time":3680000000000,"state":"active","ping":97},{"user_id":70,"name":"Warzard","steam_id":76561199154051413,"connected_time":1672000000000,"state":"active","ping":143},{"user_id":57,"name":"SonicSteve","steam_id":76561198044714546,"connected_time":3063000000000,"state":"active","ping":101},{"user_id":68,"name":"Eins","steam_id":76561199030343810,"connected_time":2070000000000,"state":"active","ping":48},{"user_id":81,"name":"Local Talent","steam_id":76561199053290637,"connected_time":875000000000,"state":"active","ping":65},{"user_id":75,"name":"Lorberry","steam_id":76561198023706058,"connected_time":1559000000000,"state":"active","ping":60}]},{"server_id":401,"name":"Uncletopia | Atlanta | 4 | No Payload","name_short":"atl-4","host":"atl-1.us.uncletopia.com","port":27045,"enabled":true,"region":"us-east","cc":"us","latitude":33.753746,"longitude":-84.38633,"reserved":0,"last_update":"0001-01-01T00:00:00Z","name_a2s":"","protocol":0,"map":"","folder":"","game":"","app_id":0,"player_count":0,"max_players":0,"Bots":0,"server_type":"","server_os":"","password":false,"vac":false,"version":"","steam_id":0,"keywords":null,"game_id":0,"stv_port":0,"stv_name":"","players":null},{"server_id":2,"name":"Uncletopia | Chicago | 1 | All Maps","name_short":"chi-1","host":"chi-1.us.uncletopia.com","port":27015,"enabled":true,"region":"us-central","cc":"us","latitude":41.881832,"longitude":-87.62318,"reserved":0,"last_update":"0001-01-01T00:00:00Z","name_a2s":"Uncletopia | Chicago | 1 | All Maps","protocol":17,"map":"pl_goldrush","folder":"tf","game":"Team Fortress","app_id":440,"player_count":22,"max_players":24,"Bots":0,"server_type":"Dedicated","server_os":"Linux","password":true,"vac":true,"version":"7757534","steam_id":85568392924469984,"keywords":["nocrits","nodmgspread","payload","uncletopia"],"game_id":440,"stv_port":27016,"stv_name":"Uncletopia | Chicago | 1 | All Maps | STV","players":[{"user_id":700,"name":"Ademar","steam_id":76561199391802581,"connected_time":6603000000000,"state":"active","ping":61},{"user_id":755,"name":"Lots0","steam_id":76561198043143145,"connected_time":107000000000,"state":"active","ping":91},{"user_id":735,"name":"West","steam_id":76561198020871712,"connected_time":1806000000000,"state":"active","ping":72},{"user_id":756,"name":"Ziixx","steam_id":76561198380423847,"connected_time":98000000000,"state":"active","ping":58},{"user_id":757,"name":"Coupon","steam_id":76561198111947598,"connected_time":97000000000,"state":"active","ping":90},{"user_id":758,"name":"c64guy","steam_id":76561198023022744,"connected_time":76000000000,"state":"active","ping":73},{"user_id":759,"name":"SpeedyElephant","steam_id":76561198049419309,"connected_time":37000000000,"state":"active","ping":75},{"user_id":716,"name":"JimmyWings","steam_id":76561198999925713,"connected_time":4741000000000,"state":"active","ping":64},{"user_id":668,"name":"Sick Lia :c","steam_id":76561198151569597,"connected_time":9961000000000,"state":"active","ping":140},{"user_id":723,"name":"No Telefrag Plz","steam_id":76561198113931312,"connected_time":3956000000000,"state":"active","ping":74},{"user_id":701,"name":"Adam (Cursed Confetti Creature)","steam_id":76561198317690197,"connected_time":6587000000000,"state":"active","ping":46},{"user_id":733,"name":"Grungy_Greg","steam_id":76561198217362968,"connected_time":2050000000000,"state":"active","ping":72},{"user_id":760,"name":"MetalTao","steam_id":76561198189408110,"connected_time":7000000000,"state":"spawning","ping":64},{"user_id":747,"name":"meth","steam_id":76561198103347094,"connected_time":1075000000000,"state":"active","ping":45},{"user_id":706,"name":"Sailor","steam_id":76561199081983517,"connected_time":6121000000000,"state":"active","ping":89},{"user_id":753,"name":"SPOOKY HOTDOG","steam_id":76561197964599698,"connected_time":201000000000,"state":"active","ping":70},{"user_id":727,"name":"Horse","steam_id":76561199112075552,"connected_time":3560000000000,"state":"active","ping":68},{"user_id":751,"name":"Sir Iasis","steam_id":76561198035666760,"connected_time":842000000000,"state":"active","ping":56},{"user_id":752,"name":"PinkLemonade","steam_id":76561198799286228,"connected_time":818000000000,"state":"active","ping":71},{"user_id":718,"name":"Fencer!","steam_id":76561198029081038,"connected_time":4278000000000,"state":"active","ping":68},{"user_id":748,"name":"twitch.tv/Yoshi21 | TF2Pugs.com","steam_id":76561198002516729,"connected_time":1049000000000,"state":"active","ping":62},{"user_id":746,"name":"Who's Pablo","steam_id":76561198380533809,"connected_time":1099000000000,"state":"active","ping":59}]},{"server_id":106,"name":"Uncletopia | Chicago | 2 | All Maps","name_short":"chi-2","host":"chi-1.us.uncletopia.com","port":27025,"enabled":true,"region":"us-central","cc":"us","latitude":41.881832,"longitude":-87.62318,"reserved":0,"last_update":"0001-01-01T00:00:00Z","name_a2s":"Uncletopia | Chicago | 2 | All Maps","protocol":17,"map":"cp_sunshine","folder":"tf","game":"Team Fortress","app_id":440,"player_count":24,"max_players":24,"Bots":0,"server_type":"Dedicated","server_os":"Linux","password":true,"vac":true,"version":"7757534","steam_id":85568392924469985,"keywords":["cp","nocrits","nodmgspread","uncletopia"],"game_id":440,"stv_port":27026,"stv_name":"Uncletopia | Chicago | 2 | All Maps | STV","players":[{"user_id":406,"name":"PastetheRabbit","steam_id":76561198152219815,"connected_time":2103000000000,"state":"active","ping":67},{"user_id":357,"name":"the","steam_id":76561198311446636,"connected_time":8185000000000,"state":"active","ping":63},{"user_id":422,"name":"Mitsurugii","steam_id":76561198258543709,"connected_time":637000000000,"state":"active","ping":57},{"user_id":420,"name":"nut","steam_id":76561198395577807,"connected_time":653000000000,"state":"active","ping":60},{"user_id":396,"name":"zeltwood","steam_id":76561198982593544,"connected_time":3008000000000,"state":"active","ping":119},{"user_id":412,"name":"Cube","steam_id":76561199021614213,"connected_time":1558000000000,"state":"active","ping":161},{"user_id":418,"name":"Johnny Esports","steam_id":76561198115812405,"connected_time":694000000000,"state":"active","ping":71},{"user_id":386,"name":"Squid121","steam_id":76561198038832034,"connected_time":3970000000000,"state":"active","ping":100},{"user_id":429,"name":"NETTASTINI","steam_id":76561199135904313,"connected_time":122000000000,"state":"active","ping":84},{"user_id":359,"name":"drugger. (cochlear implant)","steam_id":76561198353463585,"connected_time":7694000000000,"state":"active","ping":81},{"user_id":416,"name":"Donker Knight","steam_id":76561198209881263,"connected_time":1040000000000,"state":"active","ping":99},{"user_id":423,"name":"zach stop","steam_id":76561198105640030,"connected_time":608000000000,"state":"active","ping":37},{"user_id":375,"name":"Stock Medic","steam_id":76561198065479730,"connected_time":4742000000000,"state":"active","ping":45},{"user_id":424,"name":"Elmerfudd3","steam_id":76561198209528367,"connected_time":585000000000,"state":"active","ping":56},{"user_id":350,"name":"Uncle Meat","steam_id":76561198012534850,"connected_time":8404000000000,"state":"active","ping":67},{"user_id":405,"name":"Some wet dude","steam_id":76561198143744178,"connected_time":2138000000000,"state":"active","ping":114},{"user_id":413,"name":"bary","steam_id":76561197988317087,"connected_time":1535000000000,"state":"active","ping":62},{"user_id":409,"name":"surrender to the void","steam_id":76561198055494039,"connected_time":2068000000000,"state":"active","ping":78},{"user_id":353,"name":"Pineapple Pancakes","steam_id":76561198860470713,"connected_time":8355000000000,"state":"active","ping":75},{"user_id":428,"name":"20tsr08","steam_id":76561199245566580,"connected_time":315000000000,"state":"active","ping":104},{"user_id":425,"name":"chicanery","steam_id":76561198081654907,"connected_time":577000000000,"state":"active","ping":71},{"user_id":362,"name":"barker bill","steam_id":76561198018451994,"connected_time":6905000000000,"state":"active","ping":76},{"user_id":426,"name":"Quansen","steam_id":76561198151594550,"connected_time":571000000000,"state":"active","ping":45},{"user_id":427,"name":"Skullypoo","steam_id":76561198067912022,"connected_time":521000000000,"state":"active","ping":61}]},{"server_id":402,"name":"Uncletopia | Chicago | 3 | All Maps","name_short":"chi-3","host":"chi-1.us.uncletopia.com","port":27035,"enabled":true,"region":"us-central","cc":"us","latitude":41.881832,"longitude":-87.62318,"reserved":0,"last_update":"0001-01-01T00:00:00Z","name_a2s":"Uncletopia | Chicago | 3 | All Maps","protocol":17,"map":"cp_process_final","folder":"tf","game":"Team Fortress","app_id":440,"player_count":24,"max_players":24,"Bots":0,"server_type":"Dedicated","server_os":"Linux","password":true,"vac":true,"version":"7757534","steam_id":85568392924515191,"keywords":["cp","nocrits","nodmgspread","uncletopia"],"game_id":440,"stv_port":27036,"stv_name":"Uncletopia | Chicago | 3 | All Maps | STV","players":[{"user_id":183,"name":"Amogous Supreme","steam_id":76561198025476774,"connected_time":1313000000000,"state":"active","ping":100},{"user_id":165,"name":"The Dumper","steam_id":76561198147302569,"connected_time":2242000000000,"state":"active","ping":124},{"user_id":195,"name":"boy from the rafters","steam_id":76561198042926224,"connected_time":538000000000,"state":"active","ping":90},{"user_id":193,"name":"Gloomp","steam_id":76561198320639814,"connected_time":640000000000,"state":"active","ping":111},{"user_id":147,"name":"Doggy Girl Kikimora","steam_id":76561198097117564,"connected_time":3299000000000,"state":"active","ping":80},{"user_id":196,"name":"KingArthur","steam_id":76561199080408398,"connected_time":480000000000,"state":"active","ping":114},{"user_id":200,"name":"iCarly Lore Expert","steam_id":76561198111902910,"connected_time":317000000000,"state":"active","ping":59},{"user_id":184,"name":"mental sickness","steam_id":76561198045547779,"connected_time":1239000000000,"state":"active","ping":82},{"user_id":188,"name":"sonic the marijuana smoker","steam_id":76561198119651530,"connected_time":955000000000,"state":"active","ping":62},{"user_id":163,"name":"AlaNo","steam_id":76561198133099582,"connected_time":2303000000000,"state":"active","ping":105},{"user_id":198,"name":"Money Collector","steam_id":76561198046249467,"connected_time":454000000000,"state":"active","ping":56},{"user_id":190,"name":"Truegr","steam_id":76561198811912339,"connected_time":661000000000,"state":"active","ping":142},{"user_id":172,"name":"Kdash","steam_id":76561198043829155,"connected_time":2043000000000,"state":"active","ping":75},{"user_id":144,"name":"nicolas the mercenary","steam_id":76561199077641644,"connected_time":3444000000000,"state":"active","ping":66},{"user_id":201,"name":"Mr poop","steam_id":76561198040631206,"connected_time":314000000000,"state":"active","ping":77},{"user_id":199,"name":"somied","steam_id":76561198148357768,"connected_time":451000000000,"state":"active","ping":62},{"user_id":202,"name":"Professional Spectator","steam_id":76561198085888959,"connected_time":278000000000,"state":"active","ping":48},{"user_id":174,"name":"Nave","steam_id":76561198152862549,"connected_time":2032000000000,"state":"active","ping":56},{"user_id":203,"name":"D.LeBlanc","steam_id":76561198119483989,"connected_time":234000000000,"state":"active","ping":78},{"user_id":204,"name":"threethree","steam_id":76561198177354155,"connected_time":231000000000,"state":"active","ping":45},{"user_id":176,"name":"DistantJragon","steam_id":76561198117563641,"connected_time":1983000000000,"state":"active","ping":47},{"user_id":192,"name":"Scared Duck","steam_id":76561198081348409,"connected_time":653000000000,"state":"active","ping":58},{"user_id":180,"name":"Jesse Thinkman","steam_id":76561198061675475,"connected_time":1852000000000,"state":"active","ping":69},{"user_id":205,"name":"defs98","steam_id":76561198134813102,"connected_time":221000000000,"state":"active","ping":59}]},{"server_id":403,"name":"Uncletopia | Chicago | 4 | All Maps","name_short":"chi-4","host":"chi-1.us.uncletopia.com","port":27045,"enabled":true,"region":"us-central","cc":"us","latitude":41.881832,"longitude":-87.62318,"reserved":0,"last_update":"0001-01-01T00:00:00Z","name_a2s":"Uncletopia | Chicago | 4 | All Maps","protocol":17,"map":"pl_pier","folder":"tf","game":"Team Fortress","app_id":440,"player_count":24,"max_players":24,"Bots":0,"server_type":"Dedicated","server_os":"Linux","password":true,"vac":true,"version":"7757534","steam_id":85568392924515193,"keywords":["nocrits","nodmgspread","payload","uncletopia"],"game_id":440,"stv_port":27046,"stv_name":"Uncletopia | Chicago | 4 | All Maps | STV","players":[{"user_id":491,"name":"Chris is Bliss","steam_id":76561198253919037,"connected_time":3634000000000,"state":"active","ping":80},{"user_id":523,"name":"Cxlz \u003c3","steam_id":76561198171309699,"connected_time":671000000000,"state":"active","ping":83},{"user_id":512,"name":"ZombieSkeletor2","steam_id":76561198244937990,"connected_time":2243000000000,"state":"active","ping":98},{"user_id":530,"name":"Cinderace:)","steam_id":76561198132899671,"connected_time":473000000000,"state":"active","ping":59},{"user_id":519,"name":"ghostedghost","steam_id":76561198111410905,"connected_time":792000000000,"state":"active","ping":90},{"user_id":532,"name":"Uttergerth000 Joe","steam_id":76561198035776269,"connected_time":382000000000,"state":"active","ping":57},{"user_id":524,"name":"Baz","steam_id":76561197965032027,"connected_time":646000000000,"state":"active","ping":85},{"user_id":500,"name":"a table","steam_id":76561198158461279,"connected_time":3245000000000,"state":"active","ping":67},{"user_id":525,"name":"oh god i'm gonna CHUM","steam_id":76561198019210187,"connected_time":640000000000,"state":"active","ping":60},{"user_id":526,"name":"Criceto","steam_id":76561198188612758,"connected_time":638000000000,"state":"active","ping":102},{"user_id":527,"name":"Bobbeh","steam_id":76561198131601160,"connected_time":637000000000,"state":"active","ping":104},{"user_id":508,"name":"Bumsickle42","steam_id":76561198805635571,"connected_time":2300000000000,"state":"active","ping":210},{"user_id":515,"name":"Kobi","steam_id":76561197966801895,"connected_time":1139000000000,"state":"active","ping":79},{"user_id":448,"name":"Pancreas Enjoyer","steam_id":76561199438598904,"connected_time":4892000000000,"state":"active","ping":125},{"user_id":533,"name":"Beavyboi","steam_id":76561199123604469,"connected_time":315000000000,"state":"active","ping":60},{"user_id":509,"name":"thecal","steam_id":76561198307893384,"connected_time":2290000000000,"state":"active","ping":52},{"user_id":466,"name":"Young-OG","steam_id":76561198058800479,"connected_time":4362000000000,"state":"active","ping":76},{"user_id":521,"name":"Chucklin","steam_id":76561198010823579,"connected_time":702000000000,"state":"active","ping":92},{"user_id":529,"name":"Nephs","steam_id":76561198136763403,"connected_time":605000000000,"state":"active","ping":82},{"user_id":522,"name":"Racoon","steam_id":76561198405895403,"connected_time":692000000000,"state":"active","ping":135},{"user_id":534,"name":"Iggy Dogg","steam_id":76561198059602545,"connected_time":23000000000,"state":"active","ping":56},{"user_id":468,"name":"Bad Medic Buddy","steam_id":76561198093222632,"connected_time":4357000000000,"state":"active","ping":84},{"user_id":490,"name":"48","steam_id":76561198156422760,"connected_time":3685000000000,"state":"active","ping":63}]},{"server_id":36,"name":"Uncletopia | Chicago | 5 | All Maps","name_short":"chi-5","host":"chi-2.us.uncletopia.com","port":27015,"enabled":true,"region":"us-central","cc":"us","latitude":41.881832,"longitude":-87.62318,"reserved":0,"last_update":"0001-01-01T00:00:00Z","name_a2s":"Uncletopia | Chicago | 5 | All Maps","protocol":17,"map":"cp_snakewater_final1","folder":"tf","game":"Team Fortress","app_id":440,"player_count":13,"max_players":24,"Bots":0,"server_type":"Dedicated","server_os":"Linux","password":true,"vac":true,"version":"7757534","steam_id":85568392924866362,"keywords":["cp","nocrits","nodmgspread","uncletopia"],"game_id":440,"stv_port":27016,"stv_name":"Uncletopia | Chicago | 5 | All Maps | STV","players":[{"user_id":167,"name":"do you like beans?","steam_id":76561199184000745,"connected_time":235000000000,"state":"active","ping":95},{"user_id":163,"name":"Spiffle","steam_id":76561199089811047,"connected_time":432000000000,"state":"active","ping":105},{"user_id":165,"name":"Scott","steam_id":76561198161597056,"connected_time":361000000000,"state":"active","ping":69},{"user_id":168,"name":"META.exe","steam_id":76561199067098696,"connected_time":141000000000,"state":"active","ping":87},{"user_id":169,"name":"Ah, so Jolly !","steam_id":76561198347621919,"connected_time":70000000000,"state":"active","ping":54},{"user_id":113,"name":"willsmith69","steam_id":76561198365512706,"connected_time":3360000000000,"state":"active","ping":50},{"user_id":159,"name":"Name.code.goku","steam_id":76561199229574640,"connected_time":603000000000,"state":"active","ping":125},{"user_id":138,"name":"Dr.Long","steam_id":76561198930316713,"connected_time":1901000000000,"state":"active","ping":64},{"user_id":90,"name":"toastman","steam_id":76561198207073088,"connected_time":5307000000000,"state":"active","ping":50},{"user_id":98,"name":"Catcow","steam_id":76561198025329176,"connected_time":4936000000000,"state":"active","ping":86},{"user_id":39,"name":"Zultrafury","steam_id":76561198099284163,"connected_time":7648000000000,"state":"active","ping":68},{"user_id":44,"name":"MaximusPrime","steam_id":76561198114949521,"connected_time":7576000000000,"state":"active","ping":86},{"user_id":156,"name":"Goofy Goober","steam_id":76561198065361279,"connected_time":868000000000,"state":"active","ping":81}]},{"server_id":37,"name":"Uncletopia | Chicago | 6 | All Maps","name_short":"chi-6","host":"chi-2.us.uncletopia.com","port":27025,"enabled":true,"region":"us-central","cc":"us","latitude":41.881832,"longitude":-87.62318,"reserved":0,"last_update":"0001-01-01T00:00:00Z","name_a2s":"Uncletopia | Chicago | 6 | All Maps","protocol":17,"map":"pl_snowycoast","folder":"tf","game":"Team Fortress","app_id":440,"player_count":23,"max_players":24,"Bots":0,"server_type":"Dedicated","server_os":"Linux","password":true,"vac":true,"version":"7757534","steam_id":85568392924866363,"keywords":["nocrits","nodmgspread","payload","uncletopia"],"game_id":440,"stv_port":27026,"stv_name":"Uncletopia | Chicago | 6 | All Maps | STV","players":[{"user_id":728,"name":"dalton_dean96","steam_id":76561198198287667,"connected_time":6259000000000,"state":"active","ping":50},{"user_id":793,"name":"caption cool","steam_id":76561197990612056,"connected_time":1301000000000,"state":"active","ping":50},{"user_id":757,"name":"Phil Collins","steam_id":76561198068868644,"connected_time":5093000000000,"state":"active","ping":104},{"user_id":776,"name":"Wilhelmktx","steam_id":76561198158102295,"connected_time":2676000000000,"state":"active","ping":55},{"user_id":795,"name":"Grandma Tarkin","steam_id":76561198001756613,"connected_time":1077000000000,"state":"active","ping":45},{"user_id":814,"name":"a narwhal","steam_id":76561198014527353,"connected_time":51000000000,"state":"active","ping":73},{"user_id":778,"name":"Razz","steam_id":76561198158027533,"connected_time":2674000000000,"state":"active","ping":45},{"user_id":803,"name":"dog-shaped dog","steam_id":76561198286166220,"connected_time":286000000000,"state":"active","ping":67},{"user_id":791,"name":"Steen","steam_id":76561198122992510,"connected_time":1543000000000,"state":"active","ping":146},{"user_id":815,"name":"Jesus","steam_id":76561198018890911,"connected_time":44000000000,"state":"active","ping":63},{"user_id":768,"name":"Frosti","steam_id":76561198332850064,"connected_time":3570000000000,"state":"active","ping":66},{"user_id":767,"name":"gamerboy8233","steam_id":76561198228605388,"connected_time":3716000000000,"state":"active","ping":57},{"user_id":805,"name":"mineblast99","steam_id":76561199065648954,"connected_time":264000000000,"state":"active","ping":82},{"user_id":797,"name":"Oing Juice","steam_id":76561198160554016,"connected_time":1029000000000,"state":"active","ping":59},{"user_id":780,"name":"The Sydney Sleeper Itself","steam_id":76561198180251763,"connected_time":2618000000000,"state":"active","ping":64},{"user_id":806,"name":"Bergmann MP18","steam_id":76561198218417512,"connected_time":178000000000,"state":"active","ping":100},{"user_id":745,"name":"dansal","steam_id":76561197997042510,"connected_time":5877000000000,"state":"active","ping":81},{"user_id":807,"name":"vvichael","steam_id":76561198238148528,"connected_time":170000000000,"state":"active","ping":99},{"user_id":816,"name":"catboy extraordinaire","steam_id":76561197983889333,"connected_time":24000000000,"state":"active","ping":173},{"user_id":809,"name":"Jokken","steam_id":76561198317658069,"connected_time":162000000000,"state":"active","ping":107},{"user_id":811,"name":"Stormz64","steam_id":76561198239036482,"connected_time":134000000000,"state":"active","ping":76},{"user_id":812,"name":"dolla dolla bill","steam_id":76561198062712676,"connected_time":105000000000,"state":"active","ping":104},{"user_id":813,"name":"faxxy","steam_id":76561198079621240,"connected_time":103000000000,"state":"active","ping":64}]},{"server_id":38,"name":"Uncletopia | Chicago | 7 | Stopwatch Beta","name_short":"chi-7","host":"chi-2.us.uncletopia.com","port":27035,"enabled":true,"region":"us-central","cc":"us","latitude":41.881832,"longitude":-87.62318,"reserved":0,"last_update":"0001-01-01T00:00:00Z","name_a2s":"Uncletopia | Chicago | 7 | Stopwatch Beta","protocol":17,"map":"workshop/pl_vigil_rc9.ugc1266210012","folder":"tf","game":"Team Fortress","app_id":440,"player_count":0,"max_players":24,"Bots":0,"server_type":"Dedicated","server_os":"Linux","password":true,"vac":true,"version":"7757534","steam_id":85568392924866364,"keywords":["nocrits","nodmgspread","payload","uncletopia"],"game_id":440,"stv_port":27036,"stv_name":"Uncletopia | Chicago | 7 | Stopwatch Beta | STV","players":null},{"server_id":39,"name":"Uncletopia | Chicago | 8 | Community","name_short":"chi-8","host":"chi-2.us.uncletopia.com","port":27045,"enabled":true,"region":"us-central","cc":"us","latitude":41.881832,"longitude":-87.62318,"reserved":0,"last_update":"0001-01-01T00:00:00Z","name_a2s":"Uncletopia | Chicago | 8 | Community","protocol":17,"map":"workshop/cp_mannbase_rc2a.ugc1900737467","folder":"tf","game":"Team Fortress","app_id":440,"player_count":0,"max_players":24,"Bots":0,"server_type":"Dedicated","server_os":"Linux","password":true,"vac":true,"version":"7757534","steam_id":85568392924866365,"keywords":["cp","nocrits","nodmgspread","uncletopia"],"game_id":440,"stv_port":27046,"stv_name":"Uncletopia | Chicago | 8 | Community | STV","players":null},{"server_id":8,"name":"Uncletopia | Dallas | 1 | All Maps","name_short":"dal-1","host":"dal-1.us.uncletopia.com","port":27015,"enabled":true,"region":"us-central","cc":"us","latitude":32.779167,"longitude":-96.80889,"reserved":0,"last_update":"0001-01-01T00:00:00Z","name_a2s":"Uncletopia | Dallas | 1 | All Maps","protocol":17,"map":"pl_pier","folder":"tf","game":"Team Fortress","app_id":440,"player_count":23,"max_players":24,"Bots":0,"server_type":"Dedicated","server_os":"Linux","password":true,"vac":true,"version":"7757534","steam_id":85568392924469986,"keywords":["nocrits","nodmgspread","payload","uncletopia"],"game_id":440,"stv_port":27016,"stv_name":"Uncletopia | Dallas | 1 | All Maps | STV","players":[{"user_id":277,"name":"Etomb","steam_id":76561198210017208,"connected_time":1628000000000,"state":"active","ping":100},{"user_id":297,"name":"ur dads hooker","steam_id":76561198151569766,"connected_time":679000000000,"state":"active","ping":53},{"user_id":298,"name":"AceY","steam_id":76561199033923343,"connected_time":649000000000,"state":"active","ping":69},{"user_id":299,"name":"(TTV) The_Astrum_Guardian","steam_id":76561198130134103,"connected_time":633000000000,"state":"active","ping":72},{"user_id":307,"name":"Rachel","steam_id":76561198208951683,"connected_time":349000000000,"state":"active","ping":79},{"user_id":239,"name":"the222attacker","steam_id":76561198969690191,"connected_time":4392000000000,"state":"active","ping":88},{"user_id":300,"name":"Staral","steam_id":76561198355046060,"connected_time":620000000000,"state":"active","ping":84},{"user_id":301,"name":"UnsettlingVoice","steam_id":76561198036614583,"connected_time":423000000000,"state":"active","ping":57},{"user_id":310,"name":"Ballista","steam_id":76561197983182562,"connected_time":180000000000,"state":"active","ping":56},{"user_id":279,"name":"josie","steam_id":76561198170848553,"connected_time":1608000000000,"state":"active","ping":90},{"user_id":311,"name":"Aonator","steam_id":76561198252312446,"connected_time":172000000000,"state":"active","ping":104},{"user_id":286,"name":"Playboy Carti","steam_id":76561198305836153,"connected_time":1361000000000,"state":"active","ping":70},{"user_id":304,"name":"nuh uh","steam_id":76561198984612489,"connected_time":370000000000,"state":"active","ping":81},{"user_id":288,"name":"SkoranShogun","steam_id":76561198091811218,"connected_time":1349000000000,"state":"active","ping":67},{"user_id":305,"name":"Ruinedragdoll","steam_id":76561199023649778,"connected_time":368000000000,"state":"active","ping":78},{"user_id":273,"name":"Average Gundam Fan","steam_id":76561198324598029,"connected_time":2211000000000,"state":"active","ping":55},{"user_id":312,"name":"thebestman982","steam_id":76561199001698710,"connected_time":51000000000,"state":"active","ping":138},{"user_id":308,"name":"Aviyarn","steam_id":76561199074194652,"connected_time":336000000000,"state":"active","ping":80},{"user_id":309,"name":"ryghehn","steam_id":76561198195359229,"connected_time":327000000000,"state":"active","ping":99},{"user_id":276,"name":"brk","steam_id":76561198079634017,"connected_time":1813000000000,"state":"active","ping":69},{"user_id":292,"name":"(1)Gabagool","steam_id":76561198365935179,"connected_time":1253000000000,"state":"active","ping":92},{"user_id":272,"name":"alenku","steam_id":76561198997139815,"connected_time":2248000000000,"state":"active","ping":114},{"user_id":293,"name":"Reagquit321321","steam_id":76561198179595646,"connected_time":1246000000000,"state":"active","ping":102}]},{"server_id":108,"name":"Uncletopia | Dallas | 2 | All Maps","name_short":"dal-2","host":"dal-1.us.uncletopia.com","port":27025,"enabled":true,"region":"us-central","cc":"us","latitude":32.779167,"longitude":-96.80889,"reserved":0,"last_update":"0001-01-01T00:00:00Z","name_a2s":"Uncletopia | Dallas | 2 | All Maps","protocol":17,"map":"cp_steel","folder":"tf","game":"Team Fortress","app_id":440,"player_count":24,"max_players":24,"Bots":0,"server_type":"Dedicated","server_os":"Linux","password":true,"vac":true,"version":"7757534","steam_id":85568392924469988,"keywords":["cp","nocrits","nodmgspread","uncletopia"],"game_id":440,"stv_port":27026,"stv_name":"Uncletopia | Dallas | 2 | All Maps | STV","players":[{"user_id":330,"name":"Project Dusk","steam_id":76561198193521149,"connected_time":106000000000,"state":"active","ping":72},{"user_id":311,"name":"FG7","steam_id":76561198381197197,"connected_time":842000000000,"state":"active","ping":105},{"user_id":322,"name":"Skyrim killable children mod","steam_id":76561198862836173,"connected_time":500000000000,"state":"active","ping":124},{"user_id":280,"name":"DrBenjas","steam_id":76561198345883103,"connected_time":2416000000000,"state":"active","ping":103},{"user_id":169,"name":"kangaroo wife","steam_id":76561198040455711,"connected_time":9026000000000,"state":"active","ping":71},{"user_id":296,"name":"Gian","steam_id":76561198041434512,"connected_time":1858000000000,"state":"active","ping":112},{"user_id":320,"name":"Knower","steam_id":76561198036213722,"connected_time":636000000000,"state":"active","ping":88},{"user_id":321,"name":"plink","steam_id":76561198057829889,"connected_time":535000000000,"state":"active","ping":106},{"user_id":281,"name":"GinkroLucas","steam_id":76561199222110653,"connected_time":2357000000000,"state":"active","ping":99},{"user_id":326,"name":"ayaya?","steam_id":76561199000188109,"connected_time":304000000000,"state":"active","ping":80},{"user_id":170,"name":"f0xh0le 0ne","steam_id":76561199471269566,"connected_time":9021000000000,"state":"active","ping":50},{"user_id":304,"name":"+","steam_id":76561198262422184,"connected_time":1209000000000,"state":"active","ping":52},{"user_id":313,"name":"Inadequate","steam_id":76561198108263810,"connected_time":824000000000,"state":"active","ping":103},{"user_id":288,"name":"shark kid","steam_id":76561198055660354,"connected_time":2107000000000,"state":"active","ping":86},{"user_id":300,"name":"papi Chulo","steam_id":76561198126274984,"connected_time":1745000000000,"state":"active","ping":98},{"user_id":332,"name":"boppetson","steam_id":76561198073529045,"connected_time":62000000000,"state":"active","ping":96},{"user_id":323,"name":"Nicklouse","steam_id":76561198852629024,"connected_time":499000000000,"state":"active","ping":73},{"user_id":328,"name":"gamer girl looking for a bf","steam_id":76561198279901162,"connected_time":230000000000,"state":"active","ping":92},{"user_id":324,"name":"cheese man","steam_id":76561199016285746,"connected_time":442000000000,"state":"active","ping":75},{"user_id":291,"name":"DolphiN | RGL.gg","steam_id":76561198048614515,"connected_time":2061000000000,"state":"active","ping":72},{"user_id":329,"name":"b_cho503","steam_id":76561199404873970,"connected_time":127000000000,"state":"spawning","ping":61},{"user_id":325,"name":"Huachi-Kun","steam_id":76561198878018320,"connected_time":422000000000,"state":"active","ping":52},{"user_id":307,"name":"AxelYam","steam_id":76561198102920459,"connected_time":1083000000000,"state":"active","ping":43},{"user_id":331,"name":"Antwan","steam_id":76561198246200638,"connected_time":94000000000,"state":"active","ping":46}]},{"server_id":5,"name":"Uncletopia | Frankfurt | 1 | All Maps","name_short":"frk-1","host":"frk-1.de.uncletopia.com","port":27015,"enabled":true,"region":"eu","cc":"de","latitude":50.110924,"longitude":8.682127,"reserved":0,"last_update":"0001-01-01T00:00:00Z","name_a2s":"Uncletopia | Frankfurt | 1 | All Maps","protocol":17,"map":"cp_sunshine","folder":"tf","game":"Team Fortress","app_id":440,"player_count":0,"max_players":24,"Bots":0,"server_type":"Dedicated","server_os":"Linux","password":true,"vac":true,"version":"7757534","steam_id":85568392924469989,"keywords":["cp","nocrits","nodmgspread","uncletopia"],"game_id":440,"stv_port":27016,"stv_name":"Uncletopia | Frankfurt | 1 | All Maps | STV","players":null},{"server_id":110,"name":"Uncletopia | Frankfurt | 2 | All Maps","name_short":"frk-2","host":"frk-1.de.uncletopia.com","port":27025,"enabled":true,"region":"eu","cc":"de","latitude":50.110924,"longitude":8.682127,"reserved":0,"last_update":"0001-01-01T00:00:00Z","name_a2s":"Uncletopia | Frankfurt | 2 | All Maps","protocol":17,"map":"pl_badwater","folder":"tf","game":"Team Fortress","app_id":440,"player_count":1,"max_players":24,"Bots":0,"server_type":"Dedicated","server_os":"Linux","password":true,"vac":true,"version":"7757534","steam_id":85568392924469990,"keywords":["nocrits","nodmgspread","payload","uncletopia"],"game_id":440,"stv_port":27026,"stv_name":"Uncletopia | Frankfurt | 2 | All Maps | STV","players":[{"user_id":839,"name":"Perämiehenä","steam_id":76561197968945306,"connected_time":36000000000,"state":"active","ping":60}]},{"server_id":308,"name":"Uncletopia | Frankfurt | 3 | All Maps","name_short":"frk-3","host":"frk-1.de.uncletopia.com","port":27035,"enabled":true,"region":"eu","cc":"de","latitude":50.110924,"longitude":8.682127,"reserved":0,"last_update":"0001-01-01T00:00:00Z","name_a2s":"Uncletopia | Frankfurt | 3 | All Maps","protocol":17,"map":"koth_lakeside_final","folder":"tf","game":"Team Fortress","app_id":440,"player_count":0,"max_players":24,"Bots":0,"server_type":"Dedicated","server_os":"Linux","password":true,"vac":true,"version":"7757534","steam_id":85568392924504274,"keywords":["cp","nocrits","nodmgspread","uncletopia"],"game_id":440,"stv_port":27036,"stv_name":"Uncletopia | Frankfurt | 3 | All Maps | STV","players":null},{"server_id":309,"name":"Uncletopia | Frankfurt | 4 | All Maps","name_short":"frk-4","host":"frk-1.de.uncletopia.com","port":27045,"enabled":true,"region":"eu","cc":"de","latitude":50.110924,"longitude":8.682127,"reserved":0,"last_update":"0001-01-01T00:00:00Z","name_a2s":"Uncletopia | Frankfurt | 4 | All Maps","protocol":17,"map":"cp_dustbowl","folder":"tf","game":"Team Fortress","app_id":440,"player_count":0,"max_players":24,"Bots":0,"server_type":"Dedicated","server_os":"Linux","password":true,"vac":true,"version":"7757534","steam_id":85568392924504275,"keywords":["cp","nocrits","nodmgspread","uncletopia"],"game_id":440,"stv_port":27046,"stv_name":"Uncletopia | Frankfurt | 4 | All Maps | STV","players":null},{"server_id":310,"name":"Uncletopia | Frankfurt | 5 | All Maps","name_short":"frk-5","host":"frk-1.de.uncletopia.com","port":27055,"enabled":true,"region":"eu","cc":"de","latitude":50.110924,"longitude":8.682127,"reserved":0,"last_update":"0001-01-01T00:00:00Z","name_a2s":"Uncletopia | Frankfurt | 5 | All Maps","protocol":17,"map":"cp_mountainlab","folder":"tf","game":"Team Fortress","app_id":440,"player_count":0,"max_players":24,"Bots":0,"server_type":"Dedicated","server_os":"Linux","password":true,"vac":true,"version":"7757534","steam_id":85568392924504277,"keywords":["cp","nocrits","nodmgspread","uncletopia"],"game_id":440,"stv_port":27056,"stv_name":"Uncletopia | Frankfurt | 5 | All Maps | STV","players":null},{"server_id":311,"name":"Uncletopia | Frankfurt | 6 | All Maps","name_short":"frk-6","host":"frk-1.de.uncletopia.com","port":27065,"enabled":true,"region":"eu","cc":"de","latitude":50.110924,"longitude":8.682127,"reserved":0,"last_update":"0001-01-01T00:00:00Z","name_a2s":"Uncletopia | Frankfurt | 6 | All Maps","protocol":17,"map":"koth_highpass","folder":"tf","game":"Team Fortress","app_id":440,"player_count":0,"max_players":24,"Bots":0,"server_type":"Dedicated","server_os":"Linux","password":true,"vac":true,"version":"7757534","steam_id":85568392924504278,"keywords":["cp","nocrits","nodmgspread","uncletopia"],"game_id":440,"stv_port":27066,"stv_name":"Uncletopia | Frankfurt | 6 | All Maps | STV","players":null},{"server_id":23,"name":"Uncletopia | Frankfurt | 7 | Stopwatch Beta","name_short":"frk-7","host":"frk-1.de.uncletopia.com","port":27075,"enabled":true,"region":"eu","cc":"de","latitude":50.110924,"longitude":8.682127,"reserved":0,"last_update":"0001-01-01T00:00:00Z","name_a2s":"Uncletopia | Frankfurt | 7 | Stopwatch Beta","protocol":17,"map":"pl_frontier_final","folder":"tf","game":"Team Fortress","app_id":440,"player_count":0,"max_players":24,"Bots":0,"server_type":"Dedicated","server_os":"Linux","password":true,"vac":true,"version":"7757534","steam_id":85568392924742827,"keywords":["nocrits","nodmgspread","payload","uncletopia"],"game_id":440,"stv_port":27076,"stv_name":"Uncletopia | Frankfurt | 7 | Stopwatch Beta | STV","players":null},{"server_id":24,"name":"Uncletopia | Frankfurt | 8 | Community","name_short":"frk-8","host":"frk-1.de.uncletopia.com","port":27085,"enabled":true,"region":"eu","cc":"de","latitude":50.110924,"longitude":8.682127,"reserved":0,"last_update":"0001-01-01T00:00:00Z","name_a2s":"Uncletopia | Frankfurt | 8 | Community","protocol":17,"map":"workshop/rd_asteroid_redux_b1.ugc2154902912","folder":"tf","game":"Team Fortress","app_id":440,"player_count":0,"max_players":24,"Bots":0,"server_type":"Dedicated","server_os":"Linux","password":true,"vac":true,"version":"7757534","steam_id":85568392924742828,"keywords":["beta","nocrits","nodmgspread","rd","uncletopia"],"game_id":440,"stv_port":27086,"stv_name":"Uncletopia | Frankfurt | 8 | Community | STV","players":null},{"server_id":202,"name":"Uncletopia | Hong Kong | 1 | All Maps","name_short":"hgk-1","host":"hgk-1.hk.uncletopia.com","port":27015,"enabled":true,"region":"asia","cc":"hk","latitude":22.302711,"longitude":114.177216,"reserved":0,"last_update":"0001-01-01T00:00:00Z","name_a2s":"Uncletopia | Hong Kong | 1 | All Maps","protocol":17,"map":"pl_badwater","folder":"tf","game":"Team Fortress","app_id":440,"player_count":0,"max_players":24,"Bots":0,"server_type":"Dedicated","server_os":"Linux","password":true,"vac":true,"version":"7757534","steam_id":85568392924494504,"keywords":["nocrits","nodmgspread","payload","uncletopia"],"game_id":440,"stv_port":27016,"stv_name":"Uncletopia | Hong Kong | 1 | All Maps | STV","players":null},{"server_id":1,"name":"Uncletopia | Los Angeles | 1 | All Maps","name_short":"lax-1","host":"lax-1.us.uncletopia.com","port":27015,"enabled":true,"region":"us-west","cc":"us","latitude":33.94279,"longitude":-118.41004,"reserved":0,"last_update":"0001-01-01T00:00:00Z","name_a2s":"Uncletopia | Los Angeles | 1 | All Maps","protocol":17,"map":"pl_borneo","folder":"tf","game":"Team Fortress","app_id":440,"player_count":20,"max_players":24,"Bots":0,"server_type":"Dedicated","server_os":"Linux","password":true,"vac":true,"version":"7757534","steam_id":85568392924469991,"keywords":["nocrits","nodmgspread","payload","uncletopia"],"game_id":440,"stv_port":27016,"stv_name":"Uncletopia | Los Angeles | 1 | All Maps | STV","players":[{"user_id":305,"name":"Portabello","steam_id":76561198092412930,"connected_time":1454000000000,"state":"active","ping":38},{"user_id":306,"name":"faith","steam_id":76561198306448569,"connected_time":1451000000000,"state":"active","ping":108},{"user_id":329,"name":"the pest","steam_id":76561198097721532,"connected_time":59000000000,"state":"active","ping":43},{"user_id":303,"name":"evan_is_sauce","steam_id":76561199086802383,"connected_time":1479000000000,"state":"active","ping":113},{"user_id":298,"name":"VicLoL","steam_id":76561198045580784,"connected_time":1648000000000,"state":"active","ping":58},{"user_id":323,"name":"challen","steam_id":76561197961277967,"connected_time":569000000000,"state":"active","ping":60},{"user_id":328,"name":"Squatter","steam_id":76561198078987734,"connected_time":179000000000,"state":"active","ping":87},{"user_id":320,"name":"Owl_eyes","steam_id":76561198066199203,"connected_time":842000000000,"state":"active","ping":55},{"user_id":247,"name":"pasta","steam_id":76561198084719895,"connected_time":6559000000000,"state":"active","ping":102},{"user_id":287,"name":"puppygirl lobotomy","steam_id":76561198265633146,"connected_time":3859000000000,"state":"active","ping":64},{"user_id":330,"name":"MinusSoup918","steam_id":76561198060902773,"connected_time":19000000000,"state":"spawning","ping":57},{"user_id":310,"name":"BrightOrangeMango","steam_id":76561198023144607,"connected_time":1381000000000,"state":"active","ping":63},{"user_id":324,"name":"luke8538","steam_id":76561198067480563,"connected_time":479000000000,"state":"active","ping":68},{"user_id":325,"name":"thom","steam_id":76561198109861948,"connected_time":478000000000,"state":"active","ping":118},{"user_id":331,"name":"Psychosis","steam_id":76561198078659070,"connected_time":11000000000,"state":"active","ping":108},{"user_id":285,"name":"Sammy!","steam_id":76561198184171743,"connected_time":4097000000000,"state":"active","ping":61},{"user_id":326,"name":"FangisCat","steam_id":76561198957301047,"connected_time":461000000000,"state":"active","ping":60},{"user_id":315,"name":"MR.BIGLY BALLS","steam_id":76561198012605390,"connected_time":1243000000000,"state":"active","ping":112},{"user_id":300,"name":"Maid 'n' China","steam_id":76561198423392976,"connected_time":1550000000000,"state":"active","ping":138},{"user_id":301,"name":"Fr*nch \"Person\"","steam_id":76561198976521735,"connected_time":1548000000000,"state":"active","ping":46}]},{"server_id":112,"name":"Uncletopia | Los Angeles | 2 | All Maps","name_short":"lax-2","host":"lax-1.us.uncletopia.com","port":27025,"enabled":true,"region":"us-west","cc":"us","latitude":33.94279,"longitude":-118.41004,"reserved":0,"last_update":"0001-01-01T00:00:00Z","name_a2s":"Uncletopia | Los Angeles | 2 | All Maps","protocol":17,"map":"cp_sunshine","folder":"tf","game":"Team Fortress","app_id":440,"player_count":24,"max_players":24,"Bots":0,"server_type":"Dedicated","server_os":"Linux","password":true,"vac":true,"version":"7757534","steam_id":85568392924469992,"keywords":["cp","nocrits","nodmgspread","uncletopia"],"game_id":440,"stv_port":27026,"stv_name":"Uncletopia | Los Angeles | 2 | All Maps | STV","players":[{"user_id":16,"name":"Pinicle","steam_id":76561198163251509,"connected_time":2929000000000,"state":"active","ping":44},{"user_id":17,"name":"Someone","steam_id":76561198123512823,"connected_time":2821000000000,"state":"active","ping":44},{"user_id":20,"name":"Raccoon","steam_id":76561198351496697,"connected_time":2661000000000,"state":"active","ping":54},{"user_id":19,"name":"qtipp","steam_id":76561198118946662,"connected_time":2679000000000,"state":"active","ping":46},{"user_id":21,"name":"Dog","steam_id":76561198084912355,"connected_time":2657000000000,"state":"active","ping":54},{"user_id":22,"name":"Flamehead321","steam_id":76561198112640157,"connected_time":2648000000000,"state":"active","ping":54},{"user_id":23,"name":"TheReddawn2001","steam_id":76561198194601828,"connected_time":2564000000000,"state":"active","ping":54},{"user_id":45,"name":"glenn quagmire","steam_id":76561198197643703,"connected_time":1959000000000,"state":"active","ping":71},{"user_id":28,"name":"Yachter","steam_id":76561198129749194,"connected_time":2437000000000,"state":"active","ping":70},{"user_id":26,"name":"frickin sammy","steam_id":76561198085852747,"connected_time":2450000000000,"state":"active","ping":90},{"user_id":27,"name":"AutumnDX","steam_id":76561198123777340,"connected_time":2446000000000,"state":"active","ping":146},{"user_id":30,"name":"Snail_Overlord","steam_id":76561198325883359,"connected_time":2418000000000,"state":"active","ping":90},{"user_id":48,"name":"YSE_GlizzyGobblerDestroyer","steam_id":76561199040365890,"connected_time":1646000000000,"state":"active","ping":57},{"user_id":51,"name":"cedar","steam_id":76561199114675299,"connected_time":1235000000000,"state":"active","ping":92},{"user_id":34,"name":"Chillin Turt","steam_id":76561198025796849,"connected_time":2362000000000,"state":"active","ping":96},{"user_id":50,"name":"brian griffin","steam_id":76561198846480611,"connected_time":1331000000000,"state":"active","ping":78},{"user_id":36,"name":"name420","steam_id":76561198129374525,"connected_time":2348000000000,"state":"active","ping":98},{"user_id":49,"name":"The Big Stew","steam_id":76561198164279539,"connected_time":1362000000000,"state":"active","ping":76},{"user_id":55,"name":"dminty87","steam_id":76561198880739963,"connected_time":376000000000,"state":"active","ping":85},{"user_id":54,"name":"gibbon","steam_id":76561198143796866,"connected_time":747000000000,"state":"active","ping":81},{"user_id":52,"name":"Soph The Dark Elf","steam_id":76561198294426385,"connected_time":1219000000000,"state":"active","ping":115},{"user_id":47,"name":"Bobbo","steam_id":76561198055689771,"connected_time":1847000000000,"state":"active","ping":88},{"user_id":56,"name":"Beary Adorable","steam_id":76561198023815802,"connected_time":98000000000,"state":"active","ping":84},{"user_id":44,"name":"dandy","steam_id":76561197967362217,"connected_time":2010000000000,"state":"active","ping":49}]},{"server_id":324,"name":"Uncletopia | Los Angeles | 3 | All Maps","name_short":"lax-3","host":"lax-1.us.uncletopia.com","port":27035,"enabled":true,"region":"us-west","cc":"us","latitude":33.94279,"longitude":-118.41004,"reserved":0,"last_update":"0001-01-01T00:00:00Z","name_a2s":"Uncletopia | Los Angeles | 3 | All Maps","protocol":17,"map":"koth_lakeside_final","folder":"tf","game":"Team Fortress","app_id":440,"player_count":2,"max_players":24,"Bots":0,"server_type":"Dedicated","server_os":"Linux","password":true,"vac":true,"version":"7757534","steam_id":85568392924510198,"keywords":["cp","nocrits","nodmgspread","uncletopia"],"game_id":440,"stv_port":27036,"stv_name":"Uncletopia | Los Angeles | 3 | All Maps | STV","players":[{"user_id":8,"name":"lil chippy","steam_id":76561198007668395,"connected_time":1536000000000,"state":"active","ping":104},{"user_id":9,"name":"Carter","steam_id":76561198045207870,"connected_time":1512000000000,"state":"active","ping":56}]},{"server_id":25,"name":"Uncletopia | Los Angeles | 4 | Stopwatch Beta","name_short":"lax-4","host":"lax-1.us.uncletopia.com","port":27045,"enabled":true,"region":"us-west","cc":"us","latitude":33.94279,"longitude":-118.41004,"reserved":0,"last_update":"0001-01-01T00:00:00Z","name_a2s":"Uncletopia | Los Angeles | 4 | Stopwatch Beta","protocol":17,"map":"pl_frontier_final","folder":"tf","game":"Team Fortress","app_id":440,"player_count":0,"max_players":24,"Bots":0,"server_type":"Dedicated","server_os":"Linux","password":true,"vac":true,"version":"7757534","steam_id":85568392924510199,"keywords":["nocrits","nodmgspread","payload","uncletopia"],"game_id":440,"stv_port":27046,"stv_name":"Uncletopia | Los Angeles | 4 | Stopwatch Beta | STV","players":null},{"server_id":11,"name":"Uncletopia | London | 1 | All Maps","name_short":"lon-1","host":"lon-1.uk.uncletopia.com","port":27015,"enabled":true,"region":"eu","cc":"gb","latitude":51.509865,"longitude":-0.118092,"reserved":0,"last_update":"0001-01-01T00:00:00Z","name_a2s":"Uncletopia | London | 1 | All Maps","protocol":17,"map":"koth_lakeside_final","folder":"tf","game":"Team Fortress","app_id":440,"player_count":0,"max_players":24,"Bots":0,"server_type":"Dedicated","server_os":"Linux","password":true,"vac":true,"version":"7757534","steam_id":85568392924367362,"keywords":["cp","nocrits","nodmgspread","uncletopia"],"game_id":440,"stv_port":27016,"stv_name":"Uncletopia | London | 1 | All Maps | STV","players":null},{"server_id":114,"name":"Uncletopia | London | 2 | All Maps","name_short":"lon-2","host":"lon-1.uk.uncletopia.com","port":27025,"enabled":true,"region":"eu","cc":"gb","latitude":51.509865,"longitude":-0.118092,"reserved":0,"last_update":"0001-01-01T00:00:00Z","name_a2s":"Uncletopia | London | 2 | All Maps","protocol":17,"map":"cp_dustbowl","folder":"tf","game":"Team Fortress","app_id":440,"player_count":0,"max_players":24,"Bots":0,"server_type":"Dedicated","server_os":"Linux","password":true,"vac":true,"version":"7757534","steam_id":85568392924470941,"keywords":["cp","nocrits","nodmgspread","uncletopia"],"game_id":440,"stv_port":27026,"stv_name":"Uncletopia | London | 2 | All Maps | STV","players":null},{"server_id":320,"name":"Uncletopia | London | 3 | All Maps","name_short":"lon-3","host":"lon-1.uk.uncletopia.com","port":27035,"enabled":true,"region":"eu","cc":"gb","latitude":51.509865,"longitude":-0.118092,"reserved":0,"last_update":"0001-01-01T00:00:00Z","name_a2s":"Uncletopia | London | 3 | All Maps","protocol":17,"map":"koth_sawmill","folder":"tf","game":"Team Fortress","app_id":440,"player_count":0,"max_players":24,"Bots":0,"server_type":"Dedicated","server_os":"Linux","password":true,"vac":true,"version":"7757534","steam_id":85568392924510192,"keywords":["cp","nocrits","nodmgspread","uncletopia"],"game_id":440,"stv_port":27036,"stv_name":"Uncletopia | London | 3 | All Maps | STV","players":null},{"server_id":321,"name":"Uncletopia | London | 4 | All Maps","name_short":"lon-4","host":"lon-1.uk.uncletopia.com","port":27045,"enabled":true,"region":"eu","cc":"gb","latitude":51.509865,"longitude":-0.118092,"reserved":0,"last_update":"0001-01-01T00:00:00Z","name_a2s":"Uncletopia | London | 4 | All Maps","protocol":17,"map":"pl_badwater","folder":"tf","game":"Team Fortress","app_id":440,"player_count":24,"max_players":24,"Bots":0,"server_type":"Dedicated","server_os":"Linux","password":true,"vac":true,"version":"7757534","steam_id":85568392924510193,"keywords":["nocrits","nodmgspread","payload","uncletopia"],"game_id":440,"stv_port":27046,"stv_name":"Uncletopia | London | 4 | All Maps | STV","players":[{"user_id":392,"name":"It's a me Malario","steam_id":76561198176546013,"connected_time":4562000000000,"state":"active","ping":43},{"user_id":431,"name":"Echo of Abyss","steam_id":76561198981841782,"connected_time":440000000000,"state":"active","ping":80},{"user_id":407,"name":"Thalgorock","steam_id":76561198195315022,"connected_time":2616000000000,"state":"active","ping":73},{"user_id":409,"name":"Borat","steam_id":76561198122226417,"connected_time":2603000000000,"state":"active","ping":36},{"user_id":376,"name":"Gang Garrison 2","steam_id":76561197983908081,"connected_time":6669000000000,"state":"active","ping":41},{"user_id":395,"name":"blue","steam_id":76561198216200092,"connected_time":4050000000000,"state":"active","ping":46},{"user_id":422,"name":"CevaAltceva","steam_id":76561198112195193,"connected_time":1669000000000,"state":"active","ping":73},{"user_id":429,"name":"Rezzarezz","steam_id":76561198092020043,"connected_time":539000000000,"state":"active","ping":74},{"user_id":401,"name":"Osiris x Saint-14 9k Page Fanfi","steam_id":76561198133063760,"connected_time":3492000000000,"state":"active","ping":86},{"user_id":423,"name":"sev//","steam_id":76561198797730418,"connected_time":1477000000000,"state":"active","ping":68},{"user_id":302,"name":"Zerfesh","steam_id":76561198117534358,"connected_time":11759000000000,"state":"active","ping":97},{"user_id":434,"name":"Laceri","steam_id":76561198084877928,"connected_time":351000000000,"state":"active","ping":81},{"user_id":379,"name":"Taste","steam_id":76561197994506978,"connected_time":6567000000000,"state":"active","ping":52},{"user_id":433,"name":"radio","steam_id":76561198148059714,"connected_time":374000000000,"state":"active","ping":113},{"user_id":425,"name":"Jesse Pinkman","steam_id":76561198153488940,"connected_time":1107000000000,"state":"active","ping":74},{"user_id":435,"name":"Pyro","steam_id":76561198210513408,"connected_time":217000000000,"state":"active","ping":64},{"user_id":415,"name":"gerald the nefarious gorilla","steam_id":76561198195789498,"connected_time":2166000000000,"state":"active","ping":76},{"user_id":421,"name":"The Black Duckling","steam_id":76561198383394891,"connected_time":1743000000000,"state":"active","ping":136},{"user_id":432,"name":"stun","steam_id":76561198276681691,"connected_time":417000000000,"state":"active","ping":46},{"user_id":400,"name":"Rave Robber","steam_id":76561199414716848,"connected_time":3824000000000,"state":"active","ping":75},{"user_id":399,"name":"Frazzle","steam_id":76561198262577951,"connected_time":3943000000000,"state":"active","ping":61},{"user_id":403,"name":"dirty rascal","steam_id":76561198000871038,"connected_time":2632000000000,"state":"active","ping":46},{"user_id":404,"name":"SuntanPikachu","steam_id":76561198121242476,"connected_time":2632000000000,"state":"active","ping":105},{"user_id":405,"name":"SuperBob103","steam_id":76561199175360012,"connected_time":2631000000000,"state":"active","ping":48}]},{"server_id":21,"name":"Uncletopia | London | 5 | All Maps","name_short":"lon-5","host":"lon-1.uk.uncletopia.com","port":27055,"enabled":true,"region":"eu","cc":"gb","latitude":51.509865,"longitude":-0.118092,"reserved":0,"last_update":"0001-01-01T00:00:00Z","name_a2s":"Uncletopia | London | 5 | All Maps","protocol":17,"map":"koth_cascade","folder":"tf","game":"Team Fortress","app_id":440,"player_count":0,"max_players":24,"Bots":0,"server_type":"Dedicated","server_os":"Linux","password":true,"vac":true,"version":"7757534","steam_id":85568392924742829,"keywords":["cp","nocrits","nodmgspread","uncletopia"],"game_id":440,"stv_port":27056,"stv_name":"Uncletopia | London | 5 | All Maps | STV","players":null},{"server_id":22,"name":"Uncletopia | London | 6 | All Maps","name_short":"lon-6","host":"lon-1.uk.uncletopia.com","port":27065,"enabled":true,"region":"eu","cc":"gb","latitude":51.509865,"longitude":-0.118092,"reserved":0,"last_update":"0001-01-01T00:00:00Z","name_a2s":"Uncletopia | London | 6 | All Maps","protocol":17,"map":"pl_swiftwater_final1","folder":"tf","game":"Team Fortress","app_id":440,"player_count":0,"max_players":24,"Bots":0,"server_type":"Dedicated","server_os":"Linux","password":true,"vac":true,"version":"7757534","steam_id":85568392924742830,"keywords":["nocrits","nodmgspread","payload","uncletopia"],"game_id":440,"stv_port":27066,"stv_name":"Uncletopia | London | 6 | All Maps | STV","players":null},{"server_id":40,"name":"Uncletopia | London | 7 | No Payload","name_short":"lon-7","host":"lon-1.uk.uncletopia.com","port":27075,"enabled":true,"region":"eu","cc":"gb","latitude":51.509865,"longitude":-0.118092,"reserved":0,"last_update":"0001-01-01T00:00:00Z","name_a2s":"Uncletopia | London | 7 | No Payload","protocol":17,"map":"plr_pipeline","folder":"tf","game":"Team Fortress","app_id":440,"player_count":0,"max_players":24,"Bots":0,"server_type":"Dedicated","server_os":"Linux","password":true,"vac":true,"version":"7757534","steam_id":85568392924964314,"keywords":["nocrits","nodmgspread","payload","uncletopia"],"game_id":440,"stv_port":27076,"stv_name":"Uncletopia | London | 7 | No Payload | STV","players":null},{"server_id":41,"name":"Uncletopia | London | 8 | Community","name_short":"lon-8","host":"lon-1.uk.uncletopia.com","port":27085,"enabled":true,"region":"eu","cc":"gb","latitude":51.509865,"longitude":-0.118092,"reserved":0,"last_update":"0001-01-01T00:00:00Z","name_a2s":"Uncletopia | London | 8 | Community","protocol":17,"map":"workshop/cp_croissant_final.ugc458840209","folder":"tf","game":"Team Fortress","app_id":440,"player_count":0,"max_players":24,"Bots":0,"server_type":"Dedicated","server_os":"Linux","password":true,"vac":true,"version":"7757534","steam_id":85568392924964315,"keywords":["cp","nocrits","nodmgspread","uncletopia"],"game_id":440,"stv_port":27086,"stv_name":"Uncletopia | London | 8 | Community | STV","players":null},{"server_id":300,"name":"Uncletopia | Montréal | 1 | All Maps","name_short":"mtl-1","host":"mtl-1.ca.uncletopia.com","port":27015,"enabled":true,"region":"us-east","cc":"ca","latitude":45.50889,"longitude":-73.56167,"reserved":0,"last_update":"0001-01-01T00:00:00Z","name_a2s":"Uncletopia | Montréal | 1 | All Maps","protocol":17,"map":"pl_borneo","folder":"tf","game":"Team Fortress","app_id":440,"player_count":0,"max_players":24,"Bots":0,"server_type":"Dedicated","server_os":"Linux","password":true,"vac":true,"version":"7757534","steam_id":85568392924500087,"keywords":["nocrits","nodmgspread","payload","uncletopia"],"game_id":440,"stv_port":27016,"stv_name":"Uncletopia | Montréal | 1 | All Maps | STV","players":null},{"server_id":301,"name":"Uncletopia | Montréal | 2 | All Maps","name_short":"mtl-2","host":"mtl-1.ca.uncletopia.com","port":27025,"enabled":true,"region":"us-east","cc":"ca","latitude":45.50889,"longitude":-73.56167,"reserved":0,"last_update":"0001-01-01T00:00:00Z","name_a2s":"Uncletopia | Montréal | 2 | All Maps","protocol":17,"map":"pl_frontier_final","folder":"tf","game":"Team Fortress","app_id":440,"player_count":0,"max_players":24,"Bots":0,"server_type":"Dedicated","server_os":"Linux","password":true,"vac":true,"version":"7757534","steam_id":85568392924500088,"keywords":["nocrits","nodmgspread","payload","uncletopia"],"game_id":440,"stv_port":27026,"stv_name":"Uncletopia | Montréal | 2 | All Maps | STV","players":null},{"server_id":302,"name":"Uncletopia | Montréal | 3 | All Maps","name_short":"mtl-3","host":"mtl-1.ca.uncletopia.com","port":27035,"enabled":true,"region":"us-east","cc":"ca","latitude":45.50889,"longitude":-73.56167,"reserved":0,"last_update":"0001-01-01T00:00:00Z","name_a2s":"Uncletopia | Montréal | 3 | All Maps","protocol":17,"map":"koth_highpass","folder":"tf","game":"Team Fortress","app_id":440,"player_count":0,"max_players":24,"Bots":0,"server_type":"Dedicated","server_os":"Linux","password":true,"vac":true,"version":"7757534","steam_id":85568392924500089,"keywords":["cp","nocrits","nodmgspread","uncletopia"],"game_id":440,"stv_port":27036,"stv_name":"Uncletopia | Montréal | 3 | All Maps | STV","players":null},{"server_id":303,"name":"Uncletopia | Montréal | 4 | No Payload","name_short":"mtl-4","host":"mtl-1.ca.uncletopia.com","port":27045,"enabled":true,"region":"us-east","cc":"ca","latitude":45.50889,"longitude":-73.56167,"reserved":0,"last_update":"0001-01-01T00:00:00Z","name_a2s":"Uncletopia | Montréal | 4 | No Payload","protocol":17,"map":"pl_borneo","folder":"tf","game":"Team Fortress","app_id":440,"player_count":0,"max_players":24,"Bots":0,"server_type":"Dedicated","server_os":"Linux","password":true,"vac":true,"version":"7757534","steam_id":85568392924500090,"keywords":["nocrits","nodmgspread","payload","uncletopia"],"game_id":440,"stv_port":27046,"stv_name":"Uncletopia | Montréal | 4 | No Payload | STV","players":null},{"server_id":13,"name":"Uncletopia | New York City | 1 | All Maps","name_short":"nyc-1","host":"nyc-1.us.uncletopia.com","port":27015,"enabled":true,"region":"us-east","cc":"us","latitude":40.73061,"longitude":-73.93524,"reserved":0,"last_update":"0001-01-01T00:00:00Z","name_a2s":"Uncletopia | New York City | 1 | All Maps","protocol":17,"map":"pl_pier","folder":"tf","game":"Team Fortress","app_id":440,"player_count":0,"max_players":24,"Bots":0,"server_type":"Dedicated","server_os":"Linux","password":true,"vac":true,"version":"7757534","steam_id":85568392924469993,"keywords":["nocrits","nodmgspread","payload","uncletopia"],"game_id":440,"stv_port":27016,"stv_name":"Uncletopia | New York City | 1 | All Maps | STV","players":null},{"server_id":14,"name":"Uncletopia | New York City | 2 | All Maps","name_short":"nyc-2","host":"nyc-1.us.uncletopia.com","port":27025,"enabled":true,"region":"us-east","cc":"us","latitude":40.73061,"longitude":-73.93524,"reserved":0,"last_update":"0001-01-01T00:00:00Z","name_a2s":"Uncletopia | New York City | 2 | All Maps","protocol":17,"map":"pl_snowycoast","folder":"tf","game":"Team Fortress","app_id":440,"player_count":12,"max_players":24,"Bots":0,"server_type":"Dedicated","server_os":"Linux","password":true,"vac":true,"version":"7757534","steam_id":85568392924469994,"keywords":["nocrits","nodmgspread","payload","uncletopia"],"game_id":440,"stv_port":27026,"stv_name":"Uncletopia | New York City | 2 | All Maps | STV","players":[{"user_id":389,"name":"real trap shiet","steam_id":76561198279220018,"connected_time":1005000000000,"state":"active","ping":69},{"user_id":377,"name":"Shuu","steam_id":76561199199180558,"connected_time":2127000000000,"state":"active","ping":54},{"user_id":394,"name":"mr.edderkopper","steam_id":76561198152614478,"connected_time":648000000000,"state":"active","ping":65},{"user_id":383,"name":"The Guy","steam_id":76561198131629233,"connected_time":1573000000000,"state":"active","ping":85},{"user_id":402,"name":"Heropon","steam_id":76561198105224481,"connected_time":33000000000,"state":"active","ping":56},{"user_id":399,"name":"malert210","steam_id":76561199471522038,"connected_time":233000000000,"state":"active","ping":84},{"user_id":294,"name":"Russell Crowe","steam_id":76561197970834547,"connected_time":7815000000000,"state":"active","ping":72},{"user_id":401,"name":"Fishman_200","steam_id":76561198152455167,"connected_time":105000000000,"state":"active","ping":54},{"user_id":374,"name":"Ghoulish in Nature","steam_id":76561198058840585,"connected_time":2209000000000,"state":"active","ping":60},{"user_id":358,"name":"DO NOT call me BART SIMPSON!!","steam_id":76561198069113375,"connected_time":3123000000000,"state":"active","ping":80},{"user_id":354,"name":"tooth","steam_id":76561197986437643,"connected_time":3545000000000,"state":"active","ping":50}]},{"server_id":15,"name":"Uncletopia | New York City | 3 | Stopwatch Beta","name_short":"nyc-3","host":"nyc-1.us.uncletopia.com","port":27035,"enabled":true,"region":"us-east","cc":"us","latitude":40.73061,"longitude":-73.93524,"reserved":0,"last_update":"0001-01-01T00:00:00Z","name_a2s":"Uncletopia | New York City | 3 | Stopwatch Beta","protocol":17,"map":"koth_highpass","folder":"tf","game":"Team Fortress","app_id":440,"player_count":0,"max_players":24,"Bots":0,"server_type":"Dedicated","server_os":"Linux","password":true,"vac":true,"version":"7757534","steam_id":85568392924742820,"keywords":["cp","nocrits","nodmgspread","uncletopia"],"game_id":440,"stv_port":27036,"stv_name":"Uncletopia | New York City | 3 | Stopwatch Beta | STV","players":null},{"server_id":16,"name":"Uncletopia | New York City | 4 | Community","name_short":"nyc-4","host":"nyc-1.us.uncletopia.com","port":27045,"enabled":true,"region":"us-east","cc":"us","latitude":40.73061,"longitude":-73.93524,"reserved":0,"last_update":"0001-01-01T00:00:00Z","name_a2s":"Uncletopia | New York City | 4 | Community","protocol":17,"map":"workshop/pl_divulgence_b4b.ugc2884808746","folder":"tf","game":"Team Fortress","app_id":440,"player_count":24,"max_players":24,"Bots":0,"server_type":"Dedicated","server_os":"Linux","password":true,"vac":true,"version":"7757534","steam_id":85568392924742821,"keywords":["nocrits","nodmgspread","payload","uncletopia"],"game_id":440,"stv_port":27046,"stv_name":"Uncletopia | New York City | 4 | Community | STV","players":[{"user_id":283,"name":"Antknee","steam_id":76561198263793809,"connected_time":813000000000,"state":"active","ping":73},{"user_id":139,"name":"Cooldogjoe","steam_id":76561198105543698,"connected_time":8385000000000,"state":"active","ping":75},{"user_id":234,"name":"eThaNos","steam_id":76561198035403279,"connected_time":3053000000000,"state":"active","ping":77},{"user_id":235,"name":"amiapsycho9","steam_id":76561199131002844,"connected_time":3052000000000,"state":"active","ping":118},{"user_id":266,"name":"BearAteMahoney","steam_id":76561198020439356,"connected_time":1695000000000,"state":"active","ping":50},{"user_id":287,"name":"Fixstation","steam_id":76561198003139539,"connected_time":575000000000,"state":"active","ping":60},{"user_id":264,"name":"brian eno enjoyer","steam_id":76561198056467179,"connected_time":1744000000000,"state":"active","ping":101},{"user_id":260,"name":"LFS","steam_id":76561198212605911,"connected_time":1846000000000,"state":"active","ping":134},{"user_id":288,"name":"WannaSeeA","steam_id":76561198097701042,"connected_time":567000000000,"state":"active","ping":93},{"user_id":262,"name":"BirdysScroll","steam_id":76561198316176097,"connected_time":1824000000000,"state":"active","ping":95},{"user_id":263,"name":"EmeraldCola","steam_id":76561198066663687,"connected_time":1787000000000,"state":"active","ping":54},{"user_id":265,"name":"Kav","steam_id":76561198331562055,"connected_time":1722000000000,"state":"active","ping":69},{"user_id":284,"name":"Totally_faraam","steam_id":76561199230162663,"connected_time":808000000000,"state":"active","ping":299},{"user_id":220,"name":"AYE","steam_id":76561198181368101,"connected_time":4036000000000,"state":"active","ping":136},{"user_id":279,"name":"[T]aKer","steam_id":76561198001778013,"connected_time":1262000000000,"state":"active","ping":119},{"user_id":291,"name":"peee pee man","steam_id":76561198044979205,"connected_time":52000000000,"state":"active","ping":66},{"user_id":272,"name":"Alex Jones","steam_id":76561198272738226,"connected_time":1398000000000,"state":"active","ping":63},{"user_id":273,"name":"Infinity","steam_id":76561199134919099,"connected_time":1391000000000,"state":"active","ping":56},{"user_id":274,"name":"notatrip (link in bio)","steam_id":76561198046109327,"connected_time":1383000000000,"state":"active","ping":83},{"user_id":286,"name":"Nuts","steam_id":76561198066494938,"connected_time":737000000000,"state":"active","ping":54},{"user_id":243,"name":"FellowGamer","steam_id":76561198089600392,"connected_time":2931000000000,"state":"active","ping":66},{"user_id":285,"name":"Bilgecrank","steam_id":76561197967191751,"connected_time":745000000000,"state":"active","ping":123},{"user_id":277,"name":"Slashes","steam_id":76561197968573499,"connected_time":1364000000000,"state":"active","ping":42},{"user_id":290,"name":"Lorelius Hogglefart","steam_id":76561198449527009,"connected_time":394000000000,"state":"active","ping":69}]},{"server_id":142,"name":"Uncletopia | São Paulo | 1 | All Maps","name_short":"sao-1","host":"sao-1.br.uncletopia.com","port":27015,"enabled":true,"region":"sa","cc":"br","latitude":-23.533773,"longitude":-46.62529,"reserved":0,"last_update":"0001-01-01T00:00:00Z","name_a2s":"Uncletopia | São Paulo | 1 | All Maps","protocol":17,"map":"koth_lakeside_final","folder":"tf","game":"Team Fortress","app_id":440,"player_count":0,"max_players":24,"Bots":0,"server_type":"Dedicated","server_os":"Linux","password":true,"vac":true,"version":"7757534","steam_id":85568392924469996,"keywords":["cp","nocrits","nodmgspread","uncletopia"],"game_id":440,"stv_port":27016,"stv_name":"Uncletopia | São Paulo | 1 | All Maps | STV","players":null},{"server_id":143,"name":"Uncletopia | São Paulo | 2 | All Maps","name_short":"sao-2","host":"sao-2.br.uncletopia.com","port":27015,"enabled":true,"region":"sa","cc":"br","latitude":-23.533773,"longitude":-46.62529,"reserved":0,"last_update":"0001-01-01T00:00:00Z","name_a2s":"Uncletopia | São Paulo | 2 | All Maps","protocol":17,"map":"koth_cascade","folder":"tf","game":"Team Fortress","app_id":440,"player_count":0,"max_players":24,"Bots":0,"server_type":"Dedicated","server_os":"Linux","password":true,"vac":true,"version":"7757534","steam_id":85568392924485349,"keywords":["cp","nocrits","nodmgspread","uncletopia"],"game_id":440,"stv_port":27016,"stv_name":"Uncletopia | São Paulo | 2 | All Maps | STV","players":null},{"server_id":7,"name":"Uncletopia | Seattle | 1 | All Maps","name_short":"sea-1","host":"sea-1.us.uncletopia.com","port":27015,"enabled":true,"region":"us-west","cc":"us","latitude":47.608013,"longitude":-122.33517,"reserved":0,"last_update":"0001-01-01T00:00:00Z","name_a2s":"Uncletopia | Seattle | 1 | All Maps","protocol":17,"map":"pl_badwater","folder":"tf","game":"Team Fortress","app_id":440,"player_count":24,"max_players":24,"Bots":0,"server_type":"Dedicated","server_os":"Linux","password":true,"vac":true,"version":"7757534","steam_id":85568392924469997,"keywords":["nocrits","nodmgspread","payload","uncletopia"],"game_id":440,"stv_port":27016,"stv_name":"Uncletopia | Seattle | 1 | All Maps | STV","players":[{"user_id":661,"name":"Aardappel","steam_id":76561198030894676,"connected_time":2849000000000,"state":"active","ping":73},{"user_id":637,"name":"〣dust〣 -she/her-","steam_id":76561198045218909,"connected_time":4341000000000,"state":"active","ping":45},{"user_id":691,"name":"Hassium","steam_id":76561198162541373,"connected_time":379000000000,"state":"active","ping":59},{"user_id":681,"name":"Vetresol","steam_id":76561198174828486,"connected_time":1336000000000,"state":"active","ping":46},{"user_id":680,"name":"Tom Skirrett","steam_id":76561198014600788,"connected_time":1637000000000,"state":"active","ping":73},{"user_id":682,"name":"scarfhero","steam_id":76561198257541502,"connected_time":1333000000000,"state":"active","ping":68},{"user_id":662,"name":"Korey","steam_id":76561198210734407,"connected_time":2839000000000,"state":"active","ping":108},{"user_id":685,"name":"Librinox","steam_id":76561198008996805,"connected_time":1293000000000,"state":"active","ping":140},{"user_id":648,"name":"AmiableNebula","steam_id":76561198094306627,"connected_time":3682000000000,"state":"active","ping":75},{"user_id":688,"name":"Gary, 40, soul sucking 9-5","steam_id":76561198073812888,"connected_time":903000000000,"state":"active","ping":44},{"user_id":652,"name":"BLACK MAN FROM JOJO","steam_id":76561198272948471,"connected_time":3286000000000,"state":"active","ping":100},{"user_id":693,"name":"Tungsten","steam_id":76561198312854342,"connected_time":351000000000,"state":"active","ping":65},{"user_id":676,"name":"twitch.tv/ladyloki_ch","steam_id":76561198280150602,"connected_time":1945000000000,"state":"active","ping":58},{"user_id":678,"name":"TROY","steam_id":76561197983852176,"connected_time":1739000000000,"state":"active","ping":75},{"user_id":683,"name":"warrior","steam_id":76561198361999761,"connected_time":1318000000000,"state":"active","ping":80},{"user_id":692,"name":"An old sandwich on the floor!","steam_id":76561198108791583,"connected_time":375000000000,"state":"active","ping":58},{"user_id":677,"name":"ShidFard|RayWilliamJohnsonGamin","steam_id":76561198207800784,"connected_time":1809000000000,"state":"active","ping":51},{"user_id":631,"name":"Gyr0sphere","steam_id":76561198183900735,"connected_time":4877000000000,"state":"active","ping":93},{"user_id":689,"name":"J U K I E","steam_id":76561197962841151,"connected_time":892000000000,"state":"active","ping":45},{"user_id":649,"name":"mooney","steam_id":76561199110622484,"connected_time":3504000000000,"state":"active","ping":76},{"user_id":659,"name":"rat gets the cheese","steam_id":76561198031234032,"connected_time":2921000000000,"state":"active","ping":102},{"user_id":657,"name":"Kuma","steam_id":76561199100813140,"connected_time":2932000000000,"state":"active","ping":84},{"user_id":686,"name":"it's CRUNCH TIME","steam_id":76561198086953456,"connected_time":1284000000000,"state":"active","ping":55},{"user_id":687,"name":"HideOnTate","steam_id":76561198209880837,"connected_time":1017000000000,"state":"active","ping":45}]},{"server_id":119,"name":"Uncletopia | Seattle | 2 | All Maps","name_short":"sea-2","host":"sea-1.us.uncletopia.com","port":27025,"enabled":true,"region":"us-west","cc":"us","latitude":47.608013,"longitude":-122.33517,"reserved":0,"last_update":"0001-01-01T00:00:00Z","name_a2s":"Uncletopia | Seattle | 2 | All Maps","protocol":17,"map":"plr_nightfall_final","folder":"tf","game":"Team Fortress","app_id":440,"player_count":22,"max_players":24,"Bots":0,"server_type":"Dedicated","server_os":"Linux","password":true,"vac":true,"version":"7757534","steam_id":85568392924469998,"keywords":["nocrits","nodmgspread","payload","uncletopia"],"game_id":440,"stv_port":27026,"stv_name":"Uncletopia | Seattle | 2 | All Maps | STV","players":[{"user_id":266,"name":"mmmBoyo","steam_id":76561198821360261,"connected_time":1145000000000,"state":"active","ping":52},{"user_id":292,"name":"bob1444","steam_id":76561198110258432,"connected_time":125000000000,"state":"active","ping":47},{"user_id":267,"name":"MrJokester","steam_id":76561198019101367,"connected_time":1120000000000,"state":"active","ping":62},{"user_id":268,"name":"SuperJude","steam_id":76561198142148639,"connected_time":1109000000000,"state":"active","ping":82},{"user_id":247,"name":"Malmart_Employee","steam_id":76561198320388704,"connected_time":2566000000000,"state":"active","ping":58},{"user_id":288,"name":"joe bidet","steam_id":76561198824509412,"connected_time":403000000000,"state":"active","ping":84},{"user_id":278,"name":"The destroyer of foreskin","steam_id":76561198135275966,"connected_time":889000000000,"state":"active","ping":124},{"user_id":290,"name":"al-Kohol","steam_id":76561197998530400,"connected_time":225000000000,"state":"active","ping":71},{"user_id":269,"name":"Agent__Maxwell","steam_id":76561198096330156,"connected_time":1108000000000,"state":"active","ping":57},{"user_id":186,"name":"doopsies","steam_id":76561198083000867,"connected_time":6523000000000,"state":"active","ping":57},{"user_id":283,"name":"R5-D4","steam_id":76561198025196439,"connected_time":570000000000,"state":"active","ping":49},{"user_id":280,"name":"SanitysEdge","steam_id":76561198130732813,"connected_time":777000000000,"state":"active","ping":78},{"user_id":281,"name":"OwenJAYEH","steam_id":76561197960880103,"connected_time":683000000000,"state":"active","ping":58},{"user_id":289,"name":"Danzuniverse","steam_id":76561198179817943,"connected_time":281000000000,"state":"active","ping":69},{"user_id":275,"name":"Potassium!","steam_id":76561199082921723,"connected_time":928000000000,"state":"active","ping":110},{"user_id":279,"name":"Salmon","steam_id":76561198285883040,"connected_time":831000000000,"state":"active","ping":58},{"user_id":293,"name":"kaeru","steam_id":76561198043789098,"connected_time":76000000000,"state":"active","ping":66},{"user_id":285,"name":"Oomitch","steam_id":76561198071702759,"connected_time":535000000000,"state":"active","ping":54},{"user_id":291,"name":"exephur","steam_id":76561198135763234,"connected_time":196000000000,"state":"active","ping":71},{"user_id":286,"name":"The Wise Guy","steam_id":76561198031080216,"connected_time":517000000000,"state":"active","ping":67},{"user_id":257,"name":"船尾","steam_id":76561198128764422,"connected_time":2341000000000,"state":"active","ping":43},{"user_id":265,"name":"8BitFenix","steam_id":76561198349016671,"connected_time":1238000000000,"state":"active","ping":75}]},{"server_id":406,"name":"Uncletopia | Seattle | 3 | Stopwatch Beta","name_short":"sea-3","host":"sea-1.us.uncletopia.com","port":27035,"enabled":true,"region":"us-west","cc":"us","latitude":47.608013,"longitude":-122.33517,"reserved":0,"last_update":"0001-01-01T00:00:00Z","name_a2s":"Uncletopia | Seattle | 3 | Stopwatch Beta","protocol":17,"map":"koth_highpass","folder":"tf","game":"Team Fortress","app_id":440,"player_count":1,"max_players":24,"Bots":0,"server_type":"Dedicated","server_os":"Linux","password":true,"vac":true,"version":"7757534","steam_id":85568392924515217,"keywords":["cp","nocrits","nodmgspread","uncletopia"],"game_id":440,"stv_port":27036,"stv_name":"Uncletopia | Seattle | 3 | Stopwatch Beta | STV","players":[{"user_id":35,"name":"Calypso","steam_id":76561198082939544,"connected_time":90000000000,"state":"active","ping":69}]},{"server_id":17,"name":"Uncletopia | San Francisco | 1 | All Maps","name_short":"sfo-1","host":"sfo-1.us.uncletopia.com","port":27015,"enabled":true,"region":"us-west","cc":"us","latitude":37.77397,"longitude":-122.4313,"reserved":0,"last_update":"0001-01-01T00:00:00Z","name_a2s":"Uncletopia | San Francisco | 1 | All Maps","protocol":17,"map":"pl_pier","folder":"tf","game":"Team Fortress","app_id":440,"player_count":24,"max_players":24,"Bots":0,"server_type":"Dedicated","server_os":"Linux","password":true,"vac":true,"version":"7757534","steam_id":85568392924469999,"keywords":["nocrits","nodmgspread","payload","uncletopia"],"game_id":440,"stv_port":27016,"stv_name":"Uncletopia | San Francisco | 1 | All Maps | STV","players":[{"user_id":534,"name":"Agent Q","steam_id":76561198830829003,"connected_time":1121000000000,"state":"active","ping":96},{"user_id":526,"name":"Dali","steam_id":76561198077593486,"connected_time":1398000000000,"state":"active","ping":74},{"user_id":543,"name":"Famicon","steam_id":76561198933762147,"connected_time":179000000000,"state":"active","ping":55},{"user_id":542,"name":"Rostovne","steam_id":76561198050293434,"connected_time":222000000000,"state":"active","ping":113},{"user_id":432,"name":"Private.TwinkleToes","steam_id":76561198276974275,"connected_time":6100000000000,"state":"active","ping":87},{"user_id":545,"name":"dale","steam_id":76561198315080273,"connected_time":119000000000,"state":"active","ping":46},{"user_id":540,"name":"Joseph M. Mother.","steam_id":76561199098519324,"connected_time":459000000000,"state":"active","ping":112},{"user_id":533,"name":"Dojoloachfr","steam_id":76561198826298849,"connected_time":1186000000000,"state":"active","ping":123},{"user_id":546,"name":"Room","steam_id":76561199174579733,"connected_time":72000000000,"state":"active","ping":119},{"user_id":547,"name":"Maui","steam_id":76561199019347331,"connected_time":72000000000,"state":"spawning","ping":73},{"user_id":525,"name":"hardfork","steam_id":76561197960958019,"connected_time":1544000000000,"state":"active","ping":73},{"user_id":487,"name":"A UsedNom","steam_id":76561198402832756,"connected_time":4204000000000,"state":"active","ping":45},{"user_id":528,"name":"chanoc","steam_id":76561198026734746,"connected_time":1387000000000,"state":"active","ping":51},{"user_id":516,"name":"Gaming","steam_id":76561198327632113,"connected_time":2009000000000,"state":"active","ping":71},{"user_id":548,"name":"DonJamón","steam_id":76561198319090131,"connected_time":49000000000,"state":"active","ping":70},{"user_id":541,"name":"omugai_","steam_id":76561198086481768,"connected_time":439000000000,"state":"active","ping":46},{"user_id":549,"name":"maxresdefault","steam_id":76561198185980055,"connected_time":32000000000,"state":"active","ping":91},{"user_id":513,"name":"DrStarBucksCoffee","steam_id":76561198037372470,"connected_time":2300000000000,"state":"active","ping":75},{"user_id":550,"name":"AAAAAAAAAAAAAAAAAAAAAAAAAAAAAAA","steam_id":76561198125467937,"connected_time":7000000000,"state":"spawning","ping":45},{"user_id":531,"name":"Puke Skyfucker","steam_id":76561198012846213,"connected_time":1287000000000,"state":"active","ping":121},{"user_id":496,"name":"jakob","steam_id":76561198094859796,"connected_time":3571000000000,"state":"active","ping":134},{"user_id":539,"name":"swag","steam_id":76561198094615739,"connected_time":677000000000,"state":"active","ping":85},{"user_id":532,"name":"Matte :)","steam_id":76561198070631073,"connected_time":1227000000000,"state":"active","ping":45},{"user_id":512,"name":"Kxd","steam_id":76561198083641548,"connected_time":2376000000000,"state":"active","ping":113}]},{"server_id":18,"name":"Uncletopia | San Francisco | 2 | All Maps","name_short":"sfo-2","host":"sfo-1.us.uncletopia.com","port":27025,"enabled":true,"region":"us-west","cc":"us","latitude":37.77397,"longitude":-122.4313,"reserved":0,"last_update":"0001-01-01T00:00:00Z","name_a2s":"Uncletopia | San Francisco | 2 | All Maps","protocol":17,"map":"koth_lakeside_final","folder":"tf","game":"Team Fortress","app_id":440,"player_count":24,"max_players":24,"Bots":0,"server_type":"Dedicated","server_os":"Linux","password":true,"vac":true,"version":"7757534","steam_id":85568392924470000,"keywords":["cp","nocrits","nodmgspread","uncletopia"],"game_id":440,"stv_port":27026,"stv_name":"Uncletopia | San Francisco | 2 | All Maps | STV","players":[{"user_id":115,"name":"Priest","steam_id":76561197995048109,"connected_time":1536000000000,"state":"active","ping":101},{"user_id":131,"name":"WalkinMan","steam_id":76561198047941142,"connected_time":108000000000,"state":"active","ping":34},{"user_id":33,"name":"tweet","steam_id":76561198166515735,"connected_time":7040000000000,"state":"active","ping":48},{"user_id":123,"name":"tum","steam_id":76561198084712019,"connected_time":833000000000,"state":"active","ping":59},{"user_id":80,"name":"jrmadmallard","steam_id":76561198275994616,"connected_time":5509000000000,"state":"active","ping":87},{"user_id":51,"name":"Sjsparrow","steam_id":76561197995352435,"connected_time":6753000000000,"state":"active","ping":97},{"user_id":118,"name":"Nezumi Otokonoko","steam_id":76561198050083859,"connected_time":1170000000000,"state":"active","ping":53},{"user_id":100,"name":".9 lg","steam_id":76561198092238353,"connected_time":3737000000000,"state":"active","ping":73},{"user_id":94,"name":"Goldbug","steam_id":76561198025221202,"connected_time":4167000000000,"state":"active","ping":58},{"user_id":95,"name":"WhackyOrc","steam_id":76561199470020355,"connected_time":4146000000000,"state":"active","ping":116},{"user_id":124,"name":"LLiimit","steam_id":76561198816196238,"connected_time":626000000000,"state":"active","ping":59},{"user_id":125,"name":"Ellis","steam_id":76561198993634489,"connected_time":588000000000,"state":"active","ping":60},{"user_id":116,"name":"SquirrelAway™","steam_id":76561197998828619,"connected_time":1406000000000,"state":"active","ping":81},{"user_id":113,"name":"The Horny","steam_id":76561198863639459,"connected_time":2082000000000,"state":"active","ping":73},{"user_id":110,"name":"Hobbes","steam_id":76561198087956236,"connected_time":2579000000000,"state":"active","ping":60},{"user_id":88,"name":"Soap","steam_id":76561197994893383,"connected_time":5250000000000,"state":"active","ping":68},{"user_id":103,"name":"Freeza","steam_id":76561198050341005,"connected_time":3683000000000,"state":"active","ping":34},{"user_id":112,"name":"HAT-WEARING™ Maggot Gamer Cat","steam_id":76561197973992705,"connected_time":2556000000000,"state":"active","ping":57},{"user_id":117,"name":"doopsuiker","steam_id":76561198025916703,"connected_time":1218000000000,"state":"active","ping":96},{"user_id":114,"name":"eryn 🗺","steam_id":76561198004433070,"connected_time":1968000000000,"state":"active","ping":93},{"user_id":119,"name":"Vierzehn","steam_id":76561198070479927,"connected_time":946000000000,"state":"active","ping":117},{"user_id":132,"name":"Sir Nope (TSS)","steam_id":76561198035935649,"connected_time":77000000000,"state":"active","ping":63},{"user_id":129,"name":"nhoj_","steam_id":76561198048003380,"connected_time":256000000000,"state":"active","ping":45},{"user_id":86,"name":"Bobby Ray","steam_id":76561198044131188,"connected_time":5316000000000,"state":"active","ping":72}]},{"server_id":19,"name":"Uncletopia | San Francisco | 3 | Stopwatch Beta","name_short":"sfo-3","host":"sfo-1.us.uncletopia.com","port":27035,"enabled":true,"region":"us-west","cc":"us","latitude":37.77397,"longitude":-122.4313,"reserved":0,"last_update":"0001-01-01T00:00:00Z","name_a2s":"Uncletopia | San Francisco | 3 | Stopwatch Beta","protocol":17,"map":"pl_borneo","folder":"tf","game":"Team Fortress","app_id":440,"player_count":0,"max_players":24,"Bots":0,"server_type":"Dedicated","server_os":"Linux","password":true,"vac":true,"version":"7757534","steam_id":85568392924742824,"keywords":["nocrits","nodmgspread","payload","uncletopia"],"game_id":440,"stv_port":27036,"stv_name":"Uncletopia | San Francisco | 3 | Stopwatch Beta | STV","players":null},{"server_id":20,"name":"Uncletopia | San Francisco | 4 | Community","name_short":"sfo-4","host":"sfo-1.us.uncletopia.com","port":27045,"enabled":true,"region":"us-west","cc":"us","latitude":37.77397,"longitude":-122.4313,"reserved":0,"last_update":"0001-01-01T00:00:00Z","name_a2s":"Uncletopia | San Francisco | 4 | Community","protocol":17,"map":"workshop/koth_ashville_final.ugc2130459942","folder":"tf","game":"Team Fortress","app_id":440,"player_count":0,"max_players":24,"Bots":0,"server_type":"Dedicated","server_os":"Linux","password":true,"vac":true,"version":"7757534","steam_id":85568392924742826,"keywords":["cp","nocrits","nodmgspread","uncletopia"],"game_id":440,"stv_port":27046,"stv_name":"Uncletopia | San Francisco | 4 | Community | STV","players":null},{"server_id":141,"name":"Uncletopia | Sydney | 1 | All Maps","name_short":"syd-1","host":"syd-1.au.uncletopia.com","port":27015,"enabled":true,"region":"au","cc":"au","latitude":-33.865143,"longitude":151.2099,"reserved":0,"last_update":"0001-01-01T00:00:00Z","name_a2s":"Uncletopia | Sydney | 1 | All Maps","protocol":17,"map":"pl_badwater","folder":"tf","game":"Team Fortress","app_id":440,"player_count":1,"max_players":24,"Bots":0,"server_type":"Dedicated","server_os":"Linux","password":true,"vac":true,"version":"7757534","steam_id":85568392924470001,"keywords":["nocrits","nodmgspread","payload","uncletopia"],"game_id":440,"stv_port":27016,"stv_name":"Uncletopia | Sydney | 1 | All Maps | STV","players":[{"user_id":14,"name":"normans on sabbatical honey","steam_id":76561198082423230,"connected_time":4000000000,"state":"spawning","ping":73}]},{"server_id":123,"name":"Uncletopia | Sydney | 2 | All Maps","name_short":"syd-2","host":"syd-1.au.uncletopia.com","port":27025,"enabled":true,"region":"au","cc":"au","latitude":-33.865143,"longitude":151.2099,"reserved":0,"last_update":"0001-01-01T00:00:00Z","name_a2s":"Uncletopia | Sydney | 2 | All Maps","protocol":17,"map":"koth_highpass","folder":"tf","game":"Team Fortress","app_id":440,"player_count":6,"max_players":24,"Bots":0,"server_type":"Dedicated","server_os":"Linux","password":true,"vac":true,"version":"7757534","steam_id":85568392924470002,"keywords":["cp","nocrits","nodmgspread","uncletopia"],"game_id":440,"stv_port":27026,"stv_name":"Uncletopia | Sydney | 2 | All Maps | STV","players":[{"user_id":33,"name":"Nutty Sandvich","steam_id":76561198089548531,"connected_time":2464000000000,"state":"active","ping":98},{"user_id":41,"name":"banan consumer","steam_id":76561199446773766,"connected_time":847000000000,"state":"active","ping":91},{"user_id":42,"name":"Meihronias","steam_id":76561199163845108,"connected_time":201000000000,"state":"active","ping":70},{"user_id":40,"name":"My Singing Monsters WR Holder","steam_id":76561198189663681,"connected_time":1516000000000,"state":"active","ping":55},{"user_id":38,"name":"bread","steam_id":76561199405764106,"connected_time":1983000000000,"state":"active","ping":38},{"user_id":43,"name":"ChairMonster26","steam_id":76561198959787682,"connected_time":138000000000,"state":"active","ping":65}]},{"server_id":395,"name":"Uncletopia | Sydney | 3 | All Maps","name_short":"syd-3","host":"syd-1.au.uncletopia.com","port":27035,"enabled":true,"region":"au","cc":"au","latitude":-33.865143,"longitude":151.2099,"reserved":0,"last_update":"0001-01-01T00:00:00Z","name_a2s":"Uncletopia | Sydney | 3 | All Maps","protocol":17,"map":"pl_badwater","folder":"tf","game":"Team Fortress","app_id":440,"player_count":21,"max_players":24,"Bots":0,"server_type":"Dedicated","server_os":"Linux","password":true,"vac":true,"version":"7757534","steam_id":85568392925194467,"keywords":["nocrits","nodmgspread","payload","uncletopia"],"game_id":440,"stv_port":27036,"stv_name":"Uncletopia | Sydney | 3 | All Maps | STV","players":[{"user_id":38,"name":"soupy","steam_id":76561198073734936,"connected_time":2613000000000,"state":"active","ping":84},{"user_id":74,"name":"monkeyman536","steam_id":76561197997717737,"connected_time":72000000000,"state":"active","ping":177},{"user_id":75,"name":"♥ Sharpy \u003e v \u003c","steam_id":76561198091613743,"connected_time":54000000000,"state":"spawning","ping":130},{"user_id":41,"name":"iesApac","steam_id":76561198176708635,"connected_time":2196000000000,"state":"active","ping":59},{"user_id":33,"name":"Motormouth","steam_id":76561197980851839,"connected_time":2876000000000,"state":"active","ping":86},{"user_id":42,"name":"Nyanderthal","steam_id":76561198843075573,"connected_time":2191000000000,"state":"active","ping":60},{"user_id":29,"name":"bunnies002","steam_id":76561199368512129,"connected_time":3160000000000,"state":"active","ping":75},{"user_id":76,"name":"seiran","steam_id":76561198880907232,"connected_time":24000000000,"state":"active","ping":99},{"user_id":63,"name":"monnickev","steam_id":76561198252587162,"connected_time":1107000000000,"state":"active","ping":45},{"user_id":46,"name":"Stimski","steam_id":76561198015332236,"connected_time":1972000000000,"state":"active","ping":61},{"user_id":56,"name":"V1","steam_id":76561199116994924,"connected_time":1367000000000,"state":"active","ping":73},{"user_id":64,"name":"Drago meteor bomb","steam_id":76561198031869152,"connected_time":1100000000000,"state":"active","ping":83},{"user_id":57,"name":"shupah","steam_id":76561198136792635,"connected_time":1343000000000,"state":"active","ping":30},{"user_id":51,"name":"lofty","steam_id":76561198380588357,"connected_time":1671000000000,"state":"active","ping":70},{"user_id":58,"name":"Justin Roilands Number 1 Fan","steam_id":76561198878584642,"connected_time":1289000000000,"state":"active","ping":66},{"user_id":66,"name":"SaltierThanYou","steam_id":76561198444395188,"connected_time":983000000000,"state":"active","ping":80},{"user_id":62,"name":"Dipmouse45","steam_id":76561198955576256,"connected_time":1158000000000,"state":"active","ping":73},{"user_id":65,"name":"Fuzzy","steam_id":76561198081319798,"connected_time":1049000000000,"state":"active","ping":52},{"user_id":67,"name":"chlamdia","steam_id":76561198080199351,"connected_time":956000000000,"state":"active","ping":44},{"user_id":71,"name":"hairline high as a city skyline","steam_id":76561198096251579,"connected_time":272000000000,"state":"active","ping":82},{"user_id":72,"name":"ADUCK","steam_id":76561198249887912,"connected_time":205000000000,"state":"active","ping":57}]},{"server_id":396,"name":"Uncletopia | Sydney | 4 | All Maps","name_short":"syd-4","host":"syd-1.au.uncletopia.com","port":27045,"enabled":true,"region":"au","cc":"au","latitude":-33.865143,"longitude":151.2099,"reserved":0,"last_update":"0001-01-01T00:00:00Z","name_a2s":"Uncletopia | Sydney | 4 | All Maps","protocol":17,"map":"koth_lakeside_final","folder":"tf","game":"Team Fortress","app_id":440,"player_count":0,"max_players":24,"Bots":0,"server_type":"Dedicated","server_os":"Linux","password":true,"vac":true,"version":"7757534","steam_id":85568392925397958,"keywords":["cp","nocrits","nodmgspread","uncletopia"],"game_id":440,"stv_port":27046,"stv_name":"Uncletopia | Sydney | 4 | All Maps | STV","players":null},{"server_id":58,"name":"Uncletopia | Sydney | 5 | Stopwatch Beta","name_short":"syd-5","host":"syd-1.au.uncletopia.com","port":27055,"enabled":true,"region":"au","cc":"au","latitude":-33.865143,"longitude":151.2099,"reserved":0,"last_update":"0001-01-01T00:00:00Z","name_a2s":"Uncletopia | Sydney | 5 | Stopwatch Beta","protocol":17,"map":"koth_highpass","folder":"tf","game":"Team Fortress","app_id":440,"player_count":0,"max_players":24,"Bots":0,"server_type":"Dedicated","server_os":"Linux","password":true,"vac":true,"version":"7757534","steam_id":85568392925397959,"keywords":["cp","nocrits","nodmgspread","uncletopia"],"game_id":440,"stv_port":27056,"stv_name":"Uncletopia | Sydney | 5 | Stopwatch Beta | STV","players":null},{"server_id":59,"name":"Uncletopia | Sydney | 6 | Community","name_short":"syd-6","host":"syd-1.au.uncletopia.com","port":27065,"enabled":true,"region":"au","cc":"au","latitude":-33.865143,"longitude":151.2099,"reserved":0,"last_update":"0001-01-01T00:00:00Z","name_a2s":"Uncletopia | Sydney | 6 | Community","protocol":17,"map":"workshop/cp_villa_b19.ugc2113052569","folder":"tf","game":"Team Fortress","app_id":440,"player_count":0,"max_players":24,"Bots":0,"server_type":"Dedicated","server_os":"Linux","password":true,"vac":true,"version":"7757534","steam_id":85568392925397960,"keywords":["cp","nocrits","nodmgspread","uncletopia"],"game_id":440,"stv_port":27066,"stv_name":"Uncletopia | Sydney | 6 | Community | STV","players":null},{"server_id":49,"name":"Uncletopia | Warsaw | 1 | All Maps","name_short":"waw-1","host":"waw-1.pl.uncletopia.com","port":27015,"enabled":true,"region":"eu","cc":"pl","latitude":52.2297,"longitude":21.017532,"reserved":0,"last_update":"0001-01-01T00:00:00Z","name_a2s":"","protocol":0,"map":"","folder":"","game":"","app_id":0,"player_count":0,"max_players":0,"Bots":0,"server_type":"","server_os":"","password":false,"vac":false,"version":"","steam_id":0,"keywords":null,"game_id":0,"stv_port":0,"stv_name":"","players":null},{"server_id":50,"name":"Uncletopia | Warsaw | 2 | All Maps","name_short":"waw-2","host":"waw-1.pl.uncletopia.com","port":27025,"enabled":true,"region":"eu","cc":"pl","latitude":52.2297,"longitude":21.017532,"reserved":0,"last_update":"0001-01-01T00:00:00Z","name_a2s":"Uncletopia | Warsaw | 2 | All Maps","protocol":17,"map":"pl_badwater","folder":"tf","game":"Team Fortress","app_id":440,"player_count":0,"max_players":24,"Bots":0,"server_type":"Dedicated","server_os":"Linux","password":true,"vac":true,"version":"7757534","steam_id":85568392925397851,"keywords":["nocrits","nodmgspread","payload","uncletopia"],"game_id":440,"stv_port":27026,"stv_name":"Uncletopia | Warsaw | 2 | All Maps | STV","players":null},{"server_id":51,"name":"Uncletopia | Warsaw | 3 | All Maps","name_short":"waw-3","host":"waw-1.pl.uncletopia.com","port":27035,"enabled":true,"region":"eu","cc":"pl","latitude":52.2297,"longitude":21.017532,"reserved":0,"last_update":"0001-01-01T00:00:00Z","name_a2s":"Uncletopia | Warsaw | 3 | All Maps","protocol":17,"map":"pl_badwater","folder":"tf","game":"Team Fortress","app_id":440,"player_count":0,"max_players":24,"Bots":0,"server_type":"Dedicated","server_os":"Linux","password":true,"vac":true,"version":"7757534","steam_id":85568392925397852,"keywords":["nocrits","nodmgspread","payload","uncletopia"],"game_id":440,"stv_port":27036,"stv_name":"Uncletopia | Warsaw | 3 | All Maps | STV","players":null},{"server_id":52,"name":"Uncletopia | Warsaw | 4 | All Maps","name_short":"waw-4","host":"waw-1.pl.uncletopia.com","port":27045,"enabled":true,"region":"eu","cc":"pl","latitude":52.2297,"longitude":21.017532,"reserved":0,"last_update":"0001-01-01T00:00:00Z","name_a2s":"Uncletopia | Warsaw | 4 | All Maps","protocol":17,"map":"cp_mountainlab","folder":"tf","game":"Team Fortress","app_id":440,"player_count":0,"max_players":24,"Bots":0,"server_type":"Dedicated","server_os":"Linux","password":true,"vac":true,"version":"7757534","steam_id":85568392925397853,"keywords":["cp","nocrits","nodmgspread","uncletopia"],"game_id":440,"stv_port":27046,"stv_name":"Uncletopia | Warsaw | 4 | All Maps | STV","players":null},{"server_id":53,"name":"Uncletopia | Warsaw | 5 | Stopwatch Beta","name_short":"waw-5","host":"waw-1.pl.uncletopia.com","port":27055,"enabled":true,"region":"eu","cc":"pl","latitude":52.2297,"longitude":21.017532,"reserved":0,"last_update":"0001-01-01T00:00:00Z","name_a2s":"Uncletopia | Warsaw | 5 | Stopwatch Beta","protocol":17,"map":"pl_barnblitz","folder":"tf","game":"Team Fortress","app_id":440,"player_count":0,"max_players":24,"Bots":0,"server_type":"Dedicated","server_os":"Linux","password":true,"vac":true,"version":"7757534","steam_id":85568392925397854,"keywords":["nocrits","nodmgspread","payload","uncletopia"],"game_id":440,"stv_port":27056,"stv_name":"Uncletopia | Warsaw | 5 | Stopwatch Beta | STV","players":null},{"server_id":54,"name":"Uncletopia | Warsaw | 6 | Community","name_short":"waw-6","host":"waw-1.pl.uncletopia.com","port":27065,"enabled":true,"region":"eu","cc":"pl","latitude":52.2297,"longitude":21.017532,"reserved":0,"last_update":"0001-01-01T00:00:00Z","name_a2s":"Uncletopia | Warsaw | 6 | Community","protocol":17,"map":"workshop/pl_barnblitz_pro7.ugc582280235","folder":"tf","game":"Team Fortress","app_id":440,"player_count":0,"max_players":24,"Bots":0,"server_type":"Dedicated","server_os":"Linux","password":true,"vac":true,"version":"7757534","steam_id":85568392925397856,"keywords":["nocrits","nodmgspread","payload","uncletopia"],"game_id":440,"stv_port":27066,"stv_name":"Uncletopia | Warsaw | 6 | Community | STV","players":null}]}