{"status":true,"message":"","result":[{"server_id":9,"name":"Uncletopia | Atlanta | 1 | All Maps","name_short":"atl-1","host":"atl-1.us.uncletopia.com","port":27015,"enabled":true,"region":"us-east","cc":"us","latitude":33.753746,"longitude":-84.38633,"reserved":0,"last_update":"0001-01-01T00:00:00Z","name_a2s":"Uncletopia | Atlanta | 1 | All Maps","protocol":17,"map":"pl_pier","folder":"tf","game":"Team Fortress","app_id":440,"player_count":0,"max_players":24,"Bots":0,"server_type":"Dedicated","server_os":"Linux","password":true,"vac":true,"version":"7961495","steam_id":85568392924469982,"keywords":["nocrits","nodmgspread","payload","uncletopia"],"game_id":440,"stv_port":27016,"stv_name":"Uncletopia | Atlanta | 1 | All Maps | STV","players":null},{"server_id":104,"name":"Uncletopia | Atlanta | 2 | All Maps","name_short":"atl-2","host":"atl-1.us.uncletopia.com","port":27025,"enabled":true,"region":"us-east","cc":"us","latitude":33.753746,"longitude":-84.38633,"reserved":0,"last_update":"0001-01-01T00:00:00Z","name_a2s":"Uncletopia | Atlanta | 2 | All Maps","protocol":17,"map":"pl_snowycoast","folder":"tf","game":"Team Fortress","app_id":440,"player_count":19,"max_players":24,"Bots":0,"server_type":"Dedicated","server_os":"Linux","password":true,"vac":true,"version":"7961495","steam_id":85568392924469983,"keywords":["nocrits","nodmgspread","payload","uncletopia"],"game_id":440,"stv_port":27026,"stv_name":"Uncletopia | Atlanta | 2 | All Maps | STV","players":null},{"server_id":400,"name":"Uncletopia | Atlanta | 3 | Stopwatch","name_short":"atl-3","host":"atl-1.us.uncletopia.com","port":27035,"enabled":true,"region":"us-east","cc":"us","latitude":33.753746,"longitude":-84.38633,"reserved":0,"last_update":"0001-01-01T00:00:00Z","name_a2s":"Uncletopia | Atlanta | 3 | Stopwatch","protocol":17,"map":"koth_clearcut_b15","folder":"tf","game":"Team Fortress","app_id":440,"player_count":0,"max_players":24,"Bots":0,"server_type":"Dedicated","server_os":"Linux","password":true,"vac":true,"version":"7961495","steam_id":85568392924515187,"keywords":["cp","nocrits","nodmgspread","uncletopia"],"game_id":440,"stv_port":27036,"stv_name":"Uncletopia | Atlanta | 3 | Stopwatch | STV","players":null},{"server_id":401,"name":"Uncletopia | Atlanta | 4 | Community","name_short":"atl-4","host":"atl-1.us.uncletopia.com","port":27045,"enabled":true,"region":"us-east","cc":"us","latitude":33.753746,"longitude":-84.38633,"reserved":0,"last_update":"0001-01-01T00:00:00Z","name_a2s":"Uncletopia | Atlanta | 4 | Community","protocol":17,"map":"koth_ramjam_rc1","folder":"tf","game":"Team Fortress","app_id":440,"player_count":0,"max_players":24,"Bots":0,"server_type":"Dedicated","server_os":"Linux","password":true,"vac":true,"version":"7961495","steam_id":85568392924515188,"keywords":["cp","nocrits","nodmgspread","uncletopia"],"game_id":440,"stv_port":27046,"stv_name":"Uncletopia | Atlanta | 4 | Community | STV","players":null},{"server_id":2,"name":"Uncletopia | Chicago | 1 | All Maps","name_short":"chi-1","host":"chi-1.us.uncletopia.com","port":27015,"enabled":true,"region":"us-central","cc":"us","latitude":41.881832,"longitude":-87.62318,"reserved":0,"last_update":"0001-01-01T00:00:00Z","name_a2s":"Uncletopia | Chicago | 1 | All Maps","protocol":17,"map":"koth_viaduct","folder":"tf","game":"Team Fortress","app_id":440,"player_count":24,"max_players":24,"Bots":0,"server_type":"Dedicated","server_os":"Linux","password":true,"vac":true,"version":"7961495","steam_id":85568392924469984,"keywords":["cp","nocrits","nodmgspread","uncletopia"],"game_id":440,"stv_port":27016,"stv_name":"Uncletopia | Chicago | 1 | All Maps | STV","players":[{"user_id":770,"name":"Ecliptica","steam_id":76561198171951333,"connected_time":750000000000,"state":"active","ping":89},{"user_id":755,"name":"Raccoon Wizard","steam_id":76561198072562591,"connected_time":2524000000000,"state":"active","ping":93},{"user_id":761,"name":"Kaze","steam_id":76561199062949963,"connected_time":1628000000000,"state":"active","ping":78},{"user_id":776,"name":"Rudy","steam_id":76561198013456828,"connected_time":263000000000,"state":"active","ping":69},{"user_id":720,"name":"Melody","steam_id":76561198407789232,"connected_time":5347000000000,"state":"active","ping":117},{"user_id":782,"name":"CoconutRice","steam_id":76561198114909164,"connected_time":45000000000,"state":"spawning","ping":87},{"user_id":774,"name":"Frontier Psychiatrist","steam_id":76561198038689088,"connected_time":346000000000,"state":"active","ping":83},{"user_id":764,"name":"hej","steam_id":76561198110530761,"connected_time":1478000000000,"state":"active","ping":136},{"user_id":685,"name":"i suffer from ligma","steam_id":76561199158496518,"connected_time":9177000000000,"state":"active","ping":128},{"user_id":754,"name":"DrFlapJack","steam_id":76561199075410469,"connected_time":2734000000000,"state":"active","ping":108},{"user_id":772,"name":"H.","steam_id":76561198074951179,"connected_time":410000000000,"state":"active","ping":100},{"user_id":771,"name":"Isilawuli","steam_id":76561198084150503,"connected_time":627000000000,"state":"active","ping":60},{"user_id":781,"name":"shai","steam_id":76561198144909435,"connected_time":98000000000,"state":"active","ping":111},{"user_id":777,"name":"Arab","steam_id":76561198284164847,"connected_time":247000000000,"state":"active","ping":74},{"user_id":706,"name":"Octto","steam_id":76561198070124921,"connected_time":7109000000000,"state":"active","ping":51},{"user_id":736,"name":"The Foolish Samurai","steam_id":76561198094494945,"connected_time":3684000000000,"state":"active","ping":108},{"user_id":779,"name":"DBosch","steam_id":76561198064290290,"connected_time":216000000000,"state":"active","ping":113},{"user_id":765,"name":"Khaicchi ‚ô•","steam_id":76561198104454754,"connected_time":1464000000000,"state":"active","ping":172},{"user_id":768,"name":"Ripping Heads","steam_id":76561198006146062,"connected_time":1028000000000,"state":"active","ping":74},{"user_id":783,"name":"Homo Ejectus","steam_id":76561197968701952,"connected_time":29000000000,"state":"active","ping":77},{"user_id":649,"name":"Kreld","steam_id":76561198047794615,"connected_time":11699000000000,"state":"active","ping":156},{"user_id":748,"name":"FRANKIEonPCP","steam_id":76561198208451949,"connected_time":3110000000000,"state":"active","ping":82},{"user_id":750,"name":"CheesyBeanDip","steam_id":76561198044007587,"connected_time":3008000000000,"state":"active","ping":82},{"user_id":780,"name":"BuncusBeffer","steam_id":76561198285936616,"connected_time":209000000000,"state":"active","ping":105}]},{"server_id":106,"name":"Uncletopia | Chicago | 2 | All Maps","name_short":"chi-2","host":"chi-1.us.uncletopia.com","port":27025,"enabled":true,"region":"us-central","cc":"us","latitude":41.881832,"longitude":-87.62318,"reserved":0,"last_update":"0001-01-01T00:00:00Z","name_a2s":"Uncletopia | Chicago | 2 | All Maps","protocol":17,"map":"cp_dustbowl","folder":"tf","game":"Team Fortress","app_id":440,"player_count":20,"max_players":24,"Bots":0,"server_type":"Dedicated","server_os":"Linux","password":true,"vac":true,"version":"7961495","steam_id":85568392924469985,"keywords":["cp","nocrits","nodmgspread","uncletopia"],"game_id":440,"stv_port":27026,"stv_name":"Uncletopia | Chicago | 2 | All Maps | STV","players":[{"user_id":662,"name":"egg","steam_id":76561198092186935,"connected_time":632000000000,"state":"active","ping":131},{"user_id":646,"name":"Trader Yohan","steam_id":76561198048956010,"connected_time":1652000000000,"state":"active","ping":107},{"user_id":638,"name":"Joebobio","steam_id":76561198024442760,"connected_time":2212000000000,"state":"active","ping":68},{"user_id":650,"name":"luna11701","steam_id":76561198978967837,"connected_time":1498000000000,"state":"active","ping":74},{"user_id":595,"name":"Galactamarx","steam_id":76561198028065755,"connected_time":4736000000000,"state":"active","ping":92},{"user_id":651,"name":"Brown_Dream","steam_id":76561198975766145,"connected_time":986000000000,"state":"active","ping":82},{"user_id":633,"name":"aaron","steam_id":76561198113364714,"connected_time":2458000000000,"state":"active","ping":59},{"user_id":579,"name":"Castroy","steam_id":76561198108160099,"connected_time":5762000000000,"state":"active","ping":69},{"user_id":657,"name":"jerma but crying and lesbian","steam_id":76561198110661425,"connected_time":800000000000,"state":"active","ping":48},{"user_id":649,"name":"Deadly_Ape","steam_id":76561199274794598,"connected_time":1514000000000,"state":"active","ping":78},{"user_id":622,"name":"Flayre","steam_id":76561198803036389,"connected_time":2690000000000,"state":"active","ping":68},{"user_id":636,"name":"The Tower of Pizza","steam_id":76561198043256782,"connected_time":2330000000000,"state":"active","ping":75},{"user_id":658,"name":"spaghetticonfetti","steam_id":76561198069600113,"connected_time":781000000000,"state":"active","ping":46},{"user_id":640,"name":":)","steam_id":76561198093921290,"connected_time":1950000000000,"state":"active","ping":48},{"user_id":625,"name":"Rat King (Deposed)","steam_id":76561198271907916,"connected_time":2677000000000,"state":"active","ping":47},{"user_id":634,"name":"Goober","steam_id":76561198988863807,"connected_time":2438000000000,"state":"active","ping":76},{"user_id":635,"name":"Mr_SoulSlasher","steam_id":76561198936267613,"connected_time":2396000000000,"state":"active","ping":114},{"user_id":600,"name":"Thequirka","steam_id":76561198968058652,"connected_time":4678000000000,"state":"active","ping":129},{"user_id":656,"name":"Chezburgures","steam_id":76561198173043730,"connected_time":827000000000,"state":"active","ping":92},{"user_id":667,"name":"PaD_Ding","steam_id":76561198831202965,"connected_time":535000000000,"state":"active","ping":169}]},{"server_id":402,"name":"Uncletopia | Chicago | 3 | All Maps","name_short":"chi-3","host":"chi-1.us.uncletopia.com","port":27035,"enabled":true,"region":"us-central","cc":"us","latitude":41.881832,"longitude":-87.62318,"reserved":0,"last_update":"0001-01-01T00:00:00Z","name_a2s":"Uncletopia | Chicago | 3 | All Maps","protocol":17,"map":"koth_nucleus","folder":"tf","game":"Team Fortress","app_id":440,"player_count":15,"max_players":24,"Bots":0,"server_type":"Dedicated","server_os":"Linux","password":true,"vac":true,"version":"7961495","steam_id":85568392924515191,"keywords":["cp","nocrits","nodmgspread","uncletopia"],"game_id":440,"stv_port":27036,"stv_name":"Uncletopia | Chicago | 3 | All Maps | STV","players":[{"user_id":286,"name":"Flower Goat","steam_id":76561198096572920,"connected_time":2028000000000,"state":"active","ping":70},{"user_id":264,"name":"Wild_Rumpus","steam_id":76561198066393719,"connected_time":4370000000000,"state":"active","ping":44},{"user_id":292,"name":"I Hump teddy bears","steam_id":76561198804657800,"connected_time":956000000000,"state":"active","ping":60},{"user_id":288,"name":"zacksofplymouth üü† „ÉÑ","steam_id":76561198119679320,"connected_time":1444000000000,"state":"active","ping":46},{"user_id":306,"name":"jebs strognest soljer","steam_id":76561198056622157,"connected_time":92000000000,"state":"active","ping":61},{"user_id":299,"name":"Lunari","steam_id":76561198272039119,"connected_time":407000000000,"state":"active","ping":42},{"user_id":265,"name":"o)))))))))))))","steam_id":76561198053967778,"connected_time":3763000000000,"state":"active","ping":59},{"user_id":296,"name":"‚òÇ","steam_id":76561198001263590,"connected_time":626000000000,"state":"active","ping":81},{"user_id":295,"name":"‚ù§Ô∏èShady","steam_id":76561198125947844,"connected_time":794000000000,"state":"active","ping":89},{"user_id":298,"name":"Transgender Spider Priestess","steam_id":76561198111286397,"connected_time":533000000000,"state":"active","ping":103},{"user_id":301,"name":"SwaggerEggs","steam_id":76561199057357191,"connected_time":330000000000,"state":"active","ping":110},{"user_id":302,"name":"serious","steam_id":76561198040671133,"connected_time":277000000000,"state":"active","ping":57},{"user_id":307,"name":"PROPERTY DAMAGE","steam_id":76561198076693017,"connected_time":13000000000,"state":"spawning","ping":146},{"user_id":304,"name":"Danmar33","steam_id":76561198056453091,"connected_time":225000000000,"state":"active","ping":45},{"user_id":305,"name":"cozy","steam_id":76561199044037628,"connected_time":186000000000,"state":"active","ping":66}]},{"server_id":403,"name":"Uncletopia | Chicago | 4 | All Maps","name_short":"chi-4","host":"chi-1.us.uncletopia.com","port":27045,"enabled":true,"region":"us-central","cc":"us","latitude":41.881832,"longitude":-87.62318,"reserved":0,"last_update":"0001-01-01T00:00:00Z","name_a2s":"Uncletopia | Chicago | 4 | All Maps","protocol":17,"map":"koth_lakeside_final","folder":"tf","game":"Team Fortress","app_id":440,"player_count":0,"max_players":24,"Bots":0,"server_type":"Dedicated","server_os":"Linux","password":true,"vac":true,"version":"7961495","steam_id":85568392924515193,"keywords":["cp","nocrits","nodmgspread","uncletopia"],"game_id":440,"stv_port":27046,"stv_name":"Uncletopia | Chicago | 4 | All Maps | STV","players":null},{"server_id":36,"name":"Uncletopia | Chicago | 5 | All Maps","name_short":"chi-5","host":"chi-2.us.uncletopia.com","port":27015,"enabled":true,"region":"us-central","cc":"us","latitude":41.881832,"longitude":-87.62318,"reserved":0,"last_update":"0001-01-01T00:00:00Z","name_a2s":"Uncletopia | Chicago | 5 | All Maps","protocol":17,"map":"cp_dustbowl","folder":"tf","game":"Team Fortress","app_id":440,"player_count":0,"max_players":24,"Bots":0,"server_type":"Dedicated","server_os":"Linux","password":true,"vac":true,"version":"7961495","steam_id":85568392924866362,"keywords":["cp","nocrits","nodmgspread","uncletopia"],"game_id":440,"stv_port":27016,"stv_name":"Uncletopia | Chicago | 5 | All Maps | STV","players":null},{"server_id":37,"name":"Uncletopia | Chicago | 6 | All Maps","name_short":"chi-6","host":"chi-2.us.uncletopia.com","port":27025,"enabled":true,"region":"us-central","cc":"us","latitude":41.881832,"longitude":-87.62318,"reserved":0,"last_update":"0001-01-01T00:00:00Z","name_a2s":"Uncletopia | Chicago | 6 | All Maps","protocol":17,"map":"cp_mountainlab","folder":"tf","game":"Team Fortress","app_id":440,"player_count":24,"max_players":24,"Bots":0,"server_type":"Dedicated","server_os":"Linux","password":true,"vac":true,"version":"7961495","steam_id":85568392924866363,"keywords":["cp","nocrits","nodmgspread","uncletopia"],"game_id":440,"stv_port":27026,"stv_name":"Uncletopia | Chicago | 6 | All Maps | STV","players":[{"user_id":185,"name":"Voodo133","steam_id":76561198042670351,"connected_time":162000000000,"state":"active","ping":88},{"user_id":171,"name":"Bim","steam_id":76561198155979811,"connected_time":758000000000,"state":"active","ping":74},{"user_id":115,"name":"womthedom","steam_id":76561198088768287,"connected_time":4433000000000,"state":"active","ping":47},{"user_id":178,"name":"simcye","steam_id":76561198010991761,"connected_time":640000000000,"state":"active","ping":97},{"user_id":116,"name":"David Hasseloof","steam_id":76561198070864553,"connected_time":4428000000000,"state":"active","ping":80},{"user_id":118,"name":"Tylorde","steam_id":76561198044086991,"connected_time":4409000000000,"state":"active","ping":54},{"user_id":97,"name":"Gram Tokers Count Doinkula","steam_id":76561198112811565,"connected_time":5727000000000,"state":"active","ping":75},{"user_id":132,"name":"Sailor Galaxy Planet Man","steam_id":76561198039569373,"connected_time":3716000000000,"state":"active","ping":60},{"user_id":170,"name":"Rambly Dambly","steam_id":76561198844496567,"connected_time":860000000000,"state":"active","ping":55},{"user_id":184,"name":"Ddonut gamer","steam_id":76561198858852245,"connected_time":290000000000,"state":"active","ping":115},{"user_id":179,"name":":D","steam_id":76561198049258493,"connected_time":635000000000,"state":"active","ping":120},{"user_id":186,"name":"press \"G\" to perform a taunt","steam_id":76561198145320480,"connected_time":153000000000,"state":"active","ping":99},{"user_id":174,"name":"hideyochest","steam_id":76561198090366059,"connected_time":739000000000,"state":"active","ping":70},{"user_id":175,"name":"Imagine being trash at Medic","steam_id":76561197986530028,"connected_time":725000000000,"state":"active","ping":114},{"user_id":153,"name":"Ayylmao","steam_id":76561198104780147,"connected_time":1727000000000,"state":"active","ping":46},{"user_id":180,"name":"GreekGoat_Coffee","steam_id":76561198129331088,"connected_time":570000000000,"state":"active","ping":46},{"user_id":169,"name":"SC|Formuoli","steam_id":76561198254354595,"connected_time":952000000000,"state":"active","ping":38},{"user_id":165,"name":"smetc","steam_id":76561198240696986,"connected_time":1199000000000,"state":"active","ping":69},{"user_id":187,"name":"‰π≥ means milk in japanese :)","steam_id":76561198307060128,"connected_time":150000000000,"state":"active","ping":84},{"user_id":181,"name":"KaosInfinite","steam_id":76561198009126350,"connected_time":549000000000,"state":"active","ping":107},{"user_id":188,"name":"Wan Shi Tong","steam_id":76561198076441225,"connected_time":125000000000,"state":"active","ping":68},{"user_id":135,"name":"TurkeyTitty","steam_id":76561198071313764,"connected_time":3496000000000,"state":"active","ping":71},{"user_id":182,"name":"GimliLOTR","steam_id":76561198163746000,"connected_time":545000000000,"state":"active","ping":80},{"user_id":183,"name":"the pizza","steam_id":76561198221331476,"connected_time":517000000000,"state":"active","ping":83}]},{"server_id":38,"name":"Uncletopia | Chicago | 7 | Stopwatch","name_short":"chi-7","host":"chi-2.us.uncletopia.com","port":27035,"enabled":true,"region":"us-central","cc":"us","latitude":41.881832,"longitude":-87.62318,"reserved":0,"last_update":"0001-01-01T00:00:00Z","name_a2s":"Uncletopia | Chicago | 7 | Stopwatch","protocol":17,"map":"cp_metalworks","folder":"tf","game":"Team Fortress","app_id":440,"player_count":0,"max_players":24,"Bots":0,"server_type":"Dedicated","server_os":"Linux","password":true,"vac":true,"version":"7961495","steam_id":85568392924866364,"keywords":["cp","nocrits","nodmgspread","uncletopia"],"game_id":440,"stv_port":27036,"stv_name":"Uncletopia | Chicago | 7 | Stopwatch | STV","players":null},{"server_id":39,"name":"Uncletopia | Chicago | 8 | Community","name_short":"chi-8","host":"chi-2.us.uncletopia.com","port":27045,"enabled":true,"region":"us-central","cc":"us","latitude":41.881832,"longitude":-87.62318,"reserved":0,"last_update":"0001-01-01T00:00:00Z","name_a2s":"Uncletopia | Chicago | 8 | Community","protocol":17,"map":"workshop/pl_shoreleave_rc2.ugc1238849347","folder":"tf","game":"Team Fortress","app_id":440,"player_count":7,"max_players":24,"Bots":0,"server_type":"Dedicated","server_os":"Linux","password":true,"vac":true,"version":"7961495","steam_id":85568392924866365,"keywords":["nocrits","nodmgspread","payload","uncletopia"],"game_id":440,"stv_port":27046,"stv_name":"Uncletopia | Chicago | 8 | Community | STV","players":[{"user_id":248,"name":"Walmart Employee","steam_id":76561198840373909,"connected_time":468000000000,"state":"active","ping":111},{"user_id":209,"name":"he suckin on my rick til i mort","steam_id":76561198310711692,"connected_time":3447000000000,"state":"active","ping":165},{"user_id":172,"name":"SuperEnderGuy","steam_id":76561198352732164,"connected_time":5876000000000,"state":"active","ping":106},{"user_id":190,"name":"Zenvora","steam_id":76561198165485625,"connected_time":5107000000000,"state":"active","ping":62},{"user_id":250,"name":"Jimmiy Pisscake /\\","steam_id":76561198318540579,"connected_time":213000000000,"state":"active","ping":55},{"user_id":238,"name":"Giddy","steam_id":76561198271951969,"connected_time":1280000000000,"state":"active","ping":110},{"user_id":239,"name":"@MidasMischief","steam_id":76561198045647141,"connected_time":1263000000000,"state":"active","ping":62}]},{"server_id":8,"name":"Uncletopia | Dallas | 1 | All Maps","name_short":"dal-1","host":"dal-1.us.uncletopia.com","port":27015,"enabled":true,"region":"us-central","cc":"us","latitude":32.779167,"longitude":-96.80889,"reserved":0,"last_update":"0001-01-01T00:00:00Z","name_a2s":"Uncletopia | Dallas | 1 | All Maps","protocol":17,"map":"cp_well","folder":"tf","game":"Team Fortress","app_id":440,"player_count":24,"max_players":24,"Bots":0,"server_type":"Dedicated","server_os":"Linux","password":true,"vac":true,"version":"7961495","steam_id":85568392924469986,"keywords":["cp","nocrits","nodmgspread","uncletopia"],"game_id":440,"stv_port":27016,"stv_name":"Uncletopia | Dallas | 1 | All Maps | STV","players":[{"user_id":602,"name":"Rotation","steam_id":76561198865324866,"connected_time":3298000000000,"state":"active","ping":70},{"user_id":538,"name":"dumbest girl alive","steam_id":76561198062263639,"connected_time":9266000000000,"state":"active","ping":47},{"user_id":613,"name":"me","steam_id":76561199088496817,"connected_time":2458000000000,"state":"active","ping":68},{"user_id":651,"name":"Paradon","steam_id":76561198242214772,"connected_time":118000000000,"state":"active","ping":83},{"user_id":620,"name":"gretchling","steam_id":76561198046111695,"connected_time":2040000000000,"state":"active","ping":45},{"user_id":647,"name":"Harufloofer","steam_id":76561199084506827,"connected_time":512000000000,"state":"active","ping":45},{"user_id":652,"name":"Geronimo!","steam_id":76561198044906367,"connected_time":117000000000,"state":"active","ping":74},{"user_id":632,"name":"AffirmedDrip13","steam_id":76561198241951532,"connected_time":1114000000000,"state":"active","ping":65},{"user_id":616,"name":"MasterGeek.MX","steam_id":76561198063355220,"connected_time":2211000000000,"state":"active","ping":90},{"user_id":570,"name":"êÇÉêÇÉêÇÉ","steam_id":76561198026563351,"connected_time":6645000000000,"state":"active","ping":73},{"user_id":646,"name":"ash","steam_id":76561198127890645,"connected_time":518000000000,"state":"active","ping":75},{"user_id":633,"name":"ÂØß„ÄÖ","steam_id":76561198831996918,"connected_time":1104000000000,"state":"active","ping":74},{"user_id":641,"name":"mr.edderkopper","steam_id":76561198152614478,"connected_time":700000000000,"state":"active","ping":75},{"user_id":617,"name":"Burny Sanders","steam_id":76561197961879048,"connected_time":2197000000000,"state":"active","ping":41},{"user_id":643,"name":"Marzbee115","steam_id":76561198095821025,"connected_time":653000000000,"state":"active","ping":60},{"user_id":640,"name":"KevilPo","steam_id":76561199244507267,"connected_time":711000000000,"state":"active","ping":90},{"user_id":631,"name":"MEGGIE2023","steam_id":76561198038291026,"connected_time":1247000000000,"state":"active","ping":34},{"user_id":653,"name":"marty","steam_id":76561198032782746,"connected_time":96000000000,"state":"active","ping":89},{"user_id":630,"name":"corviraptor (\u003c--- awesome)","steam_id":76561198058284392,"connected_time":1448000000000,"state":"active","ping":47},{"user_id":654,"name":"Lore","steam_id":76561198098407538,"connected_time":80000000000,"state":"active","ping":74},{"user_id":642,"name":"wcclark","steam_id":76561198001607116,"connected_time":668000000000,"state":"active","ping":92},{"user_id":638,"name":"tj3002rocks","steam_id":76561199017921546,"connected_time":952000000000,"state":"active","ping":58},{"user_id":655,"name":"6025","steam_id":76561198091712447,"connected_time":51000000000,"state":"active","ping":74},{"user_id":644,"name":"Mr.Bunny","steam_id":76561199407580843,"connected_time":651000000000,"state":"active","ping":93}]},{"server_id":108,"name":"Uncletopia | Dallas | 2 | All Maps","name_short":"dal-2","host":"dal-1.us.uncletopia.com","port":27025,"enabled":true,"region":"us-central","cc":"us","latitude":32.779167,"longitude":-96.80889,"reserved":0,"last_update":"0001-01-01T00:00:00Z","name_a2s":"Uncletopia | Dallas | 2 | All Maps","protocol":17,"map":"cp_process_final","folder":"tf","game":"Team Fortress","app_id":440,"player_count":0,"max_players":24,"Bots":0,"server_type":"Dedicated","server_os":"Linux","password":true,"vac":true,"version":"7961495","steam_id":85568392924469988,"keywords":["cp","nocrits","nodmgspread","uncletopia"],"game_id":440,"stv_port":27026,"stv_name":"Uncletopia | Dallas | 2 | All Maps | STV","players":null},{"server_id":404,"name":"Uncletopia | Dallas | 3 | All Maps","name_short":"dal-3","host":"dal-1.us.uncletopia.com","port":27035,"enabled":true,"region":"us-central","cc":"us","latitude":32.779167,"longitude":-96.80889,"reserved":0,"last_update":"0001-01-01T00:00:00Z","name_a2s":"Uncletopia | Dallas | 3 | All Maps","protocol":17,"map":"pl_badwater","folder":"tf","game":"Team Fortress","app_id":440,"player_count":24,"max_players":24,"Bots":0,"server_type":"Dedicated","server_os":"Linux","password":true,"vac":true,"version":"7961495","steam_id":85568392924515219,"keywords":["nocrits","nodmgspread","payload","uncletopia"],"game_id":440,"stv_port":27036,"stv_name":"Uncletopia | Dallas | 3 | All Maps | STV","players":[{"user_id":424,"name":"gwen","steam_id":76561198046815360,"connected_time":518000000000,"state":"active","ping":75},{"user_id":430,"name":"the keebler","steam_id":76561199486326945,"connected_time":328000000000,"state":"active","ping":75},{"user_id":388,"name":"EvilPi99let","steam_id":76561197987243470,"connected_time":4190000000000,"state":"active","ping":73},{"user_id":423,"name":"Daksuki","steam_id":76561198084127751,"connected_time":606000000000,"state":"active","ping":75},{"user_id":439,"name":"HeroOfTime","steam_id":76561199096218001,"connected_time":40000000000,"state":"active","ping":79},{"user_id":411,"name":"0rthodoxQux","steam_id":76561199023341212,"connected_time":2381000000000,"state":"active","ping":87},{"user_id":431,"name":"incredirocks","steam_id":76561198061079993,"connected_time":319000000000,"state":"active","ping":71},{"user_id":428,"name":"Rock Kickass","steam_id":76561198450510841,"connected_time":469000000000,"state":"active","ping":93},{"user_id":426,"name":"weasilsquid","steam_id":76561199014763568,"connected_time":506000000000,"state":"active","ping":61},{"user_id":368,"name":"FireQuiz","steam_id":76561198107357249,"connected_time":5336000000000,"state":"active","ping":102},{"user_id":338,"name":"[√òWQJ√ò]chubacaalatake","steam_id":76561198136201697,"connected_time":7113000000000,"state":"active","ping":121},{"user_id":438,"name":"There is a hot muffler up my as","steam_id":76561198213863907,"connected_time":99000000000,"state":"active","ping":151},{"user_id":429,"name":"Iron","steam_id":76561198247918478,"connected_time":409000000000,"state":"active","ping":113},{"user_id":421,"name":"Wonko","steam_id":76561198043914891,"connected_time":1145000000000,"state":"active","ping":30},{"user_id":410,"name":"Fake Hero","steam_id":76561198169177822,"connected_time":2412000000000,"state":"active","ping":91},{"user_id":417,"name":"kritik","steam_id":76561198075216115,"connected_time":1853000000000,"state":"active","ping":150},{"user_id":432,"name":"SodaKid_7","steam_id":76561198079419485,"connected_time":279000000000,"state":"active","ping":78},{"user_id":400,"name":"never good enoguh","steam_id":76561198167207112,"connected_time":2931000000000,"state":"active","ping":75},{"user_id":440,"name":"will pocket you if you(redacted","steam_id":76561198377868275,"connected_time":34000000000,"state":"active","ping":88},{"user_id":401,"name":"Rami‚úø","steam_id":76561198993652475,"connected_time":2907000000000,"state":"active","ping":55},{"user_id":434,"name":"chud smoker","steam_id":76561198120973162,"connected_time":234000000000,"state":"active","ping":90},{"user_id":436,"name":"KrylonHeretic","steam_id":76561198139811459,"connected_time":185000000000,"state":"active","ping":99},{"user_id":418,"name":"Michaelpc1","steam_id":76561198088365519,"connected_time":1717000000000,"state":"active","ping":86},{"user_id":416,"name":"Satori Komeiji","steam_id":76561198158211423,"connected_time":2162000000000,"state":"active","ping":80}]},{"server_id":405,"name":"Uncletopia | Dallas | 4 | Community","name_short":"dal-4","host":"dal-1.us.uncletopia.com","port":27045,"enabled":true,"region":"us-central","cc":"us","latitude":32.779167,"longitude":-96.80889,"reserved":0,"last_update":"0001-01-01T00:00:00Z","name_a2s":"Uncletopia | Dallas | 4 | Community","protocol":17,"map":"workshop/koth_kemptown_rc1.ugc767410655","folder":"tf","game":"Team Fortress","app_id":440,"player_count":0,"max_players":24,"Bots":0,"server_type":"Dedicated","server_os":"Linux","password":true,"vac":true,"version":"7961495","steam_id":85568392924515220,"keywords":["cp","nocrits","nodmgspread","uncletopia"],"game_id":440,"stv_port":27046,"stv_name":"Uncletopia | Dallas | 4 | Community | STV","players":null},{"server_id":5,"name":"Uncletopia | Frankfurt | 1 | All Maps","name_short":"frk-1","host":"frk-1.de.uncletopia.com","port":27015,"enabled":true,"region":"eu","cc":"de","latitude":50.110924,"longitude":8.682127,"reserved":0,"last_update":"0001-01-01T00:00:00Z","name_a2s":"Uncletopia | Frankfurt | 1 | All Maps","protocol":17,"map":"koth_highpass","folder":"tf","game":"Team Fortress","app_id":440,"player_count":0,"max_players":24,"Bots":0,"server_type":"Dedicated","server_os":"Linux","password":true,"vac":true,"version":"7961495","steam_id":85568392924469989,"keywords":["cp","nocrits","nodmgspread","uncletopia"],"game_id":440,"stv_port":27016,"stv_name":"Uncletopia | Frankfurt | 1 | All Maps | STV","players":null},{"server_id":110,"name":"Uncletopia | Frankfurt | 2 | All Maps","name_short":"frk-2","host":"frk-1.de.uncletopia.com","port":27025,"enabled":true,"region":"eu","cc":"de","latitude":50.110924,"longitude":8.682127,"reserved":0,"last_update":"0001-01-01T00:00:00Z","name_a2s":"Uncletopia | Frankfurt | 2 | All Maps","protocol":17,"map":"cp_dustbowl","folder":"tf","game":"Team Fortress","app_id":440,"player_count":0,"max_players":24,"Bots":0,"server_type":"Dedicated","server_os":"Linux","password":true,"vac":true,"version":"7961495","steam_id":85568392924469990,"keywords":["cp","nocrits","nodmgspread","uncletopia"],"game_id":440,"stv_port":27026,"stv_name":"Uncletopia | Frankfurt | 2 | All Maps | STV","players":null},{"server_id":308,"name":"Uncletopia | Frankfurt | 3 | All Maps","name_short":"frk-3","host":"frk-1.de.uncletopia.com","port":27035,"enabled":true,"region":"eu","cc":"de","latitude":50.110924,"longitude":8.682127,"reserved":0,"last_update":"0001-01-01T00:00:00Z","name_a2s":"Uncletopia | Frankfurt | 3 | All Maps","protocol":17,"map":"pl_barnblitz","folder":"tf","game":"Team Fortress","app_id":440,"player_count":0,"max_players":24,"Bots":0,"server_type":"Dedicated","server_os":"Linux","password":true,"vac":true,"version":"7961495","steam_id":85568392924504274,"keywords":["nocrits","nodmgspread","payload","uncletopia"],"game_id":440,"stv_port":27036,"stv_name":"Uncletopia | Frankfurt | 3 | All Maps | STV","players":null},{"server_id":309,"name":"Uncletopia | Frankfurt | 4 | All Maps","name_short":"frk-4","host":"frk-1.de.uncletopia.com","port":27045,"enabled":true,"region":"eu","cc":"de","latitude":50.110924,"longitude":8.682127,"reserved":0,"last_update":"0001-01-01T00:00:00Z","name_a2s":"Uncletopia | Frankfurt | 4 | All Maps","protocol":17,"map":"koth_highpass","folder":"tf","game":"Team Fortress","app_id":440,"player_count":0,"max_players":24,"Bots":0,"server_type":"Dedicated","server_os":"Linux","password":true,"vac":true,"version":"7961495","steam_id":85568392924504275,"keywords":["cp","nocrits","nodmgspread","uncletopia"],"game_id":440,"stv_port":27046,"stv_name":"Uncletopia | Frankfurt | 4 | All Maps | STV","players":null},{"server_id":310,"name":"Uncletopia | Frankfurt | 5 | All Maps","name_short":"frk-5","host":"frk-1.de.uncletopia.com","port":27055,"enabled":true,"region":"eu","cc":"de","latitude":50.110924,"longitude":8.682127,"reserved":0,"last_update":"0001-01-01T00:00:00Z","name_a2s":"Uncletopia | Frankfurt | 5 | All Maps","protocol":17,"map":"pl_badwater","folder":"tf","game":"Team Fortress","app_id":440,"player_count":0,"max_players":24,"Bots":0,"server_type":"Dedicated","server_os":"Linux","password":true,"vac":true,"version":"7961495","steam_id":85568392924504277,"keywords":["nocrits","nodmgspread","payload","uncletopia"],"game_id":440,"stv_port":27056,"stv_name":"Uncletopia | Frankfurt | 5 | All Maps | STV","players":null},{"server_id":311,"name":"Uncletopia | Frankfurt | 6 | All Maps","name_short":"frk-6","host":"frk-1.de.uncletopia.com","port":27065,"enabled":true,"region":"eu","cc":"de","latitude":50.110924,"longitude":8.682127,"reserved":0,"last_update":"0001-01-01T00:00:00Z","name_a2s":"Uncletopia | Frankfurt | 6 | All Maps","protocol":17,"map":"cp_altitude","folder":"tf","game":"Team Fortress","app_id":440,"player_count":0,"max_players":24,"Bots":0,"server_type":"Dedicated","server_os":"Linux","password":true,"vac":true,"version":"7961495","steam_id":85568392924504278,"keywords":["cp","nocrits","nodmgspread","uncletopia"],"game_id":440,"stv_port":27066,"stv_name":"Uncletopia | Frankfurt | 6 | All Maps | STV","players":null},{"server_id":23,"name":"Uncletopia | Frankfurt | 7 | Stopwatch","name_short":"frk-7","host":"frk-1.de.uncletopia.com","port":27075,"enabled":true,"region":"eu","cc":"de","latitude":50.110924,"longitude":8.682127,"reserved":0,"last_update":"0001-01-01T00:00:00Z","name_a2s":"Uncletopia | Frankfurt | 7 | Stopwatch","protocol":17,"map":"pl_frontier_final","folder":"tf","game":"Team Fortress","app_id":440,"player_count":0,"max_players":24,"Bots":0,"server_type":"Dedicated","server_os":"Linux","password":true,"vac":true,"version":"7961495","steam_id":85568392924742827,"keywords":["nocrits","nodmgspread","payload","uncletopia"],"game_id":440,"stv_port":27076,"stv_name":"Uncletopia | Frankfurt | 7 | Stopwatch | STV","players":null},{"server_id":24,"name":"Uncletopia | Frankfurt | 8 | Community","name_short":"frk-8","host":"frk-1.de.uncletopia.com","port":27085,"enabled":true,"region":"eu","cc":"de","latitude":50.110924,"longitude":8.682127,"reserved":0,"last_update":"0001-01-01T00:00:00Z","name_a2s":"Uncletopia | Frankfurt | 8 | Community","protocol":17,"map":"workshop/koth_bagel_rc6.ugc2514036946","folder":"tf","game":"Team Fortress","app_id":440,"player_count":0,"max_players":24,"Bots":0,"server_type":"Dedicated","server_os":"Linux","password":true,"vac":true,"version":"7961495","steam_id":85568392924742828,"keywords":["cp","nocrits","nodmgspread","uncletopia"],"game_id":440,"stv_port":27086,"stv_name":"Uncletopia | Frankfurt | 8 | Community | STV","players":null},{"server_id":202,"name":"Uncletopia | Hong Kong | 1 | All Maps","name_short":"hgk-1","host":"hgk-1.hk.uncletopia.com","port":27015,"enabled":true,"region":"asia","cc":"hk","latitude":22.302711,"longitude":114.177216,"reserved":0,"last_update":"0001-01-01T00:00:00Z","name_a2s":"Uncletopia | Hong Kong | 1 | All Maps","protocol":17,"map":"pl_badwater","folder":"tf","game":"Team Fortress","app_id":440,"player_count":0,"max_players":24,"Bots":0,"server_type":"Dedicated","server_os":"Linux","password":true,"vac":true,"version":"7961495","steam_id":85568392924494504,"keywords":["nocrits","nodmgspread","payload","uncletopia"],"game_id":440,"stv_port":27016,"stv_name":"Uncletopia | Hong Kong | 1 | All Maps | STV","players":null},{"server_id":1,"name":"Uncletopia | Los Angeles | 1 | All Maps","name_short":"lax-1","host":"lax-1.us.uncletopia.com","port":27015,"enabled":true,"region":"us-west","cc":"us","latitude":33.94279,"longitude":-118.41004,"reserved":0,"last_update":"0001-01-01T00:00:00Z","name_a2s":"Uncletopia | Los Angeles | 1 | All Maps","protocol":17,"map":"pl_barnblitz","folder":"tf","game":"Team Fortress","app_id":440,"player_count":24,"max_players":24,"Bots":0,"server_type":"Dedicated","server_os":"Linux","password":true,"vac":true,"version":"7961495","steam_id":85568392924469991,"keywords":["nocrits","nodmgspread","payload","uncletopia"],"game_id":440,"stv_port":27016,"stv_name":"Uncletopia | Los Angeles | 1 | All Maps | STV","players":[{"user_id":177,"name":"Kinda_Clownish","steam_id":76561198309111836,"connected_time":2921000000000,"state":"active","ping":212},{"user_id":207,"name":"big fish","steam_id":76561198186479818,"connected_time":617000000000,"state":"active","ping":58},{"user_id":198,"name":"Mr.Bones","steam_id":76561198205170595,"connected_time":990000000000,"state":"active","ping":74},{"user_id":209,"name":"YORCHspartan117","steam_id":76561198272955205,"connected_time":520000000000,"state":"active","ping":96},{"user_id":194,"name":"Seshreb","steam_id":76561198846614634,"connected_time":1241000000000,"state":"active","ping":61},{"user_id":210,"name":"TruthHut","steam_id":76561198093452436,"connected_time":469000000000,"state":"active","ping":84},{"user_id":208,"name":"CLB","steam_id":76561198057971005,"connected_time":549000000000,"state":"active","ping":72},{"user_id":158,"name":"Alf Creepypasta","steam_id":76561198841844093,"connected_time":4513000000000,"state":"active","ping":48},{"user_id":211,"name":"werolat","steam_id":76561197960544784,"connected_time":399000000000,"state":"active","ping":54},{"user_id":199,"name":"Your Dinosaurs","steam_id":76561198392670237,"connected_time":982000000000,"state":"active","ping":58},{"user_id":190,"name":"pootistranger","steam_id":76561198318126190,"connected_time":1534000000000,"state":"active","ping":145},{"user_id":212,"name":"CPTforever","steam_id":76561198237767198,"connected_time":360000000000,"state":"active","ping":53},{"user_id":183,"name":"Your Favorite Fearless Hero","steam_id":76561199127590316,"connected_time":2604000000000,"state":"active","ping":61},{"user_id":184,"name":"RapidXenophage","steam_id":76561198175149973,"connected_time":2545000000000,"state":"active","ping":90},{"user_id":193,"name":"ceres fauna free use","steam_id":76561198097330521,"connected_time":1437000000000,"state":"active","ping":102},{"user_id":185,"name":"whathashit69","steam_id":76561199013105760,"connected_time":2540000000000,"state":"active","ping":107},{"user_id":205,"name":"Always Here for You","steam_id":76561198219252313,"connected_time":817000000000,"state":"active","ping":106},{"user_id":192,"name":"OHGODBEES!","steam_id":76561198000653374,"connected_time":1480000000000,"state":"active","ping":70},{"user_id":213,"name":"MEEPking","steam_id":76561198277668880,"connected_time":331000000000,"state":"active","ping":68},{"user_id":206,"name":"mollusk_obliteration","steam_id":76561198085388962,"connected_time":791000000000,"state":"active","ping":100},{"user_id":168,"name":"Ziggy Stardust","steam_id":76561198226531404,"connected_time":3951000000000,"state":"active","ping":99},{"user_id":164,"name":"SawyerSaur","steam_id":76561198872835142,"connected_time":4274000000000,"state":"active","ping":125},{"user_id":214,"name":"Evanb","steam_id":76561198042057792,"connected_time":307000000000,"state":"active","ping":74},{"user_id":203,"name":"ahazz","steam_id":76561198138161605,"connected_time":969000000000,"state":"active","ping":61}]},{"server_id":112,"name":"Uncletopia | Los Angeles | 2 | All Maps","name_short":"lax-2","host":"lax-1.us.uncletopia.com","port":27025,"enabled":true,"region":"us-west","cc":"us","latitude":33.94279,"longitude":-118.41004,"reserved":0,"last_update":"0001-01-01T00:00:00Z","name_a2s":"Uncletopia | Los Angeles | 2 | All Maps","protocol":17,"map":"koth_lakeside_final","folder":"tf","game":"Team Fortress","app_id":440,"player_count":0,"max_players":24,"Bots":0,"server_type":"Dedicated","server_os":"Linux","password":true,"vac":true,"version":"7961495","steam_id":85568392924469992,"keywords":["cp","nocrits","nodmgspread","uncletopia"],"game_id":440,"stv_port":27026,"stv_name":"Uncletopia | Los Angeles | 2 | All Maps | STV","players":null},{"server_id":324,"name":"Uncletopia | Los Angeles | 3 | All Maps","name_short":"lax-3","host":"lax-1.us.uncletopia.com","port":27035,"enabled":true,"region":"us-west","cc":"us","latitude":33.94279,"longitude":-118.41004,"reserved":0,"last_update":"0001-01-01T00:00:00Z","name_a2s":"Uncletopia | Los Angeles | 3 | All Maps","protocol":17,"map":"pl_barnblitz","folder":"tf","game":"Team Fortress","app_id":440,"player_count":24,"max_players":24,"Bots":0,"server_type":"Dedicated","server_os":"Linux","password":true,"vac":true,"version":"7961495","steam_id":85568392924510198,"keywords":["nocrits","nodmgspread","payload","uncletopia"],"game_id":440,"stv_port":27036,"stv_name":"Uncletopia | Los Angeles | 3 | All Maps | STV","players":[{"user_id":280,"name":"Ralph Kramden (Slim Charles)","steam_id":76561197981687895,"connected_time":2203000000000,"state":"active","ping":61},{"user_id":287,"name":"narko","steam_id":76561198215832523,"connected_time":2020000000000,"state":"active","ping":61},{"user_id":265,"name":"CheeseCake488","steam_id":76561199407617942,"connected_time":2963000000000,"state":"active","ping":98},{"user_id":282,"name":"kx","steam_id":76561198088952425,"connected_time":2195000000000,"state":"active","ping":53},{"user_id":300,"name":"Jaydyn","steam_id":76561198140326797,"connected_time":913000000000,"state":"active","ping":128},{"user_id":230,"name":"enhanced with disney's FastPlay","steam_id":76561198164134387,"connected_time":6462000000000,"state":"active","ping":85},{"user_id":266,"name":"Randle of John","steam_id":76561198328210524,"connected_time":2888000000000,"state":"active","ping":50},{"user_id":264,"name":"heck","steam_id":76561198315694520,"connected_time":2978000000000,"state":"active","ping":46},{"user_id":220,"name":"Sahalanthro","steam_id":76561199073298722,"connected_time":7179000000000,"state":"active","ping":42},{"user_id":283,"name":"mn","steam_id":76561198042357436,"connected_time":2170000000000,"state":"active","ping":68},{"user_id":261,"name":"FROYO b4nny","steam_id":76561197970669109,"connected_time":3084000000000,"state":"active","ping":46},{"user_id":268,"name":"JawnyMac","steam_id":76561198179529599,"connected_time":2809000000000,"state":"active","ping":61},{"user_id":304,"name":"Antzen","steam_id":76561198041343470,"connected_time":514000000000,"state":"active","ping":59},{"user_id":303,"name":"prettyrico","steam_id":76561198056046104,"connected_time":532000000000,"state":"active","ping":45},{"user_id":270,"name":"Amish Car Accident","steam_id":76561198026941076,"connected_time":2759000000000,"state":"active","ping":63},{"user_id":290,"name":"Ygitor","steam_id":76561198328114476,"connected_time":1504000000000,"state":"active","ping":63},{"user_id":254,"name":"Francis Gaming","steam_id":76561198295173122,"connected_time":4144000000000,"state":"active","ping":84},{"user_id":276,"name":"Big Blue","steam_id":76561198084930108,"connected_time":2538000000000,"state":"active","ping":66},{"user_id":305,"name":"Red","steam_id":76561198001939529,"connected_time":505000000000,"state":"active","ping":113},{"user_id":273,"name":"mac_cheese","steam_id":76561198071334162,"connected_time":2647000000000,"state":"active","ping":75},{"user_id":286,"name":"Techne","steam_id":76561198090486583,"connected_time":2090000000000,"state":"active","ping":120},{"user_id":274,"name":"b","steam_id":76561198156336213,"connected_time":2625000000000,"state":"active","ping":60},{"user_id":306,"name":"crumblejon","steam_id":76561198111273302,"connected_time":479000000000,"state":"active","ping":59},{"user_id":279,"name":"Meso","steam_id":76561199088153190,"connected_time":2473000000000,"state":"active","ping":84}]},{"server_id":25,"name":"Uncletopia | Los Angeles | 4 | Stopwatch","name_short":"lax-4","host":"lax-1.us.uncletopia.com","port":27045,"enabled":true,"region":"us-west","cc":"us","latitude":33.94279,"longitude":-118.41004,"reserved":0,"last_update":"0001-01-01T00:00:00Z","name_a2s":"Uncletopia | Los Angeles | 4 | Stopwatch","protocol":17,"map":"pl_barnblitz","folder":"tf","game":"Team Fortress","app_id":440,"player_count":0,"max_players":24,"Bots":0,"server_type":"Dedicated","server_os":"Linux","password":true,"vac":true,"version":"7961495","steam_id":85568392924510199,"keywords":["nocrits","nodmgspread","payload","uncletopia"],"game_id":440,"stv_port":27046,"stv_name":"Uncletopia | Los Angeles | 4 | Stopwatch | STV","players":null},{"server_id":11,"name":"Uncletopia | London | 1 | All Maps","name_short":"lon-1","host":"lon-1.uk.uncletopia.com","port":27015,"enabled":true,"region":"eu","cc":"gb","latitude":51.509865,"longitude":-0.118092,"reserved":0,"last_update":"0001-01-01T00:00:00Z","name_a2s":"Uncletopia | London | 1 | All Maps","protocol":17,"map":"koth_highpass","folder":"tf","game":"Team Fortress","app_id":440,"player_count":0,"max_players":24,"Bots":0,"server_type":"Dedicated","server_os":"Linux","password":true,"vac":true,"version":"7961495","steam_id":85568392924367362,"keywords":["cp","nocrits","nodmgspread","uncletopia"],"game_id":440,"stv_port":27016,"stv_name":"Uncletopia | London | 1 | All Maps | STV","players":null},{"server_id":114,"name":"Uncletopia | London | 2 | All Maps","name_short":"lon-2","host":"lon-1.uk.uncletopia.com","port":27025,"enabled":true,"region":"eu","cc":"gb","latitude":51.509865,"longitude":-0.118092,"reserved":0,"last_update":"0001-01-01T00:00:00Z","name_a2s":"Uncletopia | London | 2 | All Maps","protocol":17,"map":"koth_lakeside_final","folder":"tf","game":"Team Fortress","app_id":440,"player_count":0,"max_players":24,"Bots":0,"server_type":"Dedicated","server_os":"Linux","password":true,"vac":true,"version":"7961495","steam_id":85568392924470941,"keywords":["cp","nocrits","nodmgspread","uncletopia"],"game_id":440,"stv_port":27026,"stv_name":"Uncletopia | London | 2 | All Maps | STV","players":null},{"server_id":320,"name":"Uncletopia | London | 3 | All Maps","name_short":"lon-3","host":"lon-1.uk.uncletopia.com","port":27035,"enabled":true,"region":"eu","cc":"gb","latitude":51.509865,"longitude":-0.118092,"reserved":0,"last_update":"0001-01-01T00:00:00Z","name_a2s":"Uncletopia | London | 3 | All Maps","protocol":17,"map":"cp_process_final","folder":"tf","game":"Team Fortress","app_id":440,"player_count":0,"max_players":24,"Bots":0,"server_type":"Dedicated","server_os":"Linux","password":true,"vac":true,"version":"7961495","steam_id":85568392924510192,"keywords":["cp","nocrits","nodmgspread","uncletopia"],"game_id":440,"stv_port":27036,"stv_name":"Uncletopia | London | 3 | All Maps | STV","players":null},{"server_id":321,"name":"Uncletopia | London | 4 | All Maps","name_short":"lon-4","host":"lon-1.uk.uncletopia.com","port":27045,"enabled":true,"region":"eu","cc":"gb","latitude":51.509865,"longitude":-0.118092,"reserved":0,"last_update":"0001-01-01T00:00:00Z","name_a2s":"Uncletopia | London | 4 | All Maps","protocol":17,"map":"koth_cascade","folder":"tf","game":"Team Fortress","app_id":440,"player_count":0,"max_players":24,"Bots":0,"server_type":"Dedicated","server_os":"Linux","password":true,"vac":true,"version":"7961495","steam_id":85568392924510193,"keywords":["cp","nocrits","nodmgspread","uncletopia"],"game_id":440,"stv_port":27046,"stv_name":"Uncletopia | London | 4 | All Maps | STV","players":null},{"server_id":21,"name":"Uncletopia | London | 5 | All Maps","name_short":"lon-5","host":"lon-1.uk.uncletopia.com","port":27055,"enabled":true,"region":"eu","cc":"gb","latitude":51.509865,"longitude":-0.118092,"reserved":0,"last_update":"0001-01-01T00:00:00Z","name_a2s":"Uncletopia | London | 5 | All Maps","protocol":17,"map":"koth_lakeside_final","folder":"tf","game":"Team Fortress","app_id":440,"player_count":0,"max_players":24,"Bots":0,"server_type":"Dedicated","server_os":"Linux","password":true,"vac":true,"version":"7961495","steam_id":85568392924742829,"keywords":["cp","nocrits","nodmgspread","uncletopia"],"game_id":440,"stv_port":27056,"stv_name":"Uncletopia | London | 5 | All Maps | STV","players":null},{"server_id":22,"name":"Uncletopia | London | 6 | All Maps","name_short":"lon-6","host":"lon-1.uk.uncletopia.com","port":27065,"enabled":true,"region":"eu","cc":"gb","latitude":51.509865,"longitude":-0.118092,"reserved":0,"last_update":"0001-01-01T00:00:00Z","name_a2s":"Uncletopia | London | 6 | All Maps","protocol":17,"map":"cp_dustbowl","folder":"tf","game":"Team Fortress","app_id":440,"player_count":0,"max_players":24,"Bots":0,"server_type":"Dedicated","server_os":"Linux","password":true,"vac":true,"version":"7961495","steam_id":85568392924742830,"keywords":["cp","nocrits","nodmgspread","uncletopia"],"game_id":440,"stv_port":27066,"stv_name":"Uncletopia | London | 6 | All Maps | STV","players":null},{"server_id":40,"name":"Uncletopia | London | 7 | Stopwatch","name_short":"lon-7","host":"lon-1.uk.uncletopia.com","port":27075,"enabled":true,"region":"eu","cc":"gb","latitude":51.509865,"longitude":-0.118092,"reserved":0,"last_update":"0001-01-01T00:00:00Z","name_a2s":"Uncletopia | London | 7 | Stopwatch","protocol":17,"map":"koth_lakeside_final","folder":"tf","game":"Team Fortress","app_id":440,"player_count":0,"max_players":24,"Bots":0,"server_type":"Dedicated","server_os":"Linux","password":true,"vac":true,"version":"7961495","steam_id":85568392924964314,"keywords":["cp","nocrits","nodmgspread","uncletopia"],"game_id":440,"stv_port":27076,"stv_name":"Uncletopia | London | 7 | Stopwatch | STV","players":null},{"server_id":41,"name":"Uncletopia | London | 8 | Community","name_short":"lon-8","host":"lon-1.uk.uncletopia.com","port":27085,"enabled":true,"region":"eu","cc":"gb","latitude":51.509865,"longitude":-0.118092,"reserved":0,"last_update":"0001-01-01T00:00:00Z","name_a2s":"Uncletopia | London | 8 | Community","protocol":17,"map":"cp_snakewater_final1","folder":"tf","game":"Team Fortress","app_id":440,"player_count":0,"max_players":24,"Bots":0,"server_type":"Dedicated","server_os":"Linux","password":true,"vac":true,"version":"7961495","steam_id":85568392924964315,"keywords":["cp","nocrits","nodmgspread","uncletopia"],"game_id":440,"stv_port":27086,"stv_name":"Uncletopia | London | 8 | Community | STV","players":null},{"server_id":300,"name":"Uncletopia | Montr√©al | 1 | One Thousand Uncles","name_short":"mtl-1","host":"mtl-1.ca.uncletopia.com","port":27015,"enabled":true,"region":"us-east","cc":"ca","latitude":45.50889,"longitude":-73.56167,"reserved":0,"last_update":"0001-01-01T00:00:00Z","name_a2s":"","protocol":0,"map":"","folder":"","game":"","app_id":0,"player_count":12,"max_players":0,"Bots":0,"server_type":"","server_os":"","password":false,"vac":false,"version":"","steam_id":0,"keywords":null,"game_id":0,"stv_port":0,"stv_name":"","players":[{"user_id":108,"name":"toasty weber","steam_id":76561198037746805,"connected_time":269000000000,"state":"active","ping":75},{"user_id":126,"name":"eBay","steam_id":76561198106109512,"connected_time":219000000000,"state":"active","ping":144},{"user_id":5,"name":"Congcrab","steam_id":76561198078687685,"connected_time":4265000000000,"state":"active","ping":84},{"user_id":7,"name":"ExplosiveGamer21","steam_id":76561198132370955,"connected_time":4262000000000,"state":"active","ping":124},{"user_id":8,"name":"PieSpie","steam_id":76561198054531169,"connected_time":4260000000000,"state":"active","ping":90},{"user_id":125,"name":"Poyo Boyo","steam_id":76561198010201227,"connected_time":244000000000,"state":"active","ping":61},{"user_id":127,"name":"1-800-GHOST-DANCE","steam_id":76561198835430429,"connected_time":214000000000,"state":"active","ping":90},{"user_id":85,"name":"Maxxycat","steam_id":76561198194062681,"connected_time":1483000000000,"state":"active","ping":73},{"user_id":88,"name":"Spike","steam_id":76561198141356571,"connected_time":1396000000000,"state":"active","ping":76},{"user_id":46,"name":"Seek \u0026 Destroy","steam_id":76561199153776236,"connected_time":3937000000000,"state":"active","ping":76},{"user_id":48,"name":"Titar Industries","steam_id":76561198143078476,"connected_time":3462000000000,"state":"active","ping":46},{"user_id":68,"name":"PATRICK","steam_id":76561198083652388,"connected_time":2450000000000,"state":"active","ping":48}]},{"server_id":301,"name":"Uncletopia | Montr√©al | 2 | One Thousand Uncles","name_short":"mtl-2","host":"mtl-1.ca.uncletopia.com","port":27025,"enabled":true,"region":"us-east","cc":"ca","latitude":45.50889,"longitude":-73.56167,"reserved":0,"last_update":"0001-01-01T00:00:00Z","name_a2s":"","protocol":0,"map":"","folder":"","game":"","app_id":0,"player_count":13,"max_players":0,"Bots":0,"server_type":"","server_os":"","password":false,"vac":false,"version":"","steam_id":0,"keywords":null,"game_id":0,"stv_port":0,"stv_name":"","players":[{"user_id":24,"name":"Engineer Gaming Live","steam_id":76561198045914603,"connected_time":15299000000000,"state":"active","ping":80},{"user_id":222,"name":"minecraft","steam_id":76561198104345201,"connected_time":715000000000,"state":"active","ping":68},{"user_id":42,"name":"SirParker135","steam_id":76561198450302639,"connected_time":15271000000000,"state":"active","ping":138},{"user_id":217,"name":"larguu","steam_id":76561197994336210,"connected_time":2820000000000,"state":"active","ping":45},{"user_id":191,"name":"Pie","steam_id":76561198996610188,"connected_time":4403000000000,"state":"active","ping":48},{"user_id":45,"name":"The Engineer is Engiqueer","steam_id":76561198177310341,"connected_time":15142000000000,"state":"active","ping":92},{"user_id":223,"name":"Orange","steam_id":76561198230118176,"connected_time":450000000000,"state":"active","ping":128},{"user_id":218,"name":"Yongle","steam_id":76561198068591156,"connected_time":2806000000000,"state":"active","ping":72},{"user_id":221,"name":"ryqset","steam_id":76561198349299874,"connected_time":858000000000,"state":"active","ping":103},{"user_id":144,"name":"Demon Drem'Zellot","steam_id":76561198022106547,"connected_time":7493000000000,"state":"active","ping":112},{"user_id":193,"name":"Error 4 Oh Four","steam_id":76561198121637567,"connected_time":4276000000000,"state":"active","ping":82},{"user_id":224,"name":"doughboy","steam_id":76561198219012928,"connected_time":342000000000,"state":"active","ping":118},{"user_id":225,"name":"Phyyrin","steam_id":76561198154532657,"connected_time":172000000000,"state":"active","ping":128}]},{"server_id":302,"name":"Uncletopia | Montr√©al | 3 | One Thousand Uncles","name_short":"mtl-3","host":"mtl-1.ca.uncletopia.com","port":27035,"enabled":true,"region":"us-east","cc":"ca","latitude":45.50889,"longitude":-73.56167,"reserved":0,"last_update":"0001-01-01T00:00:00Z","name_a2s":"","protocol":0,"map":"","folder":"","game":"","app_id":0,"player_count":0,"max_players":0,"Bots":0,"server_type":"","server_os":"","password":false,"vac":false,"version":"","steam_id":0,"keywords":null,"game_id":0,"stv_port":0,"stv_name":"","players":null},{"server_id":13,"name":"Uncletopia | New York City | 1 | All Maps","name_short":"nyc-1","host":"nyc-1.us.uncletopia.com","port":27015,"enabled":true,"region":"us-east","cc":"us","latitude":40.73061,"longitude":-73.93524,"reserved":0,"last_update":"0001-01-01T00:00:00Z","name_a2s":"Uncletopia | New York City | 1 | All Maps","protocol":17,"map":"pl_upward","folder":"tf","game":"Team Fortress","app_id":440,"player_count":10,"max_players":24,"Bots":0,"server_type":"Dedicated","server_os":"Linux","password":true,"vac":true,"version":"7961495","steam_id":85568392924469993,"keywords":["nocrits","nodmgspread","payload","uncletopia"],"game_id":440,"stv_port":27016,"stv_name":"Uncletopia | New York City | 1 | All Maps | STV","players":[{"user_id":646,"name":"benny worm","steam_id":76561198163238434,"connected_time":675000000000,"state":"active","ping":51},{"user_id":648,"name":"Dan","steam_id":76561199236719411,"connected_time":579000000000,"state":"active","ping":75},{"user_id":644,"name":"CR-TV Cutie","steam_id":76561198055970193,"connected_time":823000000000,"state":"active","ping":37},{"user_id":630,"name":"Oswald (TF2 Vet)","steam_id":76561198136642793,"connected_time":2152000000000,"state":"active","ping":92},{"user_id":643,"name":"Mrs.Pancakes","steam_id":76561199075429403,"connected_time":868000000000,"state":"active","ping":119},{"user_id":650,"name":"Shadowskys","steam_id":76561198309831201,"connected_time":389000000000,"state":"active","ping":76},{"user_id":629,"name":"my friend can take 5guys anyday","steam_id":76561198144766439,"connected_time":2215000000000,"state":"active","ping":61},{"user_id":599,"name":"ndvr","steam_id":76561199379200102,"connected_time":5323000000000,"state":"active","ping":40},{"user_id":610,"name":"That Sentry Is A Spy!","steam_id":76561198069395625,"connected_time":4090000000000,"state":"active","ping":57},{"user_id":611,"name":"Matlock","steam_id":76561198012092071,"connected_time":3829000000000,"state":"active","ping":60}]},{"server_id":14,"name":"Uncletopia | New York City | 2 | All Maps","name_short":"nyc-2","host":"nyc-1.us.uncletopia.com","port":27025,"enabled":true,"region":"us-east","cc":"us","latitude":40.73061,"longitude":-73.93524,"reserved":0,"last_update":"0001-01-01T00:00:00Z","name_a2s":"Uncletopia | New York City | 2 | All Maps","protocol":17,"map":"koth_highpass","folder":"tf","game":"Team Fortress","app_id":440,"player_count":0,"max_players":24,"Bots":0,"server_type":"Dedicated","server_os":"Linux","password":true,"vac":true,"version":"7961495","steam_id":85568392924469994,"keywords":["cp","nocrits","nodmgspread","uncletopia"],"game_id":440,"stv_port":27026,"stv_name":"Uncletopia | New York City | 2 | All Maps | STV","players":null},{"server_id":15,"name":"Uncletopia | New York City | 3 | Stopwatch","name_short":"nyc-3","host":"nyc-1.us.uncletopia.com","port":27035,"enabled":true,"region":"us-east","cc":"us","latitude":40.73061,"longitude":-73.93524,"reserved":0,"last_update":"0001-01-01T00:00:00Z","name_a2s":"Uncletopia | New York City | 3 | Stopwatch","protocol":17,"map":"workshop/koth_clearcut_b15.ugc2107050255","folder":"tf","game":"Team Fortress","app_id":440,"player_count":0,"max_players":24,"Bots":0,"server_type":"Dedicated","server_os":"Linux","password":true,"vac":true,"version":"7961495","steam_id":85568392924742820,"keywords":["cp","nocrits","nodmgspread","uncletopia"],"game_id":440,"stv_port":27036,"stv_name":"Uncletopia | New York City | 3 | Stopwatch | STV","players":null},{"server_id":16,"name":"Uncletopia | New York City | 4 | Community","name_short":"nyc-4","host":"nyc-1.us.uncletopia.com","port":27045,"enabled":true,"region":"us-east","cc":"us","latitude":40.73061,"longitude":-73.93524,"reserved":0,"last_update":"0001-01-01T00:00:00Z","name_a2s":"Uncletopia | New York City | 4 | Community","protocol":17,"map":"workshop/rd_asteroid_redux_b1.ugc2154902912","folder":"tf","game":"Team Fortress","app_id":440,"player_count":0,"max_players":24,"Bots":0,"server_type":"Dedicated","server_os":"Linux","password":true,"vac":true,"version":"7961495","steam_id":85568392924742821,"keywords":["beta","nocrits","nodmgspread","rd","uncletopia"],"game_id":440,"stv_port":27046,"stv_name":"Uncletopia | New York City | 4 | Community | STV","players":null},{"server_id":142,"name":"Uncletopia | S√£o Paulo | 1 | All Maps","name_short":"sao-1","host":"sao-1.br.uncletopia.com","port":27015,"enabled":true,"region":"sa","cc":"br","latitude":-23.533773,"longitude":-46.62529,"reserved":0,"last_update":"0001-01-01T00:00:00Z","name_a2s":"Uncletopia | S√£o Paulo | 1 | All Maps","protocol":17,"map":"koth_highpass","folder":"tf","game":"Team Fortress","app_id":440,"player_count":0,"max_players":24,"Bots":0,"server_type":"Dedicated","server_os":"Linux","password":true,"vac":true,"version":"7961495","steam_id":85568392924469996,"keywords":["cp","nocrits","nodmgspread","uncletopia"],"game_id":440,"stv_port":27016,"stv_name":"Uncletopia | S√£o Paulo | 1 | All Maps | STV","players":null},{"server_id":143,"name":"Uncletopia | S√£o Paulo | 2 | Community","name_short":"sao-2","host":"sao-2.br.uncletopia.com","port":27015,"enabled":true,"region":"sa","cc":"br","latitude":-23.533773,"longitude":-46.62529,"reserved":0,"last_update":"0001-01-01T00:00:00Z","name_a2s":"Uncletopia | S√£o Paulo | 2 | Community","protocol":17,"map":"workshop/koth_ramjam_rc1.ugc459778887","folder":"tf","game":"Team Fortress","app_id":440,"player_count":3,"max_players":24,"Bots":0,"server_type":"Dedicated","server_os":"Linux","password":true,"vac":true,"version":"7961495","steam_id":85568392924485349,"keywords":["cp","nocrits","nodmgspread","uncletopia"],"game_id":440,"stv_port":27016,"stv_name":"Uncletopia | S√£o Paulo | 2 | Community | STV","players":[{"user_id":55,"name":"Argent","steam_id":76561198349204525,"connected_time":111000000000,"state":"active","ping":60},{"user_id":53,"name":"NedyaJ #SaveTF2","steam_id":76561199134641174,"connected_time":851000000000,"state":"active","ping":52},{"user_id":54,"name":"ilBroken","steam_id":76561198153697473,"connected_time":678000000000,"state":"active","ping":49}]},{"server_id":7,"name":"Uncletopia | Seattle | 1 | All Maps","name_short":"sea-1","host":"sea-1.us.uncletopia.com","port":27015,"enabled":true,"region":"us-west","cc":"us","latitude":47.608013,"longitude":-122.33517,"reserved":0,"last_update":"0001-01-01T00:00:00Z","name_a2s":"Uncletopia | Seattle | 1 | All Maps","protocol":17,"map":"pl_pier","folder":"tf","game":"Team Fortress","app_id":440,"player_count":24,"max_players":24,"Bots":0,"server_type":"Dedicated","server_os":"Linux","password":true,"vac":true,"version":"7961495","steam_id":85568392924469997,"keywords":["nocrits","nodmgspread","payload","uncletopia"],"game_id":440,"stv_port":27016,"stv_name":"Uncletopia | Seattle | 1 | All Maps | STV","players":[{"user_id":781,"name":"Henchie!","steam_id":76561198047567464,"connected_time":1616000000000,"state":"active","ping":81},{"user_id":761,"name":"dust | it/she","steam_id":76561198045218909,"connected_time":3552000000000,"state":"active","ping":44},{"user_id":799,"name":"blest!","steam_id":76561198966232220,"connected_time":113000000000,"state":"active","ping":58},{"user_id":740,"name":"jole","steam_id":76561198037292232,"connected_time":4964000000000,"state":"active","ping":120},{"user_id":762,"name":"Jest","steam_id":76561198170173062,"connected_time":3544000000000,"state":"active","ping":77},{"user_id":795,"name":"011sra","steam_id":76561199489542125,"connected_time":136000000000,"state":"active","ping":44},{"user_id":772,"name":"Lily Thorn","steam_id":76561198305488625,"connected_time":2925000000000,"state":"active","ping":60},{"user_id":797,"name":"William P. Ennis","steam_id":76561198073464877,"connected_time":132000000000,"state":"active","ping":90},{"user_id":786,"name":"TeCon","steam_id":76561198049127236,"connected_time":1240000000000,"state":"active","ping":80},{"user_id":798,"name":"Melly","steam_id":76561198045867175,"connected_time":118000000000,"state":"active","ping":73},{"user_id":773,"name":"rat who can kickflip","steam_id":76561198073620027,"connected_time":2278000000000,"state":"active","ping":45},{"user_id":792,"name":"fungi bowie.gg","steam_id":76561198169755734,"connected_time":444000000000,"state":"active","ping":61},{"user_id":778,"name":"Sp√ºkiiTV","steam_id":76561198098281824,"connected_time":1811000000000,"state":"active","ping":83},{"user_id":756,"name":"gorlab","steam_id":76561198025089694,"connected_time":3689000000000,"state":"active","ping":60},{"user_id":757,"name":"Bottom Trans Cowgirl","steam_id":76561198304239680,"connected_time":3676000000000,"state":"active","ping":106},{"user_id":738,"name":"Welcome to normandy kid","steam_id":76561199247095754,"connected_time":4995000000000,"state":"active","ping":83},{"user_id":800,"name":"Kettle of Fish \u003e((8\u003e","steam_id":76561197968210297,"connected_time":46000000000,"state":"active","ping":72},{"user_id":766,"name":"Drone #0432 (they/it)","steam_id":76561198027321950,"connected_time":3497000000000,"state":"active","ping":64},{"user_id":801,"name":"thunderous prophet","steam_id":76561198131166135,"connected_time":24000000000,"state":"active","ping":46},{"user_id":785,"name":"Thunder","steam_id":76561198097721532,"connected_time":1510000000000,"state":"active","ping":76},{"user_id":749,"name":"Your Local Queer Librarian","steam_id":76561198013077080,"connected_time":4715000000000,"state":"active","ping":97},{"user_id":733,"name":"rat gets the cheese","steam_id":76561198031234032,"connected_time":5337000000000,"state":"active","ping":100},{"user_id":787,"name":"Sly Marbo","steam_id":76561198135271741,"connected_time":677000000000,"state":"active","ping":51},{"user_id":775,"name":"MyMonkeyBaby","steam_id":76561198046896670,"connected_time":2278000000000,"state":"active","ping":51}]},{"server_id":119,"name":"Uncletopia | Seattle | 2 | All Maps","name_short":"sea-2","host":"sea-1.us.uncletopia.com","port":27025,"enabled":true,"region":"us-west","cc":"us","latitude":47.608013,"longitude":-122.33517,"reserved":0,"last_update":"0001-01-01T00:00:00Z","name_a2s":"Uncletopia | Seattle | 2 | All Maps","protocol":17,"map":"cp_process_final","folder":"tf","game":"Team Fortress","app_id":440,"player_count":24,"max_players":24,"Bots":0,"server_type":"Dedicated","server_os":"Linux","password":true,"vac":true,"version":"7961495","steam_id":85568392924469998,"keywords":["cp","nocrits","nodmgspread","uncletopia"],"game_id":440,"stv_port":27026,"stv_name":"Uncletopia | Seattle | 2 | All Maps | STV","players":[{"user_id":436,"name":"CACTUS","steam_id":76561198327863229,"connected_time":4014000000000,"state":"active","ping":84},{"user_id":482,"name":"sillyjack","steam_id":76561198844273999,"connected_time":355000000000,"state":"active","ping":45},{"user_id":468,"name":"A Little Bit Of Chicken Fried","steam_id":76561198042196918,"connected_time":1920000000000,"state":"active","ping":48},{"user_id":480,"name":"mub","steam_id":76561197961943948,"connected_time":931000000000,"state":"active","ping":51},{"user_id":464,"name":"Closeted femboy enjoyer","steam_id":76561198217747041,"connected_time":2261000000000,"state":"active","ping":60},{"user_id":467,"name":"Attrition","steam_id":76561197969881916,"connected_time":2172000000000,"state":"active","ping":56},{"user_id":438,"name":"Daikaiju15","steam_id":76561198383955066,"connected_time":3930000000000,"state":"active","ping":52},{"user_id":483,"name":"nifty","steam_id":76561198056630017,"connected_time":338000000000,"state":"active","ping":45},{"user_id":421,"name":"riSygneD","steam_id":76561198331618687,"connected_time":4621000000000,"state":"active","ping":63},{"user_id":486,"name":"Mocha Josie","steam_id":76561198066452726,"connected_time":240000000000,"state":"active","ping":85},{"user_id":469,"name":"[Industrial] A_HUMBLEBUMBLED","steam_id":76561198064771878,"connected_time":1894000000000,"state":"active","ping":40},{"user_id":484,"name":"Steve","steam_id":76561198352805460,"connected_time":321000000000,"state":"active","ping":67},{"user_id":400,"name":"Cold Beer On A Friday Night","steam_id":76561198336244269,"connected_time":7322000000000,"state":"active","ping":75},{"user_id":470,"name":"cracky","steam_id":76561197971365444,"connected_time":1894000000000,"state":"active","ping":37},{"user_id":476,"name":"Many Bees' Chilling","steam_id":76561198079641282,"connected_time":1762000000000,"state":"active","ping":55},{"user_id":485,"name":"The local hobo","steam_id":76561198289650060,"connected_time":302000000000,"state":"active","ping":72},{"user_id":451,"name":"Spread Joy, Not Hate","steam_id":76561198053117503,"connected_time":3179000000000,"state":"active","ping":59},{"user_id":472,"name":"Pixelated Pussy","steam_id":76561198002511088,"connected_time":1840000000000,"state":"active","ping":76},{"user_id":434,"name":"Bolbi","steam_id":76561198051811597,"connected_time":4170000000000,"state":"active","ping":75},{"user_id":489,"name":"Bisque","steam_id":76561198327661850,"connected_time":107000000000,"state":"active","ping":72},{"user_id":443,"name":"¬´D·µÉ ≥·µè.,,.T·µâ·µê·µñ¬ª","steam_id":76561198018185884,"connected_time":3844000000000,"state":"active","ping":44},{"user_id":488,"name":"xXx_Eg0_d3aTh_419_xXx (ironic)","steam_id":76561198077551754,"connected_time":194000000000,"state":"active","ping":102},{"user_id":474,"name":"mmmBoyo","steam_id":76561198821360261,"connected_time":1823000000000,"state":"active","ping":69},{"user_id":478,"name":"Twitch4227","steam_id":76561199039070332,"connected_time":1509000000000,"state":"active","ping":46}]},{"server_id":406,"name":"Uncletopia | Seattle | 3 | Stopwatch","name_short":"sea-3","host":"sea-1.us.uncletopia.com","port":27035,"enabled":true,"region":"us-west","cc":"us","latitude":47.608013,"longitude":-122.33517,"reserved":0,"last_update":"0001-01-01T00:00:00Z","name_a2s":"Uncletopia | Seattle | 3 | Stopwatch","protocol":17,"map":"koth_highpass","folder":"tf","game":"Team Fortress","app_id":440,"player_count":2,"max_players":24,"Bots":0,"server_type":"Dedicated","server_os":"Linux","password":true,"vac":true,"version":"7961495","steam_id":85568392924515217,"keywords":["cp","nocrits","nodmgspread","uncletopia"],"game_id":440,"stv_port":27036,"stv_name":"Uncletopia | Seattle | 3 | Stopwatch | STV","players":[{"user_id":14,"name":"thebeast","steam_id":76561198255963049,"connected_time":951000000000,"state":"active","ping":46},{"user_id":16,"name":"StrayGuitarist","steam_id":76561198091315714,"connected_time":752000000000,"state":"active","ping":93}]},{"server_id":17,"name":"Uncletopia | San Francisco | 1 | All Maps","name_short":"sfo-1","host":"sfo-1.us.uncletopia.com","port":27015,"enabled":true,"region":"us-west","cc":"us","latitude":37.77397,"longitude":-122.4313,"reserved":0,"last_update":"0001-01-01T00:00:00Z","name_a2s":"Uncletopia | San Francisco | 1 | All Maps","protocol":17,"map":"koth_lakeside_final","folder":"tf","game":"Team Fortress","app_id":440,"player_count":19,"max_players":24,"Bots":0,"server_type":"Dedicated","server_os":"Linux","password":true,"vac":true,"version":"7961495","steam_id":85568392924469999,"keywords":["cp","nocrits","nodmgspread","uncletopia"],"game_id":440,"stv_port":27016,"stv_name":"Uncletopia | San Francisco | 1 | All Maps | STV","players":[{"user_id":340,"name":"Penis Music","steam_id":76561198089647760,"connected_time":80000000000,"state":"active","ping":105},{"user_id":333,"name":"Quigi","steam_id":76561198144645874,"connected_time":2011000000000,"state":"active","ping":71},{"user_id":341,"name":"DaDevilsAdvocate","steam_id":76561198359505665,"connected_time":59000000000,"state":"active","ping":58},{"user_id":312,"name":"Quon Grene for Vice Prez","steam_id":76561198127545817,"connected_time":3154000000000,"state":"active","ping":64},{"user_id":342,"name":"Painfully Gay","steam_id":76561198054353610,"connected_time":58000000000,"state":"active","ping":77},{"user_id":343,"name":"Dynamo","steam_id":76561198057875639,"connected_time":49000000000,"state":"active","ping":60},{"user_id":344,"name":"EOAW","steam_id":76561198310451639,"connected_time":35000000000,"state":"active","ping":66},{"user_id":300,"name":"Maid 'n' China","steam_id":76561198423392976,"connected_time":4352000000000,"state":"active","ping":53},{"user_id":338,"name":"SQbuilder","steam_id":76561198076473375,"connected_time":261000000000,"state":"active","ping":43},{"user_id":306,"name":"PizzaFratello","steam_id":76561199059951970,"connected_time":4064000000000,"state":"active","ping":86},{"user_id":326,"name":"Franz","steam_id":76561198041929745,"connected_time":2317000000000,"state":"active","ping":48},{"user_id":310,"name":"Saltshaker","steam_id":76561198040699558,"connected_time":3255000000000,"state":"active","ping":76},{"user_id":328,"name":"Infinite_Time","steam_id":76561198298699368,"connected_time":2287000000000,"state":"active","ping":58},{"user_id":309,"name":"Brando","steam_id":76561198078306678,"connected_time":3728000000000,"state":"active","ping":70},{"user_id":295,"name":"Voodoo","steam_id":76561199082256740,"connected_time":4830000000000,"state":"active","ping":129},{"user_id":307,"name":"ClosetBotany","steam_id":76561198088324821,"connected_time":4024000000000,"state":"active","ping":67},{"user_id":336,"name":"Irony is pretty cringy","steam_id":76561198120391460,"connected_time":406000000000,"state":"active","ping":53},{"user_id":334,"name":"jeej","steam_id":76561197996974400,"connected_time":1436000000000,"state":"active","ping":77},{"user_id":339,"name":"TylerKai421","steam_id":76561198207428583,"connected_time":258000000000,"state":"active","ping":93}]},{"server_id":18,"name":"Uncletopia | San Francisco | 2 | All Maps","name_short":"sfo-2","host":"sfo-1.us.uncletopia.com","port":27025,"enabled":true,"region":"us-west","cc":"us","latitude":37.77397,"longitude":-122.4313,"reserved":0,"last_update":"0001-01-01T00:00:00Z","name_a2s":"Uncletopia | San Francisco | 2 | All Maps","protocol":17,"map":"koth_cascade","folder":"tf","game":"Team Fortress","app_id":440,"player_count":24,"max_players":24,"Bots":0,"server_type":"Dedicated","server_os":"Linux","password":true,"vac":true,"version":"7961495","steam_id":85568392924470000,"keywords":["cp","nocrits","nodmgspread","uncletopia"],"game_id":440,"stv_port":27026,"stv_name":"Uncletopia | San Francisco | 2 | All Maps | STV","players":[{"user_id":203,"name":"tkeati","steam_id":76561198056356574,"connected_time":1909000000000,"state":"active","ping":60},{"user_id":138,"name":"ratthew","steam_id":76561198418172095,"connected_time":6082000000000,"state":"active","ping":88},{"user_id":148,"name":"BradB.","steam_id":76561199163905036,"connected_time":5444000000000,"state":"active","ping":124},{"user_id":175,"name":"Ôº≤Ôº•Ôº§","steam_id":76561198030282308,"connected_time":4712000000000,"state":"active","ping":63},{"user_id":200,"name":"yung trap shawty","steam_id":76561197999132307,"connected_time":2307000000000,"state":"active","ping":89},{"user_id":210,"name":"Gimme your Teeth","steam_id":76561198240523882,"connected_time":1436000000000,"state":"active","ping":60},{"user_id":194,"name":"mrthugpug1732","steam_id":76561198881200768,"connected_time":2574000000000,"state":"active","ping":70},{"user_id":219,"name":"Culprit Shy","steam_id":76561198206506481,"connected_time":558000000000,"state":"active","ping":40},{"user_id":187,"name":"zpalmtree","steam_id":76561198134307620,"connected_time":2774000000000,"state":"active","ping":119},{"user_id":221,"name":"Zurg","steam_id":76561198316995374,"connected_time":477000000000,"state":"active","ping":79},{"user_id":146,"name":"Charles","steam_id":76561198155322277,"connected_time":5618000000000,"state":"active","ping":58},{"user_id":204,"name":"McDonald","steam_id":76561199028533497,"connected_time":1894000000000,"state":"active","ping":62},{"user_id":217,"name":"Apollo","steam_id":76561198162364702,"connected_time":1037000000000,"state":"active","ping":65},{"user_id":214,"name":"lytewerk","steam_id":76561198002819791,"connected_time":1365000000000,"state":"active","ping":83},{"user_id":159,"name":"e doctor","steam_id":76561198081851446,"connected_time":5117000000000,"state":"active","ping":93},{"user_id":225,"name":"mwee machine","steam_id":76561198047126327,"connected_time":192000000000,"state":"active","ping":75},{"user_id":227,"name":"oil","steam_id":76561198099980149,"connected_time":172000000000,"state":"active","ping":60},{"user_id":223,"name":"Mufalito","steam_id":76561198951889482,"connected_time":391000000000,"state":"active","ping":158},{"user_id":201,"name":"Nipperman","steam_id":76561198001767499,"connected_time":2204000000000,"state":"active","ping":98},{"user_id":228,"name":"Ian","steam_id":76561198159334435,"connected_time":157000000000,"state":"active","ping":177},{"user_id":185,"name":"joeyyfan2011","steam_id":76561199014715203,"connected_time":2919000000000,"state":"active","ping":65},{"user_id":216,"name":"my monitor is off","steam_id":76561198074499537,"connected_time":1236000000000,"state":"active","ping":69},{"user_id":220,"name":"DeadPixels #SaveTF2","steam_id":76561198312934516,"connected_time":515000000000,"state":"active","ping":99},{"user_id":113,"name":"Trouser Snivy","steam_id":76561198073788829,"connected_time":8684000000000,"state":"active","ping":92}]},{"server_id":19,"name":"Uncletopia | San Francisco | 3 | Stopwatch","name_short":"sfo-3","host":"sfo-1.us.uncletopia.com","port":27035,"enabled":true,"region":"us-west","cc":"us","latitude":37.77397,"longitude":-122.4313,"reserved":0,"last_update":"0001-01-01T00:00:00Z","name_a2s":"Uncletopia | San Francisco | 3 | Stopwatch","protocol":17,"map":"koth_highpass","folder":"tf","game":"Team Fortress","app_id":440,"player_count":0,"max_players":24,"Bots":0,"server_type":"Dedicated","server_os":"Linux","password":true,"vac":true,"version":"7961495","steam_id":85568392924742824,"keywords":["cp","nocrits","nodmgspread","uncletopia"],"game_id":440,"stv_port":27036,"stv_name":"Uncletopia | San Francisco | 3 | Stopwatch | STV","players":null},{"server_id":20,"name":"Uncletopia | San Francisco | 4 | Community","name_short":"sfo-4","host":"sfo-1.us.uncletopia.com","port":27045,"enabled":true,"region":"us-west","cc":"us","latitude":37.77397,"longitude":-122.4313,"reserved":0,"last_update":"0001-01-01T00:00:00Z","name_a2s":"Uncletopia | San Francisco | 4 | Community","protocol":17,"map":"workshop/cp_sulfur_rc2.ugc619869471","folder":"tf","game":"Team Fortress","app_id":440,"player_count":0,"max_players":24,"Bots":0,"server_type":"Dedicated","server_os":"Linux","password":true,"vac":true,"version":"7961495","steam_id":85568392924742826,"keywords":["cp","nocrits","nodmgspread","uncletopia"],"game_id":440,"stv_port":27046,"stv_name":"Uncletopia | San Francisco | 4 | Community | STV","players":null},{"server_id":141,"name":"Uncletopia | Sydney | 1 | All Maps","name_short":"syd-1","host":"syd-1.au.uncletopia.com","port":27015,"enabled":true,"region":"au","cc":"au","latitude":-33.865143,"longitude":151.2099,"reserved":0,"last_update":"0001-01-01T00:00:00Z","name_a2s":"Uncletopia | Sydney | 1 | All Maps","protocol":17,"map":"cp_5gorge","folder":"tf","game":"Team Fortress","app_id":440,"player_count":24,"max_players":24,"Bots":0,"server_type":"Dedicated","server_os":"Linux","password":true,"vac":true,"version":"7961495","steam_id":85568392924470001,"keywords":["cp","nocrits","nodmgspread","uncletopia"],"game_id":440,"stv_port":27016,"stv_name":"Uncletopia | Sydney | 1 | All Maps | STV","players":[{"user_id":130,"name":"Snuky","steam_id":76561198117902338,"connected_time":1807000000000,"state":"active","ping":44},{"user_id":121,"name":"JP","steam_id":76561198026221737,"connected_time":2489000000000,"state":"active","ping":45},{"user_id":141,"name":"moresonicgaming (ttv.)","steam_id":76561198350668580,"connected_time":1124000000000,"state":"active","ping":86},{"user_id":105,"name":"Radayrk","steam_id":76561199230597049,"connected_time":4142000000000,"state":"active","ping":61},{"user_id":148,"name":"jayson.may09","steam_id":76561199017955171,"connected_time":532000000000,"state":"active","ping":71},{"user_id":145,"name":"Bilbo Swaggins","steam_id":76561198984446872,"connected_time":904000000000,"state":"active","ping":58},{"user_id":154,"name":"please be patient i have autism","steam_id":76561199219741520,"connected_time":207000000000,"state":"active","ping":92},{"user_id":118,"name":"oh noe","steam_id":76561199468787595,"connected_time":2614000000000,"state":"active","ping":53},{"user_id":142,"name":"SlurpyAnt","steam_id":76561198868808062,"connected_time":1111000000000,"state":"active","ping":55},{"user_id":151,"name":"toblue","steam_id":76561198189137465,"connected_time":310000000000,"state":"active","ping":81},{"user_id":146,"name":"Jacob","steam_id":76561198059341907,"connected_time":843000000000,"state":"active","ping":38},{"user_id":155,"name":"baz","steam_id":76561198061532381,"connected_time":101000000000,"state":"active","ping":53},{"user_id":150,"name":"Uncle_Bowlcut","steam_id":76561198225191728,"connected_time":421000000000,"state":"active","ping":57},{"user_id":144,"name":"Atlas","steam_id":76561198069332870,"connected_time":1099000000000,"state":"active","ping":59},{"user_id":122,"name":"ManofWonder1","steam_id":76561198904788550,"connected_time":2465000000000,"state":"active","ping":68},{"user_id":132,"name":"cookiex74","steam_id":76561198878408255,"connected_time":1776000000000,"state":"active","ping":54},{"user_id":111,"name":"J2PWN","steam_id":76561198409287854,"connected_time":3688000000000,"state":"active","ping":89},{"user_id":149,"name":"android","steam_id":76561198179045463,"connected_time":515000000000,"state":"active","ping":46},{"user_id":112,"name":"Jeshƒ´","steam_id":76561198105982416,"connected_time":3622000000000,"state":"active","ping":51},{"user_id":147,"name":"Mooty","steam_id":76561198301293435,"connected_time":683000000000,"state":"active","ping":52},{"user_id":152,"name":"Jiffy360","steam_id":76561198149550772,"connected_time":279000000000,"state":"active","ping":98},{"user_id":67,"name":"Nagapus","steam_id":76561198139578717,"connected_time":7121000000000,"state":"active","ping":105},{"user_id":120,"name":"Tofu","steam_id":76561198025637573,"connected_time":2533000000000,"state":"active","ping":43},{"user_id":156,"name":"vov–´ch","steam_id":76561199119493743,"connected_time":70000000000,"state":"active","ping":380}]},{"server_id":123,"name":"Uncletopia | Sydney | 2 | All Maps","name_short":"syd-2","host":"syd-1.au.uncletopia.com","port":27025,"enabled":true,"region":"au","cc":"au","latitude":-33.865143,"longitude":151.2099,"reserved":0,"last_update":"0001-01-01T00:00:00Z","name_a2s":"Uncletopia | Sydney | 2 | All Maps","protocol":17,"map":"koth_lakeside_final","folder":"tf","game":"Team Fortress","app_id":440,"player_count":0,"max_players":24,"Bots":0,"server_type":"Dedicated","server_os":"Linux","password":true,"vac":true,"version":"7961495","steam_id":85568392924470002,"keywords":["cp","nocrits","nodmgspread","uncletopia"],"game_id":440,"stv_port":27026,"stv_name":"Uncletopia | Sydney | 2 | All Maps | STV","players":null},{"server_id":395,"name":"Uncletopia | Sydney | 3 | All Maps","name_short":"syd-3","host":"syd-1.au.uncletopia.com","port":27035,"enabled":true,"region":"au","cc":"au","latitude":-33.865143,"longitude":151.2099,"reserved":0,"last_update":"0001-01-01T00:00:00Z","name_a2s":"Uncletopia | Sydney | 3 | All Maps","protocol":17,"map":"koth_cascade","folder":"tf","game":"Team Fortress","app_id":440,"player_count":0,"max_players":24,"Bots":0,"server_type":"Dedicated","server_os":"Linux","password":true,"vac":true,"version":"7961495","steam_id":85568392925194467,"keywords":["cp","nocrits","nodmgspread","uncletopia"],"game_id":440,"stv_port":27036,"stv_name":"Uncletopia | Sydney | 3 | All Maps | STV","players":null},{"server_id":396,"name":"Uncletopia | Sydney | 4 | All Maps","name_short":"syd-4","host":"syd-1.au.uncletopia.com","port":27045,"enabled":true,"region":"au","cc":"au","latitude":-33.865143,"longitude":151.2099,"reserved":0,"last_update":"0001-01-01T00:00:00Z","name_a2s":"Uncletopia | Sydney | 4 | All Maps","protocol":17,"map":"koth_highpass","folder":"tf","game":"Team Fortress","app_id":440,"player_count":2,"max_players":24,"Bots":0,"server_type":"Dedicated","server_os":"Linux","password":true,"vac":true,"version":"7961495","steam_id":85568392925397958,"keywords":["cp","nocrits","nodmgspread","uncletopia"],"game_id":440,"stv_port":27046,"stv_name":"Uncletopia | Sydney | 4 | All Maps | STV","players":[{"user_id":3,"name":"moosemeow","steam_id":76561198849004573,"connected_time":596000000000,"state":"active","ping":35},{"user_id":4,"name":"Squark","steam_id":76561199117672518,"connected_time":531000000000,"state":"active","ping":46}]},{"server_id":58,"name":"Uncletopia | Sydney | 5 | Stopwatch","name_short":"syd-5","host":"syd-1.au.uncletopia.com","port":27055,"enabled":true,"region":"au","cc":"au","latitude":-33.865143,"longitude":151.2099,"reserved":0,"last_update":"0001-01-01T00:00:00Z","name_a2s":"Uncletopia | Sydney | 5 | Stopwatch","protocol":17,"map":"pl_frontier_final","folder":"tf","game":"Team Fortress","app_id":440,"player_count":0,"max_players":24,"Bots":0,"server_type":"Dedicated","server_os":"Linux","password":true,"vac":true,"version":"7961495","steam_id":85568392925397959,"keywords":["nocrits","nodmgspread","payload","uncletopia"],"game_id":440,"stv_port":27056,"stv_name":"Uncletopia | Sydney | 5 | Stopwatch | STV","players":null},{"server_id":59,"name":"Uncletopia | Sydney | 6 | Community","name_short":"syd-6","host":"syd-1.au.uncletopia.com","port":27065,"enabled":true,"region":"au","cc":"au","latitude":-33.865143,"longitude":151.2099,"reserved":0,"last_update":"0001-01-01T00:00:00Z","name_a2s":"Uncletopia | Sydney | 6 | Community","protocol":17,"map":"workshop/koth_kemptown_rc1.ugc767410655","folder":"tf","game":"Team Fortress","app_id":440,"player_count":0,"max_players":24,"Bots":0,"server_type":"Dedicated","server_os":"Linux","password":true,"vac":true,"version":"7961495","steam_id":85568392925397960,"keywords":["cp","nocrits","nodmgspread","uncletopia"],"game_id":440,"stv_port":27066,"stv_name":"Uncletopia | Sydney | 6 | Community | STV","players":null},{"server_id":49,"name":"Uncletopia | Warsaw | 1 | One Thousand Uncles","name_short":"waw-1","host":"waw-1.pl.uncletopia.com","port":27015,"enabled":true,"region":"eu","cc":"pl","latitude":52.2297,"longitude":21.017532,"reserved":0,"last_update":"0001-01-01T00:00:00Z","name_a2s":"Uncletopia | Warsaw | 1 | One Thousand Uncles","protocol":17,"map":"koth_highpass","folder":"tf","game":"Team Fortress","app_id":440,"player_count":0,"max_players":32,"Bots":0,"server_type":"Dedicated","server_os":"Linux","password":true,"vac":true,"version":"7961495","steam_id":85568392925397850,"keywords":["alltalk","cp","danepve","increased_maxplayers","nocrits","norespawntime","uncletopia"],"game_id":440,"stv_port":0,"stv_name":"","players":null},{"server_id":50,"name":"Uncletopia | Warsaw | 2 | One Thousand Uncles","name_short":"waw-2","host":"waw-1.pl.uncletopia.com","port":27025,"enabled":true,"region":"eu","cc":"pl","latitude":52.2297,"longitude":21.017532,"reserved":0,"last_update":"0001-01-01T00:00:00Z","name_a2s":"Uncletopia | Warsaw | 2 | One Thousand Uncles","protocol":17,"map":"pl_badwater","folder":"tf","game":"Team Fortress","app_id":440,"player_count":0,"max_players":32,"Bots":0,"server_type":"Dedicated","server_os":"Linux","password":true,"vac":true,"version":"7961495","steam_id":85568392925397851,"keywords":["alltalk","danepve","increased_maxplayers","nocrits","norespawntime","payload","uncletopia"],"game_id":440,"stv_port":0,"stv_name":"","players":null},{"server_id":51,"name":"Uncletopia | Warsaw | 3 | All Maps","name_short":"waw-3","host":"waw-1.pl.uncletopia.com","port":27035,"enabled":true,"region":"eu","cc":"pl","latitude":52.2297,"longitude":21.017532,"reserved":0,"last_update":"0001-01-01T00:00:00Z","name_a2s":"Uncletopia | Warsaw | 3 | All Maps","protocol":17,"map":"plr_pipeline","folder":"tf","game":"Team Fortress","app_id":440,"player_count":0,"max_players":24,"Bots":0,"server_type":"Dedicated","server_os":"Linux","password":true,"vac":true,"version":"7961495","steam_id":85568392925397852,"keywords":["nocrits","nodmgspread","payload","uncletopia"],"game_id":440,"stv_port":27036,"stv_name":"Uncletopia | Warsaw | 3 | All Maps | STV","players":null},{"server_id":52,"name":"Uncletopia | Warsaw | 4 | All Maps","name_short":"waw-4","host":"waw-1.pl.uncletopia.com","port":27045,"enabled":true,"region":"eu","cc":"pl","latitude":52.2297,"longitude":21.017532,"reserved":0,"last_update":"0001-01-01T00:00:00Z","name_a2s":"Uncletopia | Warsaw | 4 | All Maps","protocol":17,"map":"cp_coldfront","folder":"tf","game":"Team Fortress","app_id":440,"player_count":0,"max_players":24,"Bots":0,"server_type":"Dedicated","server_os":"Linux","password":true,"vac":true,"version":"7961495","steam_id":85568392925397853,"keywords":["cp","nocrits","nodmgspread","uncletopia"],"game_id":440,"stv_port":27046,"stv_name":"Uncletopia | Warsaw | 4 | All Maps | STV","players":null},{"server_id":53,"name":"Uncletopia | Warsaw | 5 | Stopwatch","name_short":"waw-5","host":"waw-1.pl.uncletopia.com","port":27055,"enabled":true,"region":"eu","cc":"pl","latitude":52.2297,"longitude":21.017532,"reserved":0,"last_update":"0001-01-01T00:00:00Z","name_a2s":"Uncletopia | Warsaw | 5 | Stopwatch","protocol":17,"map":"workshop/koth_bagel_rc6.ugc2514036946","folder":"tf","game":"Team Fortress","app_id":440,"player_count":0,"max_players":24,"Bots":0,"server_type":"Dedicated","server_os":"Linux","password":true,"vac":true,"version":"7961495","steam_id":85568392925397854,"keywords":["cp","nocrits","nodmgspread","uncletopia"],"game_id":440,"stv_port":27056,"stv_name":"Uncletopia | Warsaw | 5 | Stopwatch | STV","players":null},{"server_id":54,"name":"Uncletopia | Warsaw | 6 | Community","name_short":"waw-6","host":"waw-1.pl.uncletopia.com","port":27065,"enabled":true,"region":"eu","cc":"pl","latitude":52.2297,"longitude":21.017532,"reserved":0,"last_update":"0001-01-01T00:00:00Z","name_a2s":"Uncletopia | Warsaw | 6 | Community","protocol":17,"map":"workshop/pl_badwater_pro_v12.ugc2142942074","folder":"tf","game":"Team Fortress","app_id":440,"player_count":0,"max_players":24,"Bots":0,"server_type":"Dedicated","server_os":"Linux","password":true,"vac":true,"version":"7961495","steam_id":85568392925397856,"keywords":["nocrits","nodmgspread","payload","uncletopia"],"game_id":440,"stv_port":27066,"stv_name":"Uncletopia | Warsaw | 6 | Community | STV","players":null}]}