{"status":true,"message":"","result":[{"server_id":9,"name":"Uncletopia | Atlanta | 1 | All Maps","name_short":"atl-1","host":"atl-1.us.uncletopia.com","port":27015,"enabled":true,"region":"us-east","cc":"us","latitude":33.753746,"longitude":-84.38633,"reserved":0,"last_update":"0001-01-01T00:00:00Z","name_a2s":"Uncletopia | Atlanta | 1 | All Maps","protocol":17,"map":"pl_frontier_final","folder":"tf","game":"Team Fortress","app_id":440,"player_count":24,"max_players":24,"Bots":0,"server_type":"Dedicated","server_os":"Linux","password":true,"vac":true,"version":"7757534","steam_id":85568392924469982,"keywords":["nocrits","nodmgspread","payload","uncletopia"],"game_id":440,"stv_port":27016,"stv_name":"Uncletopia | Atlanta | 1 | All Maps | STV","players":[{"user_id":695,"name":"_clean","steam_id":76561199095580664,"connected_time":2044000000000,"state":"active","ping":123},{"user_id":689,"name":"xFactr","steam_id":76561198129007422,"connected_time":2651000000000,"state":"active","ping":54},{"user_id":706,"name":"the-willy12","steam_id":76561199145029672,"connected_time":1051000000000,"state":"active","ping":90},{"user_id":686,"name":"Q47","steam_id":76561198087128341,"connected_time":3192000000000,"state":"active","ping":116},{"user_id":659,"name":"eish","steam_id":76561198089463603,"connected_time":4916000000000,"state":"active","ping":126},{"user_id":694,"name":"Ghetto Smosh Fan","steam_id":76561198097272509,"connected_time":2270000000000,"state":"active","ping":37},{"user_id":708,"name":"Hydroxianchaos","steam_id":76561198043786828,"connected_time":985000000000,"state":"active","ping":73},{"user_id":687,"name":"basil","steam_id":76561198075758026,"connected_time":3151000000000,"state":"active","ping":67},{"user_id":712,"name":"bogginwater","steam_id":76561198155547142,"connected_time":546000000000,"state":"active","ping":65},{"user_id":711,"name":"the doo doo man","steam_id":76561198057076267,"connected_time":606000000000,"state":"active","ping":75},{"user_id":688,"name":"DuckMann","steam_id":76561198197058638,"connected_time":2662000000000,"state":"active","ping":47},{"user_id":672,"name":"ash","steam_id":76561198127890645,"connected_time":4076000000000,"state":"active","ping":63},{"user_id":657,"name":"Broken Cereal√","steam_id":76561198087489795,"connected_time":4937000000000,"state":"active","ping":75},{"user_id":713,"name":"Spiderfight1","steam_id":76561199189991528,"connected_time":95000000000,"state":"active","ping":86},{"user_id":700,"name":"e0e0","steam_id":76561198293839750,"connected_time":1411000000000,"state":"active","ping":62},{"user_id":611,"name":"Intro Bonito","steam_id":76561198119478838,"connected_time":8492000000000,"state":"active","ping":49},{"user_id":699,"name":"Dr. drips","steam_id":76561198209380493,"connected_time":1438000000000,"state":"active","ping":64},{"user_id":715,"name":"howtobepker","steam_id":76561198115053865,"connected_time":53000000000,"state":"active","ping":118},{"user_id":681,"name":"PinkLemonade","steam_id":76561198799286228,"connected_time":3317000000000,"state":"active","ping":75},{"user_id":669,"name":"Nickorea","steam_id":76561198025784788,"connected_time":4314000000000,"state":"active","ping":63},{"user_id":682,"name":"T Jit","steam_id":76561197993371179,"connected_time":3290000000000,"state":"active","ping":48},{"user_id":705,"name":"Quality","steam_id":76561198361132101,"connected_time":1128000000000,"state":"active","ping":98},{"user_id":677,"name":"snoops","steam_id":76561197986760351,"connected_time":3582000000000,"state":"active","ping":81},{"user_id":697,"name":"Bottom Trans Cowgirl","steam_id":76561198304239680,"connected_time":1471000000000,"state":"active","ping":81}]},{"server_id":104,"name":"Uncletopia | Atlanta | 2 | All Maps","name_short":"atl-2","host":"atl-1.us.uncletopia.com","port":27025,"enabled":true,"region":"us-east","cc":"us","latitude":33.753746,"longitude":-84.38633,"reserved":0,"last_update":"0001-01-01T00:00:00Z","name_a2s":"Uncletopia | Atlanta | 2 | All Maps","protocol":17,"map":"pl_badwater","folder":"tf","game":"Team Fortress","app_id":440,"player_count":24,"max_players":24,"Bots":0,"server_type":"Dedicated","server_os":"Linux","password":true,"vac":true,"version":"7757534","steam_id":85568392924469983,"keywords":["nocrits","nodmgspread","payload","uncletopia"],"game_id":440,"stv_port":27026,"stv_name":"Uncletopia | Atlanta | 2 | All Maps | STV","players":[{"user_id":589,"name":"Max","steam_id":76561198029782094,"connected_time":1925000000000,"state":"active","ping":85},{"user_id":604,"name":"smeg johnson","steam_id":76561198129255799,"connected_time":548000000000,"state":"active","ping":86},{"user_id":603,"name":"Mr.Henderson","steam_id":76561198048801668,"connected_time":836000000000,"state":"active","ping":87},{"user_id":594,"name":"Jungo Rd","steam_id":76561198048234730,"connected_time":968000000000,"state":"active","ping":88},{"user_id":516,"name":"black_gazebo","steam_id":76561197991652544,"connected_time":7671000000000,"state":"active","ping":95},{"user_id":606,"name":"Shattered Glass","steam_id":76561198116835391,"connected_time":459000000000,"state":"active","ping":95},{"user_id":579,"name":"Kraftlos","steam_id":76561198074350350,"connected_time":2654000000000,"state":"active","ping":75},{"user_id":595,"name":"Romo","steam_id":76561198243101572,"connected_time":956000000000,"state":"active","ping":68},{"user_id":605,"name":"Asphalt","steam_id":76561198014827224,"connected_time":484000000000,"state":"active","ping":82},{"user_id":607,"name":"warbone","steam_id":76561198025312743,"connected_time":5000000000,"state":"spawning","ping":47},{"user_id":575,"name":"Ros","steam_id":76561199055963822,"connected_time":2741000000000,"state":"active","ping":53},{"user_id":597,"name":"Cassini","steam_id":76561198318526294,"connected_time":902000000000,"state":"active","ping":60},{"user_id":591,"name":"flappyflap2","steam_id":76561198285048973,"connected_time":1152000000000,"state":"active","ping":66},{"user_id":598,"name":"SOAPBOX","steam_id":76561198075224361,"connected_time":893000000000,"state":"active","ping":77},{"user_id":600,"name":"Potato Person","steam_id":76561198010373482,"connected_time":872000000000,"state":"active","ping":76},{"user_id":562,"name":"Bheem","steam_id":76561198170453459,"connected_time":3865000000000,"state":"active","ping":113},{"user_id":568,"name":"The Pope","steam_id":76561198313560302,"connected_time":3681000000000,"state":"active","ping":41},{"user_id":569,"name":"JoJo","steam_id":76561198063687796,"connected_time":3389000000000,"state":"active","ping":89},{"user_id":601,"name":"Yeagle","steam_id":76561199086620299,"connected_time":870000000000,"state":"active","ping":69},{"user_id":546,"name":"DJ Spit","steam_id":76561198186637025,"connected_time":5129000000000,"state":"active","ping":93},{"user_id":548,"name":"Darkdrake","steam_id":76561198107200600,"connected_time":4971000000000,"state":"active","ping":59},{"user_id":602,"name":"Spoompls","steam_id":76561198383182274,"connected_time":869000000000,"state":"active","ping":106},{"user_id":573,"name":"rumford sweep","steam_id":76561198991982630,"connected_time":3044000000000,"state":"active","ping":55},{"user_id":578,"name":"banana97286","steam_id":76561199367847817,"connected_time":2675000000000,"state":"active","ping":64}]},{"server_id":400,"name":"Uncletopia | Atlanta | 3 | Community","name_short":"atl-3","host":"atl-1.us.uncletopia.com","port":27035,"enabled":true,"region":"us-east","cc":"us","latitude":33.753746,"longitude":-84.38633,"reserved":0,"last_update":"0001-01-01T00:00:00Z","name_a2s":"Uncletopia | Atlanta | 3 | Community","protocol":17,"map":"workshop/cp_bruhstbowl_b5.ugc2878604990","folder":"tf","game":"Team Fortress","app_id":440,"player_count":24,"max_players":24,"Bots":0,"server_type":"Dedicated","server_os":"Linux","password":true,"vac":true,"version":"7757534","steam_id":85568392924515187,"keywords":["cp","nocrits","nodmgspread","uncletopia"],"game_id":440,"stv_port":27036,"stv_name":"Uncletopia | Atlanta | 3 | Community | STV","players":[{"user_id":69,"name":"Osteo-Oligarch","steam_id":76561198164731896,"connected_time":2977000000000,"state":"active","ping":96},{"user_id":51,"name":"ghurt","steam_id":76561198110161551,"connected_time":4764000000000,"state":"active","ping":82},{"user_id":102,"name":"Poo","steam_id":76561198265144507,"connected_time":1548000000000,"state":"active","ping":77},{"user_id":98,"name":"jaqalope","steam_id":76561198152144009,"connected_time":1670000000000,"state":"active","ping":95},{"user_id":113,"name":"vert","steam_id":76561198005242943,"connected_time":407000000000,"state":"active","ping":56},{"user_id":61,"name":"UNIT 220","steam_id":76561198042243497,"connected_time":3761000000000,"state":"active","ping":62},{"user_id":116,"name":"Hvit","steam_id":76561198091594259,"connected_time":154000000000,"state":"active","ping":97},{"user_id":114,"name":"Havok","steam_id":76561198063455003,"connected_time":237000000000,"state":"active","ping":72},{"user_id":117,"name":"Walmart Employee","steam_id":76561198840373909,"connected_time":99000000000,"state":"active","ping":74},{"user_id":68,"name":"ribbonborn","steam_id":76561198001195423,"connected_time":3266000000000,"state":"active","ping":102},{"user_id":80,"name":"Wiener Hole Paper Cut","steam_id":76561198000808203,"connected_time":2428000000000,"state":"active","ping":73},{"user_id":95,"name":"deadpixel","steam_id":76561198150249843,"connected_time":2025000000000,"state":"active","ping":60},{"user_id":99,"name":"mel","steam_id":76561198097124190,"connected_time":1669000000000,"state":"active","ping":77},{"user_id":100,"name":"stuNz","steam_id":76561198170437793,"connected_time":1648000000000,"state":"active","ping":89},{"user_id":120,"name":"sweaterfan","steam_id":76561199389567214,"connected_time":2000000000,"state":"spawning","ping":58},{"user_id":97,"name":"phil on boots","steam_id":76561198069668107,"connected_time":1679000000000,"state":"active","ping":124},{"user_id":103,"name":"melon soda","steam_id":76561198066748230,"connected_time":1473000000000,"state":"active","ping":64},{"user_id":90,"name":"lucin","steam_id":76561198258062078,"connected_time":2212000000000,"state":"active","ping":57},{"user_id":106,"name":"Mr.Sheesh","steam_id":76561198850476869,"connected_time":1176000000000,"state":"active","ping":94},{"user_id":112,"name":"♤ Spadek ♤","steam_id":76561198102147842,"connected_time":776000000000,"state":"active","ping":57},{"user_id":109,"name":"Sentient Plant","steam_id":76561199196300397,"connected_time":1052000000000,"state":"active","ping":123},{"user_id":89,"name":"B","steam_id":76561199174945581,"connected_time":2292000000000,"state":"active","ping":62},{"user_id":92,"name":"jester","steam_id":76561198065970212,"connected_time":2195000000000,"state":"active","ping":62},{"user_id":94,"name":"Phil Collins","steam_id":76561198068868644,"connected_time":2109000000000,"state":"active","ping":106}]},{"server_id":401,"name":"Uncletopia | Atlanta | 4 | No Payload","name_short":"atl-4","host":"atl-1.us.uncletopia.com","port":27045,"enabled":true,"region":"us-east","cc":"us","latitude":33.753746,"longitude":-84.38633,"reserved":0,"last_update":"0001-01-01T00:00:00Z","name_a2s":"","protocol":0,"map":"","folder":"","game":"","app_id":0,"player_count":0,"max_players":0,"Bots":0,"server_type":"","server_os":"","password":false,"vac":false,"version":"","steam_id":0,"keywords":null,"game_id":0,"stv_port":0,"stv_name":"","players":null},{"server_id":2,"name":"Uncletopia | Chicago | 1 | All Maps","name_short":"chi-1","host":"chi-1.us.uncletopia.com","port":27015,"enabled":true,"region":"us-central","cc":"us","latitude":41.881832,"longitude":-87.62318,"reserved":0,"last_update":"0001-01-01T00:00:00Z","name_a2s":"Uncletopia | Chicago | 1 | All Maps","protocol":17,"map":"cp_steel","folder":"tf","game":"Team Fortress","app_id":440,"player_count":24,"max_players":24,"Bots":0,"server_type":"Dedicated","server_os":"Linux","password":true,"vac":true,"version":"7757534","steam_id":85568392924469984,"keywords":["cp","nocrits","nodmgspread","uncletopia"],"game_id":440,"stv_port":27016,"stv_name":"Uncletopia | Chicago | 1 | All Maps | STV","players":[{"user_id":714,"name":"Mixomin","steam_id":76561198295061570,"connected_time":802000000000,"state":"active","ping":59},{"user_id":670,"name":"vv","steam_id":76561198134813102,"connected_time":5311000000000,"state":"active","ping":62},{"user_id":686,"name":"kite","steam_id":76561198346516392,"connected_time":3056000000000,"state":"active","ping":120},{"user_id":717,"name":"Toasty Gyro","steam_id":76561198001026643,"connected_time":722000000000,"state":"active","ping":47},{"user_id":727,"name":"Russians With Satisfaction","steam_id":76561197993814144,"connected_time":179000000000,"state":"active","ping":56},{"user_id":689,"name":"Vox Vulpera","steam_id":76561198796227041,"connected_time":3042000000000,"state":"active","ping":89},{"user_id":712,"name":"AOTFB | WhiteWolf6421","steam_id":76561199184921234,"connected_time":1425000000000,"state":"active","ping":80},{"user_id":701,"name":"Scab Collector","steam_id":76561198346425545,"connected_time":2237000000000,"state":"active","ping":54},{"user_id":729,"name":"[UHS] K24A4 2.4","steam_id":76561199072970627,"connected_time":31000000000,"state":"active","ping":45},{"user_id":719,"name":"Dr Oshawott","steam_id":76561198042021629,"connected_time":651000000000,"state":"active","ping":63},{"user_id":726,"name":"MantisToboggan","steam_id":76561197969447887,"connected_time":199000000000,"state":"active","ping":137},{"user_id":636,"name":"Trogdor","steam_id":76561198121353181,"connected_time":7587000000000,"state":"active","ping":95},{"user_id":672,"name":"büddeh","steam_id":76561198070735936,"connected_time":4967000000000,"state":"active","ping":59},{"user_id":721,"name":"Drilly22","steam_id":76561198068838338,"connected_time":520000000000,"state":"active","ping":91},{"user_id":667,"name":"Jak(i)","steam_id":76561198076823144,"connected_time":5758000000000,"state":"active","ping":64},{"user_id":722,"name":"Konyuna","steam_id":76561198067951988,"connected_time":489000000000,"state":"active","ping":69},{"user_id":687,"name":"AttackCommander","steam_id":76561198111522679,"connected_time":3055000000000,"state":"active","ping":80},{"user_id":663,"name":"Rec","steam_id":76561198022813906,"connected_time":5949000000000,"state":"active","ping":52},{"user_id":723,"name":"Whatrus","steam_id":76561198340908301,"connected_time":406000000000,"state":"active","ping":123},{"user_id":713,"name":"Ras","steam_id":76561198123546775,"connected_time":1334000000000,"state":"active","ping":71},{"user_id":685,"name":"AOTFB | Eminem Fortnite","steam_id":76561198064631314,"connected_time":3078000000000,"state":"active","ping":70},{"user_id":728,"name":"NUt","steam_id":76561198031007966,"connected_time":158000000000,"state":"active","ping":78},{"user_id":664,"name":"JSClinton","steam_id":76561198067487389,"connected_time":5948000000000,"state":"active","ping":74},{"user_id":709,"name":"-π- BakaD","steam_id":76561197960559169,"connected_time":1984000000000,"state":"active","ping":57}]},{"server_id":106,"name":"Uncletopia | Chicago | 2 | All Maps","name_short":"chi-2","host":"chi-1.us.uncletopia.com","port":27025,"enabled":true,"region":"us-central","cc":"us","latitude":41.881832,"longitude":-87.62318,"reserved":0,"last_update":"0001-01-01T00:00:00Z","name_a2s":"Uncletopia | Chicago | 2 | All Maps","protocol":17,"map":"pl_barnblitz","folder":"tf","game":"Team Fortress","app_id":440,"player_count":24,"max_players":24,"Bots":0,"server_type":"Dedicated","server_os":"Linux","password":true,"vac":true,"version":"7757534","steam_id":85568392924469985,"keywords":["nocrits","nodmgspread","payload","uncletopia"],"game_id":440,"stv_port":27026,"stv_name":"Uncletopia | Chicago | 2 | All Maps | STV","players":[{"user_id":589,"name":"OptiCxmShot","steam_id":76561198049019578,"connected_time":1603000000000,"state":"active","ping":94},{"user_id":609,"name":"Galactic Grass","steam_id":76561198097983927,"connected_time":341000000000,"state":"active","ping":85},{"user_id":615,"name":"weeb_whacker#Jenius#Hateologist","steam_id":76561198187098041,"connected_time":221000000000,"state":"active","ping":56},{"user_id":599,"name":"Scrumpy Main","steam_id":76561198146302597,"connected_time":847000000000,"state":"active","ping":47},{"user_id":577,"name":"Løst","steam_id":76561198035677801,"connected_time":2615000000000,"state":"active","ping":64},{"user_id":584,"name":"Killerkarate","steam_id":76561198067533929,"connected_time":1986000000000,"state":"active","ping":54},{"user_id":610,"name":"Puuung","steam_id":76561199186072324,"connected_time":331000000000,"state":"active","ping":60},{"user_id":606,"name":"Carmine Lupertazzi Jr.","steam_id":76561198059535856,"connected_time":354000000000,"state":"active","ping":75},{"user_id":611,"name":"Ｂａｎａｎａ Ｋｕｓｈ","steam_id":76561198144939374,"connected_time":321000000000,"state":"active","ping":87},{"user_id":607,"name":"Fuzzy Toast","steam_id":76561198028067781,"connected_time":354000000000,"state":"active","ping":44},{"user_id":460,"name":"Bokogi","steam_id":76561198063884580,"connected_time":9610000000000,"state":"active","ping":71},{"user_id":608,"name":"Raptortastic","steam_id":76561198105613110,"connected_time":350000000000,"state":"active","ping":58},{"user_id":464,"name":"StarCopper","steam_id":76561198024890295,"connected_time":9152000000000,"state":"active","ping":84},{"user_id":612,"name":"Pathara44","steam_id":76561198048238620,"connected_time":312000000000,"state":"active","ping":58},{"user_id":613,"name":"PrinceGrotle","steam_id":76561198206131603,"connected_time":271000000000,"state":"active","ping":69},{"user_id":583,"name":"Cucumber Gaming","steam_id":76561198982680715,"connected_time":2070000000000,"state":"active","ping":50},{"user_id":593,"name":"Skullypoo","steam_id":76561198067912022,"connected_time":1525000000000,"state":"active","ping":55},{"user_id":614,"name":"Wang of Wall St","steam_id":76561198047460598,"connected_time":253000000000,"state":"active","ping":77},{"user_id":600,"name":"Dzhoshua","steam_id":76561198071915251,"connected_time":792000000000,"state":"active","ping":62},{"user_id":579,"name":"Mister36","steam_id":76561198019132100,"connected_time":2577000000000,"state":"active","ping":52},{"user_id":594,"name":"Disciplinary Clarkson","steam_id":76561198042748864,"connected_time":1511000000000,"state":"active","ping":83},{"user_id":602,"name":"Cat in Your Backyard","steam_id":76561197979078330,"connected_time":703000000000,"state":"active","ping":62},{"user_id":565,"name":"Bludgeon","steam_id":76561198272009412,"connected_time":3126000000000,"state":"active","ping":111},{"user_id":605,"name":"Terium","steam_id":76561198331234327,"connected_time":403000000000,"state":"active","ping":59}]},{"server_id":402,"name":"Uncletopia | Chicago | 3 | All Maps","name_short":"chi-3","host":"chi-1.us.uncletopia.com","port":27035,"enabled":true,"region":"us-central","cc":"us","latitude":41.881832,"longitude":-87.62318,"reserved":0,"last_update":"0001-01-01T00:00:00Z","name_a2s":"Uncletopia | Chicago | 3 | All Maps","protocol":17,"map":"pl_swiftwater_final1","folder":"tf","game":"Team Fortress","app_id":440,"player_count":24,"max_players":24,"Bots":0,"server_type":"Dedicated","server_os":"Linux","password":true,"vac":true,"version":"7757534","steam_id":85568392924515191,"keywords":["nocrits","nodmgspread","payload","uncletopia"],"game_id":440,"stv_port":27036,"stv_name":"Uncletopia | Chicago | 3 | All Maps | STV","players":[{"user_id":328,"name":"WheelockWarlock","steam_id":76561198171456553,"connected_time":931000000000,"state":"active","ping":93},{"user_id":248,"name":"rkp!","steam_id":76561199053070819,"connected_time":5668000000000,"state":"active","ping":56},{"user_id":285,"name":"Dr. Dick","steam_id":76561198138011922,"connected_time":3295000000000,"state":"active","ping":80},{"user_id":323,"name":"Radon","steam_id":76561198294035077,"connected_time":1174000000000,"state":"active","ping":68},{"user_id":288,"name":"Cyclaw","steam_id":76561198076045689,"connected_time":3157000000000,"state":"active","ping":52},{"user_id":340,"name":"TATARA","steam_id":76561199098759517,"connected_time":812000000000,"state":"active","ping":134},{"user_id":317,"name":"Chode Mode","steam_id":76561198353840477,"connected_time":1988000000000,"state":"active","ping":47},{"user_id":342,"name":"deez","steam_id":76561198114436842,"connected_time":645000000000,"state":"active","ping":75},{"user_id":326,"name":"XeroDollars","steam_id":76561198137858047,"connected_time":955000000000,"state":"active","ping":67},{"user_id":319,"name":"mcjuice","steam_id":76561198087730829,"connected_time":1501000000000,"state":"active","ping":69},{"user_id":321,"name":"Cave Dweller","steam_id":76561198374825685,"connected_time":1314000000000,"state":"active","ping":122},{"user_id":325,"name":"Katy | Synr.gg","steam_id":76561198079395814,"connected_time":1046000000000,"state":"active","ping":60},{"user_id":327,"name":"rocketspeed16","steam_id":76561198246227992,"connected_time":952000000000,"state":"active","ping":80},{"user_id":304,"name":"Jeugh","steam_id":76561198073498865,"connected_time":2613000000000,"state":"active","ping":92},{"user_id":296,"name":"Crunchy","steam_id":76561199065412274,"connected_time":2976000000000,"state":"active","ping":78},{"user_id":258,"name":"eWVra2Vy","steam_id":76561198453565942,"connected_time":5296000000000,"state":"active","ping":78},{"user_id":312,"name":"guess","steam_id":76561198140846580,"connected_time":2120000000000,"state":"active","ping":63},{"user_id":318,"name":"Demoman With One Joke","steam_id":76561197993467034,"connected_time":1604000000000,"state":"active","ping":54},{"user_id":322,"name":"Not What He Wanted to Cook","steam_id":76561198057374871,"connected_time":1280000000000,"state":"active","ping":67},{"user_id":337,"name":"Combez","steam_id":76561198215028184,"connected_time":910000000000,"state":"active","ping":74},{"user_id":294,"name":"TheSecretNewbie","steam_id":76561198194671218,"connected_time":3127000000000,"state":"active","ping":51},{"user_id":302,"name":"Clean Lines","steam_id":76561197960691518,"connected_time":2718000000000,"state":"active","ping":49},{"user_id":324,"name":"Juan Pablo Gonzalez 2023","steam_id":76561199197961413,"connected_time":1102000000000,"state":"active","ping":59},{"user_id":338,"name":"Goose of Wisdom","steam_id":76561198233465044,"connected_time":904000000000,"state":"active","ping":89}]},{"server_id":403,"name":"Uncletopia | Chicago | 4 | All Maps","name_short":"chi-4","host":"chi-1.us.uncletopia.com","port":27045,"enabled":true,"region":"us-central","cc":"us","latitude":41.881832,"longitude":-87.62318,"reserved":0,"last_update":"0001-01-01T00:00:00Z","name_a2s":"Uncletopia | Chicago | 4 | All Maps","protocol":17,"map":"pl_frontier_final","folder":"tf","game":"Team Fortress","app_id":440,"player_count":23,"max_players":24,"Bots":0,"server_type":"Dedicated","server_os":"Linux","password":true,"vac":true,"version":"7757534","steam_id":85568392924515193,"keywords":["nocrits","nodmgspread","payload","uncletopia"],"game_id":440,"stv_port":27046,"stv_name":"Uncletopia | Chicago | 4 | All Maps | STV","players":[{"user_id":328,"name":"CYBER","steam_id":76561197963237357,"connected_time":570000000000,"state":"active","ping":112},{"user_id":320,"name":"Taco","steam_id":76561198034670953,"connected_time":1651000000000,"state":"active","ping":70},{"user_id":331,"name":"lazarust","steam_id":76561198355322731,"connected_time":114000000000,"state":"active","ping":81},{"user_id":310,"name":"MilkMuncher","steam_id":76561198103055485,"connected_time":1822000000000,"state":"active","ping":51},{"user_id":289,"name":"PixelatedMax","steam_id":76561198168460035,"connected_time":3075000000000,"state":"active","ping":64},{"user_id":283,"name":"Universe Man","steam_id":76561197997710655,"connected_time":3261000000000,"state":"active","ping":86},{"user_id":332,"name":"Not_Luke_Once_More","steam_id":76561198180891187,"connected_time":70000000000,"state":"active","ping":72},{"user_id":333,"name":"bag of welch's with only yellow","steam_id":76561198992914023,"connected_time":25000000000,"state":"active","ping":92},{"user_id":313,"name":"gαвє ησëℓ","steam_id":76561198067342352,"connected_time":1797000000000,"state":"active","ping":149},{"user_id":302,"name":"StraySheep","steam_id":76561198256003811,"connected_time":2249000000000,"state":"active","ping":68},{"user_id":317,"name":"CamelyKonas","steam_id":76561198097672992,"connected_time":1752000000000,"state":"active","ping":61},{"user_id":315,"name":"The Rampant Kirby","steam_id":76561198049770075,"connected_time":1782000000000,"state":"active","ping":74},{"user_id":318,"name":"chill frog","steam_id":76561199471943472,"connected_time":1742000000000,"state":"active","ping":77},{"user_id":314,"name":"GayRichThug17","steam_id":76561198880396651,"connected_time":1792000000000,"state":"active","ping":83},{"user_id":293,"name":"Prof. Oli","steam_id":76561198980241587,"connected_time":3055000000000,"state":"active","ping":74},{"user_id":321,"name":"The local hobo","steam_id":76561198289650060,"connected_time":1633000000000,"state":"active","ping":88},{"user_id":334,"name":"Shame","steam_id":76561198100490994,"connected_time":11000000000,"state":"active","ping":77},{"user_id":335,"name":"Ze_Über_Nerd","steam_id":76561198091148675,"connected_time":0,"state":"connecting","ping":0},{"user_id":301,"name":"Minus273C","steam_id":76561197967510404,"connected_time":2346000000000,"state":"active","ping":66},{"user_id":327,"name":"Rx Auntie","steam_id":76561198051618393,"connected_time":698000000000,"state":"active","ping":60},{"user_id":323,"name":"Tanner Jarring","steam_id":76561198172024365,"connected_time":1620000000000,"state":"active","ping":60},{"user_id":324,"name":"Aegis XIII","steam_id":76561198295006002,"connected_time":1600000000000,"state":"active","ping":55},{"user_id":308,"name":"hummus in my tummus","steam_id":76561199438698036,"connected_time":1990000000000,"state":"active","ping":80}]},{"server_id":36,"name":"Uncletopia | Chicago | 5 | All Maps","name_short":"chi-5","host":"chi-2.us.uncletopia.com","port":27015,"enabled":true,"region":"us-central","cc":"us","latitude":41.881832,"longitude":-87.62318,"reserved":0,"last_update":"0001-01-01T00:00:00Z","name_a2s":"Uncletopia | Chicago | 5 | All Maps","protocol":17,"map":"pl_pier","folder":"tf","game":"Team Fortress","app_id":440,"player_count":24,"max_players":24,"Bots":0,"server_type":"Dedicated","server_os":"Linux","password":true,"vac":true,"version":"7757534","steam_id":85568392924866362,"keywords":["nocrits","nodmgspread","payload","uncletopia"],"game_id":440,"stv_port":27016,"stv_name":"Uncletopia | Chicago | 5 | All Maps | STV","players":[{"user_id":600,"name":"Swirl","steam_id":76561199202761955,"connected_time":202000000000,"state":"active","ping":64},{"user_id":587,"name":"threethree","steam_id":76561198177354155,"connected_time":2506000000000,"state":"active","ping":48},{"user_id":570,"name":"root bear float (real)","steam_id":76561199229170788,"connected_time":3862000000000,"state":"active","ping":49},{"user_id":561,"name":"Ejaculation Zach","steam_id":76561198203765200,"connected_time":4277000000000,"state":"active","ping":64},{"user_id":510,"name":"mechanicvirus","steam_id":76561198038161480,"connected_time":7927000000000,"state":"active","ping":108},{"user_id":551,"name":"TrevBev45","steam_id":76561198273637677,"connected_time":4915000000000,"state":"active","ping":73},{"user_id":602,"name":"Cruisin'","steam_id":76561199245457119,"connected_time":164000000000,"state":"active","ping":76},{"user_id":579,"name":"fuckterry","steam_id":76561198271957738,"connected_time":3396000000000,"state":"active","ping":61},{"user_id":586,"name":"Shylo","steam_id":76561199276858045,"connected_time":2562000000000,"state":"active","ping":84},{"user_id":603,"name":"Purple Pumpkin","steam_id":76561199030211616,"connected_time":96000000000,"state":"active","ping":90},{"user_id":604,"name":"Bugc97","steam_id":76561198007662645,"connected_time":89000000000,"state":"active","ping":79},{"user_id":598,"name":"Hope","steam_id":76561199201900779,"connected_time":411000000000,"state":"active","ping":77},{"user_id":589,"name":"Gibby","steam_id":76561199336569123,"connected_time":2464000000000,"state":"active","ping":122},{"user_id":573,"name":"Space⭐Taffy","steam_id":76561198002271720,"connected_time":3630000000000,"state":"active","ping":72},{"user_id":572,"name":"Ivan I","steam_id":76561198341781527,"connected_time":3788000000000,"state":"active","ping":88},{"user_id":596,"name":"BasicPeaches","steam_id":76561198190890150,"connected_time":1185000000000,"state":"active","ping":86},{"user_id":545,"name":"Cuntslinger","steam_id":76561198303948269,"connected_time":5265000000000,"state":"active","ping":66},{"user_id":583,"name":"Halor","steam_id":76561198082791371,"connected_time":3115000000000,"state":"active","ping":187},{"user_id":576,"name":"Sabag3D","steam_id":76561198094402240,"connected_time":3428000000000,"state":"active","ping":104},{"user_id":567,"name":"SIGMA [BS]","steam_id":76561197962604879,"connected_time":4220000000000,"state":"active","ping":82},{"user_id":595,"name":"HeisenBurger","steam_id":76561198040632080,"connected_time":1712000000000,"state":"active","ping":49},{"user_id":538,"name":"Ramadan Steve","steam_id":76561198138568488,"connected_time":5560000000000,"state":"active","ping":73},{"user_id":585,"name":"Caoticaos","steam_id":76561198114800227,"connected_time":2618000000000,"state":"active","ping":145},{"user_id":590,"name":"Kaboob","steam_id":76561199121870665,"connected_time":2453000000000,"state":"active","ping":89}]},{"server_id":37,"name":"Uncletopia | Chicago | 6 | All Maps","name_short":"chi-6","host":"chi-2.us.uncletopia.com","port":27025,"enabled":true,"region":"us-central","cc":"us","latitude":41.881832,"longitude":-87.62318,"reserved":0,"last_update":"0001-01-01T00:00:00Z","name_a2s":"Uncletopia | Chicago | 6 | All Maps","protocol":17,"map":"cp_powerhouse","folder":"tf","game":"Team Fortress","app_id":440,"player_count":24,"max_players":24,"Bots":0,"server_type":"Dedicated","server_os":"Linux","password":true,"vac":true,"version":"7757534","steam_id":85568392924866363,"keywords":["cp","nocrits","nodmgspread","uncletopia"],"game_id":440,"stv_port":27026,"stv_name":"Uncletopia | Chicago | 6 | All Maps | STV","players":[{"user_id":126,"name":"A/funny/dream","steam_id":76561198354481597,"connected_time":461000000000,"state":"active","ping":81},{"user_id":124,"name":"Cadco","steam_id":76561198010519912,"connected_time":527000000000,"state":"active","ping":78},{"user_id":104,"name":"Shuu","steam_id":76561199199180558,"connected_time":2395000000000,"state":"active","ping":73},{"user_id":112,"name":"❤♡･ﾟBubbles･ﾟ♡❤","steam_id":76561198041057042,"connected_time":1657000000000,"state":"active","ping":65},{"user_id":127,"name":"Mr_Frosty","steam_id":76561199380389079,"connected_time":459000000000,"state":"active","ping":94},{"user_id":73,"name":"m-Seq","steam_id":76561198114922735,"connected_time":3890000000000,"state":"active","ping":67},{"user_id":108,"name":"InchMan","steam_id":76561198272658825,"connected_time":1939000000000,"state":"active","ping":87},{"user_id":119,"name":"NoKillPlz","steam_id":76561198051082314,"connected_time":1028000000000,"state":"active","ping":104},{"user_id":123,"name":"bergly","steam_id":76561198811650078,"connected_time":567000000000,"state":"active","ping":88},{"user_id":109,"name":"kaibow","steam_id":76561199245270298,"connected_time":1926000000000,"state":"active","ping":74},{"user_id":122,"name":"Mr. Rogers","steam_id":76561198296190438,"connected_time":780000000000,"state":"active","ping":55},{"user_id":118,"name":"Junko","steam_id":76561198146089003,"connected_time":1117000000000,"state":"active","ping":46},{"user_id":22,"name":"Zin","steam_id":76561199041369507,"connected_time":7019000000000,"state":"active","ping":89},{"user_id":105,"name":"I am a mooshroom","steam_id":76561198104198295,"connected_time":2304000000000,"state":"active","ping":83},{"user_id":125,"name":"MericanDragonX","steam_id":76561198797836691,"connected_time":518000000000,"state":"active","ping":76},{"user_id":110,"name":"Periculosum PhD in Funny","steam_id":76561198123370914,"connected_time":1871000000000,"state":"active","ping":71},{"user_id":95,"name":"picnic blanket","steam_id":76561198308186037,"connected_time":2884000000000,"state":"active","ping":62},{"user_id":130,"name":"Bx2az","steam_id":76561198832477468,"connected_time":230000000000,"state":"active","ping":99},{"user_id":129,"name":"hamm","steam_id":76561198959971834,"connected_time":303000000000,"state":"active","ping":68},{"user_id":103,"name":"twinArmageddons","steam_id":76561198297961039,"connected_time":2469000000000,"state":"active","ping":57},{"user_id":101,"name":"EJ 2 u","steam_id":76561198242738174,"connected_time":2497000000000,"state":"active","ping":54},{"user_id":121,"name":"Ace Chromatica","steam_id":76561198042211131,"connected_time":895000000000,"state":"active","ping":54},{"user_id":111,"name":"Meenctory","steam_id":76561198268374166,"connected_time":1860000000000,"state":"active","ping":195},{"user_id":82,"name":"bash -lc ./asshat.sh","steam_id":76561198004584315,"connected_time":3440000000000,"state":"active","ping":63}]},{"server_id":38,"name":"Uncletopia | Chicago | 7 | Stopwatch Beta","name_short":"chi-7","host":"chi-2.us.uncletopia.com","port":27035,"enabled":true,"region":"us-central","cc":"us","latitude":41.881832,"longitude":-87.62318,"reserved":0,"last_update":"0001-01-01T00:00:00Z","name_a2s":"Uncletopia | Chicago | 7 | Stopwatch Beta","protocol":17,"map":"workshop/koth_clearcut_b15.ugc2107050255","folder":"tf","game":"Team Fortress","app_id":440,"player_count":0,"max_players":24,"Bots":0,"server_type":"Dedicated","server_os":"Linux","password":true,"vac":true,"version":"7757534","steam_id":85568392924866364,"keywords":["cp","nocrits","nodmgspread","uncletopia"],"game_id":440,"stv_port":27036,"stv_name":"Uncletopia | Chicago | 7 | Stopwatch Beta | STV","players":null},{"server_id":39,"name":"Uncletopia | Chicago | 8 | Community","name_short":"chi-8","host":"chi-2.us.uncletopia.com","port":27045,"enabled":true,"region":"us-central","cc":"us","latitude":41.881832,"longitude":-87.62318,"reserved":0,"last_update":"0001-01-01T00:00:00Z","name_a2s":"Uncletopia | Chicago | 8 | Community","protocol":17,"map":"koth_cascade","folder":"tf","game":"Team Fortress","app_id":440,"player_count":0,"max_players":24,"Bots":0,"server_type":"Dedicated","server_os":"Linux","password":true,"vac":true,"version":"7757534","steam_id":85568392924866365,"keywords":["cp","nocrits","nodmgspread","uncletopia"],"game_id":440,"stv_port":27046,"stv_name":"Uncletopia | Chicago | 8 | Community | STV","players":null},{"server_id":8,"name":"Uncletopia | Dallas | 1 | All Maps","name_short":"dal-1","host":"dal-1.us.uncletopia.com","port":27015,"enabled":true,"region":"us-central","cc":"us","latitude":32.779167,"longitude":-96.80889,"reserved":0,"last_update":"0001-01-01T00:00:00Z","name_a2s":"Uncletopia | Dallas | 1 | All Maps","protocol":17,"map":"cp_dustbowl","folder":"tf","game":"Team Fortress","app_id":440,"player_count":23,"max_players":24,"Bots":0,"server_type":"Dedicated","server_os":"Linux","password":true,"vac":true,"version":"7757534","steam_id":85568392924469986,"keywords":["cp","nocrits","nodmgspread","uncletopia"],"game_id":440,"stv_port":27016,"stv_name":"Uncletopia | Dallas | 1 | All Maps | STV","players":[{"user_id":450,"name":"Mayo_","steam_id":76561198289375121,"connected_time":2115000000000,"state":"active","ping":62},{"user_id":447,"name":"mkl","steam_id":76561197986401685,"connected_time":2335000000000,"state":"active","ping":58},{"user_id":470,"name":"Normalux","steam_id":76561198293891426,"connected_time":935000000000,"state":"active","ping":104},{"user_id":408,"name":"FoamyPirate.h","steam_id":76561197970312151,"connected_time":4638000000000,"state":"active","ping":71},{"user_id":454,"name":"Chimpish","steam_id":76561199263493270,"connected_time":1686000000000,"state":"active","ping":91},{"user_id":453,"name":"barker bill","steam_id":76561198018451994,"connected_time":1715000000000,"state":"active","ping":53},{"user_id":413,"name":"DargaribdusPersonOfLordlyCalibe","steam_id":76561198020876416,"connected_time":4607000000000,"state":"active","ping":67},{"user_id":424,"name":"Hedsik","steam_id":76561198045797773,"connected_time":3744000000000,"state":"active","ping":54},{"user_id":471,"name":"Decs","steam_id":76561198825197974,"connected_time":849000000000,"state":"active","ping":127},{"user_id":388,"name":"Goblin Merchant (50 OFF)","steam_id":76561199323707429,"connected_time":6388000000000,"state":"active","ping":137},{"user_id":468,"name":"Fishstall","steam_id":76561198038126034,"connected_time":1093000000000,"state":"active","ping":72},{"user_id":391,"name":"Pie™","steam_id":76561198158312625,"connected_time":5638000000000,"state":"active","ping":128},{"user_id":466,"name":"luckifan774","steam_id":76561198378537143,"connected_time":1215000000000,"state":"active","ping":97},{"user_id":474,"name":"Cube","steam_id":76561199021614213,"connected_time":169000000000,"state":"active","ping":174},{"user_id":414,"name":"Gengoron","steam_id":76561197994829919,"connected_time":4607000000000,"state":"active","ping":114},{"user_id":443,"name":"Sup m8","steam_id":76561198081659121,"connected_time":2609000000000,"state":"active","ping":39},{"user_id":441,"name":"tonyforshyr","steam_id":76561198846474978,"connected_time":2730000000000,"state":"active","ping":71},{"user_id":463,"name":"Grumby","steam_id":76561198149175262,"connected_time":1286000000000,"state":"active","ping":57},{"user_id":439,"name":"bolainassr0","steam_id":76561199079078845,"connected_time":2917000000000,"state":"active","ping":99},{"user_id":461,"name":"DocLucky","steam_id":76561199093899249,"connected_time":1417000000000,"state":"active","ping":160},{"user_id":462,"name":"Ironaka","steam_id":76561198029993183,"connected_time":1413000000000,"state":"active","ping":100},{"user_id":412,"name":"El Camino","steam_id":76561197992848313,"connected_time":4612000000000,"state":"active","ping":85}]},{"server_id":108,"name":"Uncletopia | Dallas | 2 | All Maps","name_short":"dal-2","host":"dal-1.us.uncletopia.com","port":27025,"enabled":true,"region":"us-central","cc":"us","latitude":32.779167,"longitude":-96.80889,"reserved":0,"last_update":"0001-01-01T00:00:00Z","name_a2s":"Uncletopia | Dallas | 2 | All Maps","protocol":17,"map":"pl_snowycoast","folder":"tf","game":"Team Fortress","app_id":440,"player_count":24,"max_players":24,"Bots":0,"server_type":"Dedicated","server_os":"Linux","password":true,"vac":true,"version":"7757534","steam_id":85568392924469988,"keywords":["nocrits","nodmgspread","payload","uncletopia"],"game_id":440,"stv_port":27026,"stv_name":"Uncletopia | Dallas | 2 | All Maps | STV","players":[{"user_id":440,"name":"CreativeCoffeeCake","steam_id":76561198323542875,"connected_time":1435000000000,"state":"active","ping":93},{"user_id":451,"name":"the pest","steam_id":76561198826298849,"connected_time":908000000000,"state":"active","ping":104},{"user_id":395,"name":"High Tier Mortal","steam_id":76561198138347045,"connected_time":5143000000000,"state":"active","ping":80},{"user_id":428,"name":"NotSoNorth","steam_id":76561198447292053,"connected_time":1856000000000,"state":"active","ping":74},{"user_id":380,"name":"moe5x","steam_id":76561198316877833,"connected_time":5682000000000,"state":"active","ping":79},{"user_id":452,"name":"The slattiator","steam_id":76561198084422657,"connected_time":903000000000,"state":"active","ping":87},{"user_id":408,"name":"GoldSrc the Jank Engine","steam_id":76561198115138312,"connected_time":4065000000000,"state":"active","ping":78},{"user_id":396,"name":"TypicalGiftig","steam_id":76561198170372495,"connected_time":5115000000000,"state":"active","ping":69},{"user_id":447,"name":"poiuytrewqwqwqwqwqwqwqwqwqwqwqw","steam_id":76561199105253001,"connected_time":1072000000000,"state":"active","ping":99},{"user_id":459,"name":"Vimh","steam_id":76561198384938589,"connected_time":78000000000,"state":"active","ping":99},{"user_id":457,"name":"worm","steam_id":76561198010019214,"connected_time":701000000000,"state":"active","ping":62},{"user_id":458,"name":"Pinetree w/ apples.","steam_id":76561198105411709,"connected_time":126000000000,"state":"active","ping":114},{"user_id":454,"name":"Pixel JC","steam_id":76561198014618589,"connected_time":851000000000,"state":"active","ping":125},{"user_id":424,"name":"FunGi","steam_id":76561198881418662,"connected_time":2419000000000,"state":"active","ping":77},{"user_id":441,"name":"austintacious","steam_id":76561198054118061,"connected_time":1433000000000,"state":"active","ping":73},{"user_id":450,"name":"java","steam_id":76561198030276792,"connected_time":960000000000,"state":"active","ping":60},{"user_id":455,"name":"Voodo133","steam_id":76561198042670351,"connected_time":838000000000,"state":"active","ping":105},{"user_id":449,"name":"K2f","steam_id":76561198049600563,"connected_time":1044000000000,"state":"active","ping":77},{"user_id":456,"name":"Vobo","steam_id":76561199159418598,"connected_time":796000000000,"state":"active","ping":131},{"user_id":430,"name":"cheezits face","steam_id":76561198000564263,"connected_time":1785000000000,"state":"active","ping":73},{"user_id":437,"name":"proud owner of a large tongue","steam_id":76561198106690989,"connected_time":1635000000000,"state":"active","ping":91},{"user_id":416,"name":"Alcoholic Goblin","steam_id":76561198091111592,"connected_time":3698000000000,"state":"active","ping":64},{"user_id":438,"name":"Cofi","steam_id":76561199026721822,"connected_time":1559000000000,"state":"active","ping":90},{"user_id":432,"name":"lanoc","steam_id":76561198055415367,"connected_time":1781000000000,"state":"active","ping":60}]},{"server_id":5,"name":"Uncletopia | Frankfurt | 1 | All Maps","name_short":"frk-1","host":"frk-1.de.uncletopia.com","port":27015,"enabled":true,"region":"eu","cc":"de","latitude":50.110924,"longitude":8.682127,"reserved":0,"last_update":"0001-01-01T00:00:00Z","name_a2s":"Uncletopia | Frankfurt | 1 | All Maps","protocol":17,"map":"pl_barnblitz","folder":"tf","game":"Team Fortress","app_id":440,"player_count":0,"max_players":24,"Bots":0,"server_type":"Dedicated","server_os":"Linux","password":true,"vac":true,"version":"7757534","steam_id":85568392924469989,"keywords":["nocrits","nodmgspread","payload","uncletopia"],"game_id":440,"stv_port":27016,"stv_name":"Uncletopia | Frankfurt | 1 | All Maps | STV","players":null},{"server_id":110,"name":"Uncletopia | Frankfurt | 2 | All Maps","name_short":"frk-2","host":"frk-1.de.uncletopia.com","port":27025,"enabled":true,"region":"eu","cc":"de","latitude":50.110924,"longitude":8.682127,"reserved":0,"last_update":"0001-01-01T00:00:00Z","name_a2s":"Uncletopia | Frankfurt | 2 | All Maps","protocol":17,"map":"koth_king","folder":"tf","game":"Team Fortress","app_id":440,"player_count":0,"max_players":24,"Bots":0,"server_type":"Dedicated","server_os":"Linux","password":true,"vac":true,"version":"7757534","steam_id":85568392924469990,"keywords":["cp","nocrits","nodmgspread","uncletopia"],"game_id":440,"stv_port":27026,"stv_name":"Uncletopia | Frankfurt | 2 | All Maps | STV","players":null},{"server_id":308,"name":"Uncletopia | Frankfurt | 3 | All Maps","name_short":"frk-3","host":"frk-1.de.uncletopia.com","port":27035,"enabled":true,"region":"eu","cc":"de","latitude":50.110924,"longitude":8.682127,"reserved":0,"last_update":"0001-01-01T00:00:00Z","name_a2s":"Uncletopia | Frankfurt | 3 | All Maps","protocol":17,"map":"cp_altitude","folder":"tf","game":"Team Fortress","app_id":440,"player_count":0,"max_players":24,"Bots":0,"server_type":"Dedicated","server_os":"Linux","password":true,"vac":true,"version":"7757534","steam_id":85568392924504274,"keywords":["cp","nocrits","nodmgspread","uncletopia"],"game_id":440,"stv_port":27036,"stv_name":"Uncletopia | Frankfurt | 3 | All Maps | STV","players":null},{"server_id":309,"name":"Uncletopia | Frankfurt | 4 | All Maps","name_short":"frk-4","host":"frk-1.de.uncletopia.com","port":27045,"enabled":true,"region":"eu","cc":"de","latitude":50.110924,"longitude":8.682127,"reserved":0,"last_update":"0001-01-01T00:00:00Z","name_a2s":"Uncletopia | Frankfurt | 4 | All Maps","protocol":17,"map":"koth_lakeside_final","folder":"tf","game":"Team Fortress","app_id":440,"player_count":0,"max_players":24,"Bots":0,"server_type":"Dedicated","server_os":"Linux","password":true,"vac":true,"version":"7757534","steam_id":85568392924504275,"keywords":["cp","nocrits","nodmgspread","uncletopia"],"game_id":440,"stv_port":27046,"stv_name":"Uncletopia | Frankfurt | 4 | All Maps | STV","players":null},{"server_id":310,"name":"Uncletopia | Frankfurt | 5 | All Maps","name_short":"frk-5","host":"frk-1.de.uncletopia.com","port":27055,"enabled":true,"region":"eu","cc":"de","latitude":50.110924,"longitude":8.682127,"reserved":0,"last_update":"0001-01-01T00:00:00Z","name_a2s":"Uncletopia | Frankfurt | 5 | All Maps","protocol":17,"map":"koth_lakeside_final","folder":"tf","game":"Team Fortress","app_id":440,"player_count":0,"max_players":24,"Bots":0,"server_type":"Dedicated","server_os":"Linux","password":true,"vac":true,"version":"7757534","steam_id":85568392924504277,"keywords":["cp","nocrits","nodmgspread","uncletopia"],"game_id":440,"stv_port":27056,"stv_name":"Uncletopia | Frankfurt | 5 | All Maps | STV","players":null},{"server_id":311,"name":"Uncletopia | Frankfurt | 6 | All Maps","name_short":"frk-6","host":"frk-1.de.uncletopia.com","port":27065,"enabled":true,"region":"eu","cc":"de","latitude":50.110924,"longitude":8.682127,"reserved":0,"last_update":"0001-01-01T00:00:00Z","name_a2s":"Uncletopia | Frankfurt | 6 | All Maps","protocol":17,"map":"koth_viaduct","folder":"tf","game":"Team Fortress","app_id":440,"player_count":0,"max_players":24,"Bots":0,"server_type":"Dedicated","server_os":"Linux","password":true,"vac":true,"version":"7757534","steam_id":85568392924504278,"keywords":["cp","nocrits","nodmgspread","uncletopia"],"game_id":440,"stv_port":27066,"stv_name":"Uncletopia | Frankfurt | 6 | All Maps | STV","players":null},{"server_id":23,"name":"Uncletopia | Frankfurt | 7 | Stopwatch Beta","name_short":"frk-7","host":"frk-1.de.uncletopia.com","port":27075,"enabled":true,"region":"eu","cc":"de","latitude":50.110924,"longitude":8.682127,"reserved":0,"last_update":"0001-01-01T00:00:00Z","name_a2s":"Uncletopia | Frankfurt | 7 | Stopwatch Beta","protocol":17,"map":"pl_upward","folder":"tf","game":"Team Fortress","app_id":440,"player_count":0,"max_players":24,"Bots":0,"server_type":"Dedicated","server_os":"Linux","password":true,"vac":true,"version":"7757534","steam_id":85568392924742827,"keywords":["nocrits","nodmgspread","payload","uncletopia"],"game_id":440,"stv_port":27076,"stv_name":"Uncletopia | Frankfurt | 7 | Stopwatch Beta | STV","players":null},{"server_id":24,"name":"Uncletopia | Frankfurt | 8 | Community","name_short":"frk-8","host":"frk-1.de.uncletopia.com","port":27085,"enabled":true,"region":"eu","cc":"de","latitude":50.110924,"longitude":8.682127,"reserved":0,"last_update":"0001-01-01T00:00:00Z","name_a2s":"Uncletopia | Frankfurt | 8 | Community","protocol":17,"map":"workshop/cp_mannbase_rc2a.ugc1900737467","folder":"tf","game":"Team Fortress","app_id":440,"player_count":0,"max_players":24,"Bots":0,"server_type":"Dedicated","server_os":"Linux","password":true,"vac":true,"version":"7757534","steam_id":85568392924742828,"keywords":["cp","nocrits","nodmgspread","uncletopia"],"game_id":440,"stv_port":27086,"stv_name":"Uncletopia | Frankfurt | 8 | Community | STV","players":null},{"server_id":202,"name":"Uncletopia | Hong Kong | 1 | All Maps","name_short":"hgk-1","host":"hgk-1.hk.uncletopia.com","port":27015,"enabled":true,"region":"asia","cc":"hk","latitude":22.302711,"longitude":114.177216,"reserved":0,"last_update":"0001-01-01T00:00:00Z","name_a2s":"Uncletopia | Hong Kong | 1 | All Maps","protocol":17,"map":"cp_dustbowl","folder":"tf","game":"Team Fortress","app_id":440,"player_count":1,"max_players":24,"Bots":0,"server_type":"Dedicated","server_os":"Linux","password":true,"vac":true,"version":"7757534","steam_id":85568392924494504,"keywords":["cp","nocrits","nodmgspread","uncletopia"],"game_id":440,"stv_port":27016,"stv_name":"Uncletopia | Hong Kong | 1 | All Maps | STV","players":[{"user_id":13,"name":"eray338","steam_id":76561199092458685,"connected_time":650000000000,"state":"active","ping":84}]},{"server_id":1,"name":"Uncletopia | Los Angeles | 1 | All Maps","name_short":"lax-1","host":"lax-1.us.uncletopia.com","port":27015,"enabled":true,"region":"us-west","cc":"us","latitude":33.94279,"longitude":-118.41004,"reserved":0,"last_update":"0001-01-01T00:00:00Z","name_a2s":"Uncletopia | Los Angeles | 1 | All Maps","protocol":17,"map":"koth_viaduct","folder":"tf","game":"Team Fortress","app_id":440,"player_count":24,"max_players":24,"Bots":0,"server_type":"Dedicated","server_os":"Linux","password":true,"vac":true,"version":"7757534","steam_id":85568392924469991,"keywords":["cp","nocrits","nodmgspread","uncletopia"],"game_id":440,"stv_port":27016,"stv_name":"Uncletopia | Los Angeles | 1 | All Maps | STV","players":[{"user_id":231,"name":"Camfour","steam_id":76561198083090140,"connected_time":1047000000000,"state":"active","ping":62},{"user_id":168,"name":"flo rida","steam_id":76561198226169704,"connected_time":5202000000000,"state":"active","ping":52},{"user_id":203,"name":"Urist","steam_id":76561198047247422,"connected_time":3070000000000,"state":"active","ping":108},{"user_id":170,"name":"beblonski","steam_id":76561198067053408,"connected_time":4889000000000,"state":"active","ping":51},{"user_id":238,"name":"Schnitz","steam_id":76561198265484253,"connected_time":687000000000,"state":"active","ping":54},{"user_id":232,"name":"Tort boi","steam_id":76561198125327110,"connected_time":1027000000000,"state":"active","ping":73},{"user_id":243,"name":"Pumpkin Spice","steam_id":76561199016285746,"connected_time":271000000000,"state":"active","ping":101},{"user_id":216,"name":"fire","steam_id":76561198044354279,"connected_time":2615000000000,"state":"active","ping":47},{"user_id":229,"name":"jayzak24","steam_id":76561198354267509,"connected_time":1158000000000,"state":"active","ping":55},{"user_id":185,"name":"Rat From Human Resources","steam_id":76561198090177784,"connected_time":4187000000000,"state":"active","ping":109},{"user_id":227,"name":"Orange Toaster","steam_id":76561198013397599,"connected_time":1832000000000,"state":"active","ping":56},{"user_id":239,"name":"Fachedin","steam_id":76561198041850415,"connected_time":656000000000,"state":"active","ping":59},{"user_id":219,"name":"Superman123389","steam_id":76561198267472539,"connected_time":2406000000000,"state":"active","ping":93},{"user_id":234,"name":"Bongo John","steam_id":76561198045309016,"connected_time":910000000000,"state":"active","ping":78},{"user_id":197,"name":"Zero","steam_id":76561199383267408,"connected_time":3209000000000,"state":"active","ping":99},{"user_id":221,"name":"Horny Pirate","steam_id":76561198085174007,"connected_time":2378000000000,"state":"active","ping":114},{"user_id":210,"name":"ihaveaskimaskﱞﱞﱞﱞﱞﱞ","steam_id":76561199090340625,"connected_time":2841000000000,"state":"active","ping":85},{"user_id":224,"name":"Shadow the Hedgehog","steam_id":76561198050034647,"connected_time":2210000000000,"state":"active","ping":52},{"user_id":244,"name":"Bomb Squirtle™","steam_id":76561197998931145,"connected_time":255000000000,"state":"active","ping":129},{"user_id":188,"name":"salad","steam_id":76561198196307718,"connected_time":3995000000000,"state":"active","ping":100},{"user_id":175,"name":"Isn't Water","steam_id":76561199253511650,"connected_time":4681000000000,"state":"active","ping":94},{"user_id":235,"name":"MyMonkeyBaby","steam_id":76561198046896670,"connected_time":896000000000,"state":"active","ping":90},{"user_id":228,"name":"pythagorean theorem","steam_id":76561199043068973,"connected_time":1495000000000,"state":"active","ping":33},{"user_id":242,"name":"Rifter","steam_id":76561198077430698,"connected_time":635000000000,"state":"active","ping":88}]},{"server_id":112,"name":"Uncletopia | Los Angeles | 2 | All Maps","name_short":"lax-2","host":"lax-1.us.uncletopia.com","port":27025,"enabled":true,"region":"us-west","cc":"us","latitude":33.94279,"longitude":-118.41004,"reserved":0,"last_update":"0001-01-01T00:00:00Z","name_a2s":"Uncletopia | Los Angeles | 2 | All Maps","protocol":17,"map":"pl_frontier_final","folder":"tf","game":"Team Fortress","app_id":440,"player_count":24,"max_players":24,"Bots":0,"server_type":"Dedicated","server_os":"Linux","password":true,"vac":true,"version":"7757534","steam_id":85568392924469992,"keywords":["nocrits","nodmgspread","payload","uncletopia"],"game_id":440,"stv_port":27026,"stv_name":"Uncletopia | Los Angeles | 2 | All Maps | STV","players":[{"user_id":362,"name":"ICESPROCKET","steam_id":76561198320452169,"connected_time":1456000000000,"state":"active","ping":79},{"user_id":353,"name":"harmless_nerd","steam_id":76561199470510373,"connected_time":1928000000000,"state":"active","ping":119},{"user_id":380,"name":"Mr. Blubber","steam_id":76561198338906916,"connected_time":224000000000,"state":"active","ping":45},{"user_id":372,"name":"BottleOSasquatch","steam_id":76561199004728861,"connected_time":491000000000,"state":"active","ping":87},{"user_id":354,"name":":3 (Registered Terrorist)","steam_id":76561198866678182,"connected_time":1924000000000,"state":"active","ping":104},{"user_id":326,"name":"Is_notag","steam_id":76561199048269791,"connected_time":3024000000000,"state":"active","ping":152},{"user_id":370,"name":"Slick Glyph","steam_id":76561198087721329,"connected_time":822000000000,"state":"active","ping":115},{"user_id":317,"name":"Crazy Hungarian","steam_id":76561198025498172,"connected_time":3312000000000,"state":"active","ping":72},{"user_id":373,"name":"Technic","steam_id":76561198200302281,"connected_time":467000000000,"state":"active","ping":58},{"user_id":356,"name":"A Shiny Meat Bicycle","steam_id":76561198358757709,"connected_time":1884000000000,"state":"active","ping":127},{"user_id":374,"name":"tie dye die guy","steam_id":76561198049845337,"connected_time":444000000000,"state":"active","ping":59},{"user_id":346,"name":"skelly702","steam_id":76561198384117003,"connected_time":2082000000000,"state":"active","ping":42},{"user_id":375,"name":"Buswolley","steam_id":76561197995205571,"connected_time":415000000000,"state":"active","ping":63},{"user_id":348,"name":"mafu","steam_id":76561198028028045,"connected_time":2022000000000,"state":"active","ping":42},{"user_id":327,"name":"This game sucks","steam_id":76561198042007578,"connected_time":3013000000000,"state":"active","ping":46},{"user_id":371,"name":"Seanvich","steam_id":76561198065805500,"connected_time":698000000000,"state":"active","ping":104},{"user_id":376,"name":"gods drunkest driver","steam_id":76561198293857963,"connected_time":410000000000,"state":"active","ping":64},{"user_id":358,"name":"CEOlifestyle","steam_id":76561198025747866,"connected_time":1844000000000,"state":"active","ping":76},{"user_id":378,"name":"the bron jame","steam_id":76561198371235518,"connected_time":328000000000,"state":"active","ping":125},{"user_id":312,"name":"THEDINKY","steam_id":76561198190077399,"connected_time":3475000000000,"state":"active","ping":105},{"user_id":379,"name":"zurgeg","steam_id":76561198284155373,"connected_time":322000000000,"state":"active","ping":124},{"user_id":314,"name":"Nicolas Cage Kisses Mace Windu","steam_id":76561198046127710,"connected_time":3399000000000,"state":"active","ping":107},{"user_id":333,"name":"mentos14","steam_id":76561198097993629,"connected_time":2754000000000,"state":"active","ping":57},{"user_id":334,"name":"The Sydney Sleeper Itself","steam_id":76561198180251763,"connected_time":2749000000000,"state":"active","ping":88}]},{"server_id":324,"name":"Uncletopia | Los Angeles | 3 | All Maps","name_short":"lax-3","host":"lax-1.us.uncletopia.com","port":27035,"enabled":true,"region":"us-west","cc":"us","latitude":33.94279,"longitude":-118.41004,"reserved":0,"last_update":"0001-01-01T00:00:00Z","name_a2s":"Uncletopia | Los Angeles | 3 | All Maps","protocol":17,"map":"pl_badwater","folder":"tf","game":"Team Fortress","app_id":440,"player_count":24,"max_players":24,"Bots":0,"server_type":"Dedicated","server_os":"Linux","password":true,"vac":true,"version":"7757534","steam_id":85568392924510198,"keywords":["nocrits","nodmgspread","payload","uncletopia"],"game_id":440,"stv_port":27036,"stv_name":"Uncletopia | Los Angeles | 3 | All Maps | STV","players":[{"user_id":110,"name":"Lube","steam_id":76561199110893188,"connected_time":63000000000,"state":"active","ping":57},{"user_id":93,"name":"Kopenich","steam_id":76561198066205245,"connected_time":1808000000000,"state":"active","ping":48},{"user_id":42,"name":"AtomSQRRL","steam_id":76561199151951364,"connected_time":4217000000000,"state":"active","ping":60},{"user_id":30,"name":"sera.","steam_id":76561198312571585,"connected_time":5323000000000,"state":"active","ping":49},{"user_id":31,"name":"Lily 百合🌸","steam_id":76561199441294927,"connected_time":5101000000000,"state":"active","ping":128},{"user_id":33,"name":"OG_WaterFish","steam_id":76561199188811808,"connected_time":4951000000000,"state":"active","ping":114},{"user_id":105,"name":"Ansuz();","steam_id":76561198260732135,"connected_time":721000000000,"state":"active","ping":89},{"user_id":89,"name":"Chafn","steam_id":76561197969386702,"connected_time":2270000000000,"state":"active","ping":60},{"user_id":103,"name":"choi","steam_id":76561198053669887,"connected_time":1207000000000,"state":"active","ping":56},{"user_id":87,"name":"Backpack","steam_id":76561198037121083,"connected_time":2389000000000,"state":"active","ping":46},{"user_id":88,"name":"SneakyRocks","steam_id":76561198201694213,"connected_time":2379000000000,"state":"active","ping":48},{"user_id":96,"name":"Enrique","steam_id":76561198151531499,"connected_time":1408000000000,"state":"active","ping":84},{"user_id":108,"name":"Notation","steam_id":76561198119509319,"connected_time":327000000000,"state":"active","ping":101},{"user_id":104,"name":"Jelly Boi","steam_id":76561197992129239,"connected_time":1174000000000,"state":"active","ping":106},{"user_id":97,"name":"mountain of faith","steam_id":76561198049258493,"connected_time":1403000000000,"state":"active","ping":86},{"user_id":98,"name":"Portal2Player","steam_id":76561198062870114,"connected_time":1396000000000,"state":"active","ping":124},{"user_id":102,"name":"P.I.Staker","steam_id":76561198087096559,"connected_time":1311000000000,"state":"active","ping":76},{"user_id":109,"name":"O'brien","steam_id":76561198289339403,"connected_time":288000000000,"state":"active","ping":119},{"user_id":86,"name":"Yoyo-Wo","steam_id":76561198880520205,"connected_time":2612000000000,"state":"active","ping":89},{"user_id":50,"name":"SolarusD","steam_id":76561198029279861,"connected_time":4101000000000,"state":"active","ping":52},{"user_id":75,"name":"Alex the doggo","steam_id":76561198031827407,"connected_time":3143000000000,"state":"active","ping":107},{"user_id":83,"name":"RyInc","steam_id":76561198874261643,"connected_time":2888000000000,"state":"active","ping":93},{"user_id":95,"name":"Lambchop","steam_id":76561198043900363,"connected_time":1456000000000,"state":"active","ping":63},{"user_id":100,"name":"THE UNDERTAKER","steam_id":76561198089852954,"connected_time":1380000000000,"state":"active","ping":106}]},{"server_id":25,"name":"Uncletopia | Los Angeles | 4 | Stopwatch Beta","name_short":"lax-4","host":"lax-1.us.uncletopia.com","port":27045,"enabled":true,"region":"us-west","cc":"us","latitude":33.94279,"longitude":-118.41004,"reserved":0,"last_update":"0001-01-01T00:00:00Z","name_a2s":"Uncletopia | Los Angeles | 4 | Stopwatch Beta","protocol":17,"map":"pl_swiftwater_final1","folder":"tf","game":"Team Fortress","app_id":440,"player_count":1,"max_players":24,"Bots":0,"server_type":"Dedicated","server_os":"Linux","password":true,"vac":true,"version":"7757534","steam_id":85568392924510199,"keywords":["nocrits","nodmgspread","payload","uncletopia"],"game_id":440,"stv_port":27046,"stv_name":"Uncletopia | Los Angeles | 4 | Stopwatch Beta | STV","players":[{"user_id":6,"name":"Subderhenge","steam_id":76561198090955892,"connected_time":72000000000,"state":"active","ping":95}]},{"server_id":11,"name":"Uncletopia | London | 1 | All Maps","name_short":"lon-1","host":"lon-1.uk.uncletopia.com","port":27015,"enabled":true,"region":"eu","cc":"gb","latitude":51.509865,"longitude":-0.118092,"reserved":0,"last_update":"0001-01-01T00:00:00Z","name_a2s":"Uncletopia | London | 1 | All Maps","protocol":17,"map":"pl_frontier_final","folder":"tf","game":"Team Fortress","app_id":440,"player_count":24,"max_players":24,"Bots":0,"server_type":"Dedicated","server_os":"Linux","password":true,"vac":true,"version":"7757534","steam_id":85568392924367362,"keywords":["nocrits","nodmgspread","payload","uncletopia"],"game_id":440,"stv_port":27016,"stv_name":"Uncletopia | London | 1 | All Maps | STV","players":[{"user_id":859,"name":"Akio","steam_id":76561198197606282,"connected_time":9175000000000,"state":"active","ping":35},{"user_id":940,"name":"Blissful","steam_id":76561198141134909,"connected_time":1578000000000,"state":"active","ping":62},{"user_id":860,"name":"so called \"lactators\"","steam_id":76561198798803845,"connected_time":9167000000000,"state":"active","ping":48},{"user_id":938,"name":"PlasticVoid","steam_id":76561197997870306,"connected_time":2178000000000,"state":"active","ping":59},{"user_id":861,"name":"yawnn","steam_id":76561198088624259,"connected_time":9165000000000,"state":"active","ping":59},{"user_id":947,"name":"Shift","steam_id":76561198028296732,"connected_time":1407000000000,"state":"active","ping":52},{"user_id":941,"name":"feed and seed","steam_id":76561199088046420,"connected_time":1571000000000,"state":"active","ping":55},{"user_id":942,"name":"K","steam_id":76561198144604444,"connected_time":1568000000000,"state":"active","ping":45},{"user_id":955,"name":"Dude Time","steam_id":76561198092991160,"connected_time":508000000000,"state":"active","ping":166},{"user_id":928,"name":"tone'","steam_id":76561198055552635,"connected_time":3055000000000,"state":"active","ping":52},{"user_id":932,"name":"Gnaisse","steam_id":76561198010560642,"connected_time":2799000000000,"state":"active","ping":85},{"user_id":959,"name":"tm`","steam_id":76561197993580412,"connected_time":179000000000,"state":"active","ping":59},{"user_id":956,"name":"AsuX","steam_id":76561197990333289,"connected_time":442000000000,"state":"active","ping":60},{"user_id":950,"name":"golem","steam_id":76561198355040593,"connected_time":1120000000000,"state":"active","ping":130},{"user_id":917,"name":"nog digger","steam_id":76561198890409949,"connected_time":3664000000000,"state":"active","ping":103},{"user_id":951,"name":"Drunk russian with pyromania","steam_id":76561198195527328,"connected_time":973000000000,"state":"active","ping":46},{"user_id":906,"name":"MoeruKurowassan","steam_id":76561198319349647,"connected_time":5018000000000,"state":"active","ping":84},{"user_id":952,"name":"✪ Danny","steam_id":76561198104483241,"connected_time":970000000000,"state":"active","ping":50},{"user_id":892,"name":"Lilliputt","steam_id":76561198090146457,"connected_time":7067000000000,"state":"active","ping":42},{"user_id":954,"name":"Q","steam_id":76561198276440993,"connected_time":780000000000,"state":"active","ping":45},{"user_id":953,"name":"Goonz","steam_id":76561198161546490,"connected_time":958000000000,"state":"active","ping":45},{"user_id":939,"name":"Gopnik Shroom Poot","steam_id":76561198025922146,"connected_time":2038000000000,"state":"active","ping":74},{"user_id":957,"name":"Omeven","steam_id":76561198256387155,"connected_time":391000000000,"state":"active","ping":59},{"user_id":961,"name":"gryeko","steam_id":76561198142243074,"connected_time":172000000000,"state":"active","ping":131}]},{"server_id":114,"name":"Uncletopia | London | 2 | All Maps","name_short":"lon-2","host":"lon-1.uk.uncletopia.com","port":27025,"enabled":true,"region":"eu","cc":"gb","latitude":51.509865,"longitude":-0.118092,"reserved":0,"last_update":"0001-01-01T00:00:00Z","name_a2s":"Uncletopia | London | 2 | All Maps","protocol":17,"map":"koth_lakeside_final","folder":"tf","game":"Team Fortress","app_id":440,"player_count":0,"max_players":24,"Bots":0,"server_type":"Dedicated","server_os":"Linux","password":true,"vac":true,"version":"7757534","steam_id":85568392924470941,"keywords":["cp","nocrits","nodmgspread","uncletopia"],"game_id":440,"stv_port":27026,"stv_name":"Uncletopia | London | 2 | All Maps | STV","players":null},{"server_id":320,"name":"Uncletopia | London | 3 | All Maps","name_short":"lon-3","host":"lon-1.uk.uncletopia.com","port":27035,"enabled":true,"region":"eu","cc":"gb","latitude":51.509865,"longitude":-0.118092,"reserved":0,"last_update":"0001-01-01T00:00:00Z","name_a2s":"Uncletopia | London | 3 | All Maps","protocol":17,"map":"pl_snowycoast","folder":"tf","game":"Team Fortress","app_id":440,"player_count":14,"max_players":24,"Bots":0,"server_type":"Dedicated","server_os":"Linux","password":true,"vac":true,"version":"7757534","steam_id":85568392924510192,"keywords":["nocrits","nodmgspread","payload","uncletopia"],"game_id":440,"stv_port":27036,"stv_name":"Uncletopia | London | 3 | All Maps | STV","players":[{"user_id":503,"name":"Forklift Certified","steam_id":76561198001816577,"connected_time":13052000000000,"state":"active","ping":86},{"user_id":658,"name":"Ushlus","steam_id":76561199225270732,"connected_time":681000000000,"state":"active","ping":111},{"user_id":659,"name":"minespweper","steam_id":76561199096919345,"connected_time":398000000000,"state":"active","ping":90},{"user_id":661,"name":"JJ_","steam_id":76561198146754482,"connected_time":114000000000,"state":"active","ping":60},{"user_id":662,"name":"Eagles","steam_id":76561198140427429,"connected_time":98000000000,"state":"active","ping":57},{"user_id":663,"name":"Old Major","steam_id":76561198305259132,"connected_time":60000000000,"state":"active","ping":56},{"user_id":664,"name":"suje","steam_id":76561199012450807,"connected_time":57000000000,"state":"active","ping":66},{"user_id":665,"name":"Carlos Esteban","steam_id":76561198129490673,"connected_time":51000000000,"state":"active","ping":55},{"user_id":648,"name":"キウイ鳥","steam_id":76561199054383513,"connected_time":1352000000000,"state":"active","ping":57},{"user_id":497,"name":"Can I get a Beep Beep","steam_id":76561198010730967,"connected_time":13830000000000,"state":"active","ping":69},{"user_id":629,"name":"★","steam_id":76561198080168182,"connected_time":3067000000000,"state":"active","ping":84},{"user_id":649,"name":"styyrt","steam_id":76561199171117791,"connected_time":1344000000000,"state":"active","ping":58},{"user_id":651,"name":"pansexual","steam_id":76561198047778351,"connected_time":1261000000000,"state":"active","ping":44},{"user_id":499,"name":"Unstable Goat","steam_id":76561197985788557,"connected_time":13766000000000,"state":"active","ping":84}]},{"server_id":321,"name":"Uncletopia | London | 4 | All Maps","name_short":"lon-4","host":"lon-1.uk.uncletopia.com","port":27045,"enabled":true,"region":"eu","cc":"gb","latitude":51.509865,"longitude":-0.118092,"reserved":0,"last_update":"0001-01-01T00:00:00Z","name_a2s":"Uncletopia | London | 4 | All Maps","protocol":17,"map":"pl_upward","folder":"tf","game":"Team Fortress","app_id":440,"player_count":15,"max_players":24,"Bots":0,"server_type":"Dedicated","server_os":"Linux","password":true,"vac":true,"version":"7757534","steam_id":85568392924510193,"keywords":["nocrits","nodmgspread","payload","uncletopia"],"game_id":440,"stv_port":27046,"stv_name":"Uncletopia | London | 4 | All Maps | STV","players":[{"user_id":690,"name":"SaltySugar","steam_id":76561198171209758,"connected_time":1873000000000,"state":"active","ping":42},{"user_id":696,"name":"Dr.Disrespect","steam_id":76561198043820228,"connected_time":1152000000000,"state":"active","ping":56},{"user_id":702,"name":"JeffTheDwarf","steam_id":76561198867619407,"connected_time":645000000000,"state":"active","ping":79},{"user_id":707,"name":"♥ Emma ♥","steam_id":76561198046796406,"connected_time":375000000000,"state":"active","ping":45},{"user_id":710,"name":"Braemenator","steam_id":76561198044864657,"connected_time":104000000000,"state":"active","ping":58},{"user_id":697,"name":"LemonZest","steam_id":76561199196369249,"connected_time":775000000000,"state":"active","ping":129},{"user_id":698,"name":"Vibing Wave","steam_id":76561198866358613,"connected_time":746000000000,"state":"active","ping":159},{"user_id":692,"name":"Труп Володя","steam_id":76561198035718457,"connected_time":1407000000000,"state":"active","ping":90},{"user_id":711,"name":"Jimmy","steam_id":76561198133680783,"connected_time":69000000000,"state":"active","ping":67},{"user_id":699,"name":"a Regurar Barroon","steam_id":76561198834913692,"connected_time":698000000000,"state":"active","ping":78},{"user_id":700,"name":"random_player691","steam_id":76561199209946306,"connected_time":674000000000,"state":"active","ping":48},{"user_id":709,"name":"Dunte","steam_id":76561199100863648,"connected_time":234000000000,"state":"active","ping":92},{"user_id":703,"name":"Nokah","steam_id":76561198973184361,"connected_time":626000000000,"state":"active","ping":75},{"user_id":636,"name":"Glitch","steam_id":76561198081895538,"connected_time":6863000000000,"state":"active","ping":54},{"user_id":679,"name":"Ach Wheesht","steam_id":76561197996993222,"connected_time":2297000000000,"state":"active","ping":49}]},{"server_id":21,"name":"Uncletopia | London | 5 | All Maps","name_short":"lon-5","host":"lon-1.uk.uncletopia.com","port":27055,"enabled":true,"region":"eu","cc":"gb","latitude":51.509865,"longitude":-0.118092,"reserved":0,"last_update":"0001-01-01T00:00:00Z","name_a2s":"Uncletopia | London | 5 | All Maps","protocol":17,"map":"koth_viaduct","folder":"tf","game":"Team Fortress","app_id":440,"player_count":0,"max_players":24,"Bots":0,"server_type":"Dedicated","server_os":"Linux","password":true,"vac":true,"version":"7757534","steam_id":85568392924742829,"keywords":["cp","nocrits","nodmgspread","uncletopia"],"game_id":440,"stv_port":27056,"stv_name":"Uncletopia | London | 5 | All Maps | STV","players":null},{"server_id":22,"name":"Uncletopia | London | 6 | All Maps","name_short":"lon-6","host":"lon-1.uk.uncletopia.com","port":27065,"enabled":true,"region":"eu","cc":"gb","latitude":51.509865,"longitude":-0.118092,"reserved":0,"last_update":"0001-01-01T00:00:00Z","name_a2s":"Uncletopia | London | 6 | All Maps","protocol":17,"map":"koth_highpass","folder":"tf","game":"Team Fortress","app_id":440,"player_count":0,"max_players":24,"Bots":0,"server_type":"Dedicated","server_os":"Linux","password":true,"vac":true,"version":"7757534","steam_id":85568392924742830,"keywords":["cp","nocrits","nodmgspread","uncletopia"],"game_id":440,"stv_port":27066,"stv_name":"Uncletopia | London | 6 | All Maps | STV","players":null},{"server_id":40,"name":"Uncletopia | London | 7 | No Payload","name_short":"lon-7","host":"lon-1.uk.uncletopia.com","port":27075,"enabled":true,"region":"eu","cc":"gb","latitude":51.509865,"longitude":-0.118092,"reserved":0,"last_update":"0001-01-01T00:00:00Z","name_a2s":"Uncletopia | London | 7 | No Payload","protocol":17,"map":"cp_badlands","folder":"tf","game":"Team Fortress","app_id":440,"player_count":0,"max_players":24,"Bots":0,"server_type":"Dedicated","server_os":"Linux","password":true,"vac":true,"version":"7757534","steam_id":85568392924964314,"keywords":["cp","nocrits","nodmgspread","uncletopia"],"game_id":440,"stv_port":27076,"stv_name":"Uncletopia | London | 7 | No Payload | STV","players":null},{"server_id":41,"name":"Uncletopia | London | 8 | Community","name_short":"lon-8","host":"lon-1.uk.uncletopia.com","port":27085,"enabled":true,"region":"eu","cc":"gb","latitude":51.509865,"longitude":-0.118092,"reserved":0,"last_update":"0001-01-01T00:00:00Z","name_a2s":"Uncletopia | London | 8 | Community","protocol":17,"map":"workshop/cp_glassworks_rc6a.ugc454118349","folder":"tf","game":"Team Fortress","app_id":440,"player_count":0,"max_players":24,"Bots":0,"server_type":"Dedicated","server_os":"Linux","password":true,"vac":true,"version":"7757534","steam_id":85568392924964315,"keywords":["cp","nocrits","nodmgspread","uncletopia"],"game_id":440,"stv_port":27086,"stv_name":"Uncletopia | London | 8 | Community | STV","players":null},{"server_id":300,"name":"Uncletopia | Montréal | 1 | All Maps","name_short":"mtl-1","host":"mtl-1.ca.uncletopia.com","port":27015,"enabled":true,"region":"us-east","cc":"ca","latitude":45.50889,"longitude":-73.56167,"reserved":0,"last_update":"0001-01-01T00:00:00Z","name_a2s":"Uncletopia | Montréal | 1 | All Maps","protocol":17,"map":"pl_frontier_final","folder":"tf","game":"Team Fortress","app_id":440,"player_count":0,"max_players":24,"Bots":0,"server_type":"Dedicated","server_os":"Linux","password":true,"vac":true,"version":"7757534","steam_id":85568392924500087,"keywords":["nocrits","nodmgspread","payload","uncletopia"],"game_id":440,"stv_port":27016,"stv_name":"Uncletopia | Montréal | 1 | All Maps | STV","players":null},{"server_id":301,"name":"Uncletopia | Montréal | 2 | All Maps","name_short":"mtl-2","host":"mtl-1.ca.uncletopia.com","port":27025,"enabled":true,"region":"us-east","cc":"ca","latitude":45.50889,"longitude":-73.56167,"reserved":0,"last_update":"0001-01-01T00:00:00Z","name_a2s":"Uncletopia | Montréal | 2 | All Maps","protocol":17,"map":"pl_snowycoast","folder":"tf","game":"Team Fortress","app_id":440,"player_count":24,"max_players":24,"Bots":0,"server_type":"Dedicated","server_os":"Linux","password":true,"vac":true,"version":"7757534","steam_id":85568392924500088,"keywords":["nocrits","nodmgspread","payload","uncletopia"],"game_id":440,"stv_port":27026,"stv_name":"Uncletopia | Montréal | 2 | All Maps | STV","players":[{"user_id":166,"name":"Enterim","steam_id":76561197996226428,"connected_time":1063000000000,"state":"active","ping":55},{"user_id":153,"name":"fish enthusiast","steam_id":76561198160609198,"connected_time":2261000000000,"state":"active","ping":111},{"user_id":162,"name":"Spoigus","steam_id":76561199014028199,"connected_time":1221000000000,"state":"active","ping":61},{"user_id":163,"name":"TheGuy101","steam_id":76561199201772624,"connected_time":1201000000000,"state":"active","ping":124},{"user_id":164,"name":"orneps489","steam_id":76561199124755916,"connected_time":1154000000000,"state":"active","ping":65},{"user_id":188,"name":"Tea Enthusiast","steam_id":76561198185583925,"connected_time":370000000000,"state":"active","ping":42},{"user_id":167,"name":"owlyoop cockatoo","steam_id":76561197987175275,"connected_time":1024000000000,"state":"active","ping":77},{"user_id":168,"name":"Boots","steam_id":76561197990529613,"connected_time":1019000000000,"state":"active","ping":44},{"user_id":169,"name":"The_Bipartisan_Gamer","steam_id":76561198066810339,"connected_time":1005000000000,"state":"active","ping":56},{"user_id":174,"name":"Sock","steam_id":76561197971714165,"connected_time":847000000000,"state":"active","ping":55},{"user_id":171,"name":"Chechens Spotted","steam_id":76561199028910893,"connected_time":958000000000,"state":"active","ping":93},{"user_id":172,"name":"Captain Kacho","steam_id":76561197971929908,"connected_time":906000000000,"state":"active","ping":143},{"user_id":173,"name":"blues traveler","steam_id":76561198044187324,"connected_time":898000000000,"state":"active","ping":59},{"user_id":180,"name":"Lenny","steam_id":76561198183943137,"connected_time":780000000000,"state":"active","ping":65},{"user_id":176,"name":"mic you","steam_id":76561198120735848,"connected_time":813000000000,"state":"active","ping":63},{"user_id":177,"name":"uhooter","steam_id":76561198007829078,"connected_time":812000000000,"state":"active","ping":46},{"user_id":178,"name":"worker","steam_id":76561198039608940,"connected_time":807000000000,"state":"active","ping":121},{"user_id":189,"name":"SyntheticCereal","steam_id":76561198208048093,"connected_time":218000000000,"state":"active","ping":63},{"user_id":179,"name":"Whatup","steam_id":76561198061383979,"connected_time":802000000000,"state":"active","ping":127},{"user_id":185,"name":"pipepeepi","steam_id":76561198845905873,"connected_time":632000000000,"state":"active","ping":50},{"user_id":183,"name":"big ol' buford","steam_id":76561198290675957,"connected_time":716000000000,"state":"active","ping":77},{"user_id":184,"name":"street hock","steam_id":76561198070923665,"connected_time":709000000000,"state":"active","ping":96},{"user_id":186,"name":"BigTigg","steam_id":76561197994478622,"connected_time":618000000000,"state":"active","ping":76},{"user_id":187,"name":"Baron The Bard","steam_id":76561198149512315,"connected_time":520000000000,"state":"active","ping":49}]},{"server_id":302,"name":"Uncletopia | Montréal | 3 | All Maps","name_short":"mtl-3","host":"mtl-1.ca.uncletopia.com","port":27035,"enabled":true,"region":"us-east","cc":"ca","latitude":45.50889,"longitude":-73.56167,"reserved":0,"last_update":"0001-01-01T00:00:00Z","name_a2s":"Uncletopia | Montréal | 3 | All Maps","protocol":17,"map":"pl_barnblitz","folder":"tf","game":"Team Fortress","app_id":440,"player_count":24,"max_players":24,"Bots":0,"server_type":"Dedicated","server_os":"Linux","password":true,"vac":true,"version":"7757534","steam_id":85568392924500089,"keywords":["nocrits","nodmgspread","payload","uncletopia"],"game_id":440,"stv_port":27036,"stv_name":"Uncletopia | Montréal | 3 | All Maps | STV","players":[{"user_id":11,"name":"Abra","steam_id":76561198007616630,"connected_time":8395000000000,"state":"active","ping":68},{"user_id":120,"name":"Jazz Jackrabbit","steam_id":76561198244727346,"connected_time":974000000000,"state":"active","ping":94},{"user_id":121,"name":"annastasisxxxxxxxxxxxxxxxxxxxxx","steam_id":76561197994492154,"connected_time":945000000000,"state":"active","ping":154},{"user_id":14,"name":"FerrisIgnis","steam_id":76561199257050491,"connected_time":8388000000000,"state":"active","ping":60},{"user_id":99,"name":"t.tv/FamilyGuyFunnyMoments277","steam_id":76561198416047580,"connected_time":3448000000000,"state":"active","ping":70},{"user_id":16,"name":"❄ Nuro ❄","steam_id":76561198012342543,"connected_time":8386000000000,"state":"active","ping":80},{"user_id":17,"name":"ShoalFox","steam_id":76561198035674966,"connected_time":8380000000000,"state":"active","ping":62},{"user_id":107,"name":"Reji8627","steam_id":76561198041575562,"connected_time":2486000000000,"state":"active","ping":101},{"user_id":111,"name":"mr.dog","steam_id":76561199305637990,"connected_time":1844000000000,"state":"active","ping":90},{"user_id":20,"name":"VidiotGamerArtomis","steam_id":76561198150620070,"connected_time":8335000000000,"state":"active","ping":86},{"user_id":122,"name":"tacofever","steam_id":76561198010966507,"connected_time":937000000000,"state":"active","ping":128},{"user_id":114,"name":"Wumps","steam_id":76561198207226825,"connected_time":1789000000000,"state":"active","ping":72},{"user_id":25,"name":"Lily","steam_id":76561198033165008,"connected_time":8291000000000,"state":"active","ping":127},{"user_id":115,"name":"Cornflakes","steam_id":76561199151899684,"connected_time":1776000000000,"state":"active","ping":95},{"user_id":73,"name":"SlowpokeIsAGamer","steam_id":76561198048134774,"connected_time":5639000000000,"state":"active","ping":88},{"user_id":79,"name":"nile","steam_id":76561197980035714,"connected_time":5401000000000,"state":"active","ping":89},{"user_id":29,"name":"Brun Wants Teeth","steam_id":76561198073169094,"connected_time":8200000000000,"state":"active","ping":76},{"user_id":117,"name":"alex","steam_id":76561198095203229,"connected_time":1615000000000,"state":"active","ping":62},{"user_id":93,"name":"AC™ IlJuniorlI","steam_id":76561197970556875,"connected_time":3718000000000,"state":"active","ping":50},{"user_id":101,"name":"Emails","steam_id":76561198836919458,"connected_time":3237000000000,"state":"active","ping":89},{"user_id":33,"name":"Tank_Facts","steam_id":76561198038596892,"connected_time":8027000000000,"state":"active","ping":69},{"user_id":123,"name":"RekTek249","steam_id":76561198118901719,"connected_time":929000000000,"state":"active","ping":63},{"user_id":119,"name":"papa guacamole","steam_id":76561198167665608,"connected_time":1218000000000,"state":"active","ping":53},{"user_id":124,"name":"Nexiogi","steam_id":76561198083284171,"connected_time":428000000000,"state":"active","ping":46}]},{"server_id":303,"name":"Uncletopia | Montréal | 4 | No Payload","name_short":"mtl-4","host":"mtl-1.ca.uncletopia.com","port":27045,"enabled":true,"region":"us-east","cc":"ca","latitude":45.50889,"longitude":-73.56167,"reserved":0,"last_update":"0001-01-01T00:00:00Z","name_a2s":"Uncletopia | Montréal | 4 | No Payload","protocol":17,"map":"cp_altitude","folder":"tf","game":"Team Fortress","app_id":440,"player_count":0,"max_players":24,"Bots":0,"server_type":"Dedicated","server_os":"Linux","password":true,"vac":true,"version":"7757534","steam_id":85568392924500090,"keywords":["cp","nocrits","nodmgspread","uncletopia"],"game_id":440,"stv_port":27046,"stv_name":"Uncletopia | Montréal | 4 | No Payload | STV","players":null},{"server_id":13,"name":"Uncletopia | New York City | 1 | All Maps","name_short":"nyc-1","host":"nyc-1.us.uncletopia.com","port":27015,"enabled":true,"region":"us-east","cc":"us","latitude":40.73061,"longitude":-73.93524,"reserved":0,"last_update":"0001-01-01T00:00:00Z","name_a2s":"Uncletopia | New York City | 1 | All Maps","protocol":17,"map":"pl_snowycoast","folder":"tf","game":"Team Fortress","app_id":440,"player_count":17,"max_players":24,"Bots":0,"server_type":"Dedicated","server_os":"Linux","password":true,"vac":true,"version":"7757534","steam_id":85568392924469993,"keywords":["nocrits","nodmgspread","payload","uncletopia"],"game_id":440,"stv_port":27016,"stv_name":"Uncletopia | New York City | 1 | All Maps | STV","players":[{"user_id":505,"name":"Weasel Smack","steam_id":76561198023116430,"connected_time":840000000000,"state":"active","ping":148},{"user_id":502,"name":"Raiden","steam_id":76561198936412406,"connected_time":1018000000000,"state":"active","ping":80},{"user_id":481,"name":"DaMultiversalist","steam_id":76561198239552412,"connected_time":1930000000000,"state":"active","ping":134},{"user_id":503,"name":"CesarSalad","steam_id":76561198985356050,"connected_time":912000000000,"state":"active","ping":74},{"user_id":443,"name":"Vivid Hut 64","steam_id":76561198170050059,"connected_time":4510000000000,"state":"active","ping":56},{"user_id":510,"name":"Coop","steam_id":76561198042839356,"connected_time":51000000000,"state":"active","ping":66},{"user_id":471,"name":"Shoehorn Jim","steam_id":76561198310004779,"connected_time":2582000000000,"state":"active","ping":71},{"user_id":511,"name":"Julia","steam_id":76561198175727790,"connected_time":49000000000,"state":"active","ping":157},{"user_id":512,"name":"emseaeye","steam_id":76561198161499803,"connected_time":18000000000,"state":"spawning","ping":109},{"user_id":451,"name":"Agent Hugh Jass","steam_id":76561199097744991,"connected_time":4284000000000,"state":"active","ping":60},{"user_id":445,"name":"DededeMain | trade.tf","steam_id":76561198310951632,"connected_time":4464000000000,"state":"active","ping":114},{"user_id":370,"name":"great1photo","steam_id":76561198085481933,"connected_time":9786000000000,"state":"active","ping":73},{"user_id":509,"name":"Dillon","steam_id":76561198191469611,"connected_time":443000000000,"state":"active","ping":116},{"user_id":506,"name":"The Real Jetpack Jackson","steam_id":76561199009471455,"connected_time":670000000000,"state":"active","ping":158},{"user_id":507,"name":"Thebestsock","steam_id":76561198819141894,"connected_time":668000000000,"state":"active","ping":142},{"user_id":495,"name":"The Chosen One","steam_id":76561199046984627,"connected_time":1605000000000,"state":"active","ping":85},{"user_id":465,"name":"Yoyo","steam_id":76561199122577289,"connected_time":3436000000000,"state":"active","ping":55}]},{"server_id":14,"name":"Uncletopia | New York City | 2 | All Maps","name_short":"nyc-2","host":"nyc-1.us.uncletopia.com","port":27025,"enabled":true,"region":"us-east","cc":"us","latitude":40.73061,"longitude":-73.93524,"reserved":0,"last_update":"0001-01-01T00:00:00Z","name_a2s":"Uncletopia | New York City | 2 | All Maps","protocol":17,"map":"pl_upward","folder":"tf","game":"Team Fortress","app_id":440,"player_count":24,"max_players":24,"Bots":0,"server_type":"Dedicated","server_os":"Linux","password":true,"vac":true,"version":"7757534","steam_id":85568392924469994,"keywords":["nocrits","nodmgspread","payload","uncletopia"],"game_id":440,"stv_port":27026,"stv_name":"Uncletopia | New York City | 2 | All Maps | STV","players":[{"user_id":762,"name":"you should recycle","steam_id":76561198119478199,"connected_time":2208000000000,"state":"active","ping":81},{"user_id":772,"name":"thomasdee725!!!!","steam_id":76561199189526173,"connected_time":736000000000,"state":"active","ping":70},{"user_id":760,"name":"Medicated","steam_id":76561198028100394,"connected_time":2221000000000,"state":"active","ping":98},{"user_id":749,"name":"a triflin' shawty","steam_id":76561198081944653,"connected_time":2901000000000,"state":"active","ping":136},{"user_id":783,"name":"jambie!","steam_id":76561198296042477,"connected_time":46000000000,"state":"active","ping":52},{"user_id":729,"name":"illious","steam_id":76561198169925494,"connected_time":3908000000000,"state":"active","ping":69},{"user_id":765,"name":"Geloman","steam_id":76561198005501322,"connected_time":1938000000000,"state":"active","ping":61},{"user_id":778,"name":"DerrickHenryFan2012","steam_id":76561198254452687,"connected_time":360000000000,"state":"active","ping":128},{"user_id":751,"name":"Bluedime","steam_id":76561198123181025,"connected_time":2653000000000,"state":"active","ping":80},{"user_id":744,"name":"avantime","steam_id":76561199203175541,"connected_time":3413000000000,"state":"active","ping":159},{"user_id":769,"name":"you forgot the sauce","steam_id":76561198387016713,"connected_time":1380000000000,"state":"active","ping":56},{"user_id":784,"name":"Dr.Sex","steam_id":76561199067307571,"connected_time":4000000000,"state":"spawning","ping":267},{"user_id":773,"name":"captjosh22","steam_id":76561199092650499,"connected_time":714000000000,"state":"active","ping":83},{"user_id":745,"name":"quadapalozle","steam_id":76561198327686110,"connected_time":3385000000000,"state":"active","ping":121},{"user_id":737,"name":"coal","steam_id":76561198027252280,"connected_time":3743000000000,"state":"active","ping":56},{"user_id":777,"name":"Discourse","steam_id":76561198984286678,"connected_time":600000000000,"state":"active","ping":76},{"user_id":752,"name":"bungo","steam_id":76561198065145850,"connected_time":2637000000000,"state":"active","ping":64},{"user_id":774,"name":"fatteralbert30","steam_id":76561198129722628,"connected_time":694000000000,"state":"active","ping":80},{"user_id":781,"name":"Cola","steam_id":76561198171893399,"connected_time":85000000000,"state":"active","ping":52},{"user_id":776,"name":"Gingayy ♥","steam_id":76561198196495977,"connected_time":615000000000,"state":"active","ping":155},{"user_id":747,"name":"KoolBucky","steam_id":76561198147927648,"connected_time":3339000000000,"state":"active","ping":77},{"user_id":761,"name":"Chicken Joe","steam_id":76561198278185182,"connected_time":2221000000000,"state":"active","ping":57},{"user_id":696,"name":"Snoopy","steam_id":76561198273735974,"connected_time":6796000000000,"state":"active","ping":153},{"user_id":780,"name":"pass","steam_id":76561199453841197,"connected_time":170000000000,"state":"active","ping":142}]},{"server_id":15,"name":"Uncletopia | New York City | 3 | Stopwatch Beta","name_short":"nyc-3","host":"nyc-1.us.uncletopia.com","port":27035,"enabled":true,"region":"us-east","cc":"us","latitude":40.73061,"longitude":-73.93524,"reserved":0,"last_update":"0001-01-01T00:00:00Z","name_a2s":"Uncletopia | New York City | 3 | Stopwatch Beta","protocol":17,"map":"workshop/koth_ashville_final.ugc2130459942","folder":"tf","game":"Team Fortress","app_id":440,"player_count":3,"max_players":24,"Bots":0,"server_type":"Dedicated","server_os":"Linux","password":true,"vac":true,"version":"7757534","steam_id":85568392924742820,"keywords":["cp","nocrits","nodmgspread","uncletopia"],"game_id":440,"stv_port":27036,"stv_name":"Uncletopia | New York City | 3 | Stopwatch Beta | STV","players":[{"user_id":33,"name":"spades.w","steam_id":76561199099653719,"connected_time":822000000000,"state":"active","ping":126},{"user_id":34,"name":"xGordon_Gaming_TF2x","steam_id":76561198120930750,"connected_time":733000000000,"state":"active","ping":94},{"user_id":36,"name":"Chillin Turt","steam_id":76561198025796849,"connected_time":209000000000,"state":"active","ping":64}]},{"server_id":16,"name":"Uncletopia | New York City | 4 | Community","name_short":"nyc-4","host":"nyc-1.us.uncletopia.com","port":27045,"enabled":true,"region":"us-east","cc":"us","latitude":40.73061,"longitude":-73.93524,"reserved":0,"last_update":"0001-01-01T00:00:00Z","name_a2s":"Uncletopia | New York City | 4 | Community","protocol":17,"map":"workshop/koth_kemptown_rc1.ugc767410655","folder":"tf","game":"Team Fortress","app_id":440,"player_count":0,"max_players":24,"Bots":0,"server_type":"Dedicated","server_os":"Linux","password":true,"vac":true,"version":"7757534","steam_id":85568392924742821,"keywords":["cp","nocrits","nodmgspread","uncletopia"],"game_id":440,"stv_port":27046,"stv_name":"Uncletopia | New York City | 4 | Community | STV","players":null},{"server_id":142,"name":"Uncletopia | São Paulo | 1 | All Maps","name_short":"sao-1","host":"sao-1.br.uncletopia.com","port":27015,"enabled":true,"region":"sa","cc":"br","latitude":-23.533773,"longitude":-46.62529,"reserved":0,"last_update":"0001-01-01T00:00:00Z","name_a2s":"Uncletopia | São Paulo | 1 | All Maps","protocol":17,"map":"koth_viaduct","folder":"tf","game":"Team Fortress","app_id":440,"player_count":0,"max_players":24,"Bots":0,"server_type":"Dedicated","server_os":"Linux","password":true,"vac":true,"version":"7757534","steam_id":85568392924469996,"keywords":["cp","nocrits","nodmgspread","uncletopia"],"game_id":440,"stv_port":27016,"stv_name":"Uncletopia | São Paulo | 1 | All Maps | STV","players":null},{"server_id":143,"name":"Uncletopia | São Paulo | 2 | All Maps","name_short":"sao-2","host":"sao-2.br.uncletopia.com","port":27015,"enabled":true,"region":"sa","cc":"br","latitude":-23.533773,"longitude":-46.62529,"reserved":0,"last_update":"0001-01-01T00:00:00Z","name_a2s":"Uncletopia | São Paulo | 2 | All Maps","protocol":17,"map":"koth_harvest_final","folder":"tf","game":"Team Fortress","app_id":440,"player_count":0,"max_players":24,"Bots":0,"server_type":"Dedicated","server_os":"Linux","password":true,"vac":true,"version":"7757534","steam_id":85568392924485349,"keywords":["cp","nocrits","nodmgspread","uncletopia"],"game_id":440,"stv_port":27016,"stv_name":"Uncletopia | São Paulo | 2 | All Maps | STV","players":null},{"server_id":7,"name":"Uncletopia | Seattle | 1 | All Maps","name_short":"sea-1","host":"sea-1.us.uncletopia.com","port":27015,"enabled":true,"region":"us-west","cc":"us","latitude":47.608013,"longitude":-122.33517,"reserved":0,"last_update":"0001-01-01T00:00:00Z","name_a2s":"Uncletopia | Seattle | 1 | All Maps","protocol":17,"map":"pl_badwater","folder":"tf","game":"Team Fortress","app_id":440,"player_count":24,"max_players":24,"Bots":0,"server_type":"Dedicated","server_os":"Linux","password":true,"vac":true,"version":"7757534","steam_id":85568392924469997,"keywords":["nocrits","nodmgspread","payload","uncletopia"],"game_id":440,"stv_port":27016,"stv_name":"Uncletopia | Seattle | 1 | All Maps | STV","players":[{"user_id":611,"name":"pathulhu","steam_id":76561198323941614,"connected_time":418000000000,"state":"active","ping":91},{"user_id":590,"name":"MCman","steam_id":76561198412110305,"connected_time":2371000000000,"state":"active","ping":77},{"user_id":560,"name":"forest","steam_id":76561198157960257,"connected_time":5539000000000,"state":"active","ping":34},{"user_id":556,"name":"makeshift_burrito","steam_id":76561198042510825,"connected_time":5893000000000,"state":"active","ping":71},{"user_id":618,"name":"Al J","steam_id":76561198048756944,"connected_time":236000000000,"state":"active","ping":60},{"user_id":620,"name":"Dargoos","steam_id":76561198366212046,"connected_time":96000000000,"state":"active","ping":72},{"user_id":575,"name":"chunkysquare","steam_id":76561199076468383,"connected_time":3633000000000,"state":"active","ping":63},{"user_id":561,"name":"toodles","steam_id":76561198025463883,"connected_time":5434000000000,"state":"active","ping":52},{"user_id":613,"name":"Lichy","steam_id":76561198310682841,"connected_time":408000000000,"state":"active","ping":113},{"user_id":617,"name":"Sailor","steam_id":76561199081983517,"connected_time":323000000000,"state":"active","ping":97},{"user_id":605,"name":"nav","steam_id":76561198872608266,"connected_time":720000000000,"state":"active","ping":119},{"user_id":592,"name":"Crake","steam_id":76561198001959071,"connected_time":2134000000000,"state":"active","ping":56},{"user_id":623,"name":"British Zoner","steam_id":76561198977330214,"connected_time":36000000000,"state":"spawning","ping":85},{"user_id":621,"name":"Angry Shoes","steam_id":76561197980385816,"connected_time":71000000000,"state":"active","ping":54},{"user_id":619,"name":"bbbbb","steam_id":76561198095480838,"connected_time":107000000000,"state":"active","ping":47},{"user_id":586,"name":"=Silver=","steam_id":76561198292307127,"connected_time":2775000000000,"state":"active","ping":70},{"user_id":606,"name":"Concolor","steam_id":76561198027734150,"connected_time":692000000000,"state":"active","ping":116},{"user_id":622,"name":"Petunia","steam_id":76561197995701720,"connected_time":51000000000,"state":"active","ping":64},{"user_id":602,"name":"chrome 2008 (she/they)","steam_id":76561198321277216,"connected_time":1250000000000,"state":"active","ping":69},{"user_id":624,"name":"Sticky Ethan","steam_id":76561198277211625,"connected_time":15000000000,"state":"spawning","ping":60},{"user_id":608,"name":"Gary, 40, soul sucking 9-5","steam_id":76561198073812888,"connected_time":508000000000,"state":"active","ping":50},{"user_id":607,"name":"An Alien Mango","steam_id":76561198864823970,"connected_time":569000000000,"state":"active","ping":75},{"user_id":563,"name":"HDI","steam_id":76561199062715724,"connected_time":5201000000000,"state":"active","ping":63},{"user_id":580,"name":"Ayayahuasca","steam_id":76561199002906056,"connected_time":3482000000000,"state":"active","ping":49}]},{"server_id":119,"name":"Uncletopia | Seattle | 2 | All Maps","name_short":"sea-2","host":"sea-1.us.uncletopia.com","port":27025,"enabled":true,"region":"us-west","cc":"us","latitude":47.608013,"longitude":-122.33517,"reserved":0,"last_update":"0001-01-01T00:00:00Z","name_a2s":"Uncletopia | Seattle | 2 | All Maps","protocol":17,"map":"pl_upward","folder":"tf","game":"Team Fortress","app_id":440,"player_count":23,"max_players":24,"Bots":0,"server_type":"Dedicated","server_os":"Linux","password":true,"vac":true,"version":"7757534","steam_id":85568392924469998,"keywords":["nocrits","nodmgspread","payload","uncletopia"],"game_id":440,"stv_port":27026,"stv_name":"Uncletopia | Seattle | 2 | All Maps | STV","players":[{"user_id":504,"name":"Korbi.","steam_id":76561198355711373,"connected_time":277000000000,"state":"active","ping":69},{"user_id":476,"name":"Amish Supremacist","steam_id":76561198396181197,"connected_time":1634000000000,"state":"active","ping":129},{"user_id":505,"name":"Superbacon24","steam_id":76561198121223443,"connected_time":42000000000,"state":"active","ping":66},{"user_id":506,"name":"Daddy Topps","steam_id":76561198203594332,"connected_time":10000000000,"state":"active","ping":201},{"user_id":471,"name":"Len","steam_id":76561199141913673,"connected_time":2263000000000,"state":"active","ping":48},{"user_id":496,"name":"Username","steam_id":76561198855586261,"connected_time":884000000000,"state":"active","ping":68},{"user_id":500,"name":"Patio","steam_id":76561197986082608,"connected_time":553000000000,"state":"active","ping":49},{"user_id":459,"name":"Wafflemuscle","steam_id":76561198868628982,"connected_time":3619000000000,"state":"active","ping":51},{"user_id":454,"name":"Dunkle","steam_id":76561198041903573,"connected_time":4581000000000,"state":"active","ping":39},{"user_id":502,"name":"Moth","steam_id":76561199214894158,"connected_time":510000000000,"state":"active","ping":96},{"user_id":481,"name":"Drake from State Farm","steam_id":76561199069029812,"connected_time":1536000000000,"state":"active","ping":69},{"user_id":487,"name":"Bargain Brand Cereal","steam_id":76561198440470058,"connected_time":1393000000000,"state":"active","ping":124},{"user_id":438,"name":"blockland.fan 4","steam_id":76561198173706067,"connected_time":5489000000000,"state":"active","ping":56},{"user_id":346,"name":"mooney","steam_id":76561199110622484,"connected_time":13426000000000,"state":"active","ping":91},{"user_id":493,"name":"Sleuth","steam_id":76561198418288939,"connected_time":1153000000000,"state":"active","ping":73},{"user_id":503,"name":"Sierra Foxtrot","steam_id":76561197996667382,"connected_time":458000000000,"state":"active","ping":80},{"user_id":484,"name":"agolem3214","steam_id":76561198121844002,"connected_time":1464000000000,"state":"active","ping":71},{"user_id":469,"name":"Caramel?! | Trans rights!","steam_id":76561198041863697,"connected_time":2448000000000,"state":"active","ping":43},{"user_id":494,"name":"ArchmageF","steam_id":76561197992246851,"connected_time":1021000000000,"state":"active","ping":48},{"user_id":485,"name":"They/Them Rattussy","steam_id":76561198238186628,"connected_time":1462000000000,"state":"active","ping":87},{"user_id":486,"name":"M4 Sherman","steam_id":76561198011096132,"connected_time":1441000000000,"state":"active","ping":63},{"user_id":498,"name":"SenTreats","steam_id":76561198085835841,"connected_time":598000000000,"state":"active","ping":89},{"user_id":495,"name":"TarSenpai","steam_id":76561199292143353,"connected_time":909000000000,"state":"active","ping":82}]},{"server_id":406,"name":"Uncletopia | Seattle | 3 | Stopwatch Beta","name_short":"sea-3","host":"sea-1.us.uncletopia.com","port":27035,"enabled":true,"region":"us-west","cc":"us","latitude":47.608013,"longitude":-122.33517,"reserved":0,"last_update":"0001-01-01T00:00:00Z","name_a2s":"Uncletopia | Seattle | 3 | Stopwatch Beta","protocol":17,"map":"workshop/koth_ramjam_rc1.ugc459778887","folder":"tf","game":"Team Fortress","app_id":440,"player_count":0,"max_players":24,"Bots":0,"server_type":"Dedicated","server_os":"Linux","password":true,"vac":true,"version":"7757534","steam_id":85568392924515217,"keywords":["cp","nocrits","nodmgspread","uncletopia"],"game_id":440,"stv_port":27036,"stv_name":"Uncletopia | Seattle | 3 | Stopwatch Beta | STV","players":null},{"server_id":17,"name":"Uncletopia | San Francisco | 1 | All Maps","name_short":"sfo-1","host":"sfo-1.us.uncletopia.com","port":27015,"enabled":true,"region":"us-west","cc":"us","latitude":37.77397,"longitude":-122.4313,"reserved":0,"last_update":"0001-01-01T00:00:00Z","name_a2s":"Uncletopia | San Francisco | 1 | All Maps","protocol":17,"map":"cp_dustbowl","folder":"tf","game":"Team Fortress","app_id":440,"player_count":24,"max_players":24,"Bots":0,"server_type":"Dedicated","server_os":"Linux","password":true,"vac":true,"version":"7757534","steam_id":85568392924469999,"keywords":["cp","nocrits","nodmgspread","uncletopia"],"game_id":440,"stv_port":27016,"stv_name":"Uncletopia | San Francisco | 1 | All Maps | STV","players":[{"user_id":578,"name":"Nahvee","steam_id":76561198119759695,"connected_time":3161000000000,"state":"active","ping":82},{"user_id":589,"name":"Timebomb2134","steam_id":76561199065629825,"connected_time":1539000000000,"state":"active","ping":84},{"user_id":615,"name":"SCP - 909 babyraid","steam_id":76561198015075950,"connected_time":117000000000,"state":"active","ping":116},{"user_id":616,"name":"Fluffy \u003c3 [HUGS]","steam_id":76561198119444962,"connected_time":115000000000,"state":"active","ping":79},{"user_id":591,"name":"RedMustrd","steam_id":76561199246218857,"connected_time":1442000000000,"state":"active","ping":142},{"user_id":613,"name":"Bikeway Naros","steam_id":76561198086676786,"connected_time":309000000000,"state":"active","ping":45},{"user_id":583,"name":"Smeelay","steam_id":76561198224812372,"connected_time":2508000000000,"state":"active","ping":101},{"user_id":594,"name":"potato","steam_id":76561198277233056,"connected_time":1418000000000,"state":"active","ping":51},{"user_id":609,"name":"xerro","steam_id":76561198323340524,"connected_time":888000000000,"state":"active","ping":99},{"user_id":614,"name":"Igrium","steam_id":76561198119549811,"connected_time":216000000000,"state":"active","ping":48},{"user_id":534,"name":"Ion","steam_id":76561197992690915,"connected_time":6025000000000,"state":"active","ping":63},{"user_id":598,"name":"HuntBunt","steam_id":76561199055381357,"connected_time":1264000000000,"state":"active","ping":87},{"user_id":600,"name":"Sharkwark","steam_id":76561199218566982,"connected_time":1244000000000,"state":"active","ping":119},{"user_id":612,"name":"cuckboi","steam_id":76561198343060961,"connected_time":425000000000,"state":"active","ping":88},{"user_id":619,"name":"GORILLA","steam_id":76561198422686137,"connected_time":17000000000,"state":"active","ping":201},{"user_id":603,"name":"eau:","steam_id":76561198110020262,"connected_time":1163000000000,"state":"active","ping":58},{"user_id":606,"name":"EatSomeBEES","steam_id":76561198047334307,"connected_time":1027000000000,"state":"active","ping":70},{"user_id":586,"name":"Nothin","steam_id":76561198307427764,"connected_time":1947000000000,"state":"active","ping":64},{"user_id":608,"name":"Stapler","steam_id":76561198099295077,"connected_time":961000000000,"state":"active","ping":44},{"user_id":556,"name":"b3afy","steam_id":76561198084208649,"connected_time":4443000000000,"state":"active","ping":73},{"user_id":617,"name":"Zogovro","steam_id":76561199163618880,"connected_time":106000000000,"state":"active","ping":69},{"user_id":611,"name":"Highground","steam_id":76561199197544789,"connected_time":491000000000,"state":"active","ping":178},{"user_id":576,"name":"Wingman","steam_id":76561198066270405,"connected_time":3363000000000,"state":"active","ping":43},{"user_id":538,"name":"Resh420","steam_id":76561198066619792,"connected_time":5452000000000,"state":"active","ping":89}]},{"server_id":18,"name":"Uncletopia | San Francisco | 2 | All Maps","name_short":"sfo-2","host":"sfo-1.us.uncletopia.com","port":27025,"enabled":true,"region":"us-west","cc":"us","latitude":37.77397,"longitude":-122.4313,"reserved":0,"last_update":"0001-01-01T00:00:00Z","name_a2s":"Uncletopia | San Francisco | 2 | All Maps","protocol":17,"map":"koth_highpass","folder":"tf","game":"Team Fortress","app_id":440,"player_count":0,"max_players":24,"Bots":0,"server_type":"Dedicated","server_os":"Linux","password":true,"vac":true,"version":"7757534","steam_id":85568392924470000,"keywords":["cp","nocrits","nodmgspread","uncletopia"],"game_id":440,"stv_port":27026,"stv_name":"Uncletopia | San Francisco | 2 | All Maps | STV","players":null},{"server_id":19,"name":"Uncletopia | San Francisco | 3 | Stopwatch Beta","name_short":"sfo-3","host":"sfo-1.us.uncletopia.com","port":27035,"enabled":true,"region":"us-west","cc":"us","latitude":37.77397,"longitude":-122.4313,"reserved":0,"last_update":"0001-01-01T00:00:00Z","name_a2s":"Uncletopia | San Francisco | 3 | Stopwatch Beta","protocol":17,"map":"workshop/pl_barnblitz_pro7.ugc582280235","folder":"tf","game":"Team Fortress","app_id":440,"player_count":0,"max_players":24,"Bots":0,"server_type":"Dedicated","server_os":"Linux","password":true,"vac":true,"version":"7757534","steam_id":85568392924742824,"keywords":["nocrits","nodmgspread","payload","uncletopia"],"game_id":440,"stv_port":27036,"stv_name":"Uncletopia | San Francisco | 3 | Stopwatch Beta | STV","players":null},{"server_id":20,"name":"Uncletopia | San Francisco | 4 | Community","name_short":"sfo-4","host":"sfo-1.us.uncletopia.com","port":27045,"enabled":true,"region":"us-west","cc":"us","latitude":37.77397,"longitude":-122.4313,"reserved":0,"last_update":"0001-01-01T00:00:00Z","name_a2s":"Uncletopia | San Francisco | 4 | Community","protocol":17,"map":"workshop/cp_fulgur_rc2a.ugc2068252300","folder":"tf","game":"Team Fortress","app_id":440,"player_count":21,"max_players":24,"Bots":0,"server_type":"Dedicated","server_os":"Linux","password":true,"vac":true,"version":"7757534","steam_id":85568392924742826,"keywords":["nocrits","nodmgspread","payload","uncletopia"],"game_id":440,"stv_port":27046,"stv_name":"Uncletopia | San Francisco | 4 | Community | STV","players":[{"user_id":78,"name":"JohnnyGitGud","steam_id":76561198401455467,"connected_time":1922000000000,"state":"connecting","ping":71},{"user_id":103,"name":"tanavast","steam_id":76561198152297274,"connected_time":50000000000,"state":"connecting","ping":131},{"user_id":81,"name":"Viper_Ray","steam_id":76561199068788737,"connected_time":1828000000000,"state":"connecting","ping":81},{"user_id":12,"name":"I Exist","steam_id":76561199229739789,"connected_time":6494000000000,"state":"connecting","ping":117},{"user_id":76,"name":"Registeel","steam_id":76561198068516556,"connected_time":2172000000000,"state":"connecting","ping":58},{"user_id":89,"name":"Ace","steam_id":76561198041435326,"connected_time":1278000000000,"state":"connecting","ping":167},{"user_id":88,"name":"zogs (she/her)","steam_id":76561198323491654,"connected_time":1315000000000,"state":"connecting","ping":98},{"user_id":72,"name":"maximusbabaximus","steam_id":76561198419378913,"connected_time":2451000000000,"state":"connecting","ping":68},{"user_id":62,"name":"Biggie Grug","steam_id":76561198042998887,"connected_time":3230000000000,"state":"spawning","ping":99},{"user_id":96,"name":"cigarette","steam_id":76561198317827526,"connected_time":493000000000,"state":"connecting","ping":145},{"user_id":91,"name":"pinko stinko","steam_id":76561198011830266,"connected_time":1213000000000,"state":"connecting","ping":136},{"user_id":57,"name":"Regice","steam_id":76561198049860998,"connected_time":4251000000000,"state":"connecting","ping":116},{"user_id":97,"name":"Toasty","steam_id":76561198363417298,"connected_time":467000000000,"state":"connecting","ping":124},{"user_id":98,"name":"GamerMan","steam_id":76561199058616824,"connected_time":467000000000,"state":"connecting","ping":92},{"user_id":46,"name":"Ahcer","steam_id":76561198125190121,"connected_time":5050000000000,"state":"connecting","ping":66},{"user_id":95,"name":"LtGigglebubbles","steam_id":76561198114373812,"connected_time":819000000000,"state":"connecting","ping":125},{"user_id":85,"name":"Dispenser","steam_id":76561198064474215,"connected_time":1768000000000,"state":"connecting","ping":131},{"user_id":69,"name":"lavender","steam_id":76561199069518286,"connected_time":2623000000000,"state":"connecting","ping":59},{"user_id":99,"name":"Funny Rat","steam_id":76561198050762621,"connected_time":453000000000,"state":"connecting","ping":137},{"user_id":102,"name":"Thequirka","steam_id":76561198968058652,"connected_time":216000000000,"state":"connecting","ping":79}]},{"server_id":141,"name":"Uncletopia | Sydney | 1 | All Maps","name_short":"syd-1","host":"syd-1.au.uncletopia.com","port":27015,"enabled":true,"region":"au","cc":"au","latitude":-33.865143,"longitude":151.2099,"reserved":0,"last_update":"0001-01-01T00:00:00Z","name_a2s":"Uncletopia | Sydney | 1 | All Maps","protocol":17,"map":"pl_borneo","folder":"tf","game":"Team Fortress","app_id":440,"player_count":17,"max_players":24,"Bots":0,"server_type":"Dedicated","server_os":"Linux","password":true,"vac":true,"version":"7757534","steam_id":85568392924470001,"keywords":["nocrits","nodmgspread","payload","uncletopia"],"game_id":440,"stv_port":27016,"stv_name":"Uncletopia | Sydney | 1 | All Maps | STV","players":[{"user_id":15,"name":"Shadow Puppeteer","steam_id":76561198151121997,"connected_time":6022000000000,"state":"active","ping":77},{"user_id":16,"name":"Nyda","steam_id":76561198152311904,"connected_time":6011000000000,"state":"active","ping":67},{"user_id":86,"name":"oogeenee","steam_id":76561199224705904,"connected_time":1308000000000,"state":"active","ping":148},{"user_id":114,"name":"No Scrubs","steam_id":76561197969619053,"connected_time":189000000000,"state":"active","ping":74},{"user_id":115,"name":"joyful","steam_id":76561198057631622,"connected_time":125000000000,"state":"active","ping":272},{"user_id":116,"name":"trash","steam_id":76561198110764631,"connected_time":15000000000,"state":"spawning","ping":45},{"user_id":105,"name":"01001110 01101111","steam_id":76561198290288735,"connected_time":371000000000,"state":"active","ping":60},{"user_id":82,"name":"smite","steam_id":76561198845304189,"connected_time":2027000000000,"state":"active","ping":75},{"user_id":98,"name":"Sinister80s","steam_id":76561198343540472,"connected_time":1029000000000,"state":"active","ping":60},{"user_id":96,"name":"T-nooki™","steam_id":76561198054135837,"connected_time":1096000000000,"state":"active","ping":47},{"user_id":106,"name":"Emanuel Augustus","steam_id":76561199081848498,"connected_time":290000000000,"state":"active","ping":70},{"user_id":103,"name":"des_solatius","steam_id":76561198154509561,"connected_time":624000000000,"state":"active","ping":77},{"user_id":109,"name":"Fresh Produce Gaming","steam_id":76561198358483352,"connected_time":261000000000,"state":"active","ping":65},{"user_id":110,"name":"TTV ChocoMilk","steam_id":76561198167049794,"connected_time":260000000000,"state":"active","ping":67},{"user_id":111,"name":"1ocalTechSuppor1","steam_id":76561198175547093,"connected_time":259000000000,"state":"active","ping":84},{"user_id":93,"name":"Piklz","steam_id":76561198043384139,"connected_time":1147000000000,"state":"active","ping":53},{"user_id":71,"name":"primal","steam_id":76561198257852006,"connected_time":2577000000000,"state":"active","ping":54}]},{"server_id":123,"name":"Uncletopia | Sydney | 2 | All Maps","name_short":"syd-2","host":"syd-1.au.uncletopia.com","port":27025,"enabled":true,"region":"au","cc":"au","latitude":-33.865143,"longitude":151.2099,"reserved":0,"last_update":"0001-01-01T00:00:00Z","name_a2s":"Uncletopia | Sydney | 2 | All Maps","protocol":17,"map":"pl_badwater","folder":"tf","game":"Team Fortress","app_id":440,"player_count":0,"max_players":24,"Bots":0,"server_type":"Dedicated","server_os":"Linux","password":true,"vac":true,"version":"7757534","steam_id":85568392924470002,"keywords":["nocrits","nodmgspread","payload","uncletopia"],"game_id":440,"stv_port":27026,"stv_name":"Uncletopia | Sydney | 2 | All Maps | STV","players":null},{"server_id":395,"name":"Uncletopia | Sydney | 3 | All Maps","name_short":"syd-3","host":"syd-1.au.uncletopia.com","port":27035,"enabled":true,"region":"au","cc":"au","latitude":-33.865143,"longitude":151.2099,"reserved":0,"last_update":"0001-01-01T00:00:00Z","name_a2s":"Uncletopia | Sydney | 3 | All Maps","protocol":17,"map":"cp_snakewater_final1","folder":"tf","game":"Team Fortress","app_id":440,"player_count":15,"max_players":24,"Bots":0,"server_type":"Dedicated","server_os":"Linux","password":true,"vac":true,"version":"7757534","steam_id":85568392925194467,"keywords":["cp","nocrits","nodmgspread","uncletopia"],"game_id":440,"stv_port":27036,"stv_name":"Uncletopia | Sydney | 3 | All Maps | STV","players":[{"user_id":44,"name":"mixyad3","steam_id":76561198046461767,"connected_time":1131000000000,"state":"active","ping":57},{"user_id":35,"name":"FrOStY","steam_id":76561198088155805,"connected_time":1849000000000,"state":"active","ping":76},{"user_id":32,"name":"Lastone","steam_id":76561198131381380,"connected_time":2643000000000,"state":"active","ping":40},{"user_id":59,"name":"PotatoSalad","steam_id":76561198950711488,"connected_time":206000000000,"state":"active","ping":377},{"user_id":45,"name":"Nah","steam_id":76561198869190432,"connected_time":1093000000000,"state":"active","ping":57},{"user_id":49,"name":"Shiki Eiki","steam_id":76561198095744048,"connected_time":927000000000,"state":"active","ping":100},{"user_id":37,"name":"dumbvent","steam_id":76561198190062810,"connected_time":1810000000000,"state":"active","ping":60},{"user_id":46,"name":"jv","steam_id":76561198267475132,"connected_time":1090000000000,"state":"active","ping":46},{"user_id":51,"name":"Haste","steam_id":76561198173155142,"connected_time":861000000000,"state":"active","ping":61},{"user_id":47,"name":"bobo","steam_id":76561198156622144,"connected_time":1083000000000,"state":"active","ping":59},{"user_id":58,"name":"HORIZ0N","steam_id":76561199006929134,"connected_time":589000000000,"state":"active","ping":79},{"user_id":41,"name":"fatal exception error","steam_id":76561198115584374,"connected_time":1726000000000,"state":"active","ping":56},{"user_id":42,"name":"RinzlerAmi","steam_id":76561198158165048,"connected_time":1605000000000,"state":"active","ping":70},{"user_id":43,"name":"Sover blw.tf","steam_id":76561198136347837,"connected_time":1581000000000,"state":"active","ping":131},{"user_id":56,"name":"Snowy","steam_id":76561198255720598,"connected_time":634000000000,"state":"active","ping":47}]},{"server_id":396,"name":"Uncletopia | Sydney | 4 | All Maps","name_short":"syd-4","host":"syd-1.au.uncletopia.com","port":27045,"enabled":true,"region":"au","cc":"au","latitude":-33.865143,"longitude":151.2099,"reserved":0,"last_update":"0001-01-01T00:00:00Z","name_a2s":"Uncletopia | Sydney | 4 | All Maps","protocol":17,"map":"koth_highpass","folder":"tf","game":"Team Fortress","app_id":440,"player_count":0,"max_players":24,"Bots":0,"server_type":"Dedicated","server_os":"Linux","password":true,"vac":true,"version":"7757534","steam_id":85568392925397958,"keywords":["cp","nocrits","nodmgspread","uncletopia"],"game_id":440,"stv_port":27046,"stv_name":"Uncletopia | Sydney | 4 | All Maps | STV","players":null},{"server_id":58,"name":"Uncletopia | Sydney | 5 | Stopwatch Beta","name_short":"syd-5","host":"syd-1.au.uncletopia.com","port":27055,"enabled":true,"region":"au","cc":"au","latitude":-33.865143,"longitude":151.2099,"reserved":0,"last_update":"0001-01-01T00:00:00Z","name_a2s":"Uncletopia | Sydney | 5 | Stopwatch Beta","protocol":17,"map":"workshop/cp_reckoner_rc6.ugc674719999","folder":"tf","game":"Team Fortress","app_id":440,"player_count":0,"max_players":24,"Bots":0,"server_type":"Dedicated","server_os":"Linux","password":true,"vac":true,"version":"7757534","steam_id":85568392925397959,"keywords":["cp","nocrits","nodmgspread","uncletopia"],"game_id":440,"stv_port":27056,"stv_name":"Uncletopia | Sydney | 5 | Stopwatch Beta | STV","players":null},{"server_id":59,"name":"Uncletopia | Sydney | 6 | Community","name_short":"syd-6","host":"syd-1.au.uncletopia.com","port":27065,"enabled":true,"region":"au","cc":"au","latitude":-33.865143,"longitude":151.2099,"reserved":0,"last_update":"0001-01-01T00:00:00Z","name_a2s":"Uncletopia | Sydney | 6 | Community","protocol":17,"map":"cp_snakewater_final1","folder":"tf","game":"Team Fortress","app_id":440,"player_count":0,"max_players":24,"Bots":0,"server_type":"Dedicated","server_os":"Linux","password":true,"vac":true,"version":"7757534","steam_id":85568392925397960,"keywords":["cp","nocrits","nodmgspread","uncletopia"],"game_id":440,"stv_port":27066,"stv_name":"Uncletopia | Sydney | 6 | Community | STV","players":null},{"server_id":49,"name":"Uncletopia | Warsaw | 1 | All Maps","name_short":"waw-1","host":"waw-1.pl.uncletopia.com","port":27015,"enabled":true,"region":"eu","cc":"pl","latitude":52.2297,"longitude":21.017532,"reserved":0,"last_update":"0001-01-01T00:00:00Z","name_a2s":"","protocol":0,"map":"","folder":"","game":"","app_id":0,"player_count":0,"max_players":0,"Bots":0,"server_type":"","server_os":"","password":false,"vac":false,"version":"","steam_id":0,"keywords":null,"game_id":0,"stv_port":0,"stv_name":"","players":null},{"server_id":50,"name":"Uncletopia | Warsaw | 2 | All Maps","name_short":"waw-2","host":"waw-1.pl.uncletopia.com","port":27025,"enabled":true,"region":"eu","cc":"pl","latitude":52.2297,"longitude":21.017532,"reserved":0,"last_update":"0001-01-01T00:00:00Z","name_a2s":"Uncletopia | Warsaw | 2 | All Maps","protocol":17,"map":"koth_viaduct","folder":"tf","game":"Team Fortress","app_id":440,"player_count":0,"max_players":24,"Bots":0,"server_type":"Dedicated","server_os":"Linux","password":true,"vac":true,"version":"7757534","steam_id":85568392925397851,"keywords":["cp","nocrits","nodmgspread","uncletopia"],"game_id":440,"stv_port":27026,"stv_name":"Uncletopia | Warsaw | 2 | All Maps | STV","players":null},{"server_id":51,"name":"Uncletopia | Warsaw | 3 | All Maps","name_short":"waw-3","host":"waw-1.pl.uncletopia.com","port":27035,"enabled":true,"region":"eu","cc":"pl","latitude":52.2297,"longitude":21.017532,"reserved":0,"last_update":"0001-01-01T00:00:00Z","name_a2s":"Uncletopia | Warsaw | 3 | All Maps","protocol":17,"map":"koth_viaduct","folder":"tf","game":"Team Fortress","app_id":440,"player_count":0,"max_players":24,"Bots":0,"server_type":"Dedicated","server_os":"Linux","password":true,"vac":true,"version":"7757534","steam_id":85568392925397852,"keywords":["cp","nocrits","nodmgspread","uncletopia"],"game_id":440,"stv_port":27036,"stv_name":"Uncletopia | Warsaw | 3 | All Maps | STV","players":null},{"server_id":52,"name":"Uncletopia | Warsaw | 4 | All Maps","name_short":"waw-4","host":"waw-1.pl.uncletopia.com","port":27045,"enabled":true,"region":"eu","cc":"pl","latitude":52.2297,"longitude":21.017532,"reserved":0,"last_update":"0001-01-01T00:00:00Z","name_a2s":"Uncletopia | Warsaw | 4 | All Maps","protocol":17,"map":"koth_lakeside_final","folder":"tf","game":"Team Fortress","app_id":440,"player_count":0,"max_players":24,"Bots":0,"server_type":"Dedicated","server_os":"Linux","password":true,"vac":true,"version":"7757534","steam_id":85568392925397853,"keywords":["cp","nocrits","nodmgspread","uncletopia"],"game_id":440,"stv_port":27046,"stv_name":"Uncletopia | Warsaw | 4 | All Maps | STV","players":null},{"server_id":53,"name":"Uncletopia | Warsaw | 5 | Stopwatch Beta","name_short":"waw-5","host":"waw-1.pl.uncletopia.com","port":27055,"enabled":true,"region":"eu","cc":"pl","latitude":52.2297,"longitude":21.017532,"reserved":0,"last_update":"0001-01-01T00:00:00Z","name_a2s":"Uncletopia | Warsaw | 5 | Stopwatch Beta","protocol":17,"map":"pl_borneo","folder":"tf","game":"Team Fortress","app_id":440,"player_count":0,"max_players":24,"Bots":0,"server_type":"Dedicated","server_os":"Linux","password":true,"vac":true,"version":"7757534","steam_id":85568392925397854,"keywords":["nocrits","nodmgspread","payload","uncletopia"],"game_id":440,"stv_port":27056,"stv_name":"Uncletopia | Warsaw | 5 | Stopwatch Beta | STV","players":null},{"server_id":54,"name":"Uncletopia | Warsaw | 6 | Community","name_short":"waw-6","host":"waw-1.pl.uncletopia.com","port":27065,"enabled":true,"region":"eu","cc":"pl","latitude":52.2297,"longitude":21.017532,"reserved":0,"last_update":"0001-01-01T00:00:00Z","name_a2s":"Uncletopia | Warsaw | 6 | Community","protocol":17,"map":"koth_lakeside_final","folder":"tf","game":"Team Fortress","app_id":440,"player_count":0,"max_players":24,"Bots":0,"server_type":"Dedicated","server_os":"Linux","password":true,"vac":true,"version":"7757534","steam_id":85568392925397856,"keywords":["cp","nocrits","nodmgspread","uncletopia"],"game_id":440,"stv_port":27066,"stv_name":"Uncletopia | Warsaw | 6 | Community | STV","players":null}]}