{"status":true,"message":"","result":[{"server_id":9,"name":"Uncletopia | Atlanta | 1 | All Maps","name_short":"atl-1","host":"atl-1.us.uncletopia.com","port":27015,"enabled":true,"region":"us-east","cc":"us","latitude":33.753746,"longitude":-84.38633,"reserved":0,"last_update":"0001-01-01T00:00:00Z","name_a2s":"Uncletopia | Atlanta | 1 | All Maps","protocol":17,"map":"pl_borneo","folder":"tf","game":"Team Fortress","app_id":440,"player_count":21,"max_players":24,"Bots":0,"server_type":"Dedicated","server_os":"Linux","password":true,"vac":true,"version":"7757534","steam_id":85568392924469982,"keywords":["nocrits","nodmgspread","payload","uncletopia"],"game_id":440,"stv_port":27016,"stv_name":"Uncletopia | Atlanta | 1 | All Maps | STV","players":[{"user_id":590,"name":"maxresdefault","steam_id":76561198185980055,"connected_time":2169000000000,"state":"active","ping":90},{"user_id":593,"name":"Gay Cake","steam_id":76561198004388831,"connected_time":913000000000,"state":"active","ping":83},{"user_id":575,"name":"Inevitable","steam_id":76561198210050169,"connected_time":2917000000000,"state":"active","ping":59},{"user_id":588,"name":"kmochi","steam_id":76561198023391988,"connected_time":2425000000000,"state":"active","ping":65},{"user_id":611,"name":"the bulldozer","steam_id":76561198800334545,"connected_time":6000000000,"state":"spawning","ping":225},{"user_id":607,"name":"Samantha UwUwU \u003c333","steam_id":76561198176786799,"connected_time":220000000000,"state":"active","ping":60},{"user_id":558,"name":"vareh","steam_id":76561197993190926,"connected_time":4029000000000,"state":"active","ping":120},{"user_id":584,"name":"dash23™","steam_id":76561198314951185,"connected_time":2628000000000,"state":"active","ping":105},{"user_id":553,"name":"THE CAPN","steam_id":76561198170210979,"connected_time":4455000000000,"state":"active","ping":108},{"user_id":573,"name":"Saikyo","steam_id":76561198212461467,"connected_time":3334000000000,"state":"active","ping":75},{"user_id":592,"name":"duza9999","steam_id":76561198051086430,"connected_time":1014000000000,"state":"active","ping":69},{"user_id":585,"name":"c","steam_id":76561198118319408,"connected_time":2551000000000,"state":"active","ping":89},{"user_id":595,"name":"Lt. Dan's Legs","steam_id":76561198043851584,"connected_time":906000000000,"state":"active","ping":119},{"user_id":601,"name":"Karma","steam_id":76561198030565234,"connected_time":696000000000,"state":"active","ping":73},{"user_id":598,"name":"NekoGod","steam_id":76561198214690176,"connected_time":798000000000,"state":"active","ping":109},{"user_id":582,"name":"TGPupps","steam_id":76561198281201914,"connected_time":2701000000000,"state":"active","ping":127},{"user_id":562,"name":"vordhosbn","steam_id":76561198148132163,"connected_time":3828000000000,"state":"active","ping":75},{"user_id":583,"name":"Lilac Lulamoon","steam_id":76561198111402757,"connected_time":2699000000000,"state":"active","ping":64},{"user_id":569,"name":"High Quality Ice","steam_id":76561198969178047,"connected_time":3486000000000,"state":"active","ping":76},{"user_id":599,"name":"Tezcatlipoca","steam_id":76561198010708247,"connected_time":791000000000,"state":"active","ping":72},{"user_id":587,"name":"dirty30","steam_id":76561198021226566,"connected_time":2450000000000,"state":"active","ping":105}]},{"server_id":400,"name":"Uncletopia | Atlanta | 3 | Community","name_short":"atl-3","host":"atl-1.us.uncletopia.com","port":27035,"enabled":true,"region":"us-east","cc":"us","latitude":33.753746,"longitude":-84.38633,"reserved":0,"last_update":"0001-01-01T00:00:00Z","name_a2s":"Uncletopia | Atlanta | 3 | Community","protocol":17,"map":"workshop/pl_eruption_b9a.ugc2807898013","folder":"tf","game":"Team Fortress","app_id":440,"player_count":0,"max_players":24,"Bots":0,"server_type":"Dedicated","server_os":"Linux","password":true,"vac":true,"version":"7757534","steam_id":85568392924515187,"keywords":["nocrits","nodmgspread","payload","uncletopia"],"game_id":440,"stv_port":27036,"stv_name":"Uncletopia | Atlanta | 3 | Community | STV","players":null},{"server_id":401,"name":"Uncletopia | Atlanta | 4 | No Payload","name_short":"atl-4","host":"atl-1.us.uncletopia.com","port":27045,"enabled":true,"region":"us-east","cc":"us","latitude":33.753746,"longitude":-84.38633,"reserved":0,"last_update":"0001-01-01T00:00:00Z","name_a2s":"","protocol":0,"map":"","folder":"","game":"","app_id":0,"player_count":0,"max_players":0,"Bots":0,"server_type":"","server_os":"","password":false,"vac":false,"version":"","steam_id":0,"keywords":null,"game_id":0,"stv_port":0,"stv_name":"","players":null},{"server_id":2,"name":"Uncletopia | Chicago | 1 | All Maps","name_short":"chi-1","host":"chi-1.us.uncletopia.com","port":27015,"enabled":true,"region":"us-central","cc":"us","latitude":41.881832,"longitude":-87.62318,"reserved":0,"last_update":"0001-01-01T00:00:00Z","name_a2s":"Uncletopia | Chicago | 1 | All Maps","protocol":17,"map":"pl_snowycoast","folder":"tf","game":"Team Fortress","app_id":440,"player_count":23,"max_players":24,"Bots":0,"server_type":"Dedicated","server_os":"Linux","password":true,"vac":true,"version":"7757534","steam_id":85568392924469984,"keywords":["nocrits","nodmgspread","payload","uncletopia"],"game_id":440,"stv_port":27016,"stv_name":"Uncletopia | Chicago | 1 | All Maps | STV","players":[{"user_id":939,"name":"Cut Throat Bill","steam_id":76561198170119157,"connected_time":1974000000000,"state":"active","ping":84},{"user_id":936,"name":"Scorpie Doodle","steam_id":76561198021845763,"connected_time":2347000000000,"state":"active","ping":54},{"user_id":904,"name":"king of bogers","steam_id":76561198045731295,"connected_time":5708000000000,"state":"active","ping":63},{"user_id":971,"name":"harlowng","steam_id":76561198060542928,"connected_time":113000000000,"state":"active","ping":120},{"user_id":968,"name":"phx74golden","steam_id":76561199036201022,"connected_time":448000000000,"state":"active","ping":58},{"user_id":932,"name":"Lukerp","steam_id":76561198875469297,"connected_time":2730000000000,"state":"active","ping":55},{"user_id":921,"name":"Leviathan","steam_id":76561197997528907,"connected_time":3808000000000,"state":"active","ping":60},{"user_id":969,"name":"bitternut","steam_id":76561198356939093,"connected_time":442000000000,"state":"active","ping":95},{"user_id":958,"name":"GiveMeSoda","steam_id":76561199102995294,"connected_time":790000000000,"state":"active","ping":99},{"user_id":924,"name":"Krellah","steam_id":76561198287045069,"connected_time":3299000000000,"state":"active","ping":58},{"user_id":972,"name":"Bill","steam_id":76561198079860855,"connected_time":80000000000,"state":"active","ping":69},{"user_id":931,"name":"Frosty Nug","steam_id":76561198070187464,"connected_time":3105000000000,"state":"active","ping":86},{"user_id":970,"name":"KillPact","steam_id":76561197976319415,"connected_time":392000000000,"state":"active","ping":69},{"user_id":973,"name":"Suddendeath3409","steam_id":76561198183660046,"connected_time":61000000000,"state":"active","ping":53},{"user_id":966,"name":"5869","steam_id":76561198799616739,"connected_time":496000000000,"state":"active","ping":90},{"user_id":959,"name":"Veirū Viseris","steam_id":76561197989857176,"connected_time":719000000000,"state":"active","ping":165},{"user_id":873,"name":"rudy","steam_id":76561198088712799,"connected_time":7195000000000,"state":"active","ping":73},{"user_id":910,"name":"Sychke","steam_id":76561198067144055,"connected_time":4791000000000,"state":"active","ping":45},{"user_id":940,"name":"The Chosen Juan","steam_id":76561198042398728,"connected_time":1933000000000,"state":"active","ping":92},{"user_id":965,"name":"craxyt","steam_id":76561198050192689,"connected_time":567000000000,"state":"active","ping":105},{"user_id":945,"name":"PinguEnjoyer6","steam_id":76561199186723516,"connected_time":1708000000000,"state":"active","ping":105},{"user_id":955,"name":"Law-Man","steam_id":76561198862448114,"connected_time":1054000000000,"state":"active","ping":65},{"user_id":948,"name":"Varia Maius","steam_id":76561198249997376,"connected_time":1540000000000,"state":"active","ping":72}]},{"server_id":106,"name":"Uncletopia | Chicago | 2 | All Maps","name_short":"chi-2","host":"chi-1.us.uncletopia.com","port":27025,"enabled":true,"region":"us-central","cc":"us","latitude":41.881832,"longitude":-87.62318,"reserved":0,"last_update":"0001-01-01T00:00:00Z","name_a2s":"Uncletopia | Chicago | 2 | All Maps","protocol":17,"map":"pl_pier","folder":"tf","game":"Team Fortress","app_id":440,"player_count":0,"max_players":24,"Bots":0,"server_type":"Dedicated","server_os":"Linux","password":true,"vac":true,"version":"7757534","steam_id":85568392924469985,"keywords":["nocrits","nodmgspread","payload","uncletopia"],"game_id":440,"stv_port":27026,"stv_name":"Uncletopia | Chicago | 2 | All Maps | STV","players":null},{"server_id":402,"name":"Uncletopia | Chicago | 3 | All Maps","name_short":"chi-3","host":"chi-1.us.uncletopia.com","port":27035,"enabled":true,"region":"us-central","cc":"us","latitude":41.881832,"longitude":-87.62318,"reserved":0,"last_update":"0001-01-01T00:00:00Z","name_a2s":"Uncletopia | Chicago | 3 | All Maps","protocol":17,"map":"koth_cascade","folder":"tf","game":"Team Fortress","app_id":440,"player_count":0,"max_players":24,"Bots":0,"server_type":"Dedicated","server_os":"Linux","password":true,"vac":true,"version":"7757534","steam_id":85568392924515191,"keywords":["cp","nocrits","nodmgspread","uncletopia"],"game_id":440,"stv_port":27036,"stv_name":"Uncletopia | Chicago | 3 | All Maps | STV","players":null},{"server_id":403,"name":"Uncletopia | Chicago | 4 | All Maps","name_short":"chi-4","host":"chi-1.us.uncletopia.com","port":27045,"enabled":true,"region":"us-central","cc":"us","latitude":41.881832,"longitude":-87.62318,"reserved":0,"last_update":"0001-01-01T00:00:00Z","name_a2s":"Uncletopia | Chicago | 4 | All Maps","protocol":17,"map":"pl_pier","folder":"tf","game":"Team Fortress","app_id":440,"player_count":0,"max_players":24,"Bots":0,"server_type":"Dedicated","server_os":"Linux","password":true,"vac":true,"version":"7757534","steam_id":85568392924515193,"keywords":["nocrits","nodmgspread","payload","uncletopia"],"game_id":440,"stv_port":27046,"stv_name":"Uncletopia | Chicago | 4 | All Maps | STV","players":null},{"server_id":36,"name":"Uncletopia | Chicago | 5 | All Maps","name_short":"chi-5","host":"chi-2.us.uncletopia.com","port":27015,"enabled":true,"region":"us-central","cc":"us","latitude":41.881832,"longitude":-87.62318,"reserved":0,"last_update":"0001-01-01T00:00:00Z","name_a2s":"Uncletopia | Chicago | 5 | All Maps","protocol":17,"map":"pl_badwater","folder":"tf","game":"Team Fortress","app_id":440,"player_count":24,"max_players":24,"Bots":0,"server_type":"Dedicated","server_os":"Linux","password":true,"vac":true,"version":"7757534","steam_id":85568392924866362,"keywords":["nocrits","nodmgspread","payload","uncletopia"],"game_id":440,"stv_port":27016,"stv_name":"Uncletopia | Chicago | 5 | All Maps | STV","players":[{"user_id":427,"name":"Nin10Dough","steam_id":76561198135025413,"connected_time":1143000000000,"state":"active","ping":116},{"user_id":426,"name":"Childfish","steam_id":76561198054693109,"connected_time":1162000000000,"state":"active","ping":56},{"user_id":361,"name":"howtobepker","steam_id":76561198115053865,"connected_time":6618000000000,"state":"active","ping":86},{"user_id":377,"name":"SwingDickerson","steam_id":76561198045542926,"connected_time":5453000000000,"state":"active","ping":34},{"user_id":428,"name":"supafly","steam_id":76561198294281809,"connected_time":1086000000000,"state":"active","ping":91},{"user_id":417,"name":"RURU","steam_id":76561198039758987,"connected_time":2117000000000,"state":"active","ping":92},{"user_id":420,"name":"ＳＬＶＴＣＨＡＭＰ","steam_id":76561198883157736,"connected_time":1446000000000,"state":"active","ping":117},{"user_id":270,"name":"upside down cat","steam_id":76561198028288349,"connected_time":13621000000000,"state":"active","ping":85},{"user_id":436,"name":"92BOB","steam_id":76561198078395002,"connected_time":258000000000,"state":"active","ping":60},{"user_id":421,"name":"☭","steam_id":76561198138444785,"connected_time":1427000000000,"state":"active","ping":85},{"user_id":410,"name":"Slippery","steam_id":76561199469441947,"connected_time":3153000000000,"state":"active","ping":55},{"user_id":429,"name":"waffen's kid","steam_id":76561197972661434,"connected_time":1075000000000,"state":"active","ping":84},{"user_id":390,"name":"Dravenation","steam_id":76561198012411483,"connected_time":5031000000000,"state":"active","ping":125},{"user_id":412,"name":"Gloopster","steam_id":76561198076608253,"connected_time":3064000000000,"state":"active","ping":70},{"user_id":430,"name":"Skitles434","steam_id":76561198151575542,"connected_time":1070000000000,"state":"active","ping":107},{"user_id":438,"name":"Riske","steam_id":76561198115840568,"connected_time":102000000000,"state":"active","ping":74},{"user_id":402,"name":"SpinetinglingToast","steam_id":76561198099470670,"connected_time":3848000000000,"state":"active","ping":73},{"user_id":383,"name":"Five","steam_id":76561198026640473,"connected_time":5167000000000,"state":"active","ping":60},{"user_id":425,"name":"powergamer","steam_id":76561198041920607,"connected_time":1192000000000,"state":"active","ping":65},{"user_id":431,"name":"TimTam Tom","steam_id":76561198045988062,"connected_time":1032000000000,"state":"active","ping":76},{"user_id":432,"name":"Mercenary Alpha | trade.tf","steam_id":76561198057047071,"connected_time":1025000000000,"state":"active","ping":56},{"user_id":435,"name":"AndrewTatesBugatti","steam_id":76561198036162718,"connected_time":277000000000,"state":"active","ping":61},{"user_id":316,"name":"aversa","steam_id":76561198840460101,"connected_time":10473000000000,"state":"active","ping":64},{"user_id":404,"name":"ferin","steam_id":76561198137607046,"connected_time":3547000000000,"state":"active","ping":45}]},{"server_id":37,"name":"Uncletopia | Chicago | 6 | All Maps","name_short":"chi-6","host":"chi-2.us.uncletopia.com","port":27025,"enabled":true,"region":"us-central","cc":"us","latitude":41.881832,"longitude":-87.62318,"reserved":0,"last_update":"0001-01-01T00:00:00Z","name_a2s":"Uncletopia | Chicago | 6 | All Maps","protocol":17,"map":"pl_borneo","folder":"tf","game":"Team Fortress","app_id":440,"player_count":24,"max_players":24,"Bots":0,"server_type":"Dedicated","server_os":"Linux","password":true,"vac":true,"version":"7757534","steam_id":85568392924866363,"keywords":["nocrits","nodmgspread","payload","uncletopia"],"game_id":440,"stv_port":27026,"stv_name":"Uncletopia | Chicago | 6 | All Maps | STV","players":[{"user_id":895,"name":"sergeant Adderall","steam_id":76561199010296481,"connected_time":4670000000000,"state":"active","ping":85},{"user_id":945,"name":"bathroom potions","steam_id":76561198263573503,"connected_time":612000000000,"state":"active","ping":68},{"user_id":937,"name":"this turtle dies","steam_id":76561198198984282,"connected_time":1039000000000,"state":"active","ping":65},{"user_id":951,"name":"KZN02","steam_id":76561198043802482,"connected_time":451000000000,"state":"active","ping":112},{"user_id":944,"name":"evan_is_sauce","steam_id":76561199086802383,"connected_time":695000000000,"state":"active","ping":105},{"user_id":947,"name":"mr. beaver","steam_id":76561198081361768,"connected_time":525000000000,"state":"active","ping":63},{"user_id":952,"name":"Brisk","steam_id":76561198129769783,"connected_time":438000000000,"state":"active","ping":79},{"user_id":949,"name":"ItsDifficultttt","steam_id":76561199402730529,"connected_time":497000000000,"state":"active","ping":77},{"user_id":957,"name":"CheeseCake488","steam_id":76561199407617942,"connected_time":239000000000,"state":"active","ping":133},{"user_id":958,"name":"Cantaloupe","steam_id":76561199158888493,"connected_time":18000000000,"state":"active","ping":321},{"user_id":922,"name":"Voluptuous Moosh","steam_id":76561198149418127,"connected_time":3006000000000,"state":"active","ping":86},{"user_id":959,"name":"milk","steam_id":76561198085319245,"connected_time":16000000000,"state":"active","ping":75},{"user_id":950,"name":"Quietsharp","steam_id":76561198277968438,"connected_time":491000000000,"state":"active","ping":107},{"user_id":930,"name":"years","steam_id":76561197994098627,"connected_time":1963000000000,"state":"active","ping":119},{"user_id":896,"name":"banan team fortes","steam_id":76561199073621650,"connected_time":4659000000000,"state":"active","ping":97},{"user_id":936,"name":"Karma's Camera","steam_id":76561198059385185,"connected_time":1284000000000,"state":"active","ping":77},{"user_id":953,"name":"iceman","steam_id":76561198135397441,"connected_time":428000000000,"state":"active","ping":76},{"user_id":941,"name":"Cricket Girl!","steam_id":76561198838054669,"connected_time":856000000000,"state":"active","ping":66},{"user_id":954,"name":"Yesmar","steam_id":76561198236328806,"connected_time":424000000000,"state":"active","ping":75},{"user_id":942,"name":"who ate the cheese","steam_id":76561198275408467,"connected_time":768000000000,"state":"active","ping":46},{"user_id":956,"name":"Cdesmondd","steam_id":76561198072774462,"connected_time":287000000000,"state":"active","ping":63},{"user_id":955,"name":"Nukalaunch","steam_id":76561199255653942,"connected_time":387000000000,"state":"active","ping":109},{"user_id":854,"name":"ManicButtonMasher","steam_id":76561198026725131,"connected_time":7805000000000,"state":"active","ping":104},{"user_id":927,"name":"Kromeousible","steam_id":76561198087317232,"connected_time":2420000000000,"state":"active","ping":90}]},{"server_id":38,"name":"Uncletopia | Chicago | 7 | Stopwatch Beta","name_short":"chi-7","host":"chi-2.us.uncletopia.com","port":27035,"enabled":true,"region":"us-central","cc":"us","latitude":41.881832,"longitude":-87.62318,"reserved":0,"last_update":"0001-01-01T00:00:00Z","name_a2s":"Uncletopia | Chicago | 7 | Stopwatch Beta","protocol":17,"map":"workshop/pl_badwater_pro_v12.ugc2142942074","folder":"tf","game":"Team Fortress","app_id":440,"player_count":0,"max_players":24,"Bots":0,"server_type":"Dedicated","server_os":"Linux","password":true,"vac":true,"version":"7757534","steam_id":85568392924866364,"keywords":["nocrits","nodmgspread","payload","uncletopia"],"game_id":440,"stv_port":27036,"stv_name":"Uncletopia | Chicago | 7 | Stopwatch Beta | STV","players":null},{"server_id":39,"name":"Uncletopia | Chicago | 8 | Community","name_short":"chi-8","host":"chi-2.us.uncletopia.com","port":27045,"enabled":true,"region":"us-central","cc":"us","latitude":41.881832,"longitude":-87.62318,"reserved":0,"last_update":"0001-01-01T00:00:00Z","name_a2s":"Uncletopia | Chicago | 8 | Community","protocol":17,"map":"workshop/koth_ashville_final.ugc2130459942","folder":"tf","game":"Team Fortress","app_id":440,"player_count":0,"max_players":24,"Bots":0,"server_type":"Dedicated","server_os":"Linux","password":true,"vac":true,"version":"7757534","steam_id":85568392924866365,"keywords":["cp","nocrits","nodmgspread","uncletopia"],"game_id":440,"stv_port":27046,"stv_name":"Uncletopia | Chicago | 8 | Community | STV","players":null},{"server_id":8,"name":"Uncletopia | Dallas | 1 | All Maps","name_short":"dal-1","host":"dal-1.us.uncletopia.com","port":27015,"enabled":true,"region":"us-central","cc":"us","latitude":32.779167,"longitude":-96.80889,"reserved":0,"last_update":"0001-01-01T00:00:00Z","name_a2s":"Uncletopia | Dallas | 1 | All Maps","protocol":17,"map":"pl_swiftwater_final1","folder":"tf","game":"Team Fortress","app_id":440,"player_count":0,"max_players":24,"Bots":0,"server_type":"Dedicated","server_os":"Linux","password":true,"vac":true,"version":"7757534","steam_id":85568392924469986,"keywords":["nocrits","nodmgspread","payload","uncletopia"],"game_id":440,"stv_port":27016,"stv_name":"Uncletopia | Dallas | 1 | All Maps | STV","players":null},{"server_id":108,"name":"Uncletopia | Dallas | 2 | All Maps","name_short":"dal-2","host":"dal-1.us.uncletopia.com","port":27025,"enabled":true,"region":"us-central","cc":"us","latitude":32.779167,"longitude":-96.80889,"reserved":0,"last_update":"0001-01-01T00:00:00Z","name_a2s":"Uncletopia | Dallas | 2 | All Maps","protocol":17,"map":"pl_rumford_event","folder":"tf","game":"Team Fortress","app_id":440,"player_count":20,"max_players":24,"Bots":0,"server_type":"Dedicated","server_os":"Linux","password":true,"vac":true,"version":"7757534","steam_id":85568392924469988,"keywords":["nocrits","nodmgspread","payload","uncletopia"],"game_id":440,"stv_port":27026,"stv_name":"Uncletopia | Dallas | 2 | All Maps | STV","players":[{"user_id":668,"name":"daemon","steam_id":76561198001541433,"connected_time":694000000000,"state":"active","ping":73},{"user_id":589,"name":"xZackAttack27x","steam_id":76561198035446639,"connected_time":7617000000000,"state":"active","ping":39},{"user_id":662,"name":"Kukulkan350","steam_id":76561198044711811,"connected_time":1859000000000,"state":"active","ping":97},{"user_id":661,"name":"DogePan","steam_id":76561198327559786,"connected_time":1904000000000,"state":"active","ping":99},{"user_id":629,"name":"jori","steam_id":76561199094011458,"connected_time":4440000000000,"state":"active","ping":70},{"user_id":664,"name":"schnedwob","steam_id":76561197999146588,"connected_time":1689000000000,"state":"active","ping":54},{"user_id":667,"name":"Zer0","steam_id":76561199101208621,"connected_time":1036000000000,"state":"active","ping":76},{"user_id":669,"name":"Bliztank | RGL.gg","steam_id":76561198019252798,"connected_time":683000000000,"state":"active","ping":73},{"user_id":670,"name":"C papi","steam_id":76561198027779564,"connected_time":681000000000,"state":"active","ping":60},{"user_id":671,"name":"moopmop","steam_id":76561198065224965,"connected_time":584000000000,"state":"active","ping":87},{"user_id":684,"name":"jane","steam_id":76561198029337542,"connected_time":148000000000,"state":"active","ping":65},{"user_id":685,"name":"rastaman2999","steam_id":76561198302955447,"connected_time":88000000000,"state":"active","ping":99},{"user_id":686,"name":"BurningMonk","steam_id":76561198040700875,"connected_time":45000000000,"state":"active","ping":55},{"user_id":687,"name":"EliminateSingleFamilyZoning","steam_id":76561198276653985,"connected_time":1000000000,"state":"spawning","ping":63},{"user_id":656,"name":"sexyvillain","steam_id":76561198083127707,"connected_time":3057000000000,"state":"active","ping":59},{"user_id":678,"name":"Anourack","steam_id":76561198320312427,"connected_time":389000000000,"state":"active","ping":87},{"user_id":679,"name":"ExcessToxins","steam_id":76561198201027354,"connected_time":374000000000,"state":"active","ping":60},{"user_id":542,"name":"A1 Jack Spicer","steam_id":76561198063006665,"connected_time":11027000000000,"state":"active","ping":133},{"user_id":681,"name":"Souper Scott","steam_id":76561198045518926,"connected_time":367000000000,"state":"active","ping":84},{"user_id":682,"name":"G_Bob","steam_id":76561198098133233,"connected_time":359000000000,"state":"active","ping":72}]},{"server_id":5,"name":"Uncletopia | Frankfurt | 1 | All Maps","name_short":"frk-1","host":"frk-1.de.uncletopia.com","port":27015,"enabled":true,"region":"eu","cc":"de","latitude":50.110924,"longitude":8.682127,"reserved":0,"last_update":"0001-01-01T00:00:00Z","name_a2s":"Uncletopia | Frankfurt | 1 | All Maps","protocol":17,"map":"pl_snowycoast","folder":"tf","game":"Team Fortress","app_id":440,"player_count":0,"max_players":24,"Bots":0,"server_type":"Dedicated","server_os":"Linux","password":true,"vac":true,"version":"7757534","steam_id":85568392924469989,"keywords":["nocrits","nodmgspread","payload","uncletopia"],"game_id":440,"stv_port":27016,"stv_name":"Uncletopia | Frankfurt | 1 | All Maps | STV","players":null},{"server_id":110,"name":"Uncletopia | Frankfurt | 2 | All Maps","name_short":"frk-2","host":"frk-1.de.uncletopia.com","port":27025,"enabled":true,"region":"eu","cc":"de","latitude":50.110924,"longitude":8.682127,"reserved":0,"last_update":"0001-01-01T00:00:00Z","name_a2s":"Uncletopia | Frankfurt | 2 | All Maps","protocol":17,"map":"pl_swiftwater_final1","folder":"tf","game":"Team Fortress","app_id":440,"player_count":0,"max_players":24,"Bots":0,"server_type":"Dedicated","server_os":"Linux","password":true,"vac":true,"version":"7757534","steam_id":85568392924469990,"keywords":["nocrits","nodmgspread","payload","uncletopia"],"game_id":440,"stv_port":27026,"stv_name":"Uncletopia | Frankfurt | 2 | All Maps | STV","players":null},{"server_id":308,"name":"Uncletopia | Frankfurt | 3 | All Maps","name_short":"frk-3","host":"frk-1.de.uncletopia.com","port":27035,"enabled":true,"region":"eu","cc":"de","latitude":50.110924,"longitude":8.682127,"reserved":0,"last_update":"0001-01-01T00:00:00Z","name_a2s":"Uncletopia | Frankfurt | 3 | All Maps","protocol":17,"map":"cp_altitude","folder":"tf","game":"Team Fortress","app_id":440,"player_count":0,"max_players":24,"Bots":0,"server_type":"Dedicated","server_os":"Linux","password":true,"vac":true,"version":"7757534","steam_id":85568392924504274,"keywords":["cp","nocrits","nodmgspread","uncletopia"],"game_id":440,"stv_port":27036,"stv_name":"Uncletopia | Frankfurt | 3 | All Maps | STV","players":null},{"server_id":309,"name":"Uncletopia | Frankfurt | 4 | All Maps","name_short":"frk-4","host":"frk-1.de.uncletopia.com","port":27045,"enabled":true,"region":"eu","cc":"de","latitude":50.110924,"longitude":8.682127,"reserved":0,"last_update":"0001-01-01T00:00:00Z","name_a2s":"Uncletopia | Frankfurt | 4 | All Maps","protocol":17,"map":"cp_altitude","folder":"tf","game":"Team Fortress","app_id":440,"player_count":0,"max_players":24,"Bots":0,"server_type":"Dedicated","server_os":"Linux","password":true,"vac":true,"version":"7757534","steam_id":85568392924504275,"keywords":["cp","nocrits","nodmgspread","uncletopia"],"game_id":440,"stv_port":27046,"stv_name":"Uncletopia | Frankfurt | 4 | All Maps | STV","players":null},{"server_id":310,"name":"Uncletopia | Frankfurt | 5 | All Maps","name_short":"frk-5","host":"frk-1.de.uncletopia.com","port":27055,"enabled":true,"region":"eu","cc":"de","latitude":50.110924,"longitude":8.682127,"reserved":0,"last_update":"0001-01-01T00:00:00Z","name_a2s":"Uncletopia | Frankfurt | 5 | All Maps","protocol":17,"map":"pl_pier","folder":"tf","game":"Team Fortress","app_id":440,"player_count":0,"max_players":24,"Bots":0,"server_type":"Dedicated","server_os":"Linux","password":true,"vac":true,"version":"7757534","steam_id":85568392924504277,"keywords":["nocrits","nodmgspread","payload","uncletopia"],"game_id":440,"stv_port":27056,"stv_name":"Uncletopia | Frankfurt | 5 | All Maps | STV","players":null},{"server_id":311,"name":"Uncletopia | Frankfurt | 6 | All Maps","name_short":"frk-6","host":"frk-1.de.uncletopia.com","port":27065,"enabled":true,"region":"eu","cc":"de","latitude":50.110924,"longitude":8.682127,"reserved":0,"last_update":"0001-01-01T00:00:00Z","name_a2s":"Uncletopia | Frankfurt | 6 | All Maps","protocol":17,"map":"koth_highpass","folder":"tf","game":"Team Fortress","app_id":440,"player_count":0,"max_players":24,"Bots":0,"server_type":"Dedicated","server_os":"Linux","password":true,"vac":true,"version":"7757534","steam_id":85568392924504278,"keywords":["cp","nocrits","nodmgspread","uncletopia"],"game_id":440,"stv_port":27066,"stv_name":"Uncletopia | Frankfurt | 6 | All Maps | STV","players":null},{"server_id":23,"name":"Uncletopia | Frankfurt | 7 | Stopwatch Beta","name_short":"frk-7","host":"frk-1.de.uncletopia.com","port":27075,"enabled":true,"region":"eu","cc":"de","latitude":50.110924,"longitude":8.682127,"reserved":0,"last_update":"0001-01-01T00:00:00Z","name_a2s":"Uncletopia | Frankfurt | 7 | Stopwatch Beta","protocol":17,"map":"pl_frontier_final","folder":"tf","game":"Team Fortress","app_id":440,"player_count":0,"max_players":24,"Bots":0,"server_type":"Dedicated","server_os":"Linux","password":true,"vac":true,"version":"7757534","steam_id":85568392924742827,"keywords":["nocrits","nodmgspread","payload","uncletopia"],"game_id":440,"stv_port":27076,"stv_name":"Uncletopia | Frankfurt | 7 | Stopwatch Beta | STV","players":null},{"server_id":24,"name":"Uncletopia | Frankfurt | 8 | Community","name_short":"frk-8","host":"frk-1.de.uncletopia.com","port":27085,"enabled":true,"region":"eu","cc":"de","latitude":50.110924,"longitude":8.682127,"reserved":0,"last_update":"0001-01-01T00:00:00Z","name_a2s":"Uncletopia | Frankfurt | 8 | Community","protocol":17,"map":"workshop/pl_shoreleave_rc1.ugc1238849347","folder":"tf","game":"Team Fortress","app_id":440,"player_count":0,"max_players":24,"Bots":0,"server_type":"Dedicated","server_os":"Linux","password":true,"vac":true,"version":"7757534","steam_id":85568392924742828,"keywords":["nocrits","nodmgspread","payload","uncletopia"],"game_id":440,"stv_port":27086,"stv_name":"Uncletopia | Frankfurt | 8 | Community | STV","players":null},{"server_id":202,"name":"Uncletopia | Hong Kong | 1 | All Maps","name_short":"hgk-1","host":"hgk-1.hk.uncletopia.com","port":27015,"enabled":true,"region":"asia","cc":"hk","latitude":22.302711,"longitude":114.177216,"reserved":0,"last_update":"0001-01-01T00:00:00Z","name_a2s":"Uncletopia | Hong Kong | 1 | All Maps","protocol":17,"map":"pl_goldrush","folder":"tf","game":"Team Fortress","app_id":440,"player_count":25,"max_players":24,"Bots":0,"server_type":"Dedicated","server_os":"Linux","password":true,"vac":true,"version":"7757534","steam_id":85568392924494504,"keywords":["nocrits","nodmgspread","payload","uncletopia"],"game_id":440,"stv_port":27016,"stv_name":"Uncletopia | Hong Kong | 1 | All Maps | STV","players":[{"user_id":304,"name":"20 second unskippable youtube a","steam_id":76561198020185691,"connected_time":356000000000,"state":"active","ping":139},{"user_id":269,"name":"ThePootisTaco \u003c3","steam_id":76561198180363385,"connected_time":1820000000000,"state":"active","ping":79},{"user_id":227,"name":"帕","steam_id":76561198439343999,"connected_time":3287000000000,"state":"active","ping":70},{"user_id":285,"name":"m1ko-  ❀","steam_id":76561198337154745,"connected_time":1147000000000,"state":"active","ping":82},{"user_id":187,"name":"loreley","steam_id":76561198230213828,"connected_time":8203000000000,"state":"active","ping":60},{"user_id":226,"name":"corpse_cadaver","steam_id":76561199225360457,"connected_time":3292000000000,"state":"active","ping":71},{"user_id":286,"name":"road4567","steam_id":76561198089982839,"connected_time":1032000000000,"state":"active","ping":115},{"user_id":228,"name":"Violezine The Luckiest Archer","steam_id":76561199000502615,"connected_time":3286000000000,"state":"active","ping":89},{"user_id":273,"name":"Engineer Gaming","steam_id":76561199015521820,"connected_time":1643000000000,"state":"active","ping":95},{"user_id":291,"name":"The Balls Inspector","steam_id":76561199174449723,"connected_time":868000000000,"state":"active","ping":118},{"user_id":245,"name":"Rephex","steam_id":76561198308185574,"connected_time":2761000000000,"state":"active","ping":113},{"user_id":292,"name":"Telekhine","steam_id":76561198387120618,"connected_time":833000000000,"state":"active","ping":56},{"user_id":303,"name":"Aug","steam_id":76561199212711900,"connected_time":362000000000,"state":"active","ping":102},{"user_id":267,"name":"Sev","steam_id":76561198864660173,"connected_time":1949000000000,"state":"active","ping":160},{"user_id":299,"name":"Rebecca, EdgeRunner","steam_id":76561199023086791,"connected_time":622000000000,"state":"active","ping":61},{"user_id":225,"name":"R=pp9Y?k^09i+7.+a^HR","steam_id":76561198413116920,"connected_time":3306000000000,"state":"active","ping":105},{"user_id":209,"name":"P","steam_id":76561198304514505,"connected_time":6927000000000,"state":"active","ping":114},{"user_id":264,"name":"Eat your grass","steam_id":76561198120553035,"connected_time":2047000000000,"state":"active","ping":66},{"user_id":301,"name":"Crazywayne","steam_id":76561198056504010,"connected_time":448000000000,"state":"active","ping":79},{"user_id":288,"name":"Buttman","steam_id":76561198044693388,"connected_time":994000000000,"state":"active","ping":57},{"user_id":249,"name":"how do i use this","steam_id":76561199082481089,"connected_time":2574000000000,"state":"active","ping":96},{"user_id":289,"name":"PapaFranku69","steam_id":76561199446266814,"connected_time":992000000000,"state":"active","ping":101},{"user_id":316,"name":"BIG SHOT","steam_id":76561199305148374,"connected_time":19000000000,"state":"spawning","ping":400},{"user_id":201,"name":"Beef Wellington","steam_id":76561197995635241,"connected_time":7313000000000,"state":"active","ping":119},{"user_id":248,"name":"sáu thiện nhân","steam_id":76561199373637717,"connected_time":2584000000000,"state":"active","ping":70}]},{"server_id":1,"name":"Uncletopia | Los Angeles | 1 | All Maps","name_short":"lax-1","host":"lax-1.us.uncletopia.com","port":27015,"enabled":true,"region":"us-west","cc":"us","latitude":33.94279,"longitude":-118.41004,"reserved":0,"last_update":"0001-01-01T00:00:00Z","name_a2s":"Uncletopia | Los Angeles | 1 | All Maps","protocol":17,"map":"plr_hightower","folder":"tf","game":"Team Fortress","app_id":440,"player_count":0,"max_players":24,"Bots":0,"server_type":"Dedicated","server_os":"Linux","password":true,"vac":true,"version":"7757534","steam_id":85568392924469991,"keywords":["nocrits","nodmgspread","payload","uncletopia"],"game_id":440,"stv_port":27016,"stv_name":"Uncletopia | Los Angeles | 1 | All Maps | STV","players":null},{"server_id":112,"name":"Uncletopia | Los Angeles | 2 | All Maps","name_short":"lax-2","host":"lax-1.us.uncletopia.com","port":27025,"enabled":true,"region":"us-west","cc":"us","latitude":33.94279,"longitude":-118.41004,"reserved":0,"last_update":"0001-01-01T00:00:00Z","name_a2s":"Uncletopia | Los Angeles | 2 | All Maps","protocol":17,"map":"koth_highpass","folder":"tf","game":"Team Fortress","app_id":440,"player_count":0,"max_players":24,"Bots":0,"server_type":"Dedicated","server_os":"Linux","password":true,"vac":true,"version":"7757534","steam_id":85568392924469992,"keywords":["cp","nocrits","nodmgspread","uncletopia"],"game_id":440,"stv_port":27026,"stv_name":"Uncletopia | Los Angeles | 2 | All Maps | STV","players":null},{"server_id":324,"name":"Uncletopia | Los Angeles | 3 | All Maps","name_short":"lax-3","host":"lax-1.us.uncletopia.com","port":27035,"enabled":true,"region":"us-west","cc":"us","latitude":33.94279,"longitude":-118.41004,"reserved":0,"last_update":"0001-01-01T00:00:00Z","name_a2s":"Uncletopia | Los Angeles | 3 | All Maps","protocol":17,"map":"pl_badwater","folder":"tf","game":"Team Fortress","app_id":440,"player_count":22,"max_players":24,"Bots":0,"server_type":"Dedicated","server_os":"Linux","password":true,"vac":true,"version":"7757534","steam_id":85568392924510198,"keywords":["nocrits","nodmgspread","payload","uncletopia"],"game_id":440,"stv_port":27036,"stv_name":"Uncletopia | Los Angeles | 3 | All Maps | STV","players":[{"user_id":333,"name":"hakken","steam_id":76561199102391736,"connected_time":1164000000000,"state":"active","ping":48},{"user_id":330,"name":"150cc lightning cup andy","steam_id":76561198121268007,"connected_time":1326000000000,"state":"active","ping":70},{"user_id":328,"name":"dandy","steam_id":76561197967362217,"connected_time":1405000000000,"state":"active","ping":47},{"user_id":300,"name":"Zippy","steam_id":76561198279229422,"connected_time":2642000000000,"state":"active","ping":106},{"user_id":338,"name":"Zaider","steam_id":76561198049839645,"connected_time":571000000000,"state":"active","ping":103},{"user_id":339,"name":"dP | I'm in a Wookie Suit","steam_id":76561198083307644,"connected_time":569000000000,"state":"active","ping":81},{"user_id":340,"name":"{907}DarkestFury","steam_id":76561198103662458,"connected_time":361000000000,"state":"active","ping":102},{"user_id":337,"name":"DaBeatGoOff?","steam_id":76561198106507400,"connected_time":603000000000,"state":"active","ping":55},{"user_id":343,"name":"honk","steam_id":76561198050398028,"connected_time":120000000000,"state":"active","ping":104},{"user_id":311,"name":"a321360390","steam_id":76561199234675601,"connected_time":2279000000000,"state":"active","ping":56},{"user_id":297,"name":"Buswolley","steam_id":76561197995205571,"connected_time":2759000000000,"state":"active","ping":53},{"user_id":342,"name":"nonanona","steam_id":76561198044776946,"connected_time":271000000000,"state":"active","ping":63},{"user_id":312,"name":"Senator Armstrong (real)","steam_id":76561199236708672,"connected_time":2213000000000,"state":"active","ping":89},{"user_id":346,"name":"shephard","steam_id":76561198043367011,"connected_time":95000000000,"state":"active","ping":110},{"user_id":347,"name":"HeavenHearst","steam_id":76561198066083947,"connected_time":89000000000,"state":"active","ping":101},{"user_id":322,"name":"Pyrotek⁴","steam_id":76561198072747672,"connected_time":1568000000000,"state":"active","ping":45},{"user_id":323,"name":"Yimbo","steam_id":76561198087329444,"connected_time":1567000000000,"state":"active","ping":37},{"user_id":348,"name":"Clutch","steam_id":76561198038976354,"connected_time":81000000000,"state":"active","ping":57},{"user_id":308,"name":"Anxiety","steam_id":76561198365627687,"connected_time":2473000000000,"state":"active","ping":55},{"user_id":309,"name":"Raphael","steam_id":76561198101425586,"connected_time":2439000000000,"state":"active","ping":81},{"user_id":349,"name":"Nuts","steam_id":76561199258535559,"connected_time":74000000000,"state":"active","ping":72},{"user_id":315,"name":"weeneer","steam_id":76561198118644686,"connected_time":1848000000000,"state":"active","ping":56}]},{"server_id":25,"name":"Uncletopia | Los Angeles | 4 | Stopwatch Beta","name_short":"lax-4","host":"lax-1.us.uncletopia.com","port":27045,"enabled":true,"region":"us-west","cc":"us","latitude":33.94279,"longitude":-118.41004,"reserved":0,"last_update":"0001-01-01T00:00:00Z","name_a2s":"Uncletopia | Los Angeles | 4 | Stopwatch Beta","protocol":17,"map":"pl_frontier_final","folder":"tf","game":"Team Fortress","app_id":440,"player_count":0,"max_players":24,"Bots":0,"server_type":"Dedicated","server_os":"Linux","password":true,"vac":true,"version":"7757534","steam_id":85568392924510199,"keywords":["nocrits","nodmgspread","payload","uncletopia"],"game_id":440,"stv_port":27046,"stv_name":"Uncletopia | Los Angeles | 4 | Stopwatch Beta | STV","players":null},{"server_id":11,"name":"Uncletopia | London | 1 | All Maps","name_short":"lon-1","host":"lon-1.uk.uncletopia.com","port":27015,"enabled":true,"region":"eu","cc":"gb","latitude":51.509865,"longitude":-0.118092,"reserved":0,"last_update":"0001-01-01T00:00:00Z","name_a2s":"Uncletopia | London | 1 | All Maps","protocol":17,"map":"cp_altitude","folder":"tf","game":"Team Fortress","app_id":440,"player_count":21,"max_players":24,"Bots":0,"server_type":"Dedicated","server_os":"Linux","password":true,"vac":true,"version":"7757534","steam_id":85568392924367362,"keywords":["cp","nocrits","nodmgspread","uncletopia"],"game_id":440,"stv_port":27016,"stv_name":"Uncletopia | London | 1 | All Maps | STV","players":[{"user_id":33,"name":"wordrc","steam_id":76561198418788895,"connected_time":943000000000,"state":"active","ping":82},{"user_id":38,"name":"LOBZIK","steam_id":76561198114830120,"connected_time":525000000000,"state":"active","ping":81},{"user_id":35,"name":"Bell","steam_id":76561199454586928,"connected_time":737000000000,"state":"active","ping":135},{"user_id":26,"name":"Tayx","steam_id":76561198839297533,"connected_time":1935000000000,"state":"active","ping":85},{"user_id":36,"name":"Topme","steam_id":76561198091734693,"connected_time":701000000000,"state":"active","ping":75},{"user_id":37,"name":"JackDegle","steam_id":76561198427027677,"connected_time":637000000000,"state":"active","ping":88},{"user_id":43,"name":"VORTEX(COMMS OPEN)","steam_id":76561199074746528,"connected_time":371000000000,"state":"active","ping":63},{"user_id":22,"name":"ay","steam_id":76561198033695429,"connected_time":2204000000000,"state":"active","ping":41},{"user_id":23,"name":"Andreus","steam_id":76561199403926001,"connected_time":2157000000000,"state":"active","ping":81},{"user_id":50,"name":"hud_saytext_time 0","steam_id":76561198010327228,"connected_time":160000000000,"state":"active","ping":80},{"user_id":46,"name":"Supreme Kebab","steam_id":76561199117169819,"connected_time":217000000000,"state":"active","ping":75},{"user_id":51,"name":"Утилизатор","steam_id":76561198001490104,"connected_time":146000000000,"state":"active","ping":78},{"user_id":47,"name":"Creasman","steam_id":76561198875379322,"connected_time":214000000000,"state":"active","ping":148},{"user_id":48,"name":"123","steam_id":76561198368504842,"connected_time":211000000000,"state":"active","ping":85},{"user_id":49,"name":"fmdi","steam_id":76561199433879329,"connected_time":202000000000,"state":"active","ping":89},{"user_id":52,"name":"Mozzaza","steam_id":76561198156316111,"connected_time":128000000000,"state":"active","ping":145},{"user_id":53,"name":"GHO5T","steam_id":76561198930223980,"connected_time":104000000000,"state":"spawning","ping":64},{"user_id":54,"name":"Autumnsky","steam_id":76561198055161203,"connected_time":100000000000,"state":"active","ping":65},{"user_id":55,"name":"yeldad","steam_id":76561198447264153,"connected_time":91000000000,"state":"active","ping":121},{"user_id":56,"name":"the_coach","steam_id":76561198236015392,"connected_time":70000000000,"state":"active","ping":126},{"user_id":57,"name":"Joe","steam_id":76561198132413995,"connected_time":47000000000,"state":"active","ping":53}]},{"server_id":114,"name":"Uncletopia | London | 2 | All Maps","name_short":"lon-2","host":"lon-1.uk.uncletopia.com","port":27025,"enabled":true,"region":"eu","cc":"gb","latitude":51.509865,"longitude":-0.118092,"reserved":0,"last_update":"0001-01-01T00:00:00Z","name_a2s":"Uncletopia | London | 2 | All Maps","protocol":17,"map":"cp_dustbowl","folder":"tf","game":"Team Fortress","app_id":440,"player_count":0,"max_players":24,"Bots":0,"server_type":"Dedicated","server_os":"Linux","password":true,"vac":true,"version":"7757534","steam_id":85568392924470941,"keywords":["cp","nocrits","nodmgspread","uncletopia"],"game_id":440,"stv_port":27026,"stv_name":"Uncletopia | London | 2 | All Maps | STV","players":null},{"server_id":320,"name":"Uncletopia | London | 3 | All Maps","name_short":"lon-3","host":"lon-1.uk.uncletopia.com","port":27035,"enabled":true,"region":"eu","cc":"gb","latitude":51.509865,"longitude":-0.118092,"reserved":0,"last_update":"0001-01-01T00:00:00Z","name_a2s":"Uncletopia | London | 3 | All Maps","protocol":17,"map":"pl_barnblitz","folder":"tf","game":"Team Fortress","app_id":440,"player_count":24,"max_players":24,"Bots":0,"server_type":"Dedicated","server_os":"Linux","password":true,"vac":true,"version":"7757534","steam_id":85568392924510192,"keywords":["nocrits","nodmgspread","payload","uncletopia"],"game_id":440,"stv_port":27036,"stv_name":"Uncletopia | London | 3 | All Maps | STV","players":[{"user_id":74,"name":"fnaf 2","steam_id":76561199149307190,"connected_time":1938000000000,"state":"active","ping":90},{"user_id":73,"name":"ji","steam_id":76561198845550388,"connected_time":2060000000000,"state":"active","ping":117},{"user_id":37,"name":"BONK-TEC!","steam_id":76561198272667029,"connected_time":5014000000000,"state":"active","ping":54},{"user_id":81,"name":"xenia","steam_id":76561198062107879,"connected_time":1524000000000,"state":"active","ping":91},{"user_id":78,"name":"XeniasPimp","steam_id":76561198126398022,"connected_time":1768000000000,"state":"active","ping":88},{"user_id":60,"name":"ciliorkun18","steam_id":76561198228942500,"connected_time":3096000000000,"state":"active","ping":101},{"user_id":86,"name":"jaime8D","steam_id":76561197980590671,"connected_time":1070000000000,"state":"active","ping":80},{"user_id":14,"name":"󠀡󠀡","steam_id":76561198015585266,"connected_time":6144000000000,"state":"active","ping":97},{"user_id":59,"name":"SantiThePug #ReviveTheCaber","steam_id":76561199049615996,"connected_time":3133000000000,"state":"active","ping":70},{"user_id":90,"name":"PizzaPete123","steam_id":76561198089478290,"connected_time":991000000000,"state":"active","ping":35},{"user_id":97,"name":"Blind","steam_id":76561198310295139,"connected_time":157000000000,"state":"active","ping":100},{"user_id":67,"name":"lettuce at 58p","steam_id":76561199401283123,"connected_time":2654000000000,"state":"active","ping":51},{"user_id":82,"name":"Kamień_debil","steam_id":76561199207548607,"connected_time":1509000000000,"state":"active","ping":82},{"user_id":40,"name":"Dovakin","steam_id":76561198103265377,"connected_time":4992000000000,"state":"active","ping":113},{"user_id":96,"name":"Tery","steam_id":76561198044799321,"connected_time":222000000000,"state":"active","ping":55},{"user_id":80,"name":"KAYDAN","steam_id":76561198817674900,"connected_time":1556000000000,"state":"active","ping":89},{"user_id":71,"name":"Semi","steam_id":76561199105889252,"connected_time":2227000000000,"state":"active","ping":71},{"user_id":98,"name":"Anarch","steam_id":76561198342216547,"connected_time":96000000000,"state":"active","ping":130},{"user_id":69,"name":"night.s","steam_id":76561198326287823,"connected_time":2342000000000,"state":"active","ping":80},{"user_id":93,"name":"Sylbar","steam_id":76561198065379590,"connected_time":631000000000,"state":"active","ping":73},{"user_id":72,"name":"DocTwoEight","steam_id":76561198153488940,"connected_time":2221000000000,"state":"active","ping":75},{"user_id":48,"name":"KiT","steam_id":76561198043770371,"connected_time":4195000000000,"state":"active","ping":81},{"user_id":77,"name":"remove trains","steam_id":76561199433578516,"connected_time":1822000000000,"state":"active","ping":91},{"user_id":95,"name":"filo","steam_id":76561198103633797,"connected_time":600000000000,"state":"active","ping":100}]},{"server_id":321,"name":"Uncletopia | London | 4 | All Maps","name_short":"lon-4","host":"lon-1.uk.uncletopia.com","port":27045,"enabled":true,"region":"eu","cc":"gb","latitude":51.509865,"longitude":-0.118092,"reserved":0,"last_update":"0001-01-01T00:00:00Z","name_a2s":"Uncletopia | London | 4 | All Maps","protocol":17,"map":"koth_viaduct","folder":"tf","game":"Team Fortress","app_id":440,"player_count":0,"max_players":24,"Bots":0,"server_type":"Dedicated","server_os":"Linux","password":true,"vac":true,"version":"7757534","steam_id":85568392924510193,"keywords":["cp","nocrits","nodmgspread","uncletopia"],"game_id":440,"stv_port":27046,"stv_name":"Uncletopia | London | 4 | All Maps | STV","players":null},{"server_id":21,"name":"Uncletopia | London | 5 | All Maps","name_short":"lon-5","host":"lon-1.uk.uncletopia.com","port":27055,"enabled":true,"region":"eu","cc":"gb","latitude":51.509865,"longitude":-0.118092,"reserved":0,"last_update":"0001-01-01T00:00:00Z","name_a2s":"Uncletopia | London | 5 | All Maps","protocol":17,"map":"cp_snakewater_final1","folder":"tf","game":"Team Fortress","app_id":440,"player_count":0,"max_players":24,"Bots":0,"server_type":"Dedicated","server_os":"Linux","password":true,"vac":true,"version":"7757534","steam_id":85568392924742829,"keywords":["cp","nocrits","nodmgspread","uncletopia"],"game_id":440,"stv_port":27056,"stv_name":"Uncletopia | London | 5 | All Maps | STV","players":null},{"server_id":22,"name":"Uncletopia | London | 6 | All Maps","name_short":"lon-6","host":"lon-1.uk.uncletopia.com","port":27065,"enabled":true,"region":"eu","cc":"gb","latitude":51.509865,"longitude":-0.118092,"reserved":0,"last_update":"0001-01-01T00:00:00Z","name_a2s":"Uncletopia | London | 6 | All Maps","protocol":17,"map":"koth_cascade","folder":"tf","game":"Team Fortress","app_id":440,"player_count":0,"max_players":24,"Bots":0,"server_type":"Dedicated","server_os":"Linux","password":true,"vac":true,"version":"7757534","steam_id":85568392924742830,"keywords":["cp","nocrits","nodmgspread","uncletopia"],"game_id":440,"stv_port":27066,"stv_name":"Uncletopia | London | 6 | All Maps | STV","players":null},{"server_id":40,"name":"Uncletopia | London | 7 | No Payload","name_short":"lon-7","host":"lon-1.uk.uncletopia.com","port":27075,"enabled":true,"region":"eu","cc":"gb","latitude":51.509865,"longitude":-0.118092,"reserved":0,"last_update":"0001-01-01T00:00:00Z","name_a2s":"Uncletopia | London | 7 | No Payload","protocol":17,"map":"cp_process_final","folder":"tf","game":"Team Fortress","app_id":440,"player_count":0,"max_players":24,"Bots":0,"server_type":"Dedicated","server_os":"Linux","password":true,"vac":true,"version":"7757534","steam_id":85568392924964314,"keywords":["cp","nocrits","nodmgspread","uncletopia"],"game_id":440,"stv_port":27076,"stv_name":"Uncletopia | London | 7 | No Payload | STV","players":null},{"server_id":41,"name":"Uncletopia | London | 8 | Community","name_short":"lon-8","host":"lon-1.uk.uncletopia.com","port":27085,"enabled":true,"region":"eu","cc":"gb","latitude":51.509865,"longitude":-0.118092,"reserved":0,"last_update":"0001-01-01T00:00:00Z","name_a2s":"Uncletopia | London | 8 | Community","protocol":17,"map":"pl_upward","folder":"tf","game":"Team Fortress","app_id":440,"player_count":0,"max_players":24,"Bots":0,"server_type":"Dedicated","server_os":"Linux","password":true,"vac":true,"version":"7757534","steam_id":85568392924964315,"keywords":["nocrits","nodmgspread","payload","uncletopia"],"game_id":440,"stv_port":27086,"stv_name":"Uncletopia | London | 8 | Community | STV","players":null},{"server_id":300,"name":"Uncletopia | Montréal | 1 | All Maps","name_short":"mtl-1","host":"mtl-1.ca.uncletopia.com","port":27015,"enabled":true,"region":"us-east","cc":"ca","latitude":45.50889,"longitude":-73.56167,"reserved":0,"last_update":"0001-01-01T00:00:00Z","name_a2s":"Uncletopia | Montréal | 1 | All Maps","protocol":17,"map":"koth_cascade","folder":"tf","game":"Team Fortress","app_id":440,"player_count":0,"max_players":24,"Bots":0,"server_type":"Dedicated","server_os":"Linux","password":true,"vac":true,"version":"7757534","steam_id":85568392924500087,"keywords":["cp","nocrits","nodmgspread","uncletopia"],"game_id":440,"stv_port":27016,"stv_name":"Uncletopia | Montréal | 1 | All Maps | STV","players":null},{"server_id":301,"name":"Uncletopia | Montréal | 2 | All Maps","name_short":"mtl-2","host":"mtl-1.ca.uncletopia.com","port":27025,"enabled":true,"region":"us-east","cc":"ca","latitude":45.50889,"longitude":-73.56167,"reserved":0,"last_update":"0001-01-01T00:00:00Z","name_a2s":"Uncletopia | Montréal | 2 | All Maps","protocol":17,"map":"cp_dustbowl","folder":"tf","game":"Team Fortress","app_id":440,"player_count":0,"max_players":24,"Bots":0,"server_type":"Dedicated","server_os":"Linux","password":true,"vac":true,"version":"7757534","steam_id":85568392924500088,"keywords":["cp","nocrits","nodmgspread","uncletopia"],"game_id":440,"stv_port":27026,"stv_name":"Uncletopia | Montréal | 2 | All Maps | STV","players":null},{"server_id":302,"name":"Uncletopia | Montréal | 3 | All Maps","name_short":"mtl-3","host":"mtl-1.ca.uncletopia.com","port":27035,"enabled":true,"region":"us-east","cc":"ca","latitude":45.50889,"longitude":-73.56167,"reserved":0,"last_update":"0001-01-01T00:00:00Z","name_a2s":"Uncletopia | Montréal | 3 | All Maps","protocol":17,"map":"koth_highpass","folder":"tf","game":"Team Fortress","app_id":440,"player_count":0,"max_players":24,"Bots":0,"server_type":"Dedicated","server_os":"Linux","password":true,"vac":true,"version":"7757534","steam_id":85568392924500089,"keywords":["cp","nocrits","nodmgspread","uncletopia"],"game_id":440,"stv_port":27036,"stv_name":"Uncletopia | Montréal | 3 | All Maps | STV","players":null},{"server_id":303,"name":"Uncletopia | Montréal | 4 | No Payload","name_short":"mtl-4","host":"mtl-1.ca.uncletopia.com","port":27045,"enabled":true,"region":"us-east","cc":"ca","latitude":45.50889,"longitude":-73.56167,"reserved":0,"last_update":"0001-01-01T00:00:00Z","name_a2s":"Uncletopia | Montréal | 4 | No Payload","protocol":17,"map":"cp_fastlane","folder":"tf","game":"Team Fortress","app_id":440,"player_count":0,"max_players":24,"Bots":0,"server_type":"Dedicated","server_os":"Linux","password":true,"vac":true,"version":"7757534","steam_id":85568392924500090,"keywords":["cp","nocrits","nodmgspread","uncletopia"],"game_id":440,"stv_port":27046,"stv_name":"Uncletopia | Montréal | 4 | No Payload | STV","players":null},{"server_id":13,"name":"Uncletopia | New York City | 1 | All Maps","name_short":"nyc-1","host":"nyc-1.us.uncletopia.com","port":27015,"enabled":true,"region":"us-east","cc":"us","latitude":40.73061,"longitude":-73.93524,"reserved":0,"last_update":"0001-01-01T00:00:00Z","name_a2s":"Uncletopia | New York City | 1 | All Maps","protocol":17,"map":"pl_rumford_event","folder":"tf","game":"Team Fortress","app_id":440,"player_count":0,"max_players":24,"Bots":0,"server_type":"Dedicated","server_os":"Linux","password":true,"vac":true,"version":"7757534","steam_id":85568392924469993,"keywords":["nocrits","nodmgspread","payload","uncletopia"],"game_id":440,"stv_port":27016,"stv_name":"Uncletopia | New York City | 1 | All Maps | STV","players":null},{"server_id":14,"name":"Uncletopia | New York City | 2 | All Maps","name_short":"nyc-2","host":"nyc-1.us.uncletopia.com","port":27025,"enabled":true,"region":"us-east","cc":"us","latitude":40.73061,"longitude":-73.93524,"reserved":0,"last_update":"0001-01-01T00:00:00Z","name_a2s":"Uncletopia | New York City | 2 | All Maps","protocol":17,"map":"pl_pier","folder":"tf","game":"Team Fortress","app_id":440,"player_count":0,"max_players":24,"Bots":0,"server_type":"Dedicated","server_os":"Linux","password":true,"vac":true,"version":"7757534","steam_id":85568392924469994,"keywords":["nocrits","nodmgspread","payload","uncletopia"],"game_id":440,"stv_port":27026,"stv_name":"Uncletopia | New York City | 2 | All Maps | STV","players":null},{"server_id":15,"name":"Uncletopia | New York City | 3 | Stopwatch Beta","name_short":"nyc-3","host":"nyc-1.us.uncletopia.com","port":27035,"enabled":true,"region":"us-east","cc":"us","latitude":40.73061,"longitude":-73.93524,"reserved":0,"last_update":"0001-01-01T00:00:00Z","name_a2s":"Uncletopia | New York City | 3 | Stopwatch Beta","protocol":17,"map":"workshop/pl_vigil_rc9.ugc1266210012","folder":"tf","game":"Team Fortress","app_id":440,"player_count":0,"max_players":24,"Bots":0,"server_type":"Dedicated","server_os":"Linux","password":true,"vac":true,"version":"7757534","steam_id":85568392924742820,"keywords":["nocrits","nodmgspread","payload","uncletopia"],"game_id":440,"stv_port":27036,"stv_name":"Uncletopia | New York City | 3 | Stopwatch Beta | STV","players":null},{"server_id":16,"name":"Uncletopia | New York City | 4 | Community","name_short":"nyc-4","host":"nyc-1.us.uncletopia.com","port":27045,"enabled":true,"region":"us-east","cc":"us","latitude":40.73061,"longitude":-73.93524,"reserved":0,"last_update":"0001-01-01T00:00:00Z","name_a2s":"Uncletopia | New York City | 4 | Community","protocol":17,"map":"workshop/koth_product_final.ugc454272353","folder":"tf","game":"Team Fortress","app_id":440,"player_count":0,"max_players":24,"Bots":0,"server_type":"Dedicated","server_os":"Linux","password":true,"vac":true,"version":"7757534","steam_id":85568392924742821,"keywords":["cp","nocrits","nodmgspread","uncletopia"],"game_id":440,"stv_port":27046,"stv_name":"Uncletopia | New York City | 4 | Community | STV","players":null},{"server_id":142,"name":"Uncletopia | São Paulo | 1 | All Maps","name_short":"sao-1","host":"sao-1.br.uncletopia.com","port":27015,"enabled":true,"region":"sa","cc":"br","latitude":-23.533773,"longitude":-46.62529,"reserved":0,"last_update":"0001-01-01T00:00:00Z","name_a2s":"Uncletopia | São Paulo | 1 | All Maps","protocol":17,"map":"koth_cascade","folder":"tf","game":"Team Fortress","app_id":440,"player_count":0,"max_players":24,"Bots":0,"server_type":"Dedicated","server_os":"Linux","password":true,"vac":true,"version":"7757534","steam_id":85568392924469996,"keywords":["cp","nocrits","nodmgspread","uncletopia"],"game_id":440,"stv_port":27016,"stv_name":"Uncletopia | São Paulo | 1 | All Maps | STV","players":null},{"server_id":143,"name":"Uncletopia | São Paulo | 2 | All Maps","name_short":"sao-2","host":"sao-2.br.uncletopia.com","port":27015,"enabled":true,"region":"sa","cc":"br","latitude":-23.533773,"longitude":-46.62529,"reserved":0,"last_update":"0001-01-01T00:00:00Z","name_a2s":"Uncletopia | São Paulo | 2 | All Maps","protocol":17,"map":"koth_cascade","folder":"tf","game":"Team Fortress","app_id":440,"player_count":0,"max_players":24,"Bots":0,"server_type":"Dedicated","server_os":"Linux","password":true,"vac":true,"version":"7757534","steam_id":85568392924485349,"keywords":["cp","nocrits","nodmgspread","uncletopia"],"game_id":440,"stv_port":27016,"stv_name":"Uncletopia | São Paulo | 2 | All Maps | STV","players":null},{"server_id":7,"name":"Uncletopia | Seattle | 1 | All Maps","name_short":"sea-1","host":"sea-1.us.uncletopia.com","port":27015,"enabled":true,"region":"us-west","cc":"us","latitude":47.608013,"longitude":-122.33517,"reserved":0,"last_update":"0001-01-01T00:00:00Z","name_a2s":"Uncletopia | Seattle | 1 | All Maps","protocol":17,"map":"pl_borneo","folder":"tf","game":"Team Fortress","app_id":440,"player_count":24,"max_players":24,"Bots":0,"server_type":"Dedicated","server_os":"Linux","password":true,"vac":true,"version":"7757534","steam_id":85568392924469997,"keywords":["nocrits","nodmgspread","payload","uncletopia"],"game_id":440,"stv_port":27016,"stv_name":"Uncletopia | Seattle | 1 | All Maps | STV","players":[{"user_id":528,"name":"Arsonist Goose","steam_id":76561198147441830,"connected_time":5189000000000,"state":"active","ping":72},{"user_id":580,"name":"brian griffin","steam_id":76561198846480611,"connected_time":552000000000,"state":"active","ping":49},{"user_id":552,"name":"Bubbamanme","steam_id":76561198119778504,"connected_time":2095000000000,"state":"active","ping":61},{"user_id":497,"name":"der","steam_id":76561198060762287,"connected_time":8979000000000,"state":"active","ping":48},{"user_id":581,"name":"Zee❤","steam_id":76561198274550638,"connected_time":468000000000,"state":"active","ping":108},{"user_id":582,"name":"Cpt. Dingle","steam_id":76561198025720199,"connected_time":67000000000,"state":"active","ping":77},{"user_id":557,"name":"SereneWoods","steam_id":76561198174988601,"connected_time":1849000000000,"state":"active","ping":67},{"user_id":543,"name":"girl porridge","steam_id":76561198210016263,"connected_time":3812000000000,"state":"active","ping":71},{"user_id":573,"name":"Naffers","steam_id":76561198195957335,"connected_time":1455000000000,"state":"active","ping":45},{"user_id":576,"name":"hart","steam_id":76561198046073848,"connected_time":1264000000000,"state":"active","ping":47},{"user_id":544,"name":"bink","steam_id":76561198110934401,"connected_time":3803000000000,"state":"active","ping":123},{"user_id":554,"name":"asbestos","steam_id":76561198356181054,"connected_time":2082000000000,"state":"active","ping":84},{"user_id":574,"name":"hotdog every meal","steam_id":76561198392514273,"connected_time":1443000000000,"state":"active","ping":55},{"user_id":559,"name":"Villchip","steam_id":76561198198599982,"connected_time":1811000000000,"state":"active","ping":52},{"user_id":575,"name":"hardfork","steam_id":76561197960958019,"connected_time":1431000000000,"state":"active","ping":58},{"user_id":562,"name":"Sweatpants","steam_id":76561198097188001,"connected_time":1716000000000,"state":"active","ping":58},{"user_id":499,"name":"Lompy","steam_id":76561198092237958,"connected_time":8962000000000,"state":"active","ping":54},{"user_id":563,"name":"Anxious Nerd Bird","steam_id":76561198112178602,"connected_time":1707000000000,"state":"active","ping":91},{"user_id":566,"name":"..........","steam_id":76561198173861779,"connected_time":1580000000000,"state":"active","ping":126},{"user_id":537,"name":"Endstar","steam_id":76561198326392714,"connected_time":4265000000000,"state":"active","ping":60},{"user_id":567,"name":"smeasly","steam_id":76561198028718812,"connected_time":1567000000000,"state":"active","ping":42},{"user_id":577,"name":"The Big Stew","steam_id":76561198164279539,"connected_time":1073000000000,"state":"active","ping":55},{"user_id":568,"name":"kaede","steam_id":76561198345528370,"connected_time":1560000000000,"state":"active","ping":60},{"user_id":579,"name":"Grill Skills","steam_id":76561198053575147,"connected_time":597000000000,"state":"active","ping":67}]},{"server_id":119,"name":"Uncletopia | Seattle | 2 | All Maps","name_short":"sea-2","host":"sea-1.us.uncletopia.com","port":27025,"enabled":true,"region":"us-west","cc":"us","latitude":47.608013,"longitude":-122.33517,"reserved":0,"last_update":"0001-01-01T00:00:00Z","name_a2s":"Uncletopia | Seattle | 2 | All Maps","protocol":17,"map":"plr_bananabay","folder":"tf","game":"Team Fortress","app_id":440,"player_count":23,"max_players":24,"Bots":0,"server_type":"Dedicated","server_os":"Linux","password":true,"vac":true,"version":"7757534","steam_id":85568392924469998,"keywords":["nocrits","nodmgspread","payload","uncletopia"],"game_id":440,"stv_port":27026,"stv_name":"Uncletopia | Seattle | 2 | All Maps | STV","players":[{"user_id":651,"name":"Google","steam_id":76561198857237473,"connected_time":389000000000,"state":"active","ping":45},{"user_id":598,"name":"Tibetan Pop Star","steam_id":76561198844903984,"connected_time":4584000000000,"state":"active","ping":85},{"user_id":639,"name":"The Random Crit Parade","steam_id":76561198218296204,"connected_time":1420000000000,"state":"active","ping":63},{"user_id":640,"name":"Pah-Wraith Gul Dukat","steam_id":76561198033918106,"connected_time":791000000000,"state":"active","ping":75},{"user_id":587,"name":"Dunkle","steam_id":76561198041903573,"connected_time":5062000000000,"state":"active","ping":47},{"user_id":625,"name":"NS Arkana","steam_id":76561198018497348,"connected_time":2804000000000,"state":"active","ping":75},{"user_id":589,"name":"the splotchiest splotcher splot","steam_id":76561198419896433,"connected_time":5006000000000,"state":"active","ping":42},{"user_id":628,"name":"Twisted Freaking Cyclepath","steam_id":76561198080775161,"connected_time":2485000000000,"state":"active","ping":85},{"user_id":605,"name":"Wolowolowolowolowolowolowolowol","steam_id":76561199217207233,"connected_time":4102000000000,"state":"active","ping":63},{"user_id":641,"name":"served","steam_id":76561199438267625,"connected_time":790000000000,"state":"active","ping":104},{"user_id":626,"name":"K4le","steam_id":76561198747668363,"connected_time":2803000000000,"state":"active","ping":95},{"user_id":570,"name":"Rexditz","steam_id":76561198134944383,"connected_time":6282000000000,"state":"active","ping":87},{"user_id":534,"name":"Deltablood","steam_id":76561198028259914,"connected_time":8884000000000,"state":"active","ping":89},{"user_id":652,"name":"Halfcourt Yeet","steam_id":76561197997025876,"connected_time":345000000000,"state":"active","ping":72},{"user_id":633,"name":"Iroquois Pliskin","steam_id":76561198056704533,"connected_time":2095000000000,"state":"active","ping":91},{"user_id":623,"name":"The One True Pineapple #SaveTF2","steam_id":76561198083157236,"connected_time":3037000000000,"state":"active","ping":69},{"user_id":653,"name":"HomesliceHobbes","steam_id":76561198042770895,"connected_time":249000000000,"state":"active","ping":42},{"user_id":518,"name":"gman gaming","steam_id":76561198000744865,"connected_time":10277000000000,"state":"active","ping":48},{"user_id":647,"name":"Awildrock","steam_id":76561198040401086,"connected_time":691000000000,"state":"active","ping":113},{"user_id":648,"name":"NIKS YMNI GNIL WARK","steam_id":76561198121087081,"connected_time":668000000000,"state":"active","ping":66},{"user_id":646,"name":"Tyzombiecrusher","steam_id":76561198175855278,"connected_time":746000000000,"state":"active","ping":132},{"user_id":636,"name":"Biznickel","steam_id":76561199422511230,"connected_time":2054000000000,"state":"active","ping":51},{"user_id":599,"name":"PopcornNinja101","steam_id":76561198330680181,"connected_time":4573000000000,"state":"active","ping":49}]},{"server_id":406,"name":"Uncletopia | Seattle | 3 | Stopwatch Beta","name_short":"sea-3","host":"sea-1.us.uncletopia.com","port":27035,"enabled":true,"region":"us-west","cc":"us","latitude":47.608013,"longitude":-122.33517,"reserved":0,"last_update":"0001-01-01T00:00:00Z","name_a2s":"Uncletopia | Seattle | 3 | Stopwatch Beta","protocol":17,"map":"workshop/koth_clearcut_b15.ugc2107050255","folder":"tf","game":"Team Fortress","app_id":440,"player_count":0,"max_players":24,"Bots":0,"server_type":"Dedicated","server_os":"Linux","password":true,"vac":true,"version":"7757534","steam_id":85568392924515217,"keywords":["cp","nocrits","nodmgspread","uncletopia"],"game_id":440,"stv_port":27036,"stv_name":"Uncletopia | Seattle | 3 | Stopwatch Beta | STV","players":null},{"server_id":17,"name":"Uncletopia | San Francisco | 1 | All Maps","name_short":"sfo-1","host":"sfo-1.us.uncletopia.com","port":27015,"enabled":true,"region":"us-west","cc":"us","latitude":37.77397,"longitude":-122.4313,"reserved":0,"last_update":"0001-01-01T00:00:00Z","name_a2s":"Uncletopia | San Francisco | 1 | All Maps","protocol":17,"map":"pl_pier","folder":"tf","game":"Team Fortress","app_id":440,"player_count":24,"max_players":24,"Bots":0,"server_type":"Dedicated","server_os":"Linux","password":true,"vac":true,"version":"7757534","steam_id":85568392924469999,"keywords":["nocrits","nodmgspread","payload","uncletopia"],"game_id":440,"stv_port":27016,"stv_name":"Uncletopia | San Francisco | 1 | All Maps | STV","players":[{"user_id":931,"name":"For Whom The Taco Bell Tolls","steam_id":76561198418288939,"connected_time":903000000000,"state":"active","ping":46},{"user_id":935,"name":"kies","steam_id":76561198974524628,"connected_time":497000000000,"state":"active","ping":71},{"user_id":898,"name":"Stupid Monkey =3","steam_id":76561198024580166,"connected_time":2466000000000,"state":"active","ping":64},{"user_id":887,"name":"EatSomeBEES","steam_id":76561198047334307,"connected_time":3913000000000,"state":"active","ping":79},{"user_id":899,"name":"Seviroth","steam_id":76561198062745299,"connected_time":2454000000000,"state":"active","ping":73},{"user_id":936,"name":"tytyto98","steam_id":76561198859914214,"connected_time":98000000000,"state":"spawning","ping":158},{"user_id":818,"name":"Leidon","steam_id":76561198078386945,"connected_time":8514000000000,"state":"active","ping":55},{"user_id":937,"name":"Ghesh","steam_id":76561198988947151,"connected_time":80000000000,"state":"active","ping":69},{"user_id":933,"name":"smogun","steam_id":76561198361158518,"connected_time":675000000000,"state":"active","ping":58},{"user_id":904,"name":"Room","steam_id":76561199174579733,"connected_time":2251000000000,"state":"active","ping":115},{"user_id":938,"name":"Nezumi Otokonoko","steam_id":76561198050083859,"connected_time":18000000000,"state":"spawning","ping":43},{"user_id":910,"name":"⛧","steam_id":76561198021308963,"connected_time":2053000000000,"state":"active","ping":69},{"user_id":907,"name":"Mr. Comrade","steam_id":76561198155667562,"connected_time":2096000000000,"state":"active","ping":57},{"user_id":929,"name":"El Viejo Paulino","steam_id":76561198211944169,"connected_time":968000000000,"state":"active","ping":68},{"user_id":884,"name":"Sens","steam_id":76561198019334820,"connected_time":4262000000000,"state":"active","ping":61},{"user_id":908,"name":"Hugo Gunther2009","steam_id":76561198811580116,"connected_time":2088000000000,"state":"active","ping":57},{"user_id":928,"name":"tomcat in a top hat","steam_id":76561198014326643,"connected_time":1008000000000,"state":"active","ping":128},{"user_id":930,"name":"Jeffery","steam_id":76561199226711716,"connected_time":941000000000,"state":"active","ping":61},{"user_id":877,"name":"TheFakeApple","steam_id":76561199090113472,"connected_time":4783000000000,"state":"active","ping":70},{"user_id":932,"name":"YoteDab McFapDab.jpg","steam_id":76561197984870380,"connected_time":867000000000,"state":"active","ping":117},{"user_id":921,"name":"Disc0","steam_id":76561198067337267,"connected_time":1434000000000,"state":"active","ping":65},{"user_id":916,"name":"chicken wit dah eggrow","steam_id":76561198115458307,"connected_time":1785000000000,"state":"active","ping":60},{"user_id":934,"name":"Owningcat1987","steam_id":76561199088881426,"connected_time":627000000000,"state":"active","ping":75},{"user_id":894,"name":"MORE BOUNCE TO THE OUNCE","steam_id":76561198243399336,"connected_time":3011000000000,"state":"active","ping":70}]},{"server_id":18,"name":"Uncletopia | San Francisco | 2 | All Maps","name_short":"sfo-2","host":"sfo-1.us.uncletopia.com","port":27025,"enabled":true,"region":"us-west","cc":"us","latitude":37.77397,"longitude":-122.4313,"reserved":0,"last_update":"0001-01-01T00:00:00Z","name_a2s":"Uncletopia | San Francisco | 2 | All Maps","protocol":17,"map":"pl_pier","folder":"tf","game":"Team Fortress","app_id":440,"player_count":0,"max_players":24,"Bots":0,"server_type":"Dedicated","server_os":"Linux","password":true,"vac":true,"version":"7757534","steam_id":85568392924470000,"keywords":["nocrits","nodmgspread","payload","uncletopia"],"game_id":440,"stv_port":27026,"stv_name":"Uncletopia | San Francisco | 2 | All Maps | STV","players":null},{"server_id":19,"name":"Uncletopia | San Francisco | 3 | Stopwatch Beta","name_short":"sfo-3","host":"sfo-1.us.uncletopia.com","port":27035,"enabled":true,"region":"us-west","cc":"us","latitude":37.77397,"longitude":-122.4313,"reserved":0,"last_update":"0001-01-01T00:00:00Z","name_a2s":"Uncletopia | San Francisco | 3 | Stopwatch Beta","protocol":17,"map":"pl_upward","folder":"tf","game":"Team Fortress","app_id":440,"player_count":0,"max_players":24,"Bots":0,"server_type":"Dedicated","server_os":"Linux","password":true,"vac":true,"version":"7757534","steam_id":85568392924742824,"keywords":["nocrits","nodmgspread","payload","uncletopia"],"game_id":440,"stv_port":27036,"stv_name":"Uncletopia | San Francisco | 3 | Stopwatch Beta | STV","players":null},{"server_id":20,"name":"Uncletopia | San Francisco | 4 | Community","name_short":"sfo-4","host":"sfo-1.us.uncletopia.com","port":27045,"enabled":true,"region":"us-west","cc":"us","latitude":37.77397,"longitude":-122.4313,"reserved":0,"last_update":"0001-01-01T00:00:00Z","name_a2s":"Uncletopia | San Francisco | 4 | Community","protocol":17,"map":"workshop/koth_slaughter_rc1.ugc1712845210","folder":"tf","game":"Team Fortress","app_id":440,"player_count":0,"max_players":24,"Bots":0,"server_type":"Dedicated","server_os":"Linux","password":true,"vac":true,"version":"7757534","steam_id":85568392924742826,"keywords":["cp","nocrits","nodmgspread","uncletopia"],"game_id":440,"stv_port":27046,"stv_name":"Uncletopia | San Francisco | 4 | Community | STV","players":null},{"server_id":141,"name":"Uncletopia | Sydney | 1 | All Maps","name_short":"syd-1","host":"syd-1.au.uncletopia.com","port":27015,"enabled":true,"region":"au","cc":"au","latitude":-33.865143,"longitude":151.2099,"reserved":0,"last_update":"0001-01-01T00:00:00Z","name_a2s":"Uncletopia | Sydney | 1 | All Maps","protocol":17,"map":"cp_mountainlab","folder":"tf","game":"Team Fortress","app_id":440,"player_count":15,"max_players":24,"Bots":0,"server_type":"Dedicated","server_os":"Linux","password":true,"vac":true,"version":"7757534","steam_id":85568392924470001,"keywords":["cp","nocrits","nodmgspread","uncletopia"],"game_id":440,"stv_port":27016,"stv_name":"Uncletopia | Sydney | 1 | All Maps | STV","players":[{"user_id":137,"name":"The Ghastly Gibus Gamer","steam_id":76561199146515563,"connected_time":1156000000000,"state":"active","ping":48},{"user_id":132,"name":"( ͡° ͜ʖ ͡°)","steam_id":76561199262196710,"connected_time":1340000000000,"state":"active","ping":39},{"user_id":151,"name":"JuicyRaccoon","steam_id":76561198284799599,"connected_time":385000000000,"state":"active","ping":95},{"user_id":150,"name":"sweet","steam_id":76561198075311236,"connected_time":433000000000,"state":"active","ping":53},{"user_id":138,"name":"Halla875","steam_id":76561198371206561,"connected_time":1118000000000,"state":"active","ping":68},{"user_id":139,"name":"skidmark2000","steam_id":76561198446126519,"connected_time":1050000000000,"state":"active","ping":45},{"user_id":152,"name":"Sleepy Cat","steam_id":76561198142401028,"connected_time":353000000000,"state":"active","ping":46},{"user_id":141,"name":"L","steam_id":76561198213150435,"connected_time":1021000000000,"state":"active","ping":34},{"user_id":145,"name":"sillydouglas","steam_id":76561198167387852,"connected_time":774000000000,"state":"active","ping":93},{"user_id":154,"name":"voxii","steam_id":76561198099698281,"connected_time":223000000000,"state":"active","ping":69},{"user_id":153,"name":"Hertog van Damme","steam_id":76561198152470958,"connected_time":255000000000,"state":"active","ping":72},{"user_id":156,"name":"DIY Miracle","steam_id":76561198046228152,"connected_time":44000000000,"state":"active","ping":52},{"user_id":157,"name":"Kouroboros","steam_id":76561198141283669,"connected_time":16000000000,"state":"active","ping":92},{"user_id":149,"name":"wombraider","steam_id":76561199375834537,"connected_time":548000000000,"state":"active","ping":137},{"user_id":155,"name":"The Feared","steam_id":76561198380825547,"connected_time":150000000000,"state":"active","ping":91}]},{"server_id":123,"name":"Uncletopia | Sydney | 2 | All Maps","name_short":"syd-2","host":"syd-1.au.uncletopia.com","port":27025,"enabled":true,"region":"au","cc":"au","latitude":-33.865143,"longitude":151.2099,"reserved":0,"last_update":"0001-01-01T00:00:00Z","name_a2s":"Uncletopia | Sydney | 2 | All Maps","protocol":17,"map":"pl_badwater","folder":"tf","game":"Team Fortress","app_id":440,"player_count":23,"max_players":24,"Bots":0,"server_type":"Dedicated","server_os":"Linux","password":true,"vac":true,"version":"7757534","steam_id":85568392924470002,"keywords":["nocrits","nodmgspread","payload","uncletopia"],"game_id":440,"stv_port":27026,"stv_name":"Uncletopia | Sydney | 2 | All Maps | STV","players":[{"user_id":184,"name":"Jetfire","steam_id":76561198047370036,"connected_time":1925000000000,"state":"active","ping":76},{"user_id":202,"name":"Pop without the SMOKE","steam_id":76561198107828671,"connected_time":215000000000,"state":"active","ping":46},{"user_id":147,"name":"jim :)","steam_id":76561198127508905,"connected_time":4465000000000,"state":"active","ping":37},{"user_id":194,"name":"floppinv2","steam_id":76561198213566569,"connected_time":1008000000000,"state":"active","ping":104},{"user_id":192,"name":"Marzell","steam_id":76561198151276153,"connected_time":1171000000000,"state":"active","ping":89},{"user_id":188,"name":"AzureFox","steam_id":76561198108179408,"connected_time":1561000000000,"state":"active","ping":96},{"user_id":169,"name":"seiran","steam_id":76561198880907232,"connected_time":2992000000000,"state":"active","ping":90},{"user_id":203,"name":"Atlas","steam_id":76561198069332870,"connected_time":206000000000,"state":"active","ping":34},{"user_id":127,"name":"DragRiper","steam_id":76561198050917553,"connected_time":6010000000000,"state":"active","ping":59},{"user_id":204,"name":"Bin","steam_id":76561199117653318,"connected_time":156000000000,"state":"active","ping":69},{"user_id":199,"name":"krandlez` (Any/All)","steam_id":76561198044839726,"connected_time":455000000000,"state":"active","ping":31},{"user_id":150,"name":"FIX","steam_id":76561197995157189,"connected_time":4386000000000,"state":"active","ping":44},{"user_id":171,"name":"Piklz","steam_id":76561198043384139,"connected_time":2812000000000,"state":"active","ping":46},{"user_id":145,"name":"Dr. Hoppity","steam_id":76561197999715646,"connected_time":4794000000000,"state":"active","ping":61},{"user_id":121,"name":"Top Ramen","steam_id":76561198028969833,"connected_time":6227000000000,"state":"active","ping":123},{"user_id":205,"name":"Oranch","steam_id":76561198134730206,"connected_time":21000000000,"state":"active","ping":47},{"user_id":86,"name":"Rarity the Fabulous","steam_id":76561198077653287,"connected_time":9126000000000,"state":"active","ping":38},{"user_id":186,"name":"poolio","steam_id":76561198027045573,"connected_time":1752000000000,"state":"active","ping":45},{"user_id":197,"name":"Hawk","steam_id":76561198135164277,"connected_time":876000000000,"state":"active","ping":45},{"user_id":198,"name":"Balsamic Vinegar","steam_id":76561198260148888,"connected_time":855000000000,"state":"active","ping":69},{"user_id":168,"name":"soupy","steam_id":76561198073734936,"connected_time":3034000000000,"state":"active","ping":79},{"user_id":164,"name":"the normoaner","steam_id":76561198082423230,"connected_time":3230000000000,"state":"active","ping":75},{"user_id":201,"name":"Brown Bricks","steam_id":76561198069616842,"connected_time":253000000000,"state":"active","ping":80}]},{"server_id":395,"name":"Uncletopia | Sydney | 3 | All Maps","name_short":"syd-3","host":"syd-1.au.uncletopia.com","port":27035,"enabled":true,"region":"au","cc":"au","latitude":-33.865143,"longitude":151.2099,"reserved":0,"last_update":"0001-01-01T00:00:00Z","name_a2s":"Uncletopia | Sydney | 3 | All Maps","protocol":17,"map":"koth_cascade","folder":"tf","game":"Team Fortress","app_id":440,"player_count":2,"max_players":24,"Bots":0,"server_type":"Dedicated","server_os":"Linux","password":true,"vac":true,"version":"7757534","steam_id":85568392925194467,"keywords":["cp","nocrits","nodmgspread","uncletopia"],"game_id":440,"stv_port":27036,"stv_name":"Uncletopia | Sydney | 3 | All Maps | STV","players":[{"user_id":14,"name":"Crumpet","steam_id":76561199096381193,"connected_time":1450000000000,"state":"active","ping":68},{"user_id":15,"name":"The Bisoneer TF2","steam_id":76561199446773766,"connected_time":1442000000000,"state":"active","ping":88}]},{"server_id":396,"name":"Uncletopia | Sydney | 4 | All Maps","name_short":"syd-4","host":"syd-1.au.uncletopia.com","port":27045,"enabled":true,"region":"au","cc":"au","latitude":-33.865143,"longitude":151.2099,"reserved":0,"last_update":"0001-01-01T00:00:00Z","name_a2s":"Uncletopia | Sydney | 4 | All Maps","protocol":17,"map":"koth_viaduct","folder":"tf","game":"Team Fortress","app_id":440,"player_count":0,"max_players":24,"Bots":0,"server_type":"Dedicated","server_os":"Linux","password":true,"vac":true,"version":"7757534","steam_id":85568392925397958,"keywords":["cp","nocrits","nodmgspread","uncletopia"],"game_id":440,"stv_port":27046,"stv_name":"Uncletopia | Sydney | 4 | All Maps | STV","players":null},{"server_id":58,"name":"Uncletopia | Sydney | 5 | Stopwatch Beta","name_short":"syd-5","host":"syd-1.au.uncletopia.com","port":27055,"enabled":true,"region":"au","cc":"au","latitude":-33.865143,"longitude":151.2099,"reserved":0,"last_update":"0001-01-01T00:00:00Z","name_a2s":"Uncletopia | Sydney | 5 | Stopwatch Beta","protocol":17,"map":"koth_lakeside_final","folder":"tf","game":"Team Fortress","app_id":440,"player_count":0,"max_players":24,"Bots":0,"server_type":"Dedicated","server_os":"Linux","password":true,"vac":true,"version":"7757534","steam_id":85568392925397959,"keywords":["cp","nocrits","nodmgspread","uncletopia"],"game_id":440,"stv_port":27056,"stv_name":"Uncletopia | Sydney | 5 | Stopwatch Beta | STV","players":null},{"server_id":59,"name":"Uncletopia | Sydney | 6 | Community","name_short":"syd-6","host":"syd-1.au.uncletopia.com","port":27065,"enabled":true,"region":"au","cc":"au","latitude":-33.865143,"longitude":151.2099,"reserved":0,"last_update":"0001-01-01T00:00:00Z","name_a2s":"Uncletopia | Sydney | 6 | Community","protocol":17,"map":"workshop/koth_slaughter_rc1.ugc1712845210","folder":"tf","game":"Team Fortress","app_id":440,"player_count":0,"max_players":24,"Bots":0,"server_type":"Dedicated","server_os":"Linux","password":true,"vac":true,"version":"7757534","steam_id":85568392925397960,"keywords":["cp","nocrits","nodmgspread","uncletopia"],"game_id":440,"stv_port":27066,"stv_name":"Uncletopia | Sydney | 6 | Community | STV","players":null},{"server_id":49,"name":"Uncletopia | Warsaw | 1 | All Maps","name_short":"waw-1","host":"waw-1.pl.uncletopia.com","port":27015,"enabled":true,"region":"eu","cc":"pl","latitude":52.2297,"longitude":21.017532,"reserved":0,"last_update":"0001-01-01T00:00:00Z","name_a2s":"","protocol":0,"map":"","folder":"","game":"","app_id":0,"player_count":0,"max_players":0,"Bots":0,"server_type":"","server_os":"","password":false,"vac":false,"version":"","steam_id":0,"keywords":null,"game_id":0,"stv_port":0,"stv_name":"","players":null},{"server_id":50,"name":"Uncletopia | Warsaw | 2 | All Maps","name_short":"waw-2","host":"waw-1.pl.uncletopia.com","port":27025,"enabled":true,"region":"eu","cc":"pl","latitude":52.2297,"longitude":21.017532,"reserved":0,"last_update":"0001-01-01T00:00:00Z","name_a2s":"Uncletopia | Warsaw | 2 | All Maps","protocol":17,"map":"cp_process_final","folder":"tf","game":"Team Fortress","app_id":440,"player_count":0,"max_players":24,"Bots":0,"server_type":"Dedicated","server_os":"Linux","password":true,"vac":true,"version":"7757534","steam_id":85568392925397851,"keywords":["cp","nocrits","nodmgspread","uncletopia"],"game_id":440,"stv_port":27026,"stv_name":"Uncletopia | Warsaw | 2 | All Maps | STV","players":null},{"server_id":51,"name":"Uncletopia | Warsaw | 3 | All Maps","name_short":"waw-3","host":"waw-1.pl.uncletopia.com","port":27035,"enabled":true,"region":"eu","cc":"pl","latitude":52.2297,"longitude":21.017532,"reserved":0,"last_update":"0001-01-01T00:00:00Z","name_a2s":"Uncletopia | Warsaw | 3 | All Maps","protocol":17,"map":"pl_barnblitz","folder":"tf","game":"Team Fortress","app_id":440,"player_count":0,"max_players":24,"Bots":0,"server_type":"Dedicated","server_os":"Linux","password":true,"vac":true,"version":"7757534","steam_id":85568392925397852,"keywords":["nocrits","nodmgspread","payload","uncletopia"],"game_id":440,"stv_port":27036,"stv_name":"Uncletopia | Warsaw | 3 | All Maps | STV","players":null},{"server_id":52,"name":"Uncletopia | Warsaw | 4 | All Maps","name_short":"waw-4","host":"waw-1.pl.uncletopia.com","port":27045,"enabled":true,"region":"eu","cc":"pl","latitude":52.2297,"longitude":21.017532,"reserved":0,"last_update":"0001-01-01T00:00:00Z","name_a2s":"Uncletopia | Warsaw | 4 | All Maps","protocol":17,"map":"pl_snowycoast","folder":"tf","game":"Team Fortress","app_id":440,"player_count":0,"max_players":24,"Bots":0,"server_type":"Dedicated","server_os":"Linux","password":true,"vac":true,"version":"7757534","steam_id":85568392925397853,"keywords":["nocrits","nodmgspread","payload","uncletopia"],"game_id":440,"stv_port":27046,"stv_name":"Uncletopia | Warsaw | 4 | All Maps | STV","players":null},{"server_id":53,"name":"Uncletopia | Warsaw | 5 | Stopwatch Beta","name_short":"waw-5","host":"waw-1.pl.uncletopia.com","port":27055,"enabled":true,"region":"eu","cc":"pl","latitude":52.2297,"longitude":21.017532,"reserved":0,"last_update":"0001-01-01T00:00:00Z","name_a2s":"Uncletopia | Warsaw | 5 | Stopwatch Beta","protocol":17,"map":"pl_barnblitz","folder":"tf","game":"Team Fortress","app_id":440,"player_count":0,"max_players":24,"Bots":0,"server_type":"Dedicated","server_os":"Linux","password":true,"vac":true,"version":"7757534","steam_id":85568392925397854,"keywords":["nocrits","nodmgspread","payload","uncletopia"],"game_id":440,"stv_port":27056,"stv_name":"Uncletopia | Warsaw | 5 | Stopwatch Beta | STV","players":null},{"server_id":54,"name":"Uncletopia | Warsaw | 6 | Community","name_short":"waw-6","host":"waw-1.pl.uncletopia.com","port":27065,"enabled":true,"region":"eu","cc":"pl","latitude":52.2297,"longitude":21.017532,"reserved":0,"last_update":"0001-01-01T00:00:00Z","name_a2s":"Uncletopia | Warsaw | 6 | Community","protocol":17,"map":"pl_swiftwater_final1","folder":"tf","game":"Team Fortress","app_id":440,"player_count":0,"max_players":24,"Bots":0,"server_type":"Dedicated","server_os":"Linux","password":true,"vac":true,"version":"7757534","steam_id":85568392925397856,"keywords":["nocrits","nodmgspread","payload","uncletopia"],"game_id":440,"stv_port":27066,"stv_name":"Uncletopia | Warsaw | 6 | Community | STV","players":null}]}