{"status":true,"message":"","result":[{"server_id":9,"name":"Uncletopia | Atlanta | 1 | All Maps","name_short":"atl-1","host":"atl-1.us.uncletopia.com","port":27015,"enabled":true,"region":"us-east","cc":"us","latitude":33.753746,"longitude":-84.38633,"reserved":0,"last_update":"0001-01-01T00:00:00Z","name_a2s":"Uncletopia | Atlanta | 1 | All Maps","protocol":17,"map":"pl_borneo","folder":"tf","game":"Team Fortress","app_id":440,"player_count":25,"max_players":24,"Bots":0,"server_type":"Dedicated","server_os":"Linux","password":true,"vac":true,"version":"7757534","steam_id":85568392924469982,"keywords":["nocrits","nodmgspread","payload","uncletopia"],"game_id":440,"stv_port":27016,"stv_name":"Uncletopia | Atlanta | 1 | All Maps | STV","players":[{"user_id":332,"name":"HAT-WEARING™ Maggot Gamer Cat","steam_id":76561197973992705,"connected_time":6212000000000,"state":"active","ping":115},{"user_id":377,"name":"i love machine girl","steam_id":76561199187747394,"connected_time":1615000000000,"state":"active","ping":65},{"user_id":381,"name":"xiii","steam_id":76561198079416036,"connected_time":1276000000000,"state":"active","ping":81},{"user_id":302,"name":"fortnite.jimmy.2014","steam_id":76561199177672325,"connected_time":10062000000000,"state":"active","ping":44},{"user_id":366,"name":"DuckKey","steam_id":76561198904477889,"connected_time":3045000000000,"state":"active","ping":58},{"user_id":372,"name":"PerpetuaForever","steam_id":76561198347444353,"connected_time":2226000000000,"state":"active","ping":76},{"user_id":374,"name":"Inkmix (F2P","steam_id":76561198854070384,"connected_time":1812000000000,"state":"active","ping":115},{"user_id":378,"name":"Franz","steam_id":76561198041929745,"connected_time":1613000000000,"state":"active","ping":107},{"user_id":338,"name":"inky (Coolest)","steam_id":76561198968337022,"connected_time":5124000000000,"state":"active","ping":55},{"user_id":320,"name":"xX_HimboSwallower_Xx","steam_id":76561198016029965,"connected_time":7811000000000,"state":"active","ping":64},{"user_id":322,"name":"ATL1 | Avo","steam_id":76561197993340494,"connected_time":7572000000000,"state":"active","ping":60},{"user_id":476,"name":"freyja #LetsEat","steam_id":76561198249206656,"connected_time":298000000000,"state":"active","ping":83},{"user_id":359,"name":"Dr. drippenstein","steam_id":76561198209380493,"connected_time":3707000000000,"state":"active","ping":61},{"user_id":363,"name":"pewdiepie","steam_id":76561199145173282,"connected_time":3413000000000,"state":"active","ping":93},{"user_id":343,"name":"krabby","steam_id":76561199072773402,"connected_time":4814000000000,"state":"active","ping":61},{"user_id":379,"name":"BIG HOG","steam_id":76561198079923652,"connected_time":1384000000000,"state":"active","ping":68},{"user_id":492,"name":"p4ka","steam_id":76561198315291317,"connected_time":62000000000,"state":"active","ping":75},{"user_id":376,"name":"giant crate of raw meat","steam_id":76561198289333345,"connected_time":1637000000000,"state":"active","ping":74},{"user_id":312,"name":"ATL1 | on my hunting trip","steam_id":76561198315341646,"connected_time":8209000000000,"state":"active","ping":73},{"user_id":375,"name":"Broken Cereal√","steam_id":76561198087489795,"connected_time":1643000000000,"state":"active","ping":67},{"user_id":373,"name":"ok","steam_id":76561198445140249,"connected_time":2161000000000,"state":"active","ping":92},{"user_id":493,"name":"Vortiger","steam_id":76561198275813176,"connected_time":56000000000,"state":"active","ping":113},{"user_id":496,"name":"Flyinglab","steam_id":76561198042161408,"connected_time":17000000000,"state":"spawning","ping":59},{"user_id":419,"name":"drought","steam_id":76561198094512992,"connected_time":854000000000,"state":"active","ping":70},{"user_id":331,"name":"lil hog","steam_id":76561199230929836,"connected_time":6496000000000,"state":"active","ping":100}]},{"server_id":104,"name":"Uncletopia | Atlanta | 2 | All Maps","name_short":"atl-2","host":"atl-1.us.uncletopia.com","port":27025,"enabled":true,"region":"us-east","cc":"us","latitude":33.753746,"longitude":-84.38633,"reserved":0,"last_update":"0001-01-01T00:00:00Z","name_a2s":"Uncletopia | Atlanta | 2 | All Maps","protocol":17,"map":"pl_frontier_final","folder":"tf","game":"Team Fortress","app_id":440,"player_count":24,"max_players":24,"Bots":0,"server_type":"Dedicated","server_os":"Linux","password":true,"vac":true,"version":"7757534","steam_id":85568392924469983,"keywords":["nocrits","nodmgspread","payload","uncletopia"],"game_id":440,"stv_port":27026,"stv_name":"Uncletopia | Atlanta | 2 | All Maps | STV","players":[{"user_id":151,"name":"Myn","steam_id":76561198055438857,"connected_time":3199000000000,"state":"active","ping":78},{"user_id":176,"name":"k0ka","steam_id":76561198247969962,"connected_time":1036000000000,"state":"active","ping":46},{"user_id":162,"name":"Definitely Not A Cat","steam_id":76561198123464621,"connected_time":2407000000000,"state":"active","ping":71},{"user_id":155,"name":"cactus eater","steam_id":76561199107499844,"connected_time":2911000000000,"state":"active","ping":112},{"user_id":137,"name":"SuperViolence","steam_id":76561198973670368,"connected_time":4639000000000,"state":"active","ping":115},{"user_id":153,"name":"why the wig?","steam_id":76561199084109885,"connected_time":3073000000000,"state":"active","ping":62},{"user_id":186,"name":"WalletADHD","steam_id":76561198081067377,"connected_time":24000000000,"state":"active","ping":51},{"user_id":167,"name":"Spag Hekki","steam_id":76561198207579353,"connected_time":2074000000000,"state":"active","ping":63},{"user_id":157,"name":"ayecodex","steam_id":76561199477598858,"connected_time":2896000000000,"state":"active","ping":53},{"user_id":175,"name":"i WILL ego peek","steam_id":76561199013337543,"connected_time":1112000000000,"state":"active","ping":44},{"user_id":185,"name":"Kuddly Kay (She/Her)","steam_id":76561198353432576,"connected_time":80000000000,"state":"active","ping":80},{"user_id":179,"name":"greeno","steam_id":76561198109901138,"connected_time":954000000000,"state":"active","ping":79},{"user_id":161,"name":"Jrock","steam_id":76561198045715996,"connected_time":2735000000000,"state":"active","ping":85},{"user_id":159,"name":"trobin120","steam_id":76561199122420273,"connected_time":2835000000000,"state":"active","ping":57},{"user_id":166,"name":"loudpizzer","steam_id":76561198078802110,"connected_time":2197000000000,"state":"active","ping":88},{"user_id":180,"name":"cellogamer","steam_id":76561198016937098,"connected_time":953000000000,"state":"active","ping":69},{"user_id":173,"name":"Mr_Frosty","steam_id":76561199380389079,"connected_time":1554000000000,"state":"active","ping":73},{"user_id":181,"name":"Holdie","steam_id":76561198070378200,"connected_time":926000000000,"state":"active","ping":75},{"user_id":182,"name":"Snorty","steam_id":76561198114304454,"connected_time":925000000000,"state":"active","ping":74},{"user_id":164,"name":"mangoface","steam_id":76561199028760996,"connected_time":2357000000000,"state":"active","ping":175},{"user_id":184,"name":"Fred the Beard","steam_id":76561198009310649,"connected_time":872000000000,"state":"active","ping":70},{"user_id":168,"name":"coolfalcon168","steam_id":76561198948665710,"connected_time":2061000000000,"state":"active","ping":78},{"user_id":169,"name":"ALonelyGhostE","steam_id":76561198184787290,"connected_time":2041000000000,"state":"active","ping":76},{"user_id":187,"name":"Battery","steam_id":76561199053078059,"connected_time":23000000000,"state":"active","ping":86}]},{"server_id":400,"name":"Uncletopia | Atlanta | 3 | Community","name_short":"atl-3","host":"atl-1.us.uncletopia.com","port":27035,"enabled":true,"region":"us-east","cc":"us","latitude":33.753746,"longitude":-84.38633,"reserved":0,"last_update":"0001-01-01T00:00:00Z","name_a2s":"Uncletopia | Atlanta | 3 | Community","protocol":17,"map":"workshop/cp_sulfur_rc2.ugc619869471","folder":"tf","game":"Team Fortress","app_id":440,"player_count":0,"max_players":24,"Bots":0,"server_type":"Dedicated","server_os":"Linux","password":true,"vac":true,"version":"7757534","steam_id":85568392924515187,"keywords":["cp","nocrits","nodmgspread","uncletopia"],"game_id":440,"stv_port":27036,"stv_name":"Uncletopia | Atlanta | 3 | Community | STV","players":null},{"server_id":401,"name":"Uncletopia | Atlanta | 4 | No Payload","name_short":"atl-4","host":"atl-1.us.uncletopia.com","port":27045,"enabled":true,"region":"us-east","cc":"us","latitude":33.753746,"longitude":-84.38633,"reserved":0,"last_update":"0001-01-01T00:00:00Z","name_a2s":"","protocol":0,"map":"","folder":"","game":"","app_id":0,"player_count":0,"max_players":0,"Bots":0,"server_type":"","server_os":"","password":false,"vac":false,"version":"","steam_id":0,"keywords":null,"game_id":0,"stv_port":0,"stv_name":"","players":null},{"server_id":2,"name":"Uncletopia | Chicago | 1 | All Maps","name_short":"chi-1","host":"chi-1.us.uncletopia.com","port":27015,"enabled":true,"region":"us-central","cc":"us","latitude":41.881832,"longitude":-87.62318,"reserved":0,"last_update":"0001-01-01T00:00:00Z","name_a2s":"Uncletopia | Chicago | 1 | All Maps","protocol":17,"map":"cp_dustbowl","folder":"tf","game":"Team Fortress","app_id":440,"player_count":24,"max_players":24,"Bots":0,"server_type":"Dedicated","server_os":"Linux","password":true,"vac":true,"version":"7757534","steam_id":85568392924469984,"keywords":["cp","nocrits","nodmgspread","uncletopia"],"game_id":440,"stv_port":27016,"stv_name":"Uncletopia | Chicago | 1 | All Maps | STV","players":[{"user_id":444,"name":"vandeer","steam_id":76561198120124007,"connected_time":1440000000000,"state":"active","ping":73},{"user_id":373,"name":"Acehay14","steam_id":76561198052373291,"connected_time":5789000000000,"state":"active","ping":56},{"user_id":445,"name":"Plague Doctor Moose","steam_id":76561199027129554,"connected_time":1428000000000,"state":"active","ping":67},{"user_id":428,"name":"Guns Blazing","steam_id":76561198379461118,"connected_time":2813000000000,"state":"active","ping":93},{"user_id":446,"name":"Goober alert!","steam_id":76561198175727790,"connected_time":1419000000000,"state":"active","ping":105},{"user_id":412,"name":"cringe","steam_id":76561198104086771,"connected_time":4413000000000,"state":"active","ping":97},{"user_id":447,"name":"Luna She/Her","steam_id":76561198991791655,"connected_time":1415000000000,"state":"active","ping":87},{"user_id":448,"name":"rox!","steam_id":76561198307200753,"connected_time":1409000000000,"state":"active","ping":84},{"user_id":425,"name":"４０ ＦＰＳ","steam_id":76561198272394965,"connected_time":2837000000000,"state":"active","ping":134},{"user_id":456,"name":"Soju","steam_id":76561198044130442,"connected_time":782000000000,"state":"active","ping":76},{"user_id":460,"name":"Tyco","steam_id":76561197978414167,"connected_time":175000000000,"state":"active","ping":74},{"user_id":420,"name":"stupid ape","steam_id":76561198350027075,"connected_time":3032000000000,"state":"active","ping":56},{"user_id":449,"name":"Kimbob","steam_id":76561199342218097,"connected_time":1399000000000,"state":"active","ping":86},{"user_id":415,"name":"Daehypeels","steam_id":76561198268981599,"connected_time":3612000000000,"state":"active","ping":72},{"user_id":438,"name":"Not_Douglas","steam_id":76561199024184136,"connected_time":1546000000000,"state":"active","ping":59},{"user_id":457,"name":"VerdantSunset","steam_id":76561198062313478,"connected_time":497000000000,"state":"active","ping":83},{"user_id":451,"name":"Gandhi The Nuke User","steam_id":76561199085117202,"connected_time":1358000000000,"state":"active","ping":89},{"user_id":454,"name":"Bronze Age Furvert","steam_id":76561198859118263,"connected_time":1244000000000,"state":"active","ping":66},{"user_id":452,"name":"xX_boogmeister7_Xx","steam_id":76561199276955274,"connected_time":1313000000000,"state":"active","ping":54},{"user_id":458,"name":"Lost","steam_id":76561198093713427,"connected_time":185000000000,"state":"active","ping":60},{"user_id":442,"name":"aquatic ambiance","steam_id":76561198042788986,"connected_time":1482000000000,"state":"active","ping":82},{"user_id":389,"name":"asbestos","steam_id":76561198079178866,"connected_time":5212000000000,"state":"active","ping":66},{"user_id":443,"name":"LerN","steam_id":76561198083463877,"connected_time":1481000000000,"state":"active","ping":61},{"user_id":453,"name":"junktodelete","steam_id":76561199055054866,"connected_time":1284000000000,"state":"active","ping":88}]},{"server_id":106,"name":"Uncletopia | Chicago | 2 | All Maps","name_short":"chi-2","host":"chi-1.us.uncletopia.com","port":27025,"enabled":true,"region":"us-central","cc":"us","latitude":41.881832,"longitude":-87.62318,"reserved":0,"last_update":"0001-01-01T00:00:00Z","name_a2s":"Uncletopia | Chicago | 2 | All Maps","protocol":17,"map":"cp_dustbowl","folder":"tf","game":"Team Fortress","app_id":440,"player_count":24,"max_players":24,"Bots":0,"server_type":"Dedicated","server_os":"Linux","password":true,"vac":true,"version":"7757534","steam_id":85568392924469985,"keywords":["cp","nocrits","nodmgspread","uncletopia"],"game_id":440,"stv_port":27026,"stv_name":"Uncletopia | Chicago | 2 | All Maps | STV","players":[{"user_id":264,"name":"Adam (Cursed Confetti Creature)","steam_id":76561198317690197,"connected_time":641000000000,"state":"active","ping":46},{"user_id":256,"name":"happy camper","steam_id":76561198209813328,"connected_time":1179000000000,"state":"active","ping":55},{"user_id":217,"name":"pipis","steam_id":76561198140971525,"connected_time":3785000000000,"state":"active","ping":63},{"user_id":197,"name":"Mr. Cheesey","steam_id":76561198153462183,"connected_time":5018000000000,"state":"active","ping":68},{"user_id":257,"name":"Superseee","steam_id":76561198199919747,"connected_time":1086000000000,"state":"active","ping":115},{"user_id":240,"name":"dabri88","steam_id":76561198103645497,"connected_time":1805000000000,"state":"active","ping":68},{"user_id":249,"name":"Cat in Your Backyard","steam_id":76561197979078330,"connected_time":1616000000000,"state":"active","ping":60},{"user_id":232,"name":"Lspan","steam_id":76561199002806208,"connected_time":2882000000000,"state":"active","ping":140},{"user_id":260,"name":"Hey","steam_id":76561198447517893,"connected_time":1055000000000,"state":"active","ping":81},{"user_id":267,"name":"CSharp","steam_id":76561199185191710,"connected_time":324000000000,"state":"active","ping":161},{"user_id":142,"name":"Krumbl","steam_id":76561197972793357,"connected_time":7911000000000,"state":"active","ping":69},{"user_id":258,"name":"Wahooka","steam_id":76561197962240925,"connected_time":1072000000000,"state":"active","ping":56},{"user_id":241,"name":"thigh enjoyer","steam_id":76561198088003193,"connected_time":1726000000000,"state":"active","ping":83},{"user_id":242,"name":"Henry Ota-Clay","steam_id":76561198053232470,"connected_time":1723000000000,"state":"active","ping":58},{"user_id":259,"name":"bachphong760","steam_id":76561199433780443,"connected_time":1067000000000,"state":"active","ping":89},{"user_id":261,"name":"Phocae (She/Her)","steam_id":76561199317584594,"connected_time":1031000000000,"state":"active","ping":79},{"user_id":268,"name":"=3=","steam_id":76561198088103572,"connected_time":280000000000,"state":"active","ping":90},{"user_id":219,"name":"CreativeUsername","steam_id":76561198186045503,"connected_time":3768000000000,"state":"active","ping":52},{"user_id":248,"name":"creeeeeee","steam_id":76561198392539722,"connected_time":1675000000000,"state":"active","ping":77},{"user_id":251,"name":"Zackariah","steam_id":76561198269224342,"connected_time":1572000000000,"state":"active","ping":68},{"user_id":226,"name":"DededeMain | trade.tf","steam_id":76561198310951632,"connected_time":3377000000000,"state":"active","ping":89},{"user_id":214,"name":"△","steam_id":76561198060642242,"connected_time":4057000000000,"state":"active","ping":80},{"user_id":263,"name":"WheelockWarlock","steam_id":76561198171456553,"connected_time":989000000000,"state":"active","ping":82},{"user_id":266,"name":"AYAYA!!!","steam_id":76561198992102180,"connected_time":357000000000,"state":"active","ping":46}]},{"server_id":402,"name":"Uncletopia | Chicago | 3 | All Maps","name_short":"chi-3","host":"chi-1.us.uncletopia.com","port":27035,"enabled":true,"region":"us-central","cc":"us","latitude":41.881832,"longitude":-87.62318,"reserved":0,"last_update":"0001-01-01T00:00:00Z","name_a2s":"Uncletopia | Chicago | 3 | All Maps","protocol":17,"map":"pl_frontier_final","folder":"tf","game":"Team Fortress","app_id":440,"player_count":24,"max_players":24,"Bots":0,"server_type":"Dedicated","server_os":"Linux","password":true,"vac":true,"version":"7757534","steam_id":85568392924515191,"keywords":["nocrits","nodmgspread","payload","uncletopia"],"game_id":440,"stv_port":27036,"stv_name":"Uncletopia | Chicago | 3 | All Maps | STV","players":[{"user_id":232,"name":"CamSoup","steam_id":76561198202483168,"connected_time":8415000000000,"state":"active","ping":69},{"user_id":298,"name":"Ozirion","steam_id":76561198108901767,"connected_time":3621000000000,"state":"active","ping":70},{"user_id":327,"name":"Garbunkle","steam_id":76561198389831507,"connected_time":708000000000,"state":"active","ping":66},{"user_id":315,"name":"Nukem","steam_id":76561198166236574,"connected_time":1390000000000,"state":"active","ping":78},{"user_id":316,"name":"Deltaco","steam_id":76561198094572694,"connected_time":1388000000000,"state":"active","ping":102},{"user_id":287,"name":"Gaskranx","steam_id":76561198020269547,"connected_time":3977000000000,"state":"active","ping":73},{"user_id":317,"name":"Django","steam_id":76561197971158403,"connected_time":1348000000000,"state":"active","ping":72},{"user_id":326,"name":"Crasson","steam_id":76561198034967708,"connected_time":1003000000000,"state":"active","ping":75},{"user_id":311,"name":"Aino","steam_id":76561198053662930,"connected_time":1891000000000,"state":"active","ping":102},{"user_id":329,"name":"Female Gamer","steam_id":76561199366482682,"connected_time":412000000000,"state":"active","ping":149},{"user_id":320,"name":"Rin \"Hindwing\" Redtail","steam_id":76561199074865638,"connected_time":1302000000000,"state":"active","ping":73},{"user_id":223,"name":"Kaleb","steam_id":76561198331013248,"connected_time":8894000000000,"state":"active","ping":68},{"user_id":330,"name":"Vaudeville Villain","steam_id":76561199212093339,"connected_time":292000000000,"state":"active","ping":63},{"user_id":296,"name":"Hylic","steam_id":76561199051314589,"connected_time":3674000000000,"state":"active","ping":61},{"user_id":313,"name":"SomeGuyTM","steam_id":76561198842319482,"connected_time":1810000000000,"state":"active","ping":2120},{"user_id":321,"name":"Blake...","steam_id":76561198064090974,"connected_time":1300000000000,"state":"active","ping":91},{"user_id":306,"name":"Derpydude2002","steam_id":76561198811719519,"connected_time":2331000000000,"state":"active","ping":77},{"user_id":325,"name":"WM1 PYRO","steam_id":76561198045893896,"connected_time":1159000000000,"state":"active","ping":100},{"user_id":291,"name":"TheChickenChuck","steam_id":76561199192686708,"connected_time":3940000000000,"state":"active","ping":118},{"user_id":263,"name":"Bottom feeder","steam_id":76561198181298169,"connected_time":7082000000000,"state":"active","ping":63},{"user_id":322,"name":"Rockcrusher","steam_id":76561199012666353,"connected_time":1247000000000,"state":"active","ping":73},{"user_id":270,"name":"MacchuPeachu","steam_id":76561199093242587,"connected_time":6096000000000,"state":"active","ping":69},{"user_id":314,"name":"battle clown","steam_id":76561198045788371,"connected_time":1443000000000,"state":"active","ping":71},{"user_id":324,"name":"ultralisk52","steam_id":76561198051666604,"connected_time":1209000000000,"state":"active","ping":62}]},{"server_id":403,"name":"Uncletopia | Chicago | 4 | All Maps","name_short":"chi-4","host":"chi-1.us.uncletopia.com","port":27045,"enabled":true,"region":"us-central","cc":"us","latitude":41.881832,"longitude":-87.62318,"reserved":0,"last_update":"0001-01-01T00:00:00Z","name_a2s":"Uncletopia | Chicago | 4 | All Maps","protocol":17,"map":"cp_coldfront","folder":"tf","game":"Team Fortress","app_id":440,"player_count":24,"max_players":24,"Bots":0,"server_type":"Dedicated","server_os":"Linux","password":true,"vac":true,"version":"7757534","steam_id":85568392924515193,"keywords":["cp","nocrits","nodmgspread","uncletopia"],"game_id":440,"stv_port":27046,"stv_name":"Uncletopia | Chicago | 4 | All Maps | STV","players":[{"user_id":150,"name":"swan","steam_id":76561198012569200,"connected_time":394000000000,"state":"active","ping":73},{"user_id":133,"name":"ᴬᴯᴱ Mildstrife","steam_id":76561198000080715,"connected_time":1207000000000,"state":"active","ping":65},{"user_id":14,"name":"coxen","steam_id":76561198095125557,"connected_time":9403000000000,"state":"active","ping":64},{"user_id":136,"name":"Darkmaen","steam_id":76561198060543390,"connected_time":1185000000000,"state":"active","ping":138},{"user_id":125,"name":"023e20902o0239ee02390o239e","steam_id":76561198175741741,"connected_time":1675000000000,"state":"active","ping":75},{"user_id":143,"name":"goopfart","steam_id":76561198284112939,"connected_time":873000000000,"state":"active","ping":73},{"user_id":95,"name":"orcluvr69","steam_id":76561198068712028,"connected_time":2904000000000,"state":"active","ping":69},{"user_id":116,"name":"SLaPPy- oNaSiS","steam_id":76561198009286862,"connected_time":1911000000000,"state":"active","ping":70},{"user_id":126,"name":"Kickbakk","steam_id":76561198042335947,"connected_time":1644000000000,"state":"active","ping":70},{"user_id":148,"name":"Swifgz","steam_id":76561198162875756,"connected_time":418000000000,"state":"active","ping":59},{"user_id":147,"name":"xLeoparrd","steam_id":76561198940657194,"connected_time":575000000000,"state":"active","ping":101},{"user_id":118,"name":"B.","steam_id":76561198040445907,"connected_time":1806000000000,"state":"active","ping":74},{"user_id":108,"name":"OMGimAnoobLOLOL","steam_id":76561198879677475,"connected_time":2368000000000,"state":"active","ping":89},{"user_id":137,"name":"drdoofus123","steam_id":76561198016826181,"connected_time":1185000000000,"state":"active","ping":74},{"user_id":151,"name":"mcjuice","steam_id":76561198087730829,"connected_time":385000000000,"state":"active","ping":71},{"user_id":144,"name":"FakeSteak","steam_id":76561198350623933,"connected_time":865000000000,"state":"active","ping":76},{"user_id":74,"name":"Dr_Spek","steam_id":76561198128667701,"connected_time":5791000000000,"state":"active","ping":56},{"user_id":99,"name":"igotmail","steam_id":76561198070631899,"connected_time":2792000000000,"state":"active","ping":88},{"user_id":128,"name":"scrapheap","steam_id":76561198202407087,"connected_time":1489000000000,"state":"active","ping":73},{"user_id":145,"name":"fallin","steam_id":76561198205386960,"connected_time":781000000000,"state":"active","ping":66},{"user_id":146,"name":"Critscare","steam_id":76561198087712508,"connected_time":614000000000,"state":"active","ping":45},{"user_id":152,"name":"BetoelAff es","steam_id":76561198377842585,"connected_time":340000000000,"state":"active","ping":123},{"user_id":127,"name":"THE","steam_id":76561199248859751,"connected_time":1623000000000,"state":"active","ping":122},{"user_id":149,"name":"Combatspok","steam_id":76561197971598115,"connected_time":418000000000,"state":"active","ping":60}]},{"server_id":36,"name":"Uncletopia | Chicago | 5 | All Maps","name_short":"chi-5","host":"chi-2.us.uncletopia.com","port":27015,"enabled":true,"region":"us-central","cc":"us","latitude":41.881832,"longitude":-87.62318,"reserved":0,"last_update":"0001-01-01T00:00:00Z","name_a2s":"Uncletopia | Chicago | 5 | All Maps","protocol":17,"map":"koth_cascade","folder":"tf","game":"Team Fortress","app_id":440,"player_count":0,"max_players":24,"Bots":0,"server_type":"Dedicated","server_os":"Linux","password":true,"vac":true,"version":"7757534","steam_id":85568392924866362,"keywords":["cp","nocrits","nodmgspread","uncletopia"],"game_id":440,"stv_port":27016,"stv_name":"Uncletopia | Chicago | 5 | All Maps | STV","players":null},{"server_id":37,"name":"Uncletopia | Chicago | 6 | All Maps","name_short":"chi-6","host":"chi-2.us.uncletopia.com","port":27025,"enabled":true,"region":"us-central","cc":"us","latitude":41.881832,"longitude":-87.62318,"reserved":0,"last_update":"0001-01-01T00:00:00Z","name_a2s":"Uncletopia | Chicago | 6 | All Maps","protocol":17,"map":"koth_harvest_final","folder":"tf","game":"Team Fortress","app_id":440,"player_count":24,"max_players":24,"Bots":0,"server_type":"Dedicated","server_os":"Linux","password":true,"vac":true,"version":"7757534","steam_id":85568392924866363,"keywords":["cp","nocrits","nodmgspread","uncletopia"],"game_id":440,"stv_port":27026,"stv_name":"Uncletopia | Chicago | 6 | All Maps | STV","players":[{"user_id":446,"name":"BOT Void","steam_id":76561198961997485,"connected_time":447000000000,"state":"active","ping":105},{"user_id":449,"name":"peanor","steam_id":76561198964811962,"connected_time":159000000000,"state":"active","ping":60},{"user_id":419,"name":"twix","steam_id":76561198040912048,"connected_time":2320000000000,"state":"active","ping":59},{"user_id":402,"name":"oh","steam_id":76561198076596506,"connected_time":3771000000000,"state":"active","ping":60},{"user_id":432,"name":"jumbo","steam_id":76561198024192770,"connected_time":1593000000000,"state":"active","ping":96},{"user_id":430,"name":"wakeupbdot","steam_id":76561198160786631,"connected_time":1819000000000,"state":"active","ping":91},{"user_id":455,"name":"flintdotcom (trans rights)","steam_id":76561199198577763,"connected_time":7000000000,"state":"spawning","ping":60},{"user_id":408,"name":"Stryder","steam_id":76561199387418697,"connected_time":3046000000000,"state":"active","ping":84},{"user_id":415,"name":"smartfrog21","steam_id":76561198063099828,"connected_time":2775000000000,"state":"active","ping":47},{"user_id":427,"name":"whats an egg","steam_id":76561198991039398,"connected_time":2068000000000,"state":"active","ping":60},{"user_id":444,"name":"ATastyDonut","steam_id":76561198984819894,"connected_time":660000000000,"state":"active","ping":71},{"user_id":452,"name":"Carthage","steam_id":76561198049001571,"connected_time":28000000000,"state":"active","ping":108},{"user_id":389,"name":"OttotheTomato","steam_id":76561198272610597,"connected_time":4040000000000,"state":"active","ping":68},{"user_id":450,"name":"bryyte","steam_id":76561198012377833,"connected_time":59000000000,"state":"active","ping":54},{"user_id":453,"name":"Wolverine Fingerblaster","steam_id":76561198095394582,"connected_time":23000000000,"state":"spawning","ping":75},{"user_id":421,"name":"slayer of commies","steam_id":76561199260467614,"connected_time":2283000000000,"state":"active","ping":98},{"user_id":424,"name":"tyg","steam_id":76561198056246867,"connected_time":2215000000000,"state":"active","ping":74},{"user_id":380,"name":"Gary Gaming","steam_id":76561198853378233,"connected_time":4531000000000,"state":"active","ping":130},{"user_id":440,"name":"daughtry_fan1991","steam_id":76561198073269122,"connected_time":1049000000000,"state":"active","ping":60},{"user_id":454,"name":"Whimsical Gnome","steam_id":76561198413125750,"connected_time":20000000000,"state":"spawning","ping":64},{"user_id":441,"name":"Bazelguese","steam_id":76561198420092495,"connected_time":1043000000000,"state":"active","ping":161},{"user_id":448,"name":"Bingo Oklahoma","steam_id":76561198991982630,"connected_time":427000000000,"state":"active","ping":57},{"user_id":435,"name":"hud_saytext_time 0","steam_id":76561198010327228,"connected_time":1381000000000,"state":"active","ping":166},{"user_id":442,"name":"pisschainz","steam_id":76561198042735130,"connected_time":1040000000000,"state":"active","ping":97}]},{"server_id":38,"name":"Uncletopia | Chicago | 7 | Stopwatch Beta","name_short":"chi-7","host":"chi-2.us.uncletopia.com","port":27035,"enabled":true,"region":"us-central","cc":"us","latitude":41.881832,"longitude":-87.62318,"reserved":0,"last_update":"0001-01-01T00:00:00Z","name_a2s":"Uncletopia | Chicago | 7 | Stopwatch Beta","protocol":17,"map":"pl_barnblitz","folder":"tf","game":"Team Fortress","app_id":440,"player_count":0,"max_players":24,"Bots":0,"server_type":"Dedicated","server_os":"Linux","password":true,"vac":true,"version":"7757534","steam_id":85568392924866364,"keywords":["nocrits","nodmgspread","payload","uncletopia"],"game_id":440,"stv_port":27036,"stv_name":"Uncletopia | Chicago | 7 | Stopwatch Beta | STV","players":null},{"server_id":39,"name":"Uncletopia | Chicago | 8 | Community","name_short":"chi-8","host":"chi-2.us.uncletopia.com","port":27045,"enabled":true,"region":"us-central","cc":"us","latitude":41.881832,"longitude":-87.62318,"reserved":0,"last_update":"0001-01-01T00:00:00Z","name_a2s":"Uncletopia | Chicago | 8 | Community","protocol":17,"map":"workshop/cp_fulgur_rc2a.ugc2068252300","folder":"tf","game":"Team Fortress","app_id":440,"player_count":5,"max_players":24,"Bots":0,"server_type":"Dedicated","server_os":"Linux","password":true,"vac":true,"version":"7757534","steam_id":85568392924866365,"keywords":["cp","nocrits","nodmgspread","uncletopia"],"game_id":440,"stv_port":27046,"stv_name":"Uncletopia | Chicago | 8 | Community | STV","players":[{"user_id":15,"name":"KatTheCookiCat","steam_id":76561199054643392,"connected_time":2381000000000,"state":"active","ping":149},{"user_id":5,"name":"justNO11","steam_id":76561198915411375,"connected_time":5594000000000,"state":"active","ping":77},{"user_id":17,"name":"Explodingrayman","steam_id":76561198185783005,"connected_time":2332000000000,"state":"active","ping":123},{"user_id":24,"name":"LULKID","steam_id":76561198971354161,"connected_time":364000000000,"state":"active","ping":61},{"user_id":26,"name":"Goat","steam_id":76561198068447650,"connected_time":238000000000,"state":"active","ping":71}]},{"server_id":8,"name":"Uncletopia | Dallas | 1 | All Maps","name_short":"dal-1","host":"dal-1.us.uncletopia.com","port":27015,"enabled":true,"region":"us-central","cc":"us","latitude":32.779167,"longitude":-96.80889,"reserved":0,"last_update":"0001-01-01T00:00:00Z","name_a2s":"Uncletopia | Dallas | 1 | All Maps","protocol":17,"map":"pl_borneo","folder":"tf","game":"Team Fortress","app_id":440,"player_count":24,"max_players":24,"Bots":0,"server_type":"Dedicated","server_os":"Linux","password":true,"vac":true,"version":"7757534","steam_id":85568392924469986,"keywords":["nocrits","nodmgspread","payload","uncletopia"],"game_id":440,"stv_port":27016,"stv_name":"Uncletopia | Dallas | 1 | All Maps | STV","players":[{"user_id":322,"name":"Mao Zedong (real)","steam_id":76561198768280951,"connected_time":2530000000000,"state":"active","ping":87},{"user_id":344,"name":"bot pov","steam_id":76561198197408802,"connected_time":892000000000,"state":"active","ping":101},{"user_id":332,"name":"A Straw","steam_id":76561199367935846,"connected_time":2121000000000,"state":"active","ping":68},{"user_id":340,"name":"Local","steam_id":76561198069537437,"connected_time":1641000000000,"state":"active","ping":87},{"user_id":301,"name":"It's a Doggydog World","steam_id":76561198018232414,"connected_time":4181000000000,"state":"active","ping":97},{"user_id":320,"name":"freak","steam_id":76561198049544552,"connected_time":2652000000000,"state":"active","ping":30},{"user_id":343,"name":"bogus","steam_id":76561198377555279,"connected_time":920000000000,"state":"active","ping":85},{"user_id":345,"name":"robotman5","steam_id":76561197996783330,"connected_time":892000000000,"state":"active","ping":117},{"user_id":355,"name":"brewkey","steam_id":76561198057896324,"connected_time":191000000000,"state":"active","ping":49},{"user_id":342,"name":"Kid B8","steam_id":76561198086764710,"connected_time":1247000000000,"state":"active","ping":76},{"user_id":346,"name":"samsoeder","steam_id":76561198293741183,"connected_time":860000000000,"state":"active","ping":86},{"user_id":257,"name":"quiteabizarreone","steam_id":76561198407122862,"connected_time":8351000000000,"state":"active","ping":97},{"user_id":358,"name":"Quomples","steam_id":76561198140996628,"connected_time":11000000000,"state":"active","ping":129},{"user_id":347,"name":"grate_fiter-232","steam_id":76561198073424589,"connected_time":857000000000,"state":"active","ping":90},{"user_id":351,"name":"dark_sourcery624","steam_id":76561198083607304,"connected_time":792000000000,"state":"active","ping":89},{"user_id":236,"name":"Apoc","steam_id":76561198376855927,"connected_time":8787000000000,"state":"active","ping":54},{"user_id":331,"name":"choppa 凸(►˛◄'!)","steam_id":76561198123236186,"connected_time":2204000000000,"state":"active","ping":82},{"user_id":349,"name":"panzelle","steam_id":76561198085858496,"connected_time":839000000000,"state":"active","ping":98},{"user_id":329,"name":"TechnoBear2099","steam_id":76561198238863596,"connected_time":2275000000000,"state":"active","ping":42},{"user_id":353,"name":"Gad","steam_id":76561198020792373,"connected_time":283000000000,"state":"active","ping":67},{"user_id":337,"name":"Rusted Cake","steam_id":76561198209755931,"connected_time":1805000000000,"state":"active","ping":90},{"user_id":339,"name":"Samercam","steam_id":76561198189403190,"connected_time":1679000000000,"state":"active","ping":70},{"user_id":215,"name":"Project_Counter","steam_id":76561198152786076,"connected_time":10407000000000,"state":"active","ping":56},{"user_id":354,"name":"maddoxmomo","steam_id":76561198816228532,"connected_time":283000000000,"state":"active","ping":68}]},{"server_id":108,"name":"Uncletopia | Dallas | 2 | All Maps","name_short":"dal-2","host":"dal-1.us.uncletopia.com","port":27025,"enabled":true,"region":"us-central","cc":"us","latitude":32.779167,"longitude":-96.80889,"reserved":0,"last_update":"0001-01-01T00:00:00Z","name_a2s":"Uncletopia | Dallas | 2 | All Maps","protocol":17,"map":"pl_snowycoast","folder":"tf","game":"Team Fortress","app_id":440,"player_count":24,"max_players":24,"Bots":0,"server_type":"Dedicated","server_os":"Linux","password":true,"vac":true,"version":"7757534","steam_id":85568392924469988,"keywords":["nocrits","nodmgspread","payload","uncletopia"],"game_id":440,"stv_port":27026,"stv_name":"Uncletopia | Dallas | 2 | All Maps | STV","players":[{"user_id":349,"name":"tobrehto","steam_id":76561198097544038,"connected_time":8000000000,"state":"active","ping":103},{"user_id":319,"name":"J.G. Klaus","steam_id":76561198001111196,"connected_time":2055000000000,"state":"active","ping":48},{"user_id":343,"name":"Arctem","steam_id":76561198012937871,"connected_time":340000000000,"state":"active","ping":63},{"user_id":339,"name":"footoftheday","steam_id":76561198052712449,"connected_time":821000000000,"state":"active","ping":89},{"user_id":285,"name":"Frost","steam_id":76561198083694664,"connected_time":5572000000000,"state":"active","ping":76},{"user_id":340,"name":"The Pestilence","steam_id":76561199081252282,"connected_time":797000000000,"state":"active","ping":77},{"user_id":347,"name":"SpaceLeezerd","steam_id":76561198171026678,"connected_time":35000000000,"state":"active","ping":82},{"user_id":332,"name":"dodecadron","steam_id":76561198027397222,"connected_time":1118000000000,"state":"active","ping":105},{"user_id":298,"name":"Koffy","steam_id":76561198184386039,"connected_time":3436000000000,"state":"active","ping":128},{"user_id":324,"name":"Elm","steam_id":76561198127972568,"connected_time":1803000000000,"state":"active","ping":90},{"user_id":335,"name":"Corey","steam_id":76561198860453994,"connected_time":1069000000000,"state":"active","ping":49},{"user_id":330,"name":"Sup m8","steam_id":76561198081659121,"connected_time":1179000000000,"state":"active","ping":50},{"user_id":337,"name":"Atomik","steam_id":76561199070549800,"connected_time":863000000000,"state":"active","ping":76},{"user_id":341,"name":"blobb","steam_id":76561198950448488,"connected_time":647000000000,"state":"active","ping":76},{"user_id":348,"name":"drowsy","steam_id":76561198366841996,"connected_time":22000000000,"state":"active","ping":84},{"user_id":333,"name":"Kamin","steam_id":76561198255299559,"connected_time":1093000000000,"state":"active","ping":250},{"user_id":328,"name":"goon prime minster","steam_id":76561198059245735,"connected_time":1376000000000,"state":"active","ping":68},{"user_id":247,"name":"Taco+Taco=Burrito","steam_id":76561198063128663,"connected_time":8777000000000,"state":"active","ping":73},{"user_id":345,"name":"mkl","steam_id":76561197986401685,"connected_time":277000000000,"state":"active","ping":57},{"user_id":322,"name":"highmechs","steam_id":76561198013650292,"connected_time":1852000000000,"state":"active","ping":102},{"user_id":334,"name":"OmniMoto","steam_id":76561198091298557,"connected_time":1091000000000,"state":"active","ping":64},{"user_id":342,"name":"Bilgecrank","steam_id":76561197967191751,"connected_time":568000000000,"state":"active","ping":77},{"user_id":297,"name":"SpinnerSpecial","steam_id":76561198065661869,"connected_time":3499000000000,"state":"active","ping":102},{"user_id":336,"name":"Bludgeon","steam_id":76561198272009412,"connected_time":1039000000000,"state":"active","ping":84}]},{"server_id":5,"name":"Uncletopia | Frankfurt | 1 | All Maps","name_short":"frk-1","host":"frk-1.de.uncletopia.com","port":27015,"enabled":true,"region":"eu","cc":"de","latitude":50.110924,"longitude":8.682127,"reserved":0,"last_update":"0001-01-01T00:00:00Z","name_a2s":"Uncletopia | Frankfurt | 1 | All Maps","protocol":17,"map":"pl_barnblitz","folder":"tf","game":"Team Fortress","app_id":440,"player_count":5,"max_players":24,"Bots":0,"server_type":"Dedicated","server_os":"Linux","password":true,"vac":true,"version":"7757534","steam_id":85568392924469989,"keywords":["nocrits","nodmgspread","payload","uncletopia"],"game_id":440,"stv_port":27016,"stv_name":"Uncletopia | Frankfurt | 1 | All Maps | STV","players":[{"user_id":301,"name":"SNaKe","steam_id":76561198249832738,"connected_time":7000000000,"state":"spawning","ping":207},{"user_id":300,"name":"DraGoN","steam_id":76561198006224312,"connected_time":37000000000,"state":"active","ping":208},{"user_id":256,"name":"Fuvuk","steam_id":76561198044458593,"connected_time":3228000000000,"state":"active","ping":90},{"user_id":299,"name":"Lordware","steam_id":76561198022011299,"connected_time":129000000000,"state":"active","ping":80},{"user_id":272,"name":"BasLutnya","steam_id":76561198050575776,"connected_time":1988000000000,"state":"active","ping":73}]},{"server_id":110,"name":"Uncletopia | Frankfurt | 2 | All Maps","name_short":"frk-2","host":"frk-1.de.uncletopia.com","port":27025,"enabled":true,"region":"eu","cc":"de","latitude":50.110924,"longitude":8.682127,"reserved":0,"last_update":"0001-01-01T00:00:00Z","name_a2s":"Uncletopia | Frankfurt | 2 | All Maps","protocol":17,"map":"cp_process_final","folder":"tf","game":"Team Fortress","app_id":440,"player_count":24,"max_players":24,"Bots":0,"server_type":"Dedicated","server_os":"Linux","password":true,"vac":true,"version":"7757534","steam_id":85568392924469990,"keywords":["cp","nocrits","nodmgspread","uncletopia"],"game_id":440,"stv_port":27026,"stv_name":"Uncletopia | Frankfurt | 2 | All Maps | STV","players":[{"user_id":652,"name":"Xx_EpicGaymer_xX","steam_id":76561198846784757,"connected_time":538000000000,"state":"active","ping":72},{"user_id":650,"name":"Пес Патрон","steam_id":76561198273199378,"connected_time":625000000000,"state":"active","ping":63},{"user_id":643,"name":"ArawL","steam_id":76561198065957066,"connected_time":884000000000,"state":"active","ping":68},{"user_id":659,"name":"Keks","steam_id":76561198109155202,"connected_time":236000000000,"state":"active","ping":68},{"user_id":628,"name":"Mari Christmas","steam_id":76561197997020707,"connected_time":1441000000000,"state":"active","ping":67},{"user_id":632,"name":"Killer8880","steam_id":76561199094449560,"connected_time":1370000000000,"state":"active","ping":85},{"user_id":638,"name":"Shadowengell","steam_id":76561198019284410,"connected_time":1086000000000,"state":"active","ping":104},{"user_id":576,"name":"mmmmmmmmm","steam_id":76561198283192660,"connected_time":4040000000000,"state":"active","ping":74},{"user_id":630,"name":"MARCEL","steam_id":76561198083122029,"connected_time":1435000000000,"state":"active","ping":102},{"user_id":657,"name":"lightning266","steam_id":76561198381387995,"connected_time":352000000000,"state":"active","ping":52},{"user_id":631,"name":"Party in the wall house","steam_id":76561199002798794,"connected_time":1433000000000,"state":"active","ping":93},{"user_id":591,"name":"Melonyoshi","steam_id":76561198294182303,"connected_time":3719000000000,"state":"active","ping":61},{"user_id":651,"name":"akela","steam_id":76561198122010232,"connected_time":619000000000,"state":"active","ping":70},{"user_id":636,"name":"Dr.Pleague_Bear","steam_id":76561198377451605,"connected_time":1270000000000,"state":"active","ping":67},{"user_id":644,"name":"AHAHAHAHAHAHAHAHAHA","steam_id":76561198263926435,"connected_time":877000000000,"state":"active","ping":57},{"user_id":647,"name":"NormalCube","steam_id":76561198820007900,"connected_time":819000000000,"state":"active","ping":53},{"user_id":656,"name":"Oxy:*","steam_id":76561198275120049,"connected_time":441000000000,"state":"active","ping":76},{"user_id":597,"name":"Akane","steam_id":76561197990407312,"connected_time":3584000000000,"state":"active","ping":75},{"user_id":661,"name":"Unstable Goat","steam_id":76561197985788557,"connected_time":150000000000,"state":"active","ping":78},{"user_id":660,"name":"casual schizophrenic","steam_id":76561198255357694,"connected_time":216000000000,"state":"active","ping":76},{"user_id":633,"name":"zak","steam_id":76561197998895428,"connected_time":1349000000000,"state":"active","ping":84},{"user_id":654,"name":"Tomex999","steam_id":76561198049587675,"connected_time":456000000000,"state":"active","ping":75},{"user_id":655,"name":"Pyr0s_Fx","steam_id":76561198057201503,"connected_time":453000000000,"state":"active","ping":58},{"user_id":620,"name":"drippin jimmy","steam_id":76561198219243969,"connected_time":1793000000000,"state":"active","ping":73}]},{"server_id":308,"name":"Uncletopia | Frankfurt | 3 | All Maps","name_short":"frk-3","host":"frk-1.de.uncletopia.com","port":27035,"enabled":true,"region":"eu","cc":"de","latitude":50.110924,"longitude":8.682127,"reserved":0,"last_update":"0001-01-01T00:00:00Z","name_a2s":"Uncletopia | Frankfurt | 3 | All Maps","protocol":17,"map":"pl_snowycoast","folder":"tf","game":"Team Fortress","app_id":440,"player_count":24,"max_players":24,"Bots":0,"server_type":"Dedicated","server_os":"Linux","password":true,"vac":true,"version":"7757534","steam_id":85568392924504274,"keywords":["nocrits","nodmgspread","payload","uncletopia"],"game_id":440,"stv_port":27036,"stv_name":"Uncletopia | Frankfurt | 3 | All Maps | STV","players":[{"user_id":199,"name":"Vanilla","steam_id":76561198073933435,"connected_time":6711000000000,"state":"active","ping":71},{"user_id":233,"name":"tïger","steam_id":76561198260483157,"connected_time":2319000000000,"state":"active","ping":80},{"user_id":234,"name":"gaz","steam_id":76561198843714742,"connected_time":2313000000000,"state":"active","ping":113},{"user_id":223,"name":"Quartzy","steam_id":76561198313301520,"connected_time":3005000000000,"state":"active","ping":54},{"user_id":220,"name":"sven5011","steam_id":76561198064398200,"connected_time":3777000000000,"state":"active","ping":56},{"user_id":256,"name":"=PB=","steam_id":76561197999146612,"connected_time":289000000000,"state":"active","ping":57},{"user_id":211,"name":"TidB","steam_id":76561198055342304,"connected_time":4905000000000,"state":"active","ping":58},{"user_id":247,"name":"Sirzen","steam_id":76561198170155434,"connected_time":1357000000000,"state":"active","ping":56},{"user_id":189,"name":"tallen","steam_id":76561198061708595,"connected_time":7266000000000,"state":"active","ping":85},{"user_id":257,"name":"NUKAHOLIC","steam_id":76561198095051652,"connected_time":2000000000,"state":"spawning","ping":46},{"user_id":249,"name":"Fallen Dog","steam_id":76561198851387188,"connected_time":1168000000000,"state":"active","ping":61},{"user_id":254,"name":"Kestrel","steam_id":76561198144033005,"connected_time":915000000000,"state":"active","ping":61},{"user_id":238,"name":"Hypso","steam_id":76561198076375880,"connected_time":1905000000000,"state":"active","ping":72},{"user_id":250,"name":"Bonca","steam_id":76561198137503531,"connected_time":1079000000000,"state":"active","ping":75},{"user_id":240,"name":"KnugenIV","steam_id":76561198127091993,"connected_time":1882000000000,"state":"active","ping":53},{"user_id":226,"name":"balanced diet","steam_id":76561198240320806,"connected_time":2943000000000,"state":"active","ping":60},{"user_id":251,"name":"Tesla","steam_id":76561198378649144,"connected_time":1011000000000,"state":"active","ping":62},{"user_id":228,"name":"Absolute Chaos","steam_id":76561198036946311,"connected_time":2931000000000,"state":"active","ping":61},{"user_id":252,"name":"Brian","steam_id":76561198077756206,"connected_time":972000000000,"state":"active","ping":55},{"user_id":242,"name":"rebalint","steam_id":76561198283840674,"connected_time":1832000000000,"state":"active","ping":89},{"user_id":188,"name":"Lyncurion","steam_id":76561199260022725,"connected_time":7444000000000,"state":"active","ping":78},{"user_id":243,"name":"Turbulence","steam_id":76561199129796130,"connected_time":1826000000000,"state":"active","ping":86},{"user_id":253,"name":"Monkey Friend","steam_id":76561198144403074,"connected_time":970000000000,"state":"active","ping":44},{"user_id":255,"name":"LoliLover69","steam_id":76561199001105496,"connected_time":913000000000,"state":"active","ping":62}]},{"server_id":309,"name":"Uncletopia | Frankfurt | 4 | All Maps","name_short":"frk-4","host":"frk-1.de.uncletopia.com","port":27045,"enabled":true,"region":"eu","cc":"de","latitude":50.110924,"longitude":8.682127,"reserved":0,"last_update":"0001-01-01T00:00:00Z","name_a2s":"Uncletopia | Frankfurt | 4 | All Maps","protocol":17,"map":"koth_lakeside_final","folder":"tf","game":"Team Fortress","app_id":440,"player_count":22,"max_players":24,"Bots":0,"server_type":"Dedicated","server_os":"Linux","password":true,"vac":true,"version":"7757534","steam_id":85568392924504275,"keywords":["cp","nocrits","nodmgspread","uncletopia"],"game_id":440,"stv_port":27046,"stv_name":"Uncletopia | Frankfurt | 4 | All Maps | STV","players":[{"user_id":589,"name":"kuno","steam_id":76561198068081430,"connected_time":106000000000,"state":"active","ping":55},{"user_id":566,"name":"After8","steam_id":76561198090750865,"connected_time":1477000000000,"state":"active","ping":61},{"user_id":554,"name":"BreadAcres","steam_id":76561198098217082,"connected_time":1891000000000,"state":"active","ping":57},{"user_id":532,"name":"Nickbro101","steam_id":76561198044271692,"connected_time":4322000000000,"state":"active","ping":58},{"user_id":577,"name":"gneeda","steam_id":76561198147249160,"connected_time":490000000000,"state":"active","ping":101},{"user_id":556,"name":"Depakine 500","steam_id":76561198214267967,"connected_time":1767000000000,"state":"active","ping":60},{"user_id":557,"name":"Bosnian Terminator","steam_id":76561198865873695,"connected_time":1723000000000,"state":"active","ping":96},{"user_id":578,"name":"B@yka","steam_id":76561198986736592,"connected_time":467000000000,"state":"active","ping":61},{"user_id":558,"name":"cream gravy","steam_id":76561198973069177,"connected_time":1696000000000,"state":"active","ping":47},{"user_id":581,"name":"Ladi","steam_id":76561198047735194,"connected_time":389000000000,"state":"active","ping":66},{"user_id":582,"name":"Brian Bøllebank","steam_id":76561198966717626,"connected_time":332000000000,"state":"active","ping":67},{"user_id":576,"name":"Dr. Le Quack","steam_id":76561197995711176,"connected_time":569000000000,"state":"active","ping":78},{"user_id":588,"name":"ijustsmokeandcry","steam_id":76561198044189114,"connected_time":214000000000,"state":"active","ping":59},{"user_id":540,"name":"Smasher","steam_id":76561198094288793,"connected_time":4120000000000,"state":"active","ping":66},{"user_id":543,"name":"Mario3ghj","steam_id":76561198069804561,"connected_time":3595000000000,"state":"active","ping":97},{"user_id":546,"name":"walluu","steam_id":76561198121830870,"connected_time":2855000000000,"state":"active","ping":70},{"user_id":562,"name":"rhost","steam_id":76561199230709660,"connected_time":1568000000000,"state":"active","ping":59},{"user_id":590,"name":"King Nugget","steam_id":76561198134037464,"connected_time":0,"state":"connecting","ping":0},{"user_id":527,"name":"XPullaHiiri","steam_id":76561198031652375,"connected_time":4622000000000,"state":"active","ping":86},{"user_id":564,"name":"Salih","steam_id":76561198287934839,"connected_time":1544000000000,"state":"active","ping":50},{"user_id":542,"name":"Arturias","steam_id":76561198188720263,"connected_time":3709000000000,"state":"active","ping":56},{"user_id":573,"name":"Estyle","steam_id":76561198157804700,"connected_time":1018000000000,"state":"active","ping":83}]},{"server_id":310,"name":"Uncletopia | Frankfurt | 5 | All Maps","name_short":"frk-5","host":"frk-1.de.uncletopia.com","port":27055,"enabled":true,"region":"eu","cc":"de","latitude":50.110924,"longitude":8.682127,"reserved":0,"last_update":"0001-01-01T00:00:00Z","name_a2s":"Uncletopia | Frankfurt | 5 | All Maps","protocol":17,"map":"pl_frontier_final","folder":"tf","game":"Team Fortress","app_id":440,"player_count":24,"max_players":24,"Bots":0,"server_type":"Dedicated","server_os":"Linux","password":true,"vac":true,"version":"7757534","steam_id":85568392924504277,"keywords":["nocrits","nodmgspread","payload","uncletopia"],"game_id":440,"stv_port":27056,"stv_name":"Uncletopia | Frankfurt | 5 | All Maps | STV","players":[{"user_id":401,"name":"Raulca25","steam_id":76561199068256964,"connected_time":1599000000000,"state":"active","ping":86},{"user_id":408,"name":"Hydro","steam_id":76561199081791855,"connected_time":900000000000,"state":"active","ping":68},{"user_id":422,"name":"The Death I Deservioli","steam_id":76561198320506848,"connected_time":338000000000,"state":"active","ping":62},{"user_id":410,"name":"choke u down","steam_id":76561199062437546,"connected_time":831000000000,"state":"active","ping":53},{"user_id":286,"name":"RandomSoul","steam_id":76561198887698759,"connected_time":7661000000000,"state":"active","ping":87},{"user_id":340,"name":"Soerlssoelssöen","steam_id":76561197993060585,"connected_time":4579000000000,"state":"active","ping":73},{"user_id":402,"name":"Ankle Dane","steam_id":76561198134378108,"connected_time":1570000000000,"state":"active","ping":83},{"user_id":315,"name":".::[SerafeTTiN]::.","steam_id":76561198009471724,"connected_time":6283000000000,"state":"active","ping":83},{"user_id":423,"name":"HOT SOUP","steam_id":76561199077389918,"connected_time":319000000000,"state":"active","ping":151},{"user_id":420,"name":"Saltanat","steam_id":76561198802621568,"connected_time":434000000000,"state":"active","ping":81},{"user_id":325,"name":"MAKENTAKEN","steam_id":76561199127359587,"connected_time":5841000000000,"state":"active","ping":91},{"user_id":424,"name":"swallowed 10 pennies please hel","steam_id":76561198055816412,"connected_time":257000000000,"state":"active","ping":62},{"user_id":412,"name":"Juiceydough","steam_id":76561197997323419,"connected_time":759000000000,"state":"active","ping":92},{"user_id":386,"name":"BlackFireHealer","steam_id":76561198035912038,"connected_time":2476000000000,"state":"active","ping":80},{"user_id":387,"name":"LionKing","steam_id":76561198023399545,"connected_time":2456000000000,"state":"active","ping":54},{"user_id":421,"name":"jge","steam_id":76561198123186387,"connected_time":409000000000,"state":"active","ping":52},{"user_id":406,"name":"Labial","steam_id":76561198385163046,"connected_time":960000000000,"state":"active","ping":44},{"user_id":389,"name":"sup3rfr3ddy.","steam_id":76561198119371683,"connected_time":2399000000000,"state":"active","ping":61},{"user_id":426,"name":"Revo","steam_id":76561198117315580,"connected_time":169000000000,"state":"active","ping":91},{"user_id":417,"name":"Askys","steam_id":76561197989507704,"connected_time":595000000000,"state":"active","ping":84},{"user_id":391,"name":"Jan.","steam_id":76561197974066329,"connected_time":2309000000000,"state":"active","ping":75},{"user_id":419,"name":"Mr_Pulse_","steam_id":76561198095001602,"connected_time":478000000000,"state":"active","ping":88},{"user_id":414,"name":"Porridge Moisturizer","steam_id":76561198336523288,"connected_time":670000000000,"state":"active","ping":122},{"user_id":415,"name":"mt","steam_id":76561197961319303,"connected_time":654000000000,"state":"active","ping":53}]},{"server_id":311,"name":"Uncletopia | Frankfurt | 6 | All Maps","name_short":"frk-6","host":"frk-1.de.uncletopia.com","port":27065,"enabled":true,"region":"eu","cc":"de","latitude":50.110924,"longitude":8.682127,"reserved":0,"last_update":"0001-01-01T00:00:00Z","name_a2s":"Uncletopia | Frankfurt | 6 | All Maps","protocol":17,"map":"pl_thundermountain","folder":"tf","game":"Team Fortress","app_id":440,"player_count":24,"max_players":24,"Bots":0,"server_type":"Dedicated","server_os":"Linux","password":true,"vac":true,"version":"7757534","steam_id":85568392924504278,"keywords":["nocrits","nodmgspread","payload","uncletopia"],"game_id":440,"stv_port":27066,"stv_name":"Uncletopia | Frankfurt | 6 | All Maps | STV","players":[{"user_id":542,"name":"Guru","steam_id":76561198093853069,"connected_time":2520000000000,"state":"active","ping":60},{"user_id":536,"name":"kamekame","steam_id":76561198047108054,"connected_time":2979000000000,"state":"active","ping":111},{"user_id":511,"name":"I fucking hate this game","steam_id":76561198347336086,"connected_time":4770000000000,"state":"active","ping":62},{"user_id":480,"name":"Bob Sacamano","steam_id":76561198085610701,"connected_time":7892000000000,"state":"active","ping":82},{"user_id":553,"name":"metamikko","steam_id":76561198324704234,"connected_time":1907000000000,"state":"active","ping":121},{"user_id":530,"name":"Leiv","steam_id":76561198087165610,"connected_time":3152000000000,"state":"active","ping":97},{"user_id":558,"name":"AWP Bodyshot :) ❤","steam_id":76561198029928533,"connected_time":1307000000000,"state":"active","ping":48},{"user_id":408,"name":"Toasty5050","steam_id":76561198073540881,"connected_time":13488000000000,"state":"active","ping":46},{"user_id":557,"name":"My wife took the kids","steam_id":76561198388750592,"connected_time":1525000000000,"state":"active","ping":64},{"user_id":518,"name":"увынск","steam_id":76561198172046813,"connected_time":4407000000000,"state":"active","ping":77},{"user_id":551,"name":"Balls","steam_id":76561198086400484,"connected_time":2024000000000,"state":"active","ping":79},{"user_id":512,"name":"Woman (Real)","steam_id":76561199151823932,"connected_time":4759000000000,"state":"active","ping":77},{"user_id":499,"name":"Shearman360","steam_id":76561198193909685,"connected_time":5847000000000,"state":"active","ping":84},{"user_id":549,"name":"🃔 Nugg1t(she/they)","steam_id":76561198065652251,"connected_time":2149000000000,"state":"active","ping":45},{"user_id":462,"name":"Wimpyfox","steam_id":76561198096687561,"connected_time":10063000000000,"state":"active","ping":70},{"user_id":519,"name":"Killer Queen","steam_id":76561198860424456,"connected_time":4402000000000,"state":"active","ping":67},{"user_id":532,"name":"Proto-arc","steam_id":76561198012776747,"connected_time":3095000000000,"state":"active","ping":60},{"user_id":555,"name":"Penis Contortionist","steam_id":76561198073663784,"connected_time":1669000000000,"state":"active","ping":54},{"user_id":546,"name":"The Czech Inflation Rate","steam_id":76561198339197295,"connected_time":2281000000000,"state":"active","ping":67},{"user_id":556,"name":"finbar","steam_id":76561198056812396,"connected_time":1642000000000,"state":"active","ping":77},{"user_id":543,"name":"Mammut","steam_id":76561198056773933,"connected_time":2503000000000,"state":"active","ping":48},{"user_id":541,"name":"PEXON","steam_id":76561198045035611,"connected_time":2751000000000,"state":"active","ping":73},{"user_id":466,"name":"Rimx","steam_id":76561198053034840,"connected_time":9811000000000,"state":"active","ping":101},{"user_id":561,"name":"kas skaitys tas gaidys","steam_id":76561198128664132,"connected_time":1018000000000,"state":"active","ping":73}]},{"server_id":23,"name":"Uncletopia | Frankfurt | 7 | Stopwatch Beta","name_short":"frk-7","host":"frk-1.de.uncletopia.com","port":27075,"enabled":true,"region":"eu","cc":"de","latitude":50.110924,"longitude":8.682127,"reserved":0,"last_update":"0001-01-01T00:00:00Z","name_a2s":"Uncletopia | Frankfurt | 7 | Stopwatch Beta","protocol":17,"map":"workshop/koth_ramjam_rc1.ugc459778887","folder":"tf","game":"Team Fortress","app_id":440,"player_count":0,"max_players":24,"Bots":0,"server_type":"Dedicated","server_os":"Linux","password":true,"vac":true,"version":"7757534","steam_id":85568392924742827,"keywords":["cp","nocrits","nodmgspread","uncletopia"],"game_id":440,"stv_port":27076,"stv_name":"Uncletopia | Frankfurt | 7 | Stopwatch Beta | STV","players":null},{"server_id":24,"name":"Uncletopia | Frankfurt | 8 | Community","name_short":"frk-8","host":"frk-1.de.uncletopia.com","port":27085,"enabled":true,"region":"eu","cc":"de","latitude":50.110924,"longitude":8.682127,"reserved":0,"last_update":"0001-01-01T00:00:00Z","name_a2s":"Uncletopia | Frankfurt | 8 | Community","protocol":17,"map":"workshop/koth_bagel_rc6.ugc2514036946","folder":"tf","game":"Team Fortress","app_id":440,"player_count":24,"max_players":24,"Bots":0,"server_type":"Dedicated","server_os":"Linux","password":true,"vac":true,"version":"7757534","steam_id":85568392924742828,"keywords":["cp","nocrits","nodmgspread","uncletopia"],"game_id":440,"stv_port":27086,"stv_name":"Uncletopia | Frankfurt | 8 | Community | STV","players":[{"user_id":391,"name":"Sir Kiops","steam_id":76561198022769275,"connected_time":970000000000,"state":"active","ping":105},{"user_id":395,"name":"Matael","steam_id":76561198452200894,"connected_time":267000000000,"state":"active","ping":65},{"user_id":372,"name":"Step back","steam_id":76561198063855616,"connected_time":2603000000000,"state":"active","ping":69},{"user_id":329,"name":"dimitrij_6ix_god","steam_id":76561199023275543,"connected_time":5419000000000,"state":"active","ping":75},{"user_id":384,"name":"mumbler","steam_id":76561197970641239,"connected_time":2252000000000,"state":"active","ping":56},{"user_id":343,"name":"certified","steam_id":76561198181368101,"connected_time":4819000000000,"state":"active","ping":49},{"user_id":276,"name":"Nithle","steam_id":76561198025372740,"connected_time":8573000000000,"state":"active","ping":45},{"user_id":368,"name":"frosty","steam_id":76561198094560834,"connected_time":2707000000000,"state":"active","ping":68},{"user_id":378,"name":"flr","steam_id":76561198249327786,"connected_time":2543000000000,"state":"active","ping":60},{"user_id":369,"name":"Johan","steam_id":76561199380849468,"connected_time":2701000000000,"state":"active","ping":64},{"user_id":291,"name":"Fat Pigeon","steam_id":76561198817940142,"connected_time":7926000000000,"state":"active","ping":54},{"user_id":351,"name":"Jonathan","steam_id":76561198087988880,"connected_time":4273000000000,"state":"active","ping":46},{"user_id":393,"name":"JUST C2","steam_id":76561199194240072,"connected_time":640000000000,"state":"active","ping":133},{"user_id":388,"name":"cl","steam_id":76561199436640904,"connected_time":1455000000000,"state":"active","ping":77},{"user_id":379,"name":"padillacampos","steam_id":76561198161923970,"connected_time":2516000000000,"state":"active","ping":85},{"user_id":374,"name":"Drakar","steam_id":76561198214827371,"connected_time":2591000000000,"state":"active","ping":60},{"user_id":394,"name":"Nemko","steam_id":76561198065945984,"connected_time":532000000000,"state":"active","ping":64},{"user_id":389,"name":"matt","steam_id":76561198042907150,"connected_time":1453000000000,"state":"active","ping":60},{"user_id":376,"name":"hananamanna","steam_id":76561198006570285,"connected_time":2580000000000,"state":"active","ping":105},{"user_id":396,"name":"Tea guy","steam_id":76561198797847641,"connected_time":46000000000,"state":"active","ping":78},{"user_id":347,"name":"Tails8521","steam_id":76561198051747164,"connected_time":4355000000000,"state":"active","ping":67},{"user_id":386,"name":"BlinkedUp","steam_id":76561198249985618,"connected_time":1935000000000,"state":"active","ping":52},{"user_id":387,"name":"MrBanana","steam_id":76561198116021623,"connected_time":1745000000000,"state":"active","ping":55},{"user_id":382,"name":"Vershal Smershal","steam_id":76561198116223995,"connected_time":2488000000000,"state":"active","ping":63}]},{"server_id":202,"name":"Uncletopia | Hong Kong | 1 | All Maps","name_short":"hgk-1","host":"hgk-1.hk.uncletopia.com","port":27015,"enabled":true,"region":"asia","cc":"hk","latitude":22.302711,"longitude":114.177216,"reserved":0,"last_update":"0001-01-01T00:00:00Z","name_a2s":"Uncletopia | Hong Kong | 1 | All Maps","protocol":17,"map":"cp_mountainlab","folder":"tf","game":"Team Fortress","app_id":440,"player_count":0,"max_players":24,"Bots":0,"server_type":"Dedicated","server_os":"Linux","password":true,"vac":true,"version":"7757534","steam_id":85568392924494504,"keywords":["cp","nocrits","nodmgspread","uncletopia"],"game_id":440,"stv_port":27016,"stv_name":"Uncletopia | Hong Kong | 1 | All Maps | STV","players":null},{"server_id":1,"name":"Uncletopia | Los Angeles | 1 | All Maps","name_short":"lax-1","host":"lax-1.us.uncletopia.com","port":27015,"enabled":true,"region":"us-west","cc":"us","latitude":33.94279,"longitude":-118.41004,"reserved":0,"last_update":"0001-01-01T00:00:00Z","name_a2s":"Uncletopia | Los Angeles | 1 | All Maps","protocol":17,"map":"pl_upward","folder":"tf","game":"Team Fortress","app_id":440,"player_count":24,"max_players":24,"Bots":0,"server_type":"Dedicated","server_os":"Linux","password":true,"vac":true,"version":"7757534","steam_id":85568392924469991,"keywords":["nocrits","nodmgspread","payload","uncletopia"],"game_id":440,"stv_port":27016,"stv_name":"Uncletopia | Los Angeles | 1 | All Maps | STV","players":[{"user_id":239,"name":"RagingBagon","steam_id":76561198255453127,"connected_time":813000000000,"state":"active","ping":41},{"user_id":249,"name":"potatofox98","steam_id":76561198083721201,"connected_time":207000000000,"state":"active","ping":59},{"user_id":233,"name":"Khronakal","steam_id":76561199047228098,"connected_time":1344000000000,"state":"active","ping":98},{"user_id":237,"name":"mela ♡","steam_id":76561198301598124,"connected_time":828000000000,"state":"active","ping":88},{"user_id":234,"name":"Spring Heeled Black","steam_id":76561198155272972,"connected_time":1284000000000,"state":"active","ping":97},{"user_id":244,"name":"violetinreal","steam_id":76561198328882575,"connected_time":509000000000,"state":"active","ping":84},{"user_id":224,"name":"Livin' Like Larry","steam_id":76561198313360974,"connected_time":2202000000000,"state":"active","ping":45},{"user_id":248,"name":"CaptainPikachu","steam_id":76561198075667401,"connected_time":340000000000,"state":"active","ping":86},{"user_id":247,"name":"desk","steam_id":76561199115711719,"connected_time":420000000000,"state":"active","ping":44},{"user_id":208,"name":"Harold","steam_id":76561198057317770,"connected_time":3498000000000,"state":"active","ping":45},{"user_id":246,"name":"i cry .","steam_id":76561199193020423,"connected_time":470000000000,"state":"active","ping":54},{"user_id":84,"name":"roach","steam_id":76561198354811369,"connected_time":11123000000000,"state":"active","ping":49},{"user_id":230,"name":"Malikar (fake)","steam_id":76561199037497493,"connected_time":1498000000000,"state":"active","ping":110},{"user_id":144,"name":"Hindmost","steam_id":76561199081837220,"connected_time":7528000000000,"state":"active","ping":98},{"user_id":240,"name":"SneekiCheekiQbone","steam_id":76561198045077980,"connected_time":793000000000,"state":"active","ping":43},{"user_id":226,"name":"fish gaming","steam_id":76561198067029049,"connected_time":2123000000000,"state":"active","ping":56},{"user_id":241,"name":"Doctor X (Michiko Daemon)","steam_id":76561199106264424,"connected_time":788000000000,"state":"active","ping":106},{"user_id":223,"name":"HeartAttack","steam_id":76561198135833968,"connected_time":2247000000000,"state":"active","ping":69},{"user_id":218,"name":"triph","steam_id":76561198067196509,"connected_time":2960000000000,"state":"active","ping":43},{"user_id":242,"name":"Worst Scenario","steam_id":76561199052130229,"connected_time":784000000000,"state":"active","ping":105},{"user_id":243,"name":"flo rida","steam_id":76561198226169704,"connected_time":571000000000,"state":"active","ping":51},{"user_id":164,"name":"PunyHappyFace","steam_id":76561198118059305,"connected_time":6156000000000,"state":"active","ping":46},{"user_id":210,"name":"SiskoSenpai","steam_id":76561198053701833,"connected_time":3491000000000,"state":"active","ping":56},{"user_id":236,"name":"Ant","steam_id":76561198074493797,"connected_time":1021000000000,"state":"active","ping":76}]},{"server_id":112,"name":"Uncletopia | Los Angeles | 2 | All Maps","name_short":"lax-2","host":"lax-1.us.uncletopia.com","port":27025,"enabled":true,"region":"us-west","cc":"us","latitude":33.94279,"longitude":-118.41004,"reserved":0,"last_update":"0001-01-01T00:00:00Z","name_a2s":"Uncletopia | Los Angeles | 2 | All Maps","protocol":17,"map":"cp_mountainlab","folder":"tf","game":"Team Fortress","app_id":440,"player_count":0,"max_players":24,"Bots":0,"server_type":"Dedicated","server_os":"Linux","password":true,"vac":true,"version":"7757534","steam_id":85568392924469992,"keywords":["cp","nocrits","nodmgspread","uncletopia"],"game_id":440,"stv_port":27026,"stv_name":"Uncletopia | Los Angeles | 2 | All Maps | STV","players":null},{"server_id":324,"name":"Uncletopia | Los Angeles | 3 | All Maps","name_short":"lax-3","host":"lax-1.us.uncletopia.com","port":27035,"enabled":true,"region":"us-west","cc":"us","latitude":33.94279,"longitude":-118.41004,"reserved":0,"last_update":"0001-01-01T00:00:00Z","name_a2s":"Uncletopia | Los Angeles | 3 | All Maps","protocol":17,"map":"koth_cascade","folder":"tf","game":"Team Fortress","app_id":440,"player_count":24,"max_players":24,"Bots":0,"server_type":"Dedicated","server_os":"Linux","password":true,"vac":true,"version":"7757534","steam_id":85568392924510198,"keywords":["cp","nocrits","nodmgspread","uncletopia"],"game_id":440,"stv_port":27036,"stv_name":"Uncletopia | Los Angeles | 3 | All Maps | STV","players":[{"user_id":60,"name":"maxxuss [AiRe]","steam_id":76561197999155912,"connected_time":25000000000,"state":"active","ping":100},{"user_id":47,"name":"rimbl","steam_id":76561198150137369,"connected_time":761000000000,"state":"active","ping":56},{"user_id":38,"name":"Box","steam_id":76561198880013848,"connected_time":1214000000000,"state":"active","ping":50},{"user_id":23,"name":"tacofever","steam_id":76561198010966507,"connected_time":1736000000000,"state":"active","ping":51},{"user_id":37,"name":"Big Jon","steam_id":76561198402285099,"connected_time":1249000000000,"state":"active","ping":66},{"user_id":48,"name":"Cherry Bomb!","steam_id":76561198017947020,"connected_time":633000000000,"state":"active","ping":91},{"user_id":31,"name":"Dylawa","steam_id":76561198102741512,"connected_time":1415000000000,"state":"active","ping":65},{"user_id":32,"name":"The Headhunter","steam_id":76561198389722871,"connected_time":1398000000000,"state":"active","ping":56},{"user_id":28,"name":"Dov-Ah-Bob","steam_id":76561198147798338,"connected_time":1570000000000,"state":"active","ping":54},{"user_id":36,"name":"Klip","steam_id":76561198316254429,"connected_time":1256000000000,"state":"active","ping":86},{"user_id":56,"name":"T . T","steam_id":76561198041907345,"connected_time":478000000000,"state":"active","ping":49},{"user_id":40,"name":"T9 Raincool","steam_id":76561198042953645,"connected_time":1053000000000,"state":"active","ping":116},{"user_id":42,"name":"Tyulmi","steam_id":76561198041432710,"connected_time":924000000000,"state":"active","ping":95},{"user_id":43,"name":"Thequirka","steam_id":76561198968058652,"connected_time":864000000000,"state":"active","ping":72},{"user_id":44,"name":"MegaBitmap","steam_id":76561198086027059,"connected_time":834000000000,"state":"active","ping":79},{"user_id":45,"name":"Green_GarBear","steam_id":76561199468912415,"connected_time":810000000000,"state":"active","ping":61},{"user_id":46,"name":"Shwal","steam_id":76561198138840448,"connected_time":795000000000,"state":"active","ping":106},{"user_id":49,"name":"Kasodani Kyouko","steam_id":76561198023178589,"connected_time":633000000000,"state":"active","ping":131},{"user_id":50,"name":"BBL Sponsor","steam_id":76561199093733603,"connected_time":627000000000,"state":"active","ping":57},{"user_id":51,"name":"AquaBlaze","steam_id":76561199246804975,"connected_time":626000000000,"state":"active","ping":84},{"user_id":57,"name":"Wang of Wall St","steam_id":76561198047460598,"connected_time":465000000000,"state":"active","ping":120},{"user_id":53,"name":"Ivan I","steam_id":76561198341781527,"connected_time":599000000000,"state":"active","ping":117},{"user_id":54,"name":"✪ Y V E S","steam_id":76561198299479796,"connected_time":577000000000,"state":"active","ping":46},{"user_id":58,"name":"Waffle Wannabe","steam_id":76561198064510650,"connected_time":465000000000,"state":"active","ping":110}]},{"server_id":25,"name":"Uncletopia | Los Angeles | 4 | Stopwatch Beta","name_short":"lax-4","host":"lax-1.us.uncletopia.com","port":27045,"enabled":true,"region":"us-west","cc":"us","latitude":33.94279,"longitude":-118.41004,"reserved":0,"last_update":"0001-01-01T00:00:00Z","name_a2s":"Uncletopia | Los Angeles | 4 | Stopwatch Beta","protocol":17,"map":"pl_swiftwater_final1","folder":"tf","game":"Team Fortress","app_id":440,"player_count":0,"max_players":24,"Bots":0,"server_type":"Dedicated","server_os":"Linux","password":true,"vac":true,"version":"7757534","steam_id":85568392924510199,"keywords":["nocrits","nodmgspread","payload","uncletopia"],"game_id":440,"stv_port":27046,"stv_name":"Uncletopia | Los Angeles | 4 | Stopwatch Beta | STV","players":null},{"server_id":11,"name":"Uncletopia | London | 1 | All Maps","name_short":"lon-1","host":"lon-1.uk.uncletopia.com","port":27015,"enabled":true,"region":"eu","cc":"gb","latitude":51.509865,"longitude":-0.118092,"reserved":0,"last_update":"0001-01-01T00:00:00Z","name_a2s":"Uncletopia | London | 1 | All Maps","protocol":17,"map":"pl_snowycoast","folder":"tf","game":"Team Fortress","app_id":440,"player_count":24,"max_players":24,"Bots":0,"server_type":"Dedicated","server_os":"Linux","password":true,"vac":true,"version":"7757534","steam_id":85568392924367362,"keywords":["nocrits","nodmgspread","payload","uncletopia"],"game_id":440,"stv_port":27016,"stv_name":"Uncletopia | London | 1 | All Maps | STV","players":[{"user_id":577,"name":"The Feminine Urge To Play Pyro","steam_id":76561198124944045,"connected_time":2284000000000,"state":"active","ping":53},{"user_id":586,"name":"Shovelhalfrusty","steam_id":76561198346447513,"connected_time":1962000000000,"state":"active","ping":72},{"user_id":579,"name":"rented","steam_id":76561198302716983,"connected_time":2279000000000,"state":"active","ping":51},{"user_id":588,"name":"Someone","steam_id":76561199030195879,"connected_time":1255000000000,"state":"active","ping":44},{"user_id":582,"name":"beebo","steam_id":76561199120277007,"connected_time":2166000000000,"state":"active","ping":40},{"user_id":599,"name":"chem⭑","steam_id":76561198972045654,"connected_time":269000000000,"state":"active","ping":145},{"user_id":592,"name":"Wyro","steam_id":76561199176835169,"connected_time":899000000000,"state":"active","ping":53},{"user_id":486,"name":"Jofiah/TTV","steam_id":76561197977233962,"connected_time":9778000000000,"state":"active","ping":43},{"user_id":550,"name":"bonehead","steam_id":76561198261870384,"connected_time":5284000000000,"state":"active","ping":56},{"user_id":583,"name":"глеб v3.1","steam_id":76561198291044793,"connected_time":2165000000000,"state":"active","ping":89},{"user_id":584,"name":"Rinmaru","steam_id":76561198256820097,"connected_time":2155000000000,"state":"active","ping":103},{"user_id":557,"name":"dec","steam_id":76561198009660168,"connected_time":4666000000000,"state":"active","ping":55},{"user_id":553,"name":"impossible whopper eater","steam_id":76561198058641805,"connected_time":5019000000000,"state":"active","ping":56},{"user_id":446,"name":"goff","steam_id":76561198118989010,"connected_time":14078000000000,"state":"active","ping":60},{"user_id":603,"name":"Koli","steam_id":76561197992428783,"connected_time":162000000000,"state":"active","ping":60},{"user_id":587,"name":"KPhii","steam_id":76561198970587061,"connected_time":1948000000000,"state":"active","ping":71},{"user_id":595,"name":"Zedifo","steam_id":76561198044032070,"connected_time":662000000000,"state":"active","ping":40},{"user_id":581,"name":"Baki ඞ","steam_id":76561198193615529,"connected_time":2255000000000,"state":"active","ping":66},{"user_id":600,"name":"StealthCat","steam_id":76561198068937412,"connected_time":222000000000,"state":"active","ping":45},{"user_id":594,"name":"BreadBubbles","steam_id":76561198174332826,"connected_time":809000000000,"state":"active","ping":63},{"user_id":534,"name":"J3LLY","steam_id":76561198048453764,"connected_time":5942000000000,"state":"active","ping":53},{"user_id":597,"name":"Boki","steam_id":76561198044553351,"connected_time":470000000000,"state":"active","ping":77},{"user_id":596,"name":"Kioto","steam_id":76561198990962542,"connected_time":631000000000,"state":"active","ping":78},{"user_id":604,"name":"ike","steam_id":76561198039845647,"connected_time":14000000000,"state":"spawning","ping":62}]},{"server_id":114,"name":"Uncletopia | London | 2 | All Maps","name_short":"lon-2","host":"lon-1.uk.uncletopia.com","port":27025,"enabled":true,"region":"eu","cc":"gb","latitude":51.509865,"longitude":-0.118092,"reserved":0,"last_update":"0001-01-01T00:00:00Z","name_a2s":"Uncletopia | London | 2 | All Maps","protocol":17,"map":"koth_viaduct","folder":"tf","game":"Team Fortress","app_id":440,"player_count":0,"max_players":24,"Bots":0,"server_type":"Dedicated","server_os":"Linux","password":true,"vac":true,"version":"7757534","steam_id":85568392924470941,"keywords":["cp","nocrits","nodmgspread","uncletopia"],"game_id":440,"stv_port":27026,"stv_name":"Uncletopia | London | 2 | All Maps | STV","players":null},{"server_id":320,"name":"Uncletopia | London | 3 | All Maps","name_short":"lon-3","host":"lon-1.uk.uncletopia.com","port":27035,"enabled":true,"region":"eu","cc":"gb","latitude":51.509865,"longitude":-0.118092,"reserved":0,"last_update":"0001-01-01T00:00:00Z","name_a2s":"Uncletopia | London | 3 | All Maps","protocol":17,"map":"cp_altitude","folder":"tf","game":"Team Fortress","app_id":440,"player_count":24,"max_players":24,"Bots":0,"server_type":"Dedicated","server_os":"Linux","password":true,"vac":true,"version":"7757534","steam_id":85568392924510192,"keywords":["cp","nocrits","nodmgspread","uncletopia"],"game_id":440,"stv_port":27036,"stv_name":"Uncletopia | London | 3 | All Maps | STV","players":[{"user_id":430,"name":"Anri Okita's Massive Milkers","steam_id":76561199186352720,"connected_time":1151000000000,"state":"active","ping":57},{"user_id":346,"name":"hlug2340","steam_id":76561198087970118,"connected_time":6306000000000,"state":"active","ping":74},{"user_id":393,"name":"King Crimson","steam_id":76561198133665338,"connected_time":4150000000000,"state":"active","ping":84},{"user_id":347,"name":"|Zomaxx|","steam_id":76561198138925802,"connected_time":6306000000000,"state":"active","ping":69},{"user_id":334,"name":"KeTlEr","steam_id":76561198100957443,"connected_time":7902000000000,"state":"active","ping":70},{"user_id":428,"name":"Meddler","steam_id":76561198033001402,"connected_time":1312000000000,"state":"active","ping":45},{"user_id":434,"name":"RudiPrico4","steam_id":76561199014381495,"connected_time":1019000000000,"state":"active","ping":60},{"user_id":422,"name":"Alfred","steam_id":76561198348799252,"connected_time":2016000000000,"state":"active","ping":48},{"user_id":438,"name":"toino_PT","steam_id":76561199008999046,"connected_time":704000000000,"state":"active","ping":86},{"user_id":435,"name":"Aimrow","steam_id":76561198023275245,"connected_time":1004000000000,"state":"active","ping":82},{"user_id":440,"name":"k.piano","steam_id":76561198199729461,"connected_time":616000000000,"state":"active","ping":51},{"user_id":410,"name":"Hannü","steam_id":76561197969886128,"connected_time":3215000000000,"state":"active","ping":53},{"user_id":447,"name":"SwingyWingyShoes","steam_id":76561198089547302,"connected_time":44000000000,"state":"active","ping":45},{"user_id":431,"name":"Dirty Joe","steam_id":76561198142418870,"connected_time":1149000000000,"state":"active","ping":44},{"user_id":443,"name":"SKFBoge","steam_id":76561198269038278,"connected_time":197000000000,"state":"active","ping":81},{"user_id":424,"name":"Mobster Tortoise","steam_id":76561199036837091,"connected_time":1990000000000,"state":"active","ping":91},{"user_id":444,"name":"marty","steam_id":76561198082934864,"connected_time":187000000000,"state":"active","ping":62},{"user_id":412,"name":"pezza","steam_id":76561197995173247,"connected_time":3164000000000,"state":"active","ping":63},{"user_id":432,"name":"Krabs","steam_id":76561198161679477,"connected_time":1118000000000,"state":"active","ping":45},{"user_id":441,"name":"KHGC","steam_id":76561199084927578,"connected_time":540000000000,"state":"active","ping":141},{"user_id":437,"name":"gregory","steam_id":76561198145311680,"connected_time":985000000000,"state":"active","ping":74},{"user_id":446,"name":"DespawnedDiamond","steam_id":76561198841944417,"connected_time":91000000000,"state":"active","ping":77},{"user_id":360,"name":"Carrot Arc","steam_id":76561198164957006,"connected_time":5925000000000,"state":"active","ping":87},{"user_id":439,"name":"sm0ke","steam_id":76561198198977226,"connected_time":670000000000,"state":"active","ping":87}]},{"server_id":321,"name":"Uncletopia | London | 4 | All Maps","name_short":"lon-4","host":"lon-1.uk.uncletopia.com","port":27045,"enabled":true,"region":"eu","cc":"gb","latitude":51.509865,"longitude":-0.118092,"reserved":0,"last_update":"0001-01-01T00:00:00Z","name_a2s":"Uncletopia | London | 4 | All Maps","protocol":17,"map":"koth_highpass","folder":"tf","game":"Team Fortress","app_id":440,"player_count":1,"max_players":24,"Bots":0,"server_type":"Dedicated","server_os":"Linux","password":true,"vac":true,"version":"7757534","steam_id":85568392924510193,"keywords":["cp","nocrits","nodmgspread","uncletopia"],"game_id":440,"stv_port":27046,"stv_name":"Uncletopia | London | 4 | All Maps | STV","players":[{"user_id":381,"name":"HilldogGaming","steam_id":76561198082209322,"connected_time":3127000000000,"state":"active","ping":82}]},{"server_id":21,"name":"Uncletopia | London | 5 | All Maps","name_short":"lon-5","host":"lon-1.uk.uncletopia.com","port":27055,"enabled":true,"region":"eu","cc":"gb","latitude":51.509865,"longitude":-0.118092,"reserved":0,"last_update":"0001-01-01T00:00:00Z","name_a2s":"Uncletopia | London | 5 | All Maps","protocol":17,"map":"pl_barnblitz","folder":"tf","game":"Team Fortress","app_id":440,"player_count":24,"max_players":24,"Bots":0,"server_type":"Dedicated","server_os":"Linux","password":true,"vac":true,"version":"7757534","steam_id":85568392924742829,"keywords":["nocrits","nodmgspread","payload","uncletopia"],"game_id":440,"stv_port":27056,"stv_name":"Uncletopia | London | 5 | All Maps | STV","players":[{"user_id":184,"name":"A Wild Ferrothorn","steam_id":76561198042261828,"connected_time":828000000000,"state":"active","ping":61},{"user_id":121,"name":"Holy f stewie, I am shítting.","steam_id":76561198147173457,"connected_time":5275000000000,"state":"active","ping":76},{"user_id":134,"name":"bachusa1657","steam_id":76561198202175911,"connected_time":4750000000000,"state":"active","ping":75},{"user_id":194,"name":"kryhu","steam_id":76561198293327713,"connected_time":384000000000,"state":"active","ping":75},{"user_id":169,"name":"Oak","steam_id":76561198067315672,"connected_time":1838000000000,"state":"active","ping":46},{"user_id":177,"name":"gofdrey","steam_id":76561198121941052,"connected_time":1303000000000,"state":"active","ping":68},{"user_id":179,"name":"Bobo","steam_id":76561198052308399,"connected_time":1251000000000,"state":"active","ping":76},{"user_id":186,"name":"yarrish","steam_id":76561198152841665,"connected_time":817000000000,"state":"active","ping":64},{"user_id":116,"name":"Team Fortress","steam_id":76561198058722801,"connected_time":5552000000000,"state":"active","ping":43},{"user_id":178,"name":"big t","steam_id":76561198067179454,"connected_time":1299000000000,"state":"active","ping":34},{"user_id":162,"name":"Matt","steam_id":76561199242133658,"connected_time":2134000000000,"state":"active","ping":68},{"user_id":163,"name":"KLAMA  ❤","steam_id":76561198351549661,"connected_time":2051000000000,"state":"active","ping":71},{"user_id":164,"name":"I have aids","steam_id":76561198860347851,"connected_time":2049000000000,"state":"active","ping":120},{"user_id":156,"name":"Roachy","steam_id":76561198004508448,"connected_time":2461000000000,"state":"active","ping":45},{"user_id":180,"name":"flange","steam_id":76561198040182692,"connected_time":1082000000000,"state":"active","ping":42},{"user_id":187,"name":"the indomitable human spirit","steam_id":76561198718760200,"connected_time":805000000000,"state":"active","ping":53},{"user_id":141,"name":"gagalak","steam_id":76561198089979108,"connected_time":4309000000000,"state":"active","ping":100},{"user_id":139,"name":"pepper","steam_id":76561198059782462,"connected_time":4363000000000,"state":"active","ping":61},{"user_id":192,"name":"How can I be homophobic?","steam_id":76561198152813004,"connected_time":676000000000,"state":"active","ping":46},{"user_id":129,"name":"pistol.peter65","steam_id":76561198415564349,"connected_time":5097000000000,"state":"active","ping":60},{"user_id":130,"name":"edgar","steam_id":76561198212862423,"connected_time":5082000000000,"state":"active","ping":42},{"user_id":195,"name":"fifrok","steam_id":76561198799267621,"connected_time":64000000000,"state":"spawning","ping":77},{"user_id":190,"name":"Lix","steam_id":76561198130779816,"connected_time":770000000000,"state":"active","ping":57},{"user_id":191,"name":"Stivo","steam_id":76561198026547999,"connected_time":745000000000,"state":"active","ping":99}]},{"server_id":22,"name":"Uncletopia | London | 6 | All Maps","name_short":"lon-6","host":"lon-1.uk.uncletopia.com","port":27065,"enabled":true,"region":"eu","cc":"gb","latitude":51.509865,"longitude":-0.118092,"reserved":0,"last_update":"0001-01-01T00:00:00Z","name_a2s":"Uncletopia | London | 6 | All Maps","protocol":17,"map":"cp_snakewater_final1","folder":"tf","game":"Team Fortress","app_id":440,"player_count":0,"max_players":24,"Bots":0,"server_type":"Dedicated","server_os":"Linux","password":true,"vac":true,"version":"7757534","steam_id":85568392924742830,"keywords":["cp","nocrits","nodmgspread","uncletopia"],"game_id":440,"stv_port":27066,"stv_name":"Uncletopia | London | 6 | All Maps | STV","players":null},{"server_id":40,"name":"Uncletopia | London | 7 | No Payload","name_short":"lon-7","host":"lon-1.uk.uncletopia.com","port":27075,"enabled":true,"region":"eu","cc":"gb","latitude":51.509865,"longitude":-0.118092,"reserved":0,"last_update":"0001-01-01T00:00:00Z","name_a2s":"Uncletopia | London | 7 | No Payload","protocol":17,"map":"ctf_well","folder":"tf","game":"Team Fortress","app_id":440,"player_count":19,"max_players":24,"Bots":0,"server_type":"Dedicated","server_os":"Linux","password":true,"vac":true,"version":"7757534","steam_id":85568392924964314,"keywords":["ctf","nocrits","nodmgspread","uncletopia"],"game_id":440,"stv_port":27076,"stv_name":"Uncletopia | London | 7 | No Payload | STV","players":[{"user_id":375,"name":"Jackie Chan","steam_id":76561199378865926,"connected_time":210000000000,"state":"active","ping":122},{"user_id":353,"name":"Poodle","steam_id":76561198015483504,"connected_time":1373000000000,"state":"active","ping":79},{"user_id":376,"name":"aether","steam_id":76561198178293861,"connected_time":69000000000,"state":"active","ping":138},{"user_id":267,"name":"eedefeed","steam_id":76561198045716254,"connected_time":6597000000000,"state":"active","ping":43},{"user_id":377,"name":"Bingus is WAM","steam_id":76561199131547722,"connected_time":65000000000,"state":"active","ping":63},{"user_id":313,"name":"The Daniella","steam_id":76561198023075547,"connected_time":3444000000000,"state":"active","ping":62},{"user_id":378,"name":"pablo","steam_id":76561198089285014,"connected_time":16000000000,"state":"spawning","ping":60},{"user_id":304,"name":"protëin","steam_id":76561197998423616,"connected_time":4641000000000,"state":"active","ping":68},{"user_id":338,"name":"Andebil","steam_id":76561198131829815,"connected_time":2391000000000,"state":"active","ping":70},{"user_id":357,"name":"Goose of Wisdom","steam_id":76561198233465044,"connected_time":1234000000000,"state":"active","ping":144},{"user_id":348,"name":"r4s1","steam_id":76561198024034917,"connected_time":1635000000000,"state":"active","ping":47},{"user_id":363,"name":"kokos","steam_id":76561199292487740,"connected_time":890000000000,"state":"active","ping":94},{"user_id":349,"name":"MEGOS","steam_id":76561198172740637,"connected_time":1619000000000,"state":"active","ping":57},{"user_id":366,"name":"Labia in Fishnets","steam_id":76561198061382104,"connected_time":449000000000,"state":"active","ping":59},{"user_id":367,"name":"Nikcha","steam_id":76561198253300222,"connected_time":418000000000,"state":"active","ping":59},{"user_id":368,"name":"SooS","steam_id":76561198058943929,"connected_time":410000000000,"state":"active","ping":70},{"user_id":369,"name":"lonich","steam_id":76561198057122324,"connected_time":327000000000,"state":"active","ping":91},{"user_id":372,"name":"Lolibae","steam_id":76561198988791882,"connected_time":294000000000,"state":"active","ping":93},{"user_id":339,"name":"Garden Freeman","steam_id":76561199073314677,"connected_time":2317000000000,"state":"active","ping":79}]},{"server_id":41,"name":"Uncletopia | London | 8 | Community","name_short":"lon-8","host":"lon-1.uk.uncletopia.com","port":27085,"enabled":true,"region":"eu","cc":"gb","latitude":51.509865,"longitude":-0.118092,"reserved":0,"last_update":"0001-01-01T00:00:00Z","name_a2s":"Uncletopia | London | 8 | Community","protocol":17,"map":"workshop/cp_logjam_rc12.ugc454812035","folder":"tf","game":"Team Fortress","app_id":440,"player_count":0,"max_players":24,"Bots":0,"server_type":"Dedicated","server_os":"Linux","password":true,"vac":true,"version":"7757534","steam_id":85568392924964315,"keywords":["cp","nocrits","nodmgspread","uncletopia"],"game_id":440,"stv_port":27086,"stv_name":"Uncletopia | London | 8 | Community | STV","players":null},{"server_id":300,"name":"Uncletopia | Montréal | 1 | All Maps","name_short":"mtl-1","host":"mtl-1.ca.uncletopia.com","port":27015,"enabled":true,"region":"us-east","cc":"ca","latitude":45.50889,"longitude":-73.56167,"reserved":0,"last_update":"0001-01-01T00:00:00Z","name_a2s":"Uncletopia | Montréal | 1 | All Maps","protocol":17,"map":"koth_highpass","folder":"tf","game":"Team Fortress","app_id":440,"player_count":0,"max_players":24,"Bots":0,"server_type":"Dedicated","server_os":"Linux","password":true,"vac":true,"version":"7757534","steam_id":85568392924500087,"keywords":["cp","nocrits","nodmgspread","uncletopia"],"game_id":440,"stv_port":27016,"stv_name":"Uncletopia | Montréal | 1 | All Maps | STV","players":null},{"server_id":301,"name":"Uncletopia | Montréal | 2 | All Maps","name_short":"mtl-2","host":"mtl-1.ca.uncletopia.com","port":27025,"enabled":true,"region":"us-east","cc":"ca","latitude":45.50889,"longitude":-73.56167,"reserved":0,"last_update":"0001-01-01T00:00:00Z","name_a2s":"Uncletopia | Montréal | 2 | All Maps","protocol":17,"map":"pl_snowycoast","folder":"tf","game":"Team Fortress","app_id":440,"player_count":0,"max_players":24,"Bots":0,"server_type":"Dedicated","server_os":"Linux","password":true,"vac":true,"version":"7757534","steam_id":85568392924500088,"keywords":["nocrits","nodmgspread","payload","uncletopia"],"game_id":440,"stv_port":27026,"stv_name":"Uncletopia | Montréal | 2 | All Maps | STV","players":null},{"server_id":302,"name":"Uncletopia | Montréal | 3 | All Maps","name_short":"mtl-3","host":"mtl-1.ca.uncletopia.com","port":27035,"enabled":true,"region":"us-east","cc":"ca","latitude":45.50889,"longitude":-73.56167,"reserved":0,"last_update":"0001-01-01T00:00:00Z","name_a2s":"Uncletopia | Montréal | 3 | All Maps","protocol":17,"map":"koth_lakeside_final","folder":"tf","game":"Team Fortress","app_id":440,"player_count":0,"max_players":24,"Bots":0,"server_type":"Dedicated","server_os":"Linux","password":true,"vac":true,"version":"7757534","steam_id":85568392924500089,"keywords":["cp","nocrits","nodmgspread","uncletopia"],"game_id":440,"stv_port":27036,"stv_name":"Uncletopia | Montréal | 3 | All Maps | STV","players":null},{"server_id":303,"name":"Uncletopia | Montréal | 4 | No Payload","name_short":"mtl-4","host":"mtl-1.ca.uncletopia.com","port":27045,"enabled":true,"region":"us-east","cc":"ca","latitude":45.50889,"longitude":-73.56167,"reserved":0,"last_update":"0001-01-01T00:00:00Z","name_a2s":"Uncletopia | Montréal | 4 | No Payload","protocol":17,"map":"plr_pipeline","folder":"tf","game":"Team Fortress","app_id":440,"player_count":0,"max_players":24,"Bots":0,"server_type":"Dedicated","server_os":"Linux","password":true,"vac":true,"version":"7757534","steam_id":85568392924500090,"keywords":["nocrits","nodmgspread","payload","uncletopia"],"game_id":440,"stv_port":27046,"stv_name":"Uncletopia | Montréal | 4 | No Payload | STV","players":null},{"server_id":13,"name":"Uncletopia | New York City | 1 | All Maps","name_short":"nyc-1","host":"nyc-1.us.uncletopia.com","port":27015,"enabled":true,"region":"us-east","cc":"us","latitude":40.73061,"longitude":-73.93524,"reserved":0,"last_update":"0001-01-01T00:00:00Z","name_a2s":"Uncletopia | New York City | 1 | All Maps","protocol":17,"map":"cp_foundry","folder":"tf","game":"Team Fortress","app_id":440,"player_count":24,"max_players":24,"Bots":0,"server_type":"Dedicated","server_os":"Linux","password":true,"vac":true,"version":"7757534","steam_id":85568392924469993,"keywords":["cp","nocrits","nodmgspread","uncletopia"],"game_id":440,"stv_port":27016,"stv_name":"Uncletopia | New York City | 1 | All Maps | STV","players":[{"user_id":397,"name":"the-willy12","steam_id":76561199145029672,"connected_time":211000000000,"state":"active","ping":69},{"user_id":389,"name":"Victor Skull","steam_id":76561198352212864,"connected_time":618000000000,"state":"active","ping":48},{"user_id":297,"name":"meteora by linkin park","steam_id":76561198332694127,"connected_time":9867000000000,"state":"active","ping":48},{"user_id":376,"name":"InsertNameHere","steam_id":76561199084629331,"connected_time":1497000000000,"state":"active","ping":69},{"user_id":374,"name":"funny weed dot com","steam_id":76561198843967834,"connected_time":1981000000000,"state":"active","ping":72},{"user_id":379,"name":"Seinfeld's Chosen","steam_id":76561198067556825,"connected_time":782000000000,"state":"active","ping":133},{"user_id":366,"name":"Poi","steam_id":76561198176914898,"connected_time":2708000000000,"state":"active","ping":85},{"user_id":381,"name":"happs (God is good)","steam_id":76561198364093418,"connected_time":770000000000,"state":"active","ping":67},{"user_id":382,"name":"The Largest Man (in Japan)","steam_id":76561198103183142,"connected_time":762000000000,"state":"active","ping":192},{"user_id":385,"name":"gamesucks123","steam_id":76561198072826791,"connected_time":712000000000,"state":"active","ping":52},{"user_id":396,"name":"Hoopla","steam_id":76561198327775508,"connected_time":369000000000,"state":"active","ping":44},{"user_id":387,"name":"canakblasteran","steam_id":76561199472518822,"connected_time":674000000000,"state":"active","ping":130},{"user_id":388,"name":"Hollow gamer","steam_id":76561198426798913,"connected_time":660000000000,"state":"active","ping":129},{"user_id":358,"name":"BubbyBoy27","steam_id":76561199102009679,"connected_time":3213000000000,"state":"active","ping":94},{"user_id":229,"name":"Tsukiortu","steam_id":76561198086796109,"connected_time":13801000000000,"state":"active","ping":56},{"user_id":401,"name":"RaixaR","steam_id":76561198025289430,"connected_time":146000000000,"state":"active","ping":89},{"user_id":390,"name":"val","steam_id":76561198177716494,"connected_time":609000000000,"state":"active","ping":41},{"user_id":391,"name":"Penny #girl","steam_id":76561198144281771,"connected_time":604000000000,"state":"active","ping":89},{"user_id":362,"name":"Rock Kickass","steam_id":76561198450510841,"connected_time":3108000000000,"state":"active","ping":131},{"user_id":392,"name":"noel","steam_id":76561198128280883,"connected_time":604000000000,"state":"active","ping":65},{"user_id":393,"name":"drain.pablo.2005","steam_id":76561198303963691,"connected_time":597000000000,"state":"active","ping":65},{"user_id":400,"name":"Alice in Rubberland","steam_id":76561198087328346,"connected_time":178000000000,"state":"active","ping":60},{"user_id":394,"name":"Acro Banwagon","steam_id":76561198092451804,"connected_time":596000000000,"state":"active","ping":76},{"user_id":395,"name":"StuartBell511","steam_id":76561198060931721,"connected_time":563000000000,"state":"active","ping":68}]},{"server_id":14,"name":"Uncletopia | New York City | 2 | All Maps","name_short":"nyc-2","host":"nyc-1.us.uncletopia.com","port":27025,"enabled":true,"region":"us-east","cc":"us","latitude":40.73061,"longitude":-73.93524,"reserved":0,"last_update":"0001-01-01T00:00:00Z","name_a2s":"Uncletopia | New York City | 2 | All Maps","protocol":17,"map":"pl_barnblitz","folder":"tf","game":"Team Fortress","app_id":440,"player_count":24,"max_players":24,"Bots":0,"server_type":"Dedicated","server_os":"Linux","password":true,"vac":true,"version":"7757534","steam_id":85568392924469994,"keywords":["nocrits","nodmgspread","payload","uncletopia"],"game_id":440,"stv_port":27026,"stv_name":"Uncletopia | New York City | 2 | All Maps | STV","players":[{"user_id":398,"name":"jamzine","steam_id":76561198186168293,"connected_time":1641000000000,"state":"active","ping":59},{"user_id":387,"name":"Olifont","steam_id":76561198141162919,"connected_time":3097000000000,"state":"active","ping":68},{"user_id":411,"name":"A_Malebolgia","steam_id":76561198097722818,"connected_time":1191000000000,"state":"active","ping":85},{"user_id":397,"name":"Ruth Linsborough #GAMERMOM","steam_id":76561199055437006,"connected_time":2249000000000,"state":"active","ping":48},{"user_id":402,"name":"20 miles for a Quaalude","steam_id":76561198042579477,"connected_time":1607000000000,"state":"active","ping":58},{"user_id":419,"name":"Hertz","steam_id":76561198245322982,"connected_time":120000000000,"state":"active","ping":62},{"user_id":409,"name":"Frambouille","steam_id":76561198210342928,"connected_time":1380000000000,"state":"active","ping":126},{"user_id":422,"name":"parknich081","steam_id":76561198880414240,"connected_time":105000000000,"state":"active","ping":109},{"user_id":416,"name":"Atomic Ursa","steam_id":76561198032246421,"connected_time":141000000000,"state":"active","ping":69},{"user_id":415,"name":"AlmondMilk","steam_id":76561198151229725,"connected_time":205000000000,"state":"active","ping":40},{"user_id":420,"name":"BasicPeaches","steam_id":76561198190890150,"connected_time":113000000000,"state":"active","ping":68},{"user_id":388,"name":"Cervidé","steam_id":76561198098579497,"connected_time":3036000000000,"state":"active","ping":68},{"user_id":360,"name":"SEWER RODENT","steam_id":76561198858984051,"connected_time":4225000000000,"state":"active","ping":55},{"user_id":339,"name":"GrimDaReaper","steam_id":76561199038948822,"connected_time":4883000000000,"state":"active","ping":93},{"user_id":410,"name":"g00bur","steam_id":76561197993622520,"connected_time":1362000000000,"state":"active","ping":56},{"user_id":408,"name":"Iman..?","steam_id":76561198063677510,"connected_time":1500000000000,"state":"active","ping":56},{"user_id":392,"name":"The Greendale Human Beings","steam_id":76561198055433422,"connected_time":2679000000000,"state":"active","ping":70},{"user_id":366,"name":"Devinish","steam_id":76561198024927243,"connected_time":3920000000000,"state":"active","ping":80},{"user_id":384,"name":"Monsieur l'INGENIEUR","steam_id":76561198090504334,"connected_time":3289000000000,"state":"active","ping":72},{"user_id":368,"name":"joethefool","steam_id":76561199015436319,"connected_time":3670000000000,"state":"active","ping":51},{"user_id":394,"name":"TransFUNKe","steam_id":76561199234098237,"connected_time":2436000000000,"state":"active","ping":64},{"user_id":334,"name":"Bad Rollout","steam_id":76561197971948876,"connected_time":5086000000000,"state":"active","ping":73},{"user_id":386,"name":"erm what the scallop","steam_id":76561199121341864,"connected_time":3159000000000,"state":"active","ping":99},{"user_id":423,"name":"ottergauze","steam_id":76561198050523315,"connected_time":97000000000,"state":"active","ping":143}]},{"server_id":15,"name":"Uncletopia | New York City | 3 | Stopwatch Beta","name_short":"nyc-3","host":"nyc-1.us.uncletopia.com","port":27035,"enabled":true,"region":"us-east","cc":"us","latitude":40.73061,"longitude":-73.93524,"reserved":0,"last_update":"0001-01-01T00:00:00Z","name_a2s":"Uncletopia | New York City | 3 | Stopwatch Beta","protocol":17,"map":"pl_upward","folder":"tf","game":"Team Fortress","app_id":440,"player_count":0,"max_players":24,"Bots":0,"server_type":"Dedicated","server_os":"Linux","password":true,"vac":true,"version":"7757534","steam_id":85568392924742820,"keywords":["nocrits","nodmgspread","payload","uncletopia"],"game_id":440,"stv_port":27036,"stv_name":"Uncletopia | New York City | 3 | Stopwatch Beta | STV","players":null},{"server_id":16,"name":"Uncletopia | New York City | 4 | Community","name_short":"nyc-4","host":"nyc-1.us.uncletopia.com","port":27045,"enabled":true,"region":"us-east","cc":"us","latitude":40.73061,"longitude":-73.93524,"reserved":0,"last_update":"0001-01-01T00:00:00Z","name_a2s":"Uncletopia | New York City | 4 | Community","protocol":17,"map":"workshop/koth_synthetic_rc6a.ugc1549817316","folder":"tf","game":"Team Fortress","app_id":440,"player_count":0,"max_players":24,"Bots":0,"server_type":"Dedicated","server_os":"Linux","password":true,"vac":true,"version":"7757534","steam_id":85568392924742821,"keywords":["cp","nocrits","nodmgspread","uncletopia"],"game_id":440,"stv_port":27046,"stv_name":"Uncletopia | New York City | 4 | Community | STV","players":null},{"server_id":142,"name":"Uncletopia | São Paulo | 1 | All Maps","name_short":"sao-1","host":"sao-1.br.uncletopia.com","port":27015,"enabled":true,"region":"sa","cc":"br","latitude":-23.533773,"longitude":-46.62529,"reserved":0,"last_update":"0001-01-01T00:00:00Z","name_a2s":"Uncletopia | São Paulo | 1 | All Maps","protocol":17,"map":"koth_lakeside_final","folder":"tf","game":"Team Fortress","app_id":440,"player_count":2,"max_players":24,"Bots":0,"server_type":"Dedicated","server_os":"Linux","password":true,"vac":true,"version":"7757534","steam_id":85568392924469996,"keywords":["cp","nocrits","nodmgspread","uncletopia"],"game_id":440,"stv_port":27016,"stv_name":"Uncletopia | São Paulo | 1 | All Maps | STV","players":[{"user_id":14,"name":"Tj","steam_id":76561199144268605,"connected_time":1024000000000,"state":"active","ping":80},{"user_id":15,"name":"牛肉とクリーム","steam_id":76561198391399039,"connected_time":1018000000000,"state":"active","ping":60}]},{"server_id":143,"name":"Uncletopia | São Paulo | 2 | All Maps","name_short":"sao-2","host":"sao-2.br.uncletopia.com","port":27015,"enabled":true,"region":"sa","cc":"br","latitude":-23.533773,"longitude":-46.62529,"reserved":0,"last_update":"0001-01-01T00:00:00Z","name_a2s":"Uncletopia | São Paulo | 2 | All Maps","protocol":17,"map":"pl_badwater","folder":"tf","game":"Team Fortress","app_id":440,"player_count":7,"max_players":24,"Bots":0,"server_type":"Dedicated","server_os":"Linux","password":true,"vac":true,"version":"7757534","steam_id":85568392924485349,"keywords":["nocrits","nodmgspread","payload","uncletopia"],"game_id":440,"stv_port":27016,"stv_name":"Uncletopia | São Paulo | 2 | All Maps | STV","players":[{"user_id":49,"name":"feli_potter","steam_id":76561198965109010,"connected_time":315000000000,"state":"active","ping":49},{"user_id":50,"name":"ARK","steam_id":76561198253139686,"connected_time":240000000000,"state":"active","ping":88},{"user_id":52,"name":"Zer0.","steam_id":76561198929916367,"connected_time":70000000000,"state":"spawning","ping":204},{"user_id":32,"name":"Vlad","steam_id":76561198089311495,"connected_time":2492000000000,"state":"active","ping":61},{"user_id":53,"name":"Mc Cheezy","steam_id":76561198834780242,"connected_time":45000000000,"state":"active","ping":284},{"user_id":36,"name":"med","steam_id":76561198317090330,"connected_time":1963000000000,"state":"active","ping":59},{"user_id":42,"name":"paul cock","steam_id":76561198987072726,"connected_time":1514000000000,"state":"active","ping":47}]},{"server_id":7,"name":"Uncletopia | Seattle | 1 | All Maps","name_short":"sea-1","host":"sea-1.us.uncletopia.com","port":27015,"enabled":true,"region":"us-west","cc":"us","latitude":47.608013,"longitude":-122.33517,"reserved":0,"last_update":"0001-01-01T00:00:00Z","name_a2s":"Uncletopia | Seattle | 1 | All Maps","protocol":17,"map":"pl_upward","folder":"tf","game":"Team Fortress","app_id":440,"player_count":24,"max_players":24,"Bots":0,"server_type":"Dedicated","server_os":"Linux","password":true,"vac":true,"version":"7757534","steam_id":85568392924469997,"keywords":["nocrits","nodmgspread","payload","uncletopia"],"game_id":440,"stv_port":27016,"stv_name":"Uncletopia | Seattle | 1 | All Maps | STV","players":[{"user_id":355,"name":"Matches *♥‧₊˚           ","steam_id":76561198048925904,"connected_time":2034000000000,"state":"active","ping":90},{"user_id":364,"name":"soda","steam_id":76561198105924953,"connected_time":1296000000000,"state":"active","ping":71},{"user_id":343,"name":"Saul Goodman","steam_id":76561198354289529,"connected_time":2708000000000,"state":"active","ping":90},{"user_id":373,"name":"Scut","steam_id":76561198973734291,"connected_time":127000000000,"state":"active","ping":62},{"user_id":291,"name":"Tea","steam_id":76561198004133638,"connected_time":7045000000000,"state":"active","ping":87},{"user_id":375,"name":"GRAPE","steam_id":76561198150447896,"connected_time":59000000000,"state":"active","ping":76},{"user_id":325,"name":"Mr. Ravioli","steam_id":76561197996625649,"connected_time":4243000000000,"state":"active","ping":61},{"user_id":365,"name":"Da Bankman","steam_id":76561199127423378,"connected_time":877000000000,"state":"active","ping":84},{"user_id":368,"name":"makeshift_burrito","steam_id":76561198042510825,"connected_time":789000000000,"state":"active","ping":72},{"user_id":372,"name":"Strikerbolt","steam_id":76561199095622897,"connected_time":481000000000,"state":"active","ping":139},{"user_id":369,"name":"forest (girldick)","steam_id":76561198157960257,"connected_time":776000000000,"state":"active","ping":36},{"user_id":366,"name":"EnbySeven","steam_id":76561198981899169,"connected_time":801000000000,"state":"active","ping":46},{"user_id":371,"name":"Idontknow","steam_id":76561199207044048,"connected_time":656000000000,"state":"active","ping":41},{"user_id":374,"name":"Dob Bole","steam_id":76561198056367220,"connected_time":75000000000,"state":"active","ping":61},{"user_id":357,"name":"brg","steam_id":76561197998415548,"connected_time":1936000000000,"state":"active","ping":90},{"user_id":367,"name":"Warlock","steam_id":76561199033164093,"connected_time":800000000000,"state":"active","ping":47},{"user_id":370,"name":"exephur","steam_id":76561198135763234,"connected_time":775000000000,"state":"active","ping":61},{"user_id":360,"name":"Chmiken","steam_id":76561199041966499,"connected_time":1598000000000,"state":"active","ping":59},{"user_id":359,"name":"LennyClan","steam_id":76561198182959074,"connected_time":1725000000000,"state":"active","ping":77},{"user_id":358,"name":"reiidaya","steam_id":76561198325306660,"connected_time":1931000000000,"state":"active","ping":52},{"user_id":363,"name":"Boyaredeen","steam_id":76561198880492636,"connected_time":1404000000000,"state":"active","ping":53},{"user_id":336,"name":"TR1PS","steam_id":76561198256497058,"connected_time":3357000000000,"state":"active","ping":92},{"user_id":332,"name":"Protospro","steam_id":76561198057909425,"connected_time":3621000000000,"state":"active","ping":102},{"user_id":341,"name":"Samuel","steam_id":76561197997462801,"connected_time":2790000000000,"state":"active","ping":56}]},{"server_id":119,"name":"Uncletopia | Seattle | 2 | All Maps","name_short":"sea-2","host":"sea-1.us.uncletopia.com","port":27025,"enabled":true,"region":"us-west","cc":"us","latitude":47.608013,"longitude":-122.33517,"reserved":0,"last_update":"0001-01-01T00:00:00Z","name_a2s":"Uncletopia | Seattle | 2 | All Maps","protocol":17,"map":"cp_egypt_final","folder":"tf","game":"Team Fortress","app_id":440,"player_count":24,"max_players":24,"Bots":0,"server_type":"Dedicated","server_os":"Linux","password":true,"vac":true,"version":"7757534","steam_id":85568392924469998,"keywords":["cp","nocrits","nodmgspread","uncletopia"],"game_id":440,"stv_port":27026,"stv_name":"Uncletopia | Seattle | 2 | All Maps | STV","players":[{"user_id":231,"name":"Brainless Robot","steam_id":76561198045775128,"connected_time":6803000000000,"state":"active","ping":70},{"user_id":230,"name":"D0VE","steam_id":76561198151618566,"connected_time":6909000000000,"state":"active","ping":65},{"user_id":291,"name":"Dr.Deadmeat","steam_id":76561198008427447,"connected_time":551000000000,"state":"active","ping":107},{"user_id":294,"name":"Lime","steam_id":76561198080786408,"connected_time":404000000000,"state":"active","ping":54},{"user_id":286,"name":"Orange","steam_id":76561198284737450,"connected_time":775000000000,"state":"active","ping":92},{"user_id":259,"name":"aomo","steam_id":76561198170381402,"connected_time":3774000000000,"state":"active","ping":108},{"user_id":295,"name":"THE_DARK_TRICKSTER","steam_id":76561198870649125,"connected_time":186000000000,"state":"active","ping":77},{"user_id":250,"name":"Drake from State Farm","steam_id":76561199069029812,"connected_time":4949000000000,"state":"active","ping":73},{"user_id":242,"name":"Steve Burns","steam_id":76561198069968316,"connected_time":5672000000000,"state":"active","ping":67},{"user_id":272,"name":"picea","steam_id":76561198134664196,"connected_time":2473000000000,"state":"active","ping":70},{"user_id":258,"name":"vλughn","steam_id":76561198144165856,"connected_time":3863000000000,"state":"active","ping":119},{"user_id":187,"name":"hoOmIN","steam_id":76561198334947079,"connected_time":11010000000000,"state":"active","ping":72},{"user_id":182,"name":"worker","steam_id":76561198039608940,"connected_time":11724000000000,"state":"active","ping":79},{"user_id":253,"name":"SaltyFlump","steam_id":76561199379601288,"connected_time":4348000000000,"state":"active","ping":67},{"user_id":282,"name":"srmoore 103","steam_id":76561198300291415,"connected_time":905000000000,"state":"active","ping":48},{"user_id":290,"name":"Paco","steam_id":76561198023504958,"connected_time":643000000000,"state":"active","ping":117},{"user_id":204,"name":"Cinnifox","steam_id":76561198068773971,"connected_time":9432000000000,"state":"active","ping":70},{"user_id":263,"name":"Feldspaten","steam_id":76561199122059102,"connected_time":3536000000000,"state":"active","ping":107},{"user_id":284,"name":"Mentally Insane Pyro","steam_id":76561199248138498,"connected_time":888000000000,"state":"active","ping":91},{"user_id":279,"name":"Bobby Ray","steam_id":76561198044131188,"connected_time":1072000000000,"state":"active","ping":85},{"user_id":293,"name":"drinking water (extra sulfur)","steam_id":76561198066566813,"connected_time":513000000000,"state":"active","ping":178},{"user_id":288,"name":"DH-S 555","steam_id":76561198316416001,"connected_time":703000000000,"state":"active","ping":93},{"user_id":275,"name":"Flooder","steam_id":76561198043792818,"connected_time":2417000000000,"state":"active","ping":48},{"user_id":297,"name":"HeatedArtist","steam_id":76561198961937603,"connected_time":24000000000,"state":"spawning","ping":66}]},{"server_id":406,"name":"Uncletopia | Seattle | 3 | Stopwatch Beta","name_short":"sea-3","host":"sea-1.us.uncletopia.com","port":27035,"enabled":true,"region":"us-west","cc":"us","latitude":47.608013,"longitude":-122.33517,"reserved":0,"last_update":"0001-01-01T00:00:00Z","name_a2s":"Uncletopia | Seattle | 3 | Stopwatch Beta","protocol":17,"map":"workshop/koth_ashville_final.ugc2130459942","folder":"tf","game":"Team Fortress","app_id":440,"player_count":2,"max_players":24,"Bots":0,"server_type":"Dedicated","server_os":"Linux","password":true,"vac":true,"version":"7757534","steam_id":85568392924515217,"keywords":["cp","nocrits","nodmgspread","uncletopia"],"game_id":440,"stv_port":27036,"stv_name":"Uncletopia | Seattle | 3 | Stopwatch Beta | STV","players":[{"user_id":11,"name":"Sgt. Satire","steam_id":76561198104193483,"connected_time":230000000000,"state":"active","ping":84},{"user_id":12,"name":"Demoslow","steam_id":76561198805592656,"connected_time":224000000000,"state":"active","ping":88}]},{"server_id":17,"name":"Uncletopia | San Francisco | 1 | All Maps","name_short":"sfo-1","host":"sfo-1.us.uncletopia.com","port":27015,"enabled":true,"region":"us-west","cc":"us","latitude":37.77397,"longitude":-122.4313,"reserved":0,"last_update":"0001-01-01T00:00:00Z","name_a2s":"Uncletopia | San Francisco | 1 | All Maps","protocol":17,"map":"koth_viaduct","folder":"tf","game":"Team Fortress","app_id":440,"player_count":0,"max_players":24,"Bots":0,"server_type":"Dedicated","server_os":"Linux","password":true,"vac":true,"version":"7757534","steam_id":85568392924469999,"keywords":["cp","nocrits","nodmgspread","uncletopia"],"game_id":440,"stv_port":27016,"stv_name":"Uncletopia | San Francisco | 1 | All Maps | STV","players":null},{"server_id":18,"name":"Uncletopia | San Francisco | 2 | All Maps","name_short":"sfo-2","host":"sfo-1.us.uncletopia.com","port":27025,"enabled":true,"region":"us-west","cc":"us","latitude":37.77397,"longitude":-122.4313,"reserved":0,"last_update":"0001-01-01T00:00:00Z","name_a2s":"Uncletopia | San Francisco | 2 | All Maps","protocol":17,"map":"pl_swiftwater_final1","folder":"tf","game":"Team Fortress","app_id":440,"player_count":0,"max_players":24,"Bots":0,"server_type":"Dedicated","server_os":"Linux","password":true,"vac":true,"version":"7757534","steam_id":85568392924470000,"keywords":["nocrits","nodmgspread","payload","uncletopia"],"game_id":440,"stv_port":27026,"stv_name":"Uncletopia | San Francisco | 2 | All Maps | STV","players":null},{"server_id":19,"name":"Uncletopia | San Francisco | 3 | Stopwatch Beta","name_short":"sfo-3","host":"sfo-1.us.uncletopia.com","port":27035,"enabled":true,"region":"us-west","cc":"us","latitude":37.77397,"longitude":-122.4313,"reserved":0,"last_update":"0001-01-01T00:00:00Z","name_a2s":"Uncletopia | San Francisco | 3 | Stopwatch Beta","protocol":17,"map":"koth_highpass","folder":"tf","game":"Team Fortress","app_id":440,"player_count":0,"max_players":24,"Bots":0,"server_type":"Dedicated","server_os":"Linux","password":true,"vac":true,"version":"7757534","steam_id":85568392924742824,"keywords":["cp","nocrits","nodmgspread","uncletopia"],"game_id":440,"stv_port":27036,"stv_name":"Uncletopia | San Francisco | 3 | Stopwatch Beta | STV","players":null},{"server_id":20,"name":"Uncletopia | San Francisco | 4 | Community","name_short":"sfo-4","host":"sfo-1.us.uncletopia.com","port":27045,"enabled":true,"region":"us-west","cc":"us","latitude":37.77397,"longitude":-122.4313,"reserved":0,"last_update":"0001-01-01T00:00:00Z","name_a2s":"Uncletopia | San Francisco | 4 | Community","protocol":17,"map":"workshop/cp_overgrown_rc7b.ugc503939302","folder":"tf","game":"Team Fortress","app_id":440,"player_count":23,"max_players":24,"Bots":0,"server_type":"Dedicated","server_os":"Linux","password":true,"vac":true,"version":"7757534","steam_id":85568392924742826,"keywords":["cp","nocrits","nodmgspread","uncletopia"],"game_id":440,"stv_port":27046,"stv_name":"Uncletopia | San Francisco | 4 | Community | STV","players":[{"user_id":129,"name":"[DEEP]able","steam_id":76561198292552182,"connected_time":691000000000,"state":"active","ping":99},{"user_id":110,"name":"Walrus","steam_id":76561198001799905,"connected_time":2172000000000,"state":"active","ping":57},{"user_id":116,"name":"Tom Clancy Brown Mr Krabs","steam_id":76561198263004448,"connected_time":1288000000000,"state":"active","ping":55},{"user_id":137,"name":"Et_1113","steam_id":76561199199558343,"connected_time":435000000000,"state":"active","ping":130},{"user_id":131,"name":"Wormhole","steam_id":76561199008302939,"connected_time":587000000000,"state":"active","ping":64},{"user_id":139,"name":"Cam","steam_id":76561198285054047,"connected_time":67000000000,"state":"active","ping":75},{"user_id":75,"name":"Wadsworth M.D.","steam_id":76561198845246815,"connected_time":3554000000000,"state":"active","ping":53},{"user_id":101,"name":"monsterkill4567","steam_id":76561198272986367,"connected_time":2693000000000,"state":"active","ping":69},{"user_id":96,"name":"Fredorando","steam_id":76561198242546842,"connected_time":2822000000000,"state":"active","ping":62},{"user_id":120,"name":"Game Gaming","steam_id":76561199222119901,"connected_time":1042000000000,"state":"active","ping":62},{"user_id":121,"name":"LockVonAugustus","steam_id":76561198407273649,"connected_time":1038000000000,"state":"active","ping":109},{"user_id":102,"name":"intek","steam_id":76561198052705291,"connected_time":2670000000000,"state":"active","ping":89},{"user_id":103,"name":"bananabanana","steam_id":76561199121970386,"connected_time":2636000000000,"state":"active","ping":154},{"user_id":64,"name":"Phlogging Solly","steam_id":76561198020580071,"connected_time":3861000000000,"state":"active","ping":58},{"user_id":122,"name":"Power Jake","steam_id":76561198051510260,"connected_time":991000000000,"state":"active","ping":73},{"user_id":132,"name":"Ozyruz","steam_id":76561197998785161,"connected_time":564000000000,"state":"active","ping":60},{"user_id":133,"name":"reverie","steam_id":76561198168158637,"connected_time":499000000000,"state":"active","ping":64},{"user_id":136,"name":"cook","steam_id":76561199188155028,"connected_time":444000000000,"state":"active","ping":113},{"user_id":124,"name":"nightmare","steam_id":76561199480859237,"connected_time":957000000000,"state":"active","ping":77},{"user_id":138,"name":"Strange Potato","steam_id":76561199059013304,"connected_time":363000000000,"state":"active","ping":70},{"user_id":134,"name":"poptart","steam_id":76561199284453568,"connected_time":491000000000,"state":"active","ping":131},{"user_id":113,"name":"Luke","steam_id":76561198072441047,"connected_time":1854000000000,"state":"active","ping":76},{"user_id":114,"name":"The Indomitable Human Spirit","steam_id":76561198158260129,"connected_time":1812000000000,"state":"active","ping":134}]},{"server_id":141,"name":"Uncletopia | Sydney | 1 | All Maps","name_short":"syd-1","host":"syd-1.au.uncletopia.com","port":27015,"enabled":true,"region":"au","cc":"au","latitude":-33.865143,"longitude":151.2099,"reserved":0,"last_update":"0001-01-01T00:00:00Z","name_a2s":"Uncletopia | Sydney | 1 | All Maps","protocol":17,"map":"pl_swiftwater_final1","folder":"tf","game":"Team Fortress","app_id":440,"player_count":0,"max_players":24,"Bots":0,"server_type":"Dedicated","server_os":"Linux","password":true,"vac":true,"version":"7757534","steam_id":85568392924470001,"keywords":["nocrits","nodmgspread","payload","uncletopia"],"game_id":440,"stv_port":27016,"stv_name":"Uncletopia | Sydney | 1 | All Maps | STV","players":null},{"server_id":123,"name":"Uncletopia | Sydney | 2 | All Maps","name_short":"syd-2","host":"syd-1.au.uncletopia.com","port":27025,"enabled":true,"region":"au","cc":"au","latitude":-33.865143,"longitude":151.2099,"reserved":0,"last_update":"0001-01-01T00:00:00Z","name_a2s":"Uncletopia | Sydney | 2 | All Maps","protocol":17,"map":"cp_process_final","folder":"tf","game":"Team Fortress","app_id":440,"player_count":1,"max_players":24,"Bots":0,"server_type":"Dedicated","server_os":"Linux","password":true,"vac":true,"version":"7757534","steam_id":85568392924470002,"keywords":["cp","nocrits","nodmgspread","uncletopia"],"game_id":440,"stv_port":27026,"stv_name":"Uncletopia | Sydney | 2 | All Maps | STV","players":[{"user_id":4,"name":"xavier","steam_id":76561198113231175,"connected_time":37000000000,"state":"active","ping":43}]},{"server_id":395,"name":"Uncletopia | Sydney | 3 | All Maps","name_short":"syd-3","host":"syd-1.au.uncletopia.com","port":27035,"enabled":true,"region":"au","cc":"au","latitude":-33.865143,"longitude":151.2099,"reserved":0,"last_update":"0001-01-01T00:00:00Z","name_a2s":"Uncletopia | Sydney | 3 | All Maps","protocol":17,"map":"pl_swiftwater_final1","folder":"tf","game":"Team Fortress","app_id":440,"player_count":0,"max_players":24,"Bots":0,"server_type":"Dedicated","server_os":"Linux","password":true,"vac":true,"version":"7757534","steam_id":85568392925194467,"keywords":["nocrits","nodmgspread","payload","uncletopia"],"game_id":440,"stv_port":27036,"stv_name":"Uncletopia | Sydney | 3 | All Maps | STV","players":null},{"server_id":396,"name":"Uncletopia | Sydney | 4 | All Maps","name_short":"syd-4","host":"syd-1.au.uncletopia.com","port":27045,"enabled":true,"region":"au","cc":"au","latitude":-33.865143,"longitude":151.2099,"reserved":0,"last_update":"0001-01-01T00:00:00Z","name_a2s":"Uncletopia | Sydney | 4 | All Maps","protocol":17,"map":"koth_highpass","folder":"tf","game":"Team Fortress","app_id":440,"player_count":0,"max_players":24,"Bots":0,"server_type":"Dedicated","server_os":"Linux","password":true,"vac":true,"version":"7757534","steam_id":85568392925397958,"keywords":["cp","nocrits","nodmgspread","uncletopia"],"game_id":440,"stv_port":27046,"stv_name":"Uncletopia | Sydney | 4 | All Maps | STV","players":null},{"server_id":58,"name":"Uncletopia | Sydney | 5 | Stopwatch Beta","name_short":"syd-5","host":"syd-1.au.uncletopia.com","port":27055,"enabled":true,"region":"au","cc":"au","latitude":-33.865143,"longitude":151.2099,"reserved":0,"last_update":"0001-01-01T00:00:00Z","name_a2s":"Uncletopia | Sydney | 5 | Stopwatch Beta","protocol":17,"map":"koth_cascade","folder":"tf","game":"Team Fortress","app_id":440,"player_count":0,"max_players":24,"Bots":0,"server_type":"Dedicated","server_os":"Linux","password":true,"vac":true,"version":"7757534","steam_id":85568392925397959,"keywords":["cp","nocrits","nodmgspread","uncletopia"],"game_id":440,"stv_port":27056,"stv_name":"Uncletopia | Sydney | 5 | Stopwatch Beta | STV","players":null},{"server_id":59,"name":"Uncletopia | Sydney | 6 | Community","name_short":"syd-6","host":"syd-1.au.uncletopia.com","port":27065,"enabled":true,"region":"au","cc":"au","latitude":-33.865143,"longitude":151.2099,"reserved":0,"last_update":"0001-01-01T00:00:00Z","name_a2s":"Uncletopia | Sydney | 6 | Community","protocol":17,"map":"cp_snakewater_final1","folder":"tf","game":"Team Fortress","app_id":440,"player_count":0,"max_players":24,"Bots":0,"server_type":"Dedicated","server_os":"Linux","password":true,"vac":true,"version":"7757534","steam_id":85568392925397960,"keywords":["cp","nocrits","nodmgspread","uncletopia"],"game_id":440,"stv_port":27066,"stv_name":"Uncletopia | Sydney | 6 | Community | STV","players":null},{"server_id":49,"name":"Uncletopia | Warsaw | 1 | All Maps","name_short":"waw-1","host":"waw-1.pl.uncletopia.com","port":27015,"enabled":true,"region":"eu","cc":"pl","latitude":52.2297,"longitude":21.017532,"reserved":0,"last_update":"0001-01-01T00:00:00Z","name_a2s":"","protocol":0,"map":"","folder":"","game":"","app_id":0,"player_count":0,"max_players":0,"Bots":0,"server_type":"","server_os":"","password":false,"vac":false,"version":"","steam_id":0,"keywords":null,"game_id":0,"stv_port":0,"stv_name":"","players":null},{"server_id":50,"name":"Uncletopia | Warsaw | 2 | All Maps","name_short":"waw-2","host":"waw-1.pl.uncletopia.com","port":27025,"enabled":true,"region":"eu","cc":"pl","latitude":52.2297,"longitude":21.017532,"reserved":0,"last_update":"0001-01-01T00:00:00Z","name_a2s":"Uncletopia | Warsaw | 2 | All Maps","protocol":17,"map":"pl_borneo","folder":"tf","game":"Team Fortress","app_id":440,"player_count":0,"max_players":24,"Bots":0,"server_type":"Dedicated","server_os":"Linux","password":true,"vac":true,"version":"7757534","steam_id":85568392925397851,"keywords":["nocrits","nodmgspread","payload","uncletopia"],"game_id":440,"stv_port":27026,"stv_name":"Uncletopia | Warsaw | 2 | All Maps | STV","players":null},{"server_id":51,"name":"Uncletopia | Warsaw | 3 | All Maps","name_short":"waw-3","host":"waw-1.pl.uncletopia.com","port":27035,"enabled":true,"region":"eu","cc":"pl","latitude":52.2297,"longitude":21.017532,"reserved":0,"last_update":"0001-01-01T00:00:00Z","name_a2s":"Uncletopia | Warsaw | 3 | All Maps","protocol":17,"map":"koth_viaduct","folder":"tf","game":"Team Fortress","app_id":440,"player_count":0,"max_players":24,"Bots":0,"server_type":"Dedicated","server_os":"Linux","password":true,"vac":true,"version":"7757534","steam_id":85568392925397852,"keywords":["cp","nocrits","nodmgspread","uncletopia"],"game_id":440,"stv_port":27036,"stv_name":"Uncletopia | Warsaw | 3 | All Maps | STV","players":null},{"server_id":52,"name":"Uncletopia | Warsaw | 4 | All Maps","name_short":"waw-4","host":"waw-1.pl.uncletopia.com","port":27045,"enabled":true,"region":"eu","cc":"pl","latitude":52.2297,"longitude":21.017532,"reserved":0,"last_update":"0001-01-01T00:00:00Z","name_a2s":"Uncletopia | Warsaw | 4 | All Maps","protocol":17,"map":"koth_highpass","folder":"tf","game":"Team Fortress","app_id":440,"player_count":0,"max_players":24,"Bots":0,"server_type":"Dedicated","server_os":"Linux","password":true,"vac":true,"version":"7757534","steam_id":85568392925397853,"keywords":["cp","nocrits","nodmgspread","uncletopia"],"game_id":440,"stv_port":27046,"stv_name":"Uncletopia | Warsaw | 4 | All Maps | STV","players":null},{"server_id":53,"name":"Uncletopia | Warsaw | 5 | Stopwatch Beta","name_short":"waw-5","host":"waw-1.pl.uncletopia.com","port":27055,"enabled":true,"region":"eu","cc":"pl","latitude":52.2297,"longitude":21.017532,"reserved":0,"last_update":"0001-01-01T00:00:00Z","name_a2s":"Uncletopia | Warsaw | 5 | Stopwatch Beta","protocol":17,"map":"pl_borneo","folder":"tf","game":"Team Fortress","app_id":440,"player_count":0,"max_players":24,"Bots":0,"server_type":"Dedicated","server_os":"Linux","password":true,"vac":true,"version":"7757534","steam_id":85568392925397854,"keywords":["nocrits","nodmgspread","payload","uncletopia"],"game_id":440,"stv_port":27056,"stv_name":"Uncletopia | Warsaw | 5 | Stopwatch Beta | STV","players":null},{"server_id":54,"name":"Uncletopia | Warsaw | 6 | Community","name_short":"waw-6","host":"waw-1.pl.uncletopia.com","port":27065,"enabled":true,"region":"eu","cc":"pl","latitude":52.2297,"longitude":21.017532,"reserved":0,"last_update":"0001-01-01T00:00:00Z","name_a2s":"Uncletopia | Warsaw | 6 | Community","protocol":17,"map":"koth_lakeside_final","folder":"tf","game":"Team Fortress","app_id":440,"player_count":0,"max_players":24,"Bots":0,"server_type":"Dedicated","server_os":"Linux","password":true,"vac":true,"version":"7757534","steam_id":85568392925397856,"keywords":["cp","nocrits","nodmgspread","uncletopia"],"game_id":440,"stv_port":27066,"stv_name":"Uncletopia | Warsaw | 6 | Community | STV","players":null}]}