{"status":true,"message":"","result":[{"server_id":9,"name":"Uncletopia | Atlanta | 1 | All Maps","name_short":"atl-1","host":"atl-1.us.uncletopia.com","port":27015,"enabled":true,"region":"us-east","cc":"us","latitude":33.753746,"longitude":-84.38633,"reserved":0,"last_update":"0001-01-01T00:00:00Z","name_a2s":"Uncletopia | Atlanta | 1 | All Maps","protocol":17,"map":"pl_snowycoast","folder":"tf","game":"Team Fortress","app_id":440,"player_count":16,"max_players":24,"Bots":0,"server_type":"Dedicated","server_os":"Linux","password":true,"vac":true,"version":"7708610","steam_id":85568392924469982,"keywords":["nocrits","nodmgspread","payload","uncletopia"],"game_id":440,"stv_port":27016,"stv_name":"Uncletopia | Atlanta | 1 | All Maps | STV","players":[{"user_id":717,"name":"Hakuyer","steam_id":76561198098618247,"connected_time":126000000000,"state":"spawning","ping":121},{"user_id":718,"name":"hi","steam_id":76561198378775945,"connected_time":120000000000,"state":"spawning","ping":66},{"user_id":722,"name":"Ashe, the Genuinely Insane","steam_id":76561198065856960,"connected_time":49000000000,"state":"connecting","ping":90},{"user_id":706,"name":"King Rat","steam_id":76561198083835128,"connected_time":726000000000,"state":"spawning","ping":63},{"user_id":724,"name":"Night of the Living Boobs‚Ñ¢","steam_id":76561198086447265,"connected_time":28000000000,"state":"spawning","ping":98},{"user_id":662,"name":"Chorizo Joe","steam_id":76561199230035279,"connected_time":3529000000000,"state":"spawning","ping":43},{"user_id":698,"name":"C papi","steam_id":76561198027779564,"connected_time":1205000000000,"state":"spawning","ping":65},{"user_id":699,"name":"Xbox_Pro_2016","steam_id":76561198176126519,"connected_time":1201000000000,"state":"spawning","ping":62},{"user_id":721,"name":"Arizona","steam_id":76561198113748347,"connected_time":73000000000,"state":"spawning","ping":92},{"user_id":695,"name":"mommy claus","steam_id":76561199230929836,"connected_time":1330000000000,"state":"spawning","ping":91},{"user_id":686,"name":"Techo","steam_id":76561199169405285,"connected_time":2712000000000,"state":"spawning","ping":118},{"user_id":690,"name":"Con","steam_id":76561198043842167,"connected_time":2286000000000,"state":"spawning","ping":64},{"user_id":702,"name":"gimme benzos","steam_id":76561199223514262,"connected_time":1169000000000,"state":"spawning","ping":83},{"user_id":712,"name":"Medic GF (Real)","steam_id":76561198966656717,"connected_time":648000000000,"state":"spawning","ping":128},{"user_id":689,"name":"--_Cook_--","steam_id":76561198080855748,"connected_time":2534000000000,"state":"spawning","ping":63},{"user_id":714,"name":"MaybeMars","steam_id":76561198084736804,"connected_time":593000000000,"state":"spawning","ping":77}]},{"server_id":400,"name":"Uncletopia | Atlanta | 3 | All Maps","name_short":"atl-3","host":"atl-1.us.uncletopia.com","port":27035,"enabled":true,"region":"us-east","cc":"us","latitude":33.753746,"longitude":-84.38633,"reserved":0,"last_update":"0001-01-01T00:00:00Z","name_a2s":"Uncletopia | Atlanta | 3 | All Maps","protocol":17,"map":"cp_sunshine","folder":"tf","game":"Team Fortress","app_id":440,"player_count":0,"max_players":24,"Bots":0,"server_type":"Dedicated","server_os":"Linux","password":true,"vac":true,"version":"7708610","steam_id":85568392924515187,"keywords":["cp","nocrits","nodmgspread","uncletopia"],"game_id":440,"stv_port":27036,"stv_name":"Uncletopia | Atlanta | 3 | All Maps | STV","players":null},{"server_id":401,"name":"Uncletopia | Atlanta | 4 | No Payload","name_short":"atl-4","host":"atl-1.us.uncletopia.com","port":27045,"enabled":true,"region":"us-east","cc":"us","latitude":33.753746,"longitude":-84.38633,"reserved":0,"last_update":"0001-01-01T00:00:00Z","name_a2s":"Uncletopia | Atlanta | 4 | No Payload","protocol":17,"map":"plr_pipeline","folder":"tf","game":"Team Fortress","app_id":440,"player_count":0,"max_players":24,"Bots":0,"server_type":"Dedicated","server_os":"Linux","password":true,"vac":true,"version":"7708610","steam_id":85568392924515188,"keywords":["nocrits","nodmgspread","payload","uncletopia"],"game_id":440,"stv_port":27046,"stv_name":"Uncletopia | Atlanta | 4 | No Payload | STV","players":null},{"server_id":2,"name":"Uncletopia | Chicago | 1 | All Maps","name_short":"chi-1","host":"chi-1.us.uncletopia.com","port":27015,"enabled":true,"region":"us-central","cc":"us","latitude":41.881832,"longitude":-87.62318,"reserved":0,"last_update":"0001-01-01T00:00:00Z","name_a2s":"Uncletopia | Chicago | 1 | All Maps","protocol":17,"map":"pl_borneo","folder":"tf","game":"Team Fortress","app_id":440,"player_count":24,"max_players":24,"Bots":0,"server_type":"Dedicated","server_os":"Linux","password":true,"vac":true,"version":"7708610","steam_id":85568392924469984,"keywords":["nocrits","nodmgspread","payload","uncletopia"],"game_id":440,"stv_port":27016,"stv_name":"Uncletopia | Chicago | 1 | All Maps | STV","players":[{"user_id":847,"name":"Evil clown","steam_id":76561199229169396,"connected_time":3648000000000,"state":"active","ping":62},{"user_id":835,"name":"Lohskyl","steam_id":76561199193237621,"connected_time":4101000000000,"state":"active","ping":48},{"user_id":827,"name":"Hamster","steam_id":76561198079599992,"connected_time":5264000000000,"state":"active","ping":35},{"user_id":875,"name":"Mr Majesticals","steam_id":76561198015242706,"connected_time":1298000000000,"state":"active","ping":106},{"user_id":877,"name":"Undertime Slopper","steam_id":76561198396789061,"connected_time":1052000000000,"state":"active","ping":82},{"user_id":860,"name":"Yunaa","steam_id":76561198244315088,"connected_time":2696000000000,"state":"active","ping":51},{"user_id":884,"name":"pinglefingle","steam_id":76561198216580197,"connected_time":723000000000,"state":"active","ping":102},{"user_id":852,"name":"Analander","steam_id":76561198051970128,"connected_time":2958000000000,"state":"active","ping":67},{"user_id":885,"name":"ruckas nucka","steam_id":76561198302138956,"connected_time":678000000000,"state":"active","ping":74},{"user_id":869,"name":"√íw√ì","steam_id":76561197997304387,"connected_time":1722000000000,"state":"active","ping":69},{"user_id":889,"name":"TheFestMeister","steam_id":76561198092572566,"connected_time":53000000000,"state":"active","ping":60},{"user_id":870,"name":"SkyJett","steam_id":76561198040719249,"connected_time":1716000000000,"state":"active","ping":71},{"user_id":856,"name":"dogen","steam_id":76561198803769563,"connected_time":2860000000000,"state":"active","ping":80},{"user_id":854,"name":"idiot","steam_id":76561198270926835,"connected_time":2891000000000,"state":"active","ping":95},{"user_id":880,"name":"pinion","steam_id":76561197960553065,"connected_time":950000000000,"state":"active","ping":148},{"user_id":886,"name":"Cleric","steam_id":76561198045887994,"connected_time":357000000000,"state":"active","ping":48},{"user_id":876,"name":"Madrox Who?","steam_id":76561197988859134,"connected_time":1098000000000,"state":"active","ping":74},{"user_id":882,"name":"herb","steam_id":76561198185980055,"connected_time":915000000000,"state":"active","ping":61},{"user_id":820,"name":"Kamin","steam_id":76561198255299559,"connected_time":5481000000000,"state":"active","ping":82},{"user_id":888,"name":"sewergirl","steam_id":76561197994492154,"connected_time":180000000000,"state":"active","ping":169},{"user_id":866,"name":"Veir≈´ Viseris","steam_id":76561197989857176,"connected_time":2224000000000,"state":"active","ping":158},{"user_id":841,"name":"Skbonesin","steam_id":76561198180513878,"connected_time":3836000000000,"state":"active","ping":90},{"user_id":842,"name":"your mom misses me","steam_id":76561198017748754,"connected_time":3828000000000,"state":"active","ping":59},{"user_id":844,"name":"LeatherFace","steam_id":76561198011947334,"connected_time":3818000000000,"state":"active","ping":55}]},{"server_id":106,"name":"Uncletopia | Chicago | 2 | All Maps","name_short":"chi-2","host":"chi-1.us.uncletopia.com","port":27025,"enabled":true,"region":"us-central","cc":"us","latitude":41.881832,"longitude":-87.62318,"reserved":0,"last_update":"0001-01-01T00:00:00Z","name_a2s":"Uncletopia | Chicago | 2 | All Maps","protocol":17,"map":"koth_highpass","folder":"tf","game":"Team Fortress","app_id":440,"player_count":0,"max_players":24,"Bots":0,"server_type":"Dedicated","server_os":"Linux","password":true,"vac":true,"version":"7708610","steam_id":85568392924469985,"keywords":["cp","nocrits","nodmgspread","uncletopia"],"game_id":440,"stv_port":27026,"stv_name":"Uncletopia | Chicago | 2 | All Maps | STV","players":null},{"server_id":402,"name":"Uncletopia | Chicago | 3 | All Maps","name_short":"chi-3","host":"chi-1.us.uncletopia.com","port":27035,"enabled":true,"region":"us-central","cc":"us","latitude":41.881832,"longitude":-87.62318,"reserved":0,"last_update":"0001-01-01T00:00:00Z","name_a2s":"Uncletopia | Chicago | 3 | All Maps","protocol":17,"map":"koth_cascade","folder":"tf","game":"Team Fortress","app_id":440,"player_count":14,"max_players":24,"Bots":0,"server_type":"Dedicated","server_os":"Linux","password":true,"vac":true,"version":"7708610","steam_id":85568392924515191,"keywords":["cp","nocrits","nodmgspread","uncletopia"],"game_id":440,"stv_port":27036,"stv_name":"Uncletopia | Chicago | 3 | All Maps | STV","players":[{"user_id":450,"name":"They/Them pussy got me like","steam_id":76561198050964269,"connected_time":643000000000,"state":"active","ping":79},{"user_id":436,"name":"tonyb lft","steam_id":76561198131703086,"connected_time":2630000000000,"state":"active","ping":71},{"user_id":438,"name":"Z4","steam_id":76561198300062365,"connected_time":1834000000000,"state":"active","ping":62},{"user_id":447,"name":"Arcadletus","steam_id":76561198976009938,"connected_time":1123000000000,"state":"active","ping":112},{"user_id":440,"name":"ganjasmoker22","steam_id":76561198168621580,"connected_time":1739000000000,"state":"active","ping":78},{"user_id":452,"name":"Scoutroad","steam_id":76561198136564680,"connected_time":83000000000,"state":"active","ping":76},{"user_id":418,"name":"looloopaa","steam_id":76561198048179242,"connected_time":4204000000000,"state":"active","ping":50},{"user_id":441,"name":"trans gaming troll (she/her)","steam_id":76561198085410622,"connected_time":1720000000000,"state":"active","ping":81},{"user_id":442,"name":"brn","steam_id":76561198118211523,"connected_time":1709000000000,"state":"active","ping":54},{"user_id":449,"name":"L. Ron Hoyabembe","steam_id":76561198037786766,"connected_time":1071000000000,"state":"active","ping":75},{"user_id":444,"name":"uneducated guess","steam_id":76561198140846580,"connected_time":1660000000000,"state":"active","ping":61},{"user_id":428,"name":"Dittery","steam_id":76561198114899953,"connected_time":3395000000000,"state":"active","ping":57},{"user_id":445,"name":"groond","steam_id":76561198309426720,"connected_time":1658000000000,"state":"active","ping":55},{"user_id":446,"name":"Javar Lamarvajar","steam_id":76561197996865358,"connected_time":1616000000000,"state":"active","ping":66}]},{"server_id":403,"name":"Uncletopia | Chicago | 4 | All Maps","name_short":"chi-4","host":"chi-1.us.uncletopia.com","port":27045,"enabled":true,"region":"us-central","cc":"us","latitude":41.881832,"longitude":-87.62318,"reserved":0,"last_update":"0001-01-01T00:00:00Z","name_a2s":"Uncletopia | Chicago | 4 | All Maps","protocol":17,"map":"koth_viaduct","folder":"tf","game":"Team Fortress","app_id":440,"player_count":0,"max_players":24,"Bots":0,"server_type":"Dedicated","server_os":"Linux","password":true,"vac":true,"version":"7708610","steam_id":85568392924515193,"keywords":["cp","nocrits","nodmgspread","uncletopia"],"game_id":440,"stv_port":27046,"stv_name":"Uncletopia | Chicago | 4 | All Maps | STV","players":null},{"server_id":36,"name":"Uncletopia | Chicago | 5 | All Maps","name_short":"chi-5","host":"chi-2.us.uncletopia.com","port":27015,"enabled":true,"region":"us-central","cc":"us","latitude":41.881832,"longitude":-87.62318,"reserved":0,"last_update":"0001-01-01T00:00:00Z","name_a2s":"Uncletopia | Chicago | 5 | All Maps","protocol":17,"map":"koth_cascade","folder":"tf","game":"Team Fortress","app_id":440,"player_count":0,"max_players":24,"Bots":0,"server_type":"Dedicated","server_os":"Linux","password":true,"vac":true,"version":"7708610","steam_id":85568392924866362,"keywords":["cp","nocrits","nodmgspread","uncletopia"],"game_id":440,"stv_port":27016,"stv_name":"Uncletopia | Chicago | 5 | All Maps | STV","players":null},{"server_id":37,"name":"Uncletopia | Chicago | 6 | All Maps","name_short":"chi-6","host":"chi-2.us.uncletopia.com","port":27025,"enabled":true,"region":"us-central","cc":"us","latitude":41.881832,"longitude":-87.62318,"reserved":0,"last_update":"0001-01-01T00:00:00Z","name_a2s":"Uncletopia | Chicago | 6 | All Maps","protocol":17,"map":"cp_process_final","folder":"tf","game":"Team Fortress","app_id":440,"player_count":24,"max_players":24,"Bots":0,"server_type":"Dedicated","server_os":"Linux","password":true,"vac":true,"version":"7708610","steam_id":85568392924866363,"keywords":["cp","nocrits","nodmgspread","uncletopia"],"game_id":440,"stv_port":27026,"stv_name":"Uncletopia | Chicago | 6 | All Maps | STV","players":[{"user_id":307,"name":"Pancreas Enjoyer","steam_id":76561199438598904,"connected_time":467000000000,"state":"active","ping":85},{"user_id":281,"name":"30day","steam_id":76561198219163831,"connected_time":2293000000000,"state":"active","ping":52},{"user_id":296,"name":"YASAI JUICE","steam_id":76561198131971992,"connected_time":773000000000,"state":"active","ping":42},{"user_id":282,"name":"Bee","steam_id":76561198074681324,"connected_time":2176000000000,"state":"active","ping":61},{"user_id":300,"name":"Robbie Rotten","steam_id":76561198426759305,"connected_time":636000000000,"state":"active","ping":72},{"user_id":262,"name":"Method","steam_id":76561198159176620,"connected_time":3207000000000,"state":"active","ping":91},{"user_id":270,"name":"PersonMan","steam_id":76561198153426326,"connected_time":2553000000000,"state":"active","ping":108},{"user_id":286,"name":"checkswing","steam_id":76561198999816132,"connected_time":1675000000000,"state":"active","ping":76},{"user_id":308,"name":"Audiphon","steam_id":76561198051340300,"connected_time":466000000000,"state":"active","ping":140},{"user_id":317,"name":"Yeshie the Dragon Layer","steam_id":76561198080214214,"connected_time":40000000000,"state":"active","ping":44},{"user_id":309,"name":"DOOMGUY","steam_id":76561198368835111,"connected_time":459000000000,"state":"active","ping":84},{"user_id":258,"name":"VX Ghost (Holiday)","steam_id":76561198072541436,"connected_time":3556000000000,"state":"active","ping":43},{"user_id":301,"name":"AJZombieSlayr","steam_id":76561198157802310,"connected_time":618000000000,"state":"active","ping":83},{"user_id":311,"name":"TTV Chaddy_Gaming","steam_id":76561198100098802,"connected_time":267000000000,"state":"active","ping":140},{"user_id":312,"name":"Fantastic","steam_id":76561198079088978,"connected_time":235000000000,"state":"active","ping":46},{"user_id":288,"name":"ZeritoPower S\u003e 2 unusuals","steam_id":76561198215274576,"connected_time":1464000000000,"state":"active","ping":60},{"user_id":294,"name":"Evolution","steam_id":76561198144767370,"connected_time":1105000000000,"state":"active","ping":47},{"user_id":304,"name":"uluna","steam_id":76561198284102821,"connected_time":613000000000,"state":"active","ping":52},{"user_id":313,"name":"Boiling Oil","steam_id":76561199238964574,"connected_time":229000000000,"state":"active","ping":67},{"user_id":316,"name":"Aardillo","steam_id":76561198042193578,"connected_time":45000000000,"state":"active","ping":105},{"user_id":314,"name":"leonardo doujinshi","steam_id":76561198025810326,"connected_time":219000000000,"state":"active","ping":60},{"user_id":277,"name":"crybaby","steam_id":76561199383952901,"connected_time":2391000000000,"state":"active","ping":81},{"user_id":278,"name":"Weary","steam_id":76561198145767546,"connected_time":2383000000000,"state":"active","ping":62},{"user_id":280,"name":"bobbyreinman2009","steam_id":76561198804763186,"connected_time":2328000000000,"state":"active","ping":64}]},{"server_id":38,"name":"Uncletopia | Chicago | 7 | No Payload","name_short":"chi-7","host":"chi-2.us.uncletopia.com","port":27035,"enabled":true,"region":"us-central","cc":"us","latitude":41.881832,"longitude":-87.62318,"reserved":0,"last_update":"0001-01-01T00:00:00Z","name_a2s":"Uncletopia | Chicago | 7 | No Payload","protocol":17,"map":"koth_lakeside_final","folder":"tf","game":"Team Fortress","app_id":440,"player_count":0,"max_players":24,"Bots":0,"server_type":"Dedicated","server_os":"Linux","password":true,"vac":true,"version":"7708610","steam_id":85568392924866364,"keywords":["cp","nocrits","nodmgspread","uncletopia"],"game_id":440,"stv_port":27036,"stv_name":"Uncletopia | Chicago | 7 | No Payload | STV","players":null},{"server_id":39,"name":"Uncletopia | Chicago | 8 | Community","name_short":"chi-8","host":"chi-2.us.uncletopia.com","port":27045,"enabled":true,"region":"us-central","cc":"us","latitude":41.881832,"longitude":-87.62318,"reserved":0,"last_update":"0001-01-01T00:00:00Z","name_a2s":"Uncletopia | Chicago | 8 | Community","protocol":17,"map":"workshop/cp_reckoner_rc6.ugc674719999","folder":"tf","game":"Team Fortress","app_id":440,"player_count":0,"max_players":24,"Bots":0,"server_type":"Dedicated","server_os":"Linux","password":true,"vac":true,"version":"7708610","steam_id":85568392924866365,"keywords":["cp","nocrits","nodmgspread","uncletopia"],"game_id":440,"stv_port":27046,"stv_name":"Uncletopia | Chicago | 8 | Community | STV","players":null},{"server_id":8,"name":"Uncletopia | Dallas | 1 | All Maps","name_short":"dal-1","host":"dal-1.us.uncletopia.com","port":27015,"enabled":true,"region":"us-central","cc":"us","latitude":32.779167,"longitude":-96.80889,"reserved":0,"last_update":"0001-01-01T00:00:00Z","name_a2s":"Uncletopia | Dallas | 1 | All Maps","protocol":17,"map":"pl_frontier_final","folder":"tf","game":"Team Fortress","app_id":440,"player_count":24,"max_players":24,"Bots":0,"server_type":"Dedicated","server_os":"Linux","password":true,"vac":true,"version":"7708610","steam_id":85568392924469986,"keywords":["nocrits","nodmgspread","payload","uncletopia"],"game_id":440,"stv_port":27016,"stv_name":"Uncletopia | Dallas | 1 | All Maps | STV","players":[{"user_id":721,"name":"thanksgiving turkey","steam_id":76561198976876859,"connected_time":3086000000000,"state":"active","ping":85},{"user_id":682,"name":"Furious George","steam_id":76561198405111646,"connected_time":6127000000000,"state":"active","ping":70},{"user_id":717,"name":"Krazzle","steam_id":76561198029782412,"connected_time":3763000000000,"state":"active","ping":56},{"user_id":726,"name":"silenthvalross","steam_id":76561198073131329,"connected_time":1811000000000,"state":"active","ping":43},{"user_id":729,"name":"aero","steam_id":76561198297202459,"connected_time":491000000000,"state":"active","ping":91},{"user_id":709,"name":"ShiddyKong","steam_id":76561198189742189,"connected_time":4583000000000,"state":"active","ping":47},{"user_id":677,"name":"177013","steam_id":76561198072303290,"connected_time":6259000000000,"state":"active","ping":89},{"user_id":692,"name":"The Engie","steam_id":76561198049418537,"connected_time":5211000000000,"state":"active","ping":52},{"user_id":667,"name":"+","steam_id":76561198262422184,"connected_time":6659000000000,"state":"active","ping":50},{"user_id":720,"name":"McNamJam","steam_id":76561198028128686,"connected_time":3540000000000,"state":"active","ping":104},{"user_id":728,"name":"Spiffyo‚Ñ¢","steam_id":76561198169937791,"connected_time":683000000000,"state":"active","ping":81},{"user_id":665,"name":"minion from minions","steam_id":76561199001464827,"connected_time":6683000000000,"state":"active","ping":45},{"user_id":725,"name":"CreativeUsername","steam_id":76561198186045503,"connected_time":1934000000000,"state":"active","ping":79},{"user_id":680,"name":"garuda","steam_id":76561198074722858,"connected_time":6158000000000,"state":"active","ping":59},{"user_id":710,"name":"I Swallowed Shampoo","steam_id":76561198075130050,"connected_time":4398000000000,"state":"active","ping":66},{"user_id":712,"name":"why","steam_id":76561199059732212,"connected_time":4272000000000,"state":"active","ping":67},{"user_id":736,"name":"warm","steam_id":76561198022960795,"connected_time":36000000000,"state":"spawning","ping":131},{"user_id":727,"name":"I \u003c3 femboys (and furrys)","steam_id":76561198958670472,"connected_time":831000000000,"state":"active","ping":66},{"user_id":734,"name":"moe","steam_id":76561198929586245,"connected_time":123000000000,"state":"active","ping":77},{"user_id":705,"name":"CACTUS","steam_id":76561198327863229,"connected_time":4753000000000,"state":"active","ping":88},{"user_id":735,"name":"Shmoopy","steam_id":76561198030459152,"connected_time":109000000000,"state":"active","ping":76},{"user_id":737,"name":"cursed f2p pyro","steam_id":76561199422147667,"connected_time":7000000000,"state":"spawning","ping":197},{"user_id":724,"name":"ThatScarfDude #NekoIsLife","steam_id":76561198140963271,"connected_time":1974000000000,"state":"active","ping":99},{"user_id":674,"name":"Lore","steam_id":76561198098407538,"connected_time":6576000000000,"state":"active","ping":74}]},{"server_id":108,"name":"Uncletopia | Dallas | 2 | All Maps","name_short":"dal-2","host":"dal-1.us.uncletopia.com","port":27025,"enabled":true,"region":"us-central","cc":"us","latitude":32.779167,"longitude":-96.80889,"reserved":0,"last_update":"0001-01-01T00:00:00Z","name_a2s":"Uncletopia | Dallas | 2 | All Maps","protocol":17,"map":"cp_gullywash_final1","folder":"tf","game":"Team Fortress","app_id":440,"player_count":23,"max_players":24,"Bots":0,"server_type":"Dedicated","server_os":"Linux","password":true,"vac":true,"version":"7708610","steam_id":85568392924469988,"keywords":["cp","nocrits","nodmgspread","uncletopia"],"game_id":440,"stv_port":27026,"stv_name":"Uncletopia | Dallas | 2 | All Maps | STV","players":[{"user_id":150,"name":"Harold","steam_id":76561198057317770,"connected_time":4525000000000,"state":"active","ping":77},{"user_id":226,"name":"TrovusMango","steam_id":76561198207214560,"connected_time":221000000000,"state":"active","ping":67},{"user_id":223,"name":"urban legend","steam_id":76561198069188276,"connected_time":548000000000,"state":"active","ping":63},{"user_id":231,"name":"Majestic-A","steam_id":76561198988062101,"connected_time":1000000000,"state":"spawning","ping":44},{"user_id":212,"name":"moint pan","steam_id":76561198968773067,"connected_time":1658000000000,"state":"active","ping":91},{"user_id":131,"name":"Sugercrash","steam_id":76561199187685119,"connected_time":6239000000000,"state":"active","ping":67},{"user_id":149,"name":"CloverOverDoverüçÄ","steam_id":76561198354292689,"connected_time":4535000000000,"state":"active","ping":45},{"user_id":176,"name":"Oscidor","steam_id":76561198362839738,"connected_time":3237000000000,"state":"active","ping":60},{"user_id":227,"name":"DOMO_MR_ROBOTO","steam_id":76561198077108345,"connected_time":184000000000,"state":"active","ping":71},{"user_id":195,"name":"TeriyakiDynamite","steam_id":76561198050049346,"connected_time":2568000000000,"state":"active","ping":85},{"user_id":228,"name":"just the worst","steam_id":76561198102567402,"connected_time":157000000000,"state":"active","ping":79},{"user_id":229,"name":"SpaceGhost","steam_id":76561199249733628,"connected_time":122000000000,"state":"active","ping":74},{"user_id":224,"name":"PirateJet","steam_id":76561198050858744,"connected_time":350000000000,"state":"active","ping":79},{"user_id":209,"name":"mama burger","steam_id":76561198048698026,"connected_time":1722000000000,"state":"active","ping":94},{"user_id":218,"name":"‚òÇBliffenstimmers‚òÇ","steam_id":76561198059984896,"connected_time":1324000000000,"state":"active","ping":61},{"user_id":191,"name":"BigBubble42","steam_id":76561198136286123,"connected_time":2921000000000,"state":"active","ping":38},{"user_id":222,"name":"Lux E Tenebris","steam_id":76561198072664199,"connected_time":1041000000000,"state":"active","ping":71},{"user_id":199,"name":"gogirlgames.com","steam_id":76561198272471440,"connected_time":2362000000000,"state":"active","ping":67},{"user_id":213,"name":"ultra","steam_id":76561198327686189,"connected_time":1649000000000,"state":"active","ping":48},{"user_id":203,"name":"Phaze","steam_id":76561198025267071,"connected_time":2296000000000,"state":"active","ping":56},{"user_id":230,"name":"Western_dragon","steam_id":76561198130456105,"connected_time":107000000000,"state":"active","ping":78},{"user_id":219,"name":"Ultra\u003c3","steam_id":76561198352021493,"connected_time":1253000000000,"state":"active","ping":88},{"user_id":215,"name":"flatts","steam_id":76561198094127177,"connected_time":1605000000000,"state":"active","ping":65}]},{"server_id":5,"name":"Uncletopia | Frankfurt | 1 | All Maps","name_short":"frk-1","host":"frk-1.de.uncletopia.com","port":27015,"enabled":true,"region":"eu","cc":"de","latitude":50.110924,"longitude":8.682127,"reserved":0,"last_update":"0001-01-01T00:00:00Z","name_a2s":"Uncletopia | Frankfurt | 1 | All Maps","protocol":17,"map":"pl_swiftwater_final1","folder":"tf","game":"Team Fortress","app_id":440,"player_count":0,"max_players":24,"Bots":0,"server_type":"Dedicated","server_os":"Linux","password":true,"vac":true,"version":"7708610","steam_id":85568392924469989,"keywords":["nocrits","nodmgspread","payload","uncletopia"],"game_id":440,"stv_port":27016,"stv_name":"Uncletopia | Frankfurt | 1 | All Maps | STV","players":null},{"server_id":110,"name":"Uncletopia | Frankfurt | 2 | All Maps","name_short":"frk-2","host":"frk-1.de.uncletopia.com","port":27025,"enabled":true,"region":"eu","cc":"de","latitude":50.110924,"longitude":8.682127,"reserved":0,"last_update":"0001-01-01T00:00:00Z","name_a2s":"Uncletopia | Frankfurt | 2 | All Maps","protocol":17,"map":"pl_pier","folder":"tf","game":"Team Fortress","app_id":440,"player_count":0,"max_players":24,"Bots":0,"server_type":"Dedicated","server_os":"Linux","password":true,"vac":true,"version":"7708610","steam_id":85568392924469990,"keywords":["nocrits","nodmgspread","payload","uncletopia"],"game_id":440,"stv_port":0,"stv_name":"","players":null},{"server_id":308,"name":"Uncletopia | Frankfurt | 3 | All Maps","name_short":"frk-3","host":"frk-1.de.uncletopia.com","port":27035,"enabled":true,"region":"eu","cc":"de","latitude":50.110924,"longitude":8.682127,"reserved":0,"last_update":"0001-01-01T00:00:00Z","name_a2s":"Uncletopia | Frankfurt | 3 | All Maps","protocol":17,"map":"koth_cascade","folder":"tf","game":"Team Fortress","app_id":440,"player_count":0,"max_players":24,"Bots":0,"server_type":"Dedicated","server_os":"Linux","password":true,"vac":true,"version":"7708610","steam_id":85568392924504274,"keywords":["cp","nocrits","nodmgspread","uncletopia"],"game_id":440,"stv_port":0,"stv_name":"","players":null},{"server_id":309,"name":"Uncletopia | Frankfurt | 4 | All Maps","name_short":"frk-4","host":"frk-1.de.uncletopia.com","port":27045,"enabled":true,"region":"eu","cc":"de","latitude":50.110924,"longitude":8.682127,"reserved":0,"last_update":"0001-01-01T00:00:00Z","name_a2s":"Uncletopia | Frankfurt | 4 | All Maps","protocol":17,"map":"pl_swiftwater_final1","folder":"tf","game":"Team Fortress","app_id":440,"player_count":0,"max_players":24,"Bots":0,"server_type":"Dedicated","server_os":"Linux","password":true,"vac":true,"version":"7708610","steam_id":85568392924504275,"keywords":["nocrits","nodmgspread","payload","uncletopia"],"game_id":440,"stv_port":0,"stv_name":"","players":null},{"server_id":310,"name":"Uncletopia | Frankfurt | 5 | All Maps","name_short":"frk-5","host":"frk-1.de.uncletopia.com","port":27055,"enabled":true,"region":"eu","cc":"de","latitude":50.110924,"longitude":8.682127,"reserved":0,"last_update":"0001-01-01T00:00:00Z","name_a2s":"Uncletopia | Frankfurt | 5 | All Maps","protocol":17,"map":"koth_cascade","folder":"tf","game":"Team Fortress","app_id":440,"player_count":0,"max_players":24,"Bots":0,"server_type":"Dedicated","server_os":"Linux","password":true,"vac":true,"version":"7708610","steam_id":85568392924504277,"keywords":["cp","nocrits","nodmgspread","uncletopia"],"game_id":440,"stv_port":0,"stv_name":"","players":null},{"server_id":311,"name":"Uncletopia | Frankfurt | 6 | All Maps","name_short":"frk-6","host":"frk-1.de.uncletopia.com","port":27065,"enabled":true,"region":"eu","cc":"de","latitude":50.110924,"longitude":8.682127,"reserved":0,"last_update":"0001-01-01T00:00:00Z","name_a2s":"Uncletopia | Frankfurt | 6 | All Maps","protocol":17,"map":"koth_lakeside_final","folder":"tf","game":"Team Fortress","app_id":440,"player_count":0,"max_players":24,"Bots":0,"server_type":"Dedicated","server_os":"Linux","password":true,"vac":true,"version":"7708610","steam_id":85568392924504278,"keywords":["cp","nocrits","nodmgspread","uncletopia"],"game_id":440,"stv_port":0,"stv_name":"","players":null},{"server_id":23,"name":"Uncletopia | Frankfurt | 7 | No Payload","name_short":"frk-7","host":"frk-1.de.uncletopia.com","port":27075,"enabled":true,"region":"eu","cc":"de","latitude":50.110924,"longitude":8.682127,"reserved":0,"last_update":"0001-01-01T00:00:00Z","name_a2s":"Uncletopia | Frankfurt | 7 | No Payload","protocol":17,"map":"pl_frontier_final","folder":"tf","game":"Team Fortress","app_id":440,"player_count":0,"max_players":24,"Bots":0,"server_type":"Dedicated","server_os":"Linux","password":true,"vac":true,"version":"7708610","steam_id":85568392924742827,"keywords":["nocrits","nodmgspread","payload","uncletopia"],"game_id":440,"stv_port":0,"stv_name":"","players":null},{"server_id":24,"name":"Uncletopia | Frankfurt | 8 | Community","name_short":"frk-8","host":"frk-1.de.uncletopia.com","port":27085,"enabled":true,"region":"eu","cc":"de","latitude":50.110924,"longitude":8.682127,"reserved":0,"last_update":"0001-01-01T00:00:00Z","name_a2s":"Uncletopia | Frankfurt | 8 | Community","protocol":17,"map":"cp_mountainlab","folder":"tf","game":"Team Fortress","app_id":440,"player_count":0,"max_players":24,"Bots":0,"server_type":"Dedicated","server_os":"Linux","password":true,"vac":true,"version":"7708610","steam_id":85568392924742828,"keywords":["cp","nocrits","nodmgspread","uncletopia"],"game_id":440,"stv_port":0,"stv_name":"","players":null},{"server_id":202,"name":"Uncletopia | Hong Kong | 1 | All Maps","name_short":"hgk-1","host":"hgk-1.hk.uncletopia.com","port":27015,"enabled":true,"region":"asia","cc":"hk","latitude":22.302711,"longitude":114.177216,"reserved":0,"last_update":"0001-01-01T00:00:00Z","name_a2s":"Uncletopia | Hong Kong | 1 | All Maps","protocol":17,"map":"pl_barnblitz","folder":"tf","game":"Team Fortress","app_id":440,"player_count":24,"max_players":24,"Bots":0,"server_type":"Dedicated","server_os":"Linux","password":true,"vac":true,"version":"7708610","steam_id":85568392924494504,"keywords":["nocrits","nodmgspread","payload","uncletopia"],"game_id":440,"stv_port":27016,"stv_name":"Uncletopia | Hong Kong | 1 | All Maps | STV","players":[{"user_id":262,"name":"can we get much higher","steam_id":76561199390507975,"connected_time":1384000000000,"state":"active","ping":45},{"user_id":187,"name":"bonito borzoi","steam_id":76561198230213828,"connected_time":8036000000000,"state":"active","ping":61},{"user_id":244,"name":"Talkk More","steam_id":76561198305424433,"connected_time":3696000000000,"state":"active","ping":82},{"user_id":222,"name":"L√∫d","steam_id":76561198828840546,"connected_time":5279000000000,"state":"active","ping":86},{"user_id":223,"name":"bakabazooka(merrychrismas)","steam_id":76561198061628689,"connected_time":5279000000000,"state":"active","ping":58},{"user_id":231,"name":"Michael Scott","steam_id":76561198023082794,"connected_time":4867000000000,"state":"active","ping":44},{"user_id":273,"name":"QWQ","steam_id":76561198886731650,"connected_time":443000000000,"state":"active","ping":107},{"user_id":131,"name":"MS PowerPoint","steam_id":76561198369523192,"connected_time":11674000000000,"state":"active","ping":62},{"user_id":269,"name":"paga","steam_id":76561198296718007,"connected_time":1023000000000,"state":"active","ping":103},{"user_id":247,"name":"Noyour","steam_id":76561198323259830,"connected_time":3661000000000,"state":"active","ping":116},{"user_id":242,"name":"CaptainBozo","steam_id":76561199151959977,"connected_time":3700000000000,"state":"active","ping":52},{"user_id":270,"name":"Dariyda","steam_id":76561199107212405,"connected_time":1022000000000,"state":"active","ping":124},{"user_id":196,"name":"ogey","steam_id":76561198074339034,"connected_time":7692000000000,"state":"active","ping":79},{"user_id":243,"name":"UltraFat","steam_id":76561198253918132,"connected_time":3698000000000,"state":"active","ping":76},{"user_id":261,"name":"silversol","steam_id":76561198004570036,"connected_time":1883000000000,"state":"active","ping":95},{"user_id":272,"name":"dunkleshreken","steam_id":76561198044875028,"connected_time":455000000000,"state":"active","ping":103},{"user_id":254,"name":"Buttman","steam_id":76561198044693388,"connected_time":2798000000000,"state":"active","ping":46},{"user_id":232,"name":"Lu","steam_id":76561198320532821,"connected_time":4865000000000,"state":"active","ping":53},{"user_id":256,"name":"water tastes good","steam_id":76561199375947670,"connected_time":2694000000000,"state":"active","ping":74},{"user_id":271,"name":"Èõ™„Éé‰∏ãÈõ™‰πÉ„ÅÆoppai","steam_id":76561198008307645,"connected_time":1020000000000,"state":"active","ping":78},{"user_id":238,"name":"ellz","steam_id":76561199216074568,"connected_time":4253000000000,"state":"active","ping":73},{"user_id":255,"name":"viktor.reznov1963@vorkuta.ru","steam_id":76561198563844709,"connected_time":2759000000000,"state":"active","ping":105},{"user_id":195,"name":"Lym0n","steam_id":76561199192420260,"connected_time":7844000000000,"state":"active","ping":148},{"user_id":259,"name":"Dr. Piss Rat","steam_id":76561199074809838,"connected_time":2114000000000,"state":"active","ping":70}]},{"server_id":1,"name":"Uncletopia | Los Angeles | 1 | All Maps","name_short":"lax-1","host":"lax-1.us.uncletopia.com","port":27015,"enabled":true,"region":"us-west","cc":"us","latitude":33.94279,"longitude":-118.41004,"reserved":0,"last_update":"0001-01-01T00:00:00Z","name_a2s":"Uncletopia | Los Angeles | 1 | All Maps","protocol":17,"map":"koth_viaduct","folder":"tf","game":"Team Fortress","app_id":440,"player_count":0,"max_players":24,"Bots":0,"server_type":"Dedicated","server_os":"Linux","password":true,"vac":true,"version":"7708610","steam_id":85568392924469991,"keywords":["cp","nocrits","nodmgspread","uncletopia"],"game_id":440,"stv_port":27016,"stv_name":"Uncletopia | Los Angeles | 1 | All Maps | STV","players":null},{"server_id":112,"name":"Uncletopia | Los Angeles | 2 | All Maps","name_short":"lax-2","host":"lax-1.us.uncletopia.com","port":27025,"enabled":true,"region":"us-west","cc":"us","latitude":33.94279,"longitude":-118.41004,"reserved":0,"last_update":"0001-01-01T00:00:00Z","name_a2s":"Uncletopia | Los Angeles | 2 | All Maps","protocol":17,"map":"cp_mountainlab","folder":"tf","game":"Team Fortress","app_id":440,"player_count":0,"max_players":24,"Bots":0,"server_type":"Dedicated","server_os":"Linux","password":true,"vac":true,"version":"7708610","steam_id":85568392924469992,"keywords":["cp","nocrits","nodmgspread","uncletopia"],"game_id":440,"stv_port":27026,"stv_name":"Uncletopia | Los Angeles | 2 | All Maps | STV","players":null},{"server_id":324,"name":"Uncletopia | Los Angeles | 3 | All Maps","name_short":"lax-3","host":"lax-1.us.uncletopia.com","port":27035,"enabled":true,"region":"us-west","cc":"us","latitude":33.94279,"longitude":-118.41004,"reserved":0,"last_update":"0001-01-01T00:00:00Z","name_a2s":"Uncletopia | Los Angeles | 3 | All Maps","protocol":17,"map":"pl_pier","folder":"tf","game":"Team Fortress","app_id":440,"player_count":24,"max_players":24,"Bots":0,"server_type":"Dedicated","server_os":"Linux","password":true,"vac":true,"version":"7708610","steam_id":85568392924510198,"keywords":["nocrits","nodmgspread","payload","uncletopia"],"game_id":440,"stv_port":27036,"stv_name":"Uncletopia | Los Angeles | 3 | All Maps | STV","players":[{"user_id":54,"name":"Humus","steam_id":76561198175286355,"connected_time":4234000000000,"state":"active","ping":45},{"user_id":79,"name":"MERRY DICKUS (soon)","steam_id":76561199057483763,"connected_time":1799000000000,"state":"active","ping":45},{"user_id":87,"name":"El Doktor","steam_id":76561198413013439,"connected_time":1164000000000,"state":"active","ping":48},{"user_id":55,"name":"Frongus","steam_id":76561197979056451,"connected_time":4169000000000,"state":"active","ping":75},{"user_id":59,"name":"Mom","steam_id":76561198207936000,"connected_time":3764000000000,"state":"active","ping":45},{"user_id":89,"name":"oil","steam_id":76561198099980149,"connected_time":951000000000,"state":"active","ping":46},{"user_id":90,"name":"RobloxFan2016","steam_id":76561198864845171,"connected_time":946000000000,"state":"active","ping":55},{"user_id":101,"name":"Dabois","steam_id":76561199147193419,"connected_time":286000000000,"state":"active","ping":78},{"user_id":73,"name":"el Rey","steam_id":76561198105928603,"connected_time":2347000000000,"state":"active","ping":47},{"user_id":93,"name":"Moyshen24","steam_id":76561199210510557,"connected_time":764000000000,"state":"active","ping":66},{"user_id":91,"name":"The_Pacific_gamer","steam_id":76561198089491446,"connected_time":863000000000,"state":"active","ping":72},{"user_id":103,"name":"rasa","steam_id":76561198025784696,"connected_time":240000000000,"state":"active","ping":79},{"user_id":63,"name":"Sun Sugar","steam_id":76561198385085005,"connected_time":3647000000000,"state":"active","ping":62},{"user_id":100,"name":"BernieWouldHaveWon","steam_id":76561197979776458,"connected_time":388000000000,"state":"active","ping":73},{"user_id":92,"name":"warehouse13xx","steam_id":76561198193379762,"connected_time":834000000000,"state":"active","ping":80},{"user_id":94,"name":"ChoccyMiltank","steam_id":76561198981474284,"connected_time":741000000000,"state":"active","ping":45},{"user_id":68,"name":"happer","steam_id":76561198018252253,"connected_time":2706000000000,"state":"active","ping":50},{"user_id":77,"name":"Spooky \u003c3","steam_id":76561198255602662,"connected_time":2266000000000,"state":"active","ping":55},{"user_id":75,"name":"El Monte","steam_id":76561198263562991,"connected_time":2342000000000,"state":"active","ping":48},{"user_id":41,"name":"lgbtq rights","steam_id":76561198022967929,"connected_time":4931000000000,"state":"active","ping":45},{"user_id":82,"name":"1000 playas","steam_id":76561199245670274,"connected_time":1683000000000,"state":"active","ping":45},{"user_id":95,"name":"Mudkip","steam_id":76561198164192160,"connected_time":729000000000,"state":"active","ping":99},{"user_id":98,"name":"Azaheth","steam_id":76561198253616898,"connected_time":690000000000,"state":"active","ping":59},{"user_id":99,"name":"‚òÜAtomic Waffle‚òÜ","steam_id":76561198100385184,"connected_time":689000000000,"state":"active","ping":60}]},{"server_id":25,"name":"Uncletopia | Los Angeles | 4 | No Payload","name_short":"lax-4","host":"lax-1.us.uncletopia.com","port":27045,"enabled":true,"region":"us-west","cc":"us","latitude":33.94279,"longitude":-118.41004,"reserved":0,"last_update":"0001-01-01T00:00:00Z","name_a2s":"Uncletopia | Los Angeles | 4 | No Payload","protocol":17,"map":"koth_suijin","folder":"tf","game":"Team Fortress","app_id":440,"player_count":0,"max_players":24,"Bots":0,"server_type":"Dedicated","server_os":"Linux","password":true,"vac":true,"version":"7708610","steam_id":85568392924510199,"keywords":["cp","nocrits","nodmgspread","uncletopia"],"game_id":440,"stv_port":27046,"stv_name":"Uncletopia | Los Angeles | 4 | No Payload | STV","players":null},{"server_id":11,"name":"Uncletopia | London | 1 | All Maps","name_short":"lon-1","host":"lon-1.uk.uncletopia.com","port":27015,"enabled":true,"region":"eu","cc":"gb","latitude":51.509865,"longitude":-0.118092,"reserved":0,"last_update":"0001-01-01T00:00:00Z","name_a2s":"Uncletopia | London | 1 | All Maps","protocol":17,"map":"koth_viaduct","folder":"tf","game":"Team Fortress","app_id":440,"player_count":0,"max_players":24,"Bots":0,"server_type":"Dedicated","server_os":"Linux","password":true,"vac":true,"version":"7708610","steam_id":85568392924367362,"keywords":["cp","nocrits","nodmgspread","uncletopia"],"game_id":440,"stv_port":0,"stv_name":"","players":null},{"server_id":114,"name":"Uncletopia | London | 2 | All Maps","name_short":"lon-2","host":"lon-1.uk.uncletopia.com","port":27025,"enabled":true,"region":"eu","cc":"gb","latitude":51.509865,"longitude":-0.118092,"reserved":0,"last_update":"0001-01-01T00:00:00Z","name_a2s":"Uncletopia | London | 2 | All Maps","protocol":17,"map":"cp_snakewater_final1","folder":"tf","game":"Team Fortress","app_id":440,"player_count":0,"max_players":24,"Bots":0,"server_type":"Dedicated","server_os":"Linux","password":true,"vac":true,"version":"7708610","steam_id":85568392924470941,"keywords":["cp","nocrits","nodmgspread","uncletopia"],"game_id":440,"stv_port":0,"stv_name":"","players":null},{"server_id":320,"name":"Uncletopia | London | 3 | All Maps","name_short":"lon-3","host":"lon-1.uk.uncletopia.com","port":27035,"enabled":true,"region":"eu","cc":"gb","latitude":51.509865,"longitude":-0.118092,"reserved":0,"last_update":"0001-01-01T00:00:00Z","name_a2s":"Uncletopia | London | 3 | All Maps","protocol":17,"map":"cp_altitude","folder":"tf","game":"Team Fortress","app_id":440,"player_count":0,"max_players":24,"Bots":0,"server_type":"Dedicated","server_os":"Linux","password":true,"vac":true,"version":"7708610","steam_id":85568392924510192,"keywords":["cp","nocrits","nodmgspread","uncletopia"],"game_id":440,"stv_port":0,"stv_name":"","players":null},{"server_id":321,"name":"Uncletopia | London | 4 | All Maps","name_short":"lon-4","host":"lon-1.uk.uncletopia.com","port":27045,"enabled":true,"region":"eu","cc":"gb","latitude":51.509865,"longitude":-0.118092,"reserved":0,"last_update":"0001-01-01T00:00:00Z","name_a2s":"Uncletopia | London | 4 | All Maps","protocol":17,"map":"koth_viaduct","folder":"tf","game":"Team Fortress","app_id":440,"player_count":0,"max_players":24,"Bots":0,"server_type":"Dedicated","server_os":"Linux","password":true,"vac":true,"version":"7708610","steam_id":85568392924510193,"keywords":["cp","nocrits","nodmgspread","uncletopia"],"game_id":440,"stv_port":0,"stv_name":"","players":null},{"server_id":21,"name":"Uncletopia | London | 5 | All Maps","name_short":"lon-5","host":"lon-1.uk.uncletopia.com","port":27055,"enabled":true,"region":"eu","cc":"gb","latitude":51.509865,"longitude":-0.118092,"reserved":0,"last_update":"0001-01-01T00:00:00Z","name_a2s":"Uncletopia | London | 5 | All Maps","protocol":17,"map":"koth_lakeside_final","folder":"tf","game":"Team Fortress","app_id":440,"player_count":0,"max_players":24,"Bots":0,"server_type":"Dedicated","server_os":"Linux","password":true,"vac":true,"version":"7708610","steam_id":85568392924742829,"keywords":["cp","nocrits","nodmgspread","uncletopia"],"game_id":440,"stv_port":0,"stv_name":"","players":null},{"server_id":22,"name":"Uncletopia | London | 6 | All Maps","name_short":"lon-6","host":"lon-1.uk.uncletopia.com","port":27065,"enabled":true,"region":"eu","cc":"gb","latitude":51.509865,"longitude":-0.118092,"reserved":0,"last_update":"0001-01-01T00:00:00Z","name_a2s":"Uncletopia | London | 6 | All Maps","protocol":17,"map":"koth_viaduct","folder":"tf","game":"Team Fortress","app_id":440,"player_count":0,"max_players":24,"Bots":0,"server_type":"Dedicated","server_os":"Linux","password":true,"vac":true,"version":"7708610","steam_id":85568392924742830,"keywords":["cp","nocrits","nodmgspread","uncletopia"],"game_id":440,"stv_port":0,"stv_name":"","players":null},{"server_id":40,"name":"Uncletopia | London | 7 | No Payload","name_short":"lon-7","host":"lon-1.uk.uncletopia.com","port":27075,"enabled":true,"region":"eu","cc":"gb","latitude":51.509865,"longitude":-0.118092,"reserved":0,"last_update":"0001-01-01T00:00:00Z","name_a2s":"Uncletopia | London | 7 | No Payload","protocol":17,"map":"cp_snakewater_final1","folder":"tf","game":"Team Fortress","app_id":440,"player_count":0,"max_players":24,"Bots":0,"server_type":"Dedicated","server_os":"Linux","password":true,"vac":true,"version":"7708610","steam_id":85568392924964314,"keywords":["cp","nocrits","nodmgspread","uncletopia"],"game_id":440,"stv_port":0,"stv_name":"","players":null},{"server_id":41,"name":"Uncletopia | London | 8 | Community","name_short":"lon-8","host":"lon-1.uk.uncletopia.com","port":27085,"enabled":true,"region":"eu","cc":"gb","latitude":51.509865,"longitude":-0.118092,"reserved":0,"last_update":"0001-01-01T00:00:00Z","name_a2s":"Uncletopia | London | 8 | Community","protocol":17,"map":"cp_snakewater_final1","folder":"tf","game":"Team Fortress","app_id":440,"player_count":0,"max_players":24,"Bots":0,"server_type":"Dedicated","server_os":"Linux","password":true,"vac":true,"version":"7708610","steam_id":85568392924964315,"keywords":["cp","nocrits","nodmgspread","uncletopia"],"game_id":440,"stv_port":0,"stv_name":"","players":null},{"server_id":300,"name":"Uncletopia | Montr√©al | 1 | All Maps","name_short":"mtl-1","host":"mtl-1.ca.uncletopia.com","port":27015,"enabled":true,"region":"us-east","cc":"ca","latitude":45.50889,"longitude":-73.56167,"reserved":0,"last_update":"0001-01-01T00:00:00Z","name_a2s":"Uncletopia | Montr√©al | 1 | All Maps","protocol":17,"map":"koth_cascade","folder":"tf","game":"Team Fortress","app_id":440,"player_count":0,"max_players":24,"Bots":0,"server_type":"Dedicated","server_os":"Linux","password":true,"vac":true,"version":"7708610","steam_id":85568392924500087,"keywords":["cp","nocrits","nodmgspread","uncletopia"],"game_id":440,"stv_port":27016,"stv_name":"Uncletopia | Montr√©al | 1 | All Maps | STV","players":null},{"server_id":301,"name":"Uncletopia | Montr√©al | 2 | All Maps","name_short":"mtl-2","host":"mtl-1.ca.uncletopia.com","port":27025,"enabled":true,"region":"us-east","cc":"ca","latitude":45.50889,"longitude":-73.56167,"reserved":0,"last_update":"0001-01-01T00:00:00Z","name_a2s":"Uncletopia | Montr√©al | 2 | All Maps","protocol":17,"map":"koth_viaduct","folder":"tf","game":"Team Fortress","app_id":440,"player_count":0,"max_players":24,"Bots":0,"server_type":"Dedicated","server_os":"Linux","password":true,"vac":true,"version":"7708610","steam_id":85568392924500088,"keywords":["cp","nocrits","nodmgspread","uncletopia"],"game_id":440,"stv_port":27026,"stv_name":"Uncletopia | Montr√©al | 2 | All Maps | STV","players":null},{"server_id":302,"name":"Uncletopia | Montr√©al | 3 | All Maps","name_short":"mtl-3","host":"mtl-1.ca.uncletopia.com","port":27035,"enabled":true,"region":"us-east","cc":"ca","latitude":45.50889,"longitude":-73.56167,"reserved":0,"last_update":"0001-01-01T00:00:00Z","name_a2s":"Uncletopia | Montr√©al | 3 | All Maps","protocol":17,"map":"koth_cascade","folder":"tf","game":"Team Fortress","app_id":440,"player_count":0,"max_players":24,"Bots":0,"server_type":"Dedicated","server_os":"Linux","password":true,"vac":true,"version":"7708610","steam_id":85568392924500089,"keywords":["cp","nocrits","nodmgspread","uncletopia"],"game_id":440,"stv_port":27036,"stv_name":"Uncletopia | Montr√©al | 3 | All Maps | STV","players":null},{"server_id":303,"name":"Uncletopia | Montr√©al | 4 | No Payload","name_short":"mtl-4","host":"mtl-1.ca.uncletopia.com","port":27045,"enabled":true,"region":"us-east","cc":"ca","latitude":45.50889,"longitude":-73.56167,"reserved":0,"last_update":"0001-01-01T00:00:00Z","name_a2s":"Uncletopia | Montr√©al | 4 | No Payload","protocol":17,"map":"pl_frontier_final","folder":"tf","game":"Team Fortress","app_id":440,"player_count":0,"max_players":24,"Bots":0,"server_type":"Dedicated","server_os":"Linux","password":true,"vac":true,"version":"7708610","steam_id":85568392924500090,"keywords":["nocrits","nodmgspread","payload","uncletopia"],"game_id":440,"stv_port":0,"stv_name":"","players":null},{"server_id":13,"name":"Uncletopia | New York City | 1 | All Maps","name_short":"nyc-1","host":"nyc-1.us.uncletopia.com","port":27015,"enabled":true,"region":"us-east","cc":"us","latitude":40.73061,"longitude":-73.93524,"reserved":0,"last_update":"0001-01-01T00:00:00Z","name_a2s":"Uncletopia | New York City | 1 | All Maps","protocol":17,"map":"cp_dustbowl","folder":"tf","game":"Team Fortress","app_id":440,"player_count":12,"max_players":24,"Bots":0,"server_type":"Dedicated","server_os":"Linux","password":true,"vac":true,"version":"7708610","steam_id":85568392924469993,"keywords":["cp","nocrits","nodmgspread","uncletopia"],"game_id":440,"stv_port":27016,"stv_name":"Uncletopia | New York City | 1 | All Maps | STV","players":[{"user_id":661,"name":"john trevolta","steam_id":76561197998867160,"connected_time":562000000000,"state":"active","ping":53},{"user_id":656,"name":"taky0n","steam_id":76561198103759716,"connected_time":1405000000000,"state":"active","ping":46},{"user_id":657,"name":"CIDVONDRAX","steam_id":76561198330855481,"connected_time":1307000000000,"state":"active","ping":100},{"user_id":662,"name":"Sicko Mode (Chris Pratt Cover)","steam_id":76561198315786174,"connected_time":214000000000,"state":"active","ping":52},{"user_id":660,"name":"Scrux","steam_id":76561198129763115,"connected_time":1110000000000,"state":"active","ping":118},{"user_id":567,"name":"a sleepy weeb","steam_id":76561198118111687,"connected_time":9163000000000,"state":"active","ping":48},{"user_id":663,"name":"‚ô¶WestHarlow‚ô¶","steam_id":76561198251977820,"connected_time":129000000000,"state":"active","ping":90},{"user_id":642,"name":"TheTerraToilet0","steam_id":76561199072154522,"connected_time":3115000000000,"state":"active","ping":62},{"user_id":617,"name":"Fishum","steam_id":76561198148556559,"connected_time":6445000000000,"state":"active","ping":145},{"user_id":624,"name":"Loose Duke","steam_id":76561198992852018,"connected_time":5125000000000,"state":"active","ping":56},{"user_id":625,"name":"Miner2495","steam_id":76561198445904523,"connected_time":5111000000000,"state":"active","ping":60},{"user_id":609,"name":"awesomepossum1121","steam_id":76561199161193845,"connected_time":6943000000000,"state":"active","ping":95}]},{"server_id":14,"name":"Uncletopia | New York City | 2 | All Maps","name_short":"nyc-2","host":"nyc-1.us.uncletopia.com","port":27025,"enabled":true,"region":"us-east","cc":"us","latitude":40.73061,"longitude":-73.93524,"reserved":0,"last_update":"0001-01-01T00:00:00Z","name_a2s":"Uncletopia | New York City | 2 | All Maps","protocol":17,"map":"koth_highpass","folder":"tf","game":"Team Fortress","app_id":440,"player_count":0,"max_players":24,"Bots":0,"server_type":"Dedicated","server_os":"Linux","password":true,"vac":true,"version":"7708610","steam_id":85568392924469994,"keywords":["cp","nocrits","nodmgspread","uncletopia"],"game_id":440,"stv_port":27026,"stv_name":"Uncletopia | New York City | 2 | All Maps | STV","players":null},{"server_id":15,"name":"Uncletopia | New York City | 3 | All Maps","name_short":"nyc-3","host":"nyc-1.us.uncletopia.com","port":27035,"enabled":true,"region":"us-east","cc":"us","latitude":40.73061,"longitude":-73.93524,"reserved":0,"last_update":"0001-01-01T00:00:00Z","name_a2s":"Uncletopia | New York City | 3 | All Maps","protocol":17,"map":"pl_barnblitz","folder":"tf","game":"Team Fortress","app_id":440,"player_count":22,"max_players":24,"Bots":0,"server_type":"Dedicated","server_os":"Linux","password":true,"vac":true,"version":"7708610","steam_id":85568392924742820,"keywords":["nocrits","nodmgspread","payload","uncletopia"],"game_id":440,"stv_port":27036,"stv_name":"Uncletopia | New York City | 3 | All Maps | STV","players":[{"user_id":339,"name":"xenolith","steam_id":76561198041496496,"connected_time":267000000000,"state":"active","ping":50},{"user_id":328,"name":"üÉî Nugg1t(sme/lly)","steam_id":76561198065652251,"connected_time":1447000000000,"state":"active","ping":150},{"user_id":301,"name":"layabout","steam_id":76561198130892117,"connected_time":4005000000000,"state":"active","ping":62},{"user_id":304,"name":"Fraglin","steam_id":76561198124964000,"connected_time":3529000000000,"state":"active","ping":71},{"user_id":341,"name":"roman","steam_id":76561198170066797,"connected_time":144000000000,"state":"active","ping":59},{"user_id":273,"name":"stewfat","steam_id":76561198084066964,"connected_time":5982000000000,"state":"active","ping":52},{"user_id":331,"name":"chexo4","steam_id":76561198150532531,"connected_time":844000000000,"state":"active","ping":53},{"user_id":340,"name":"haha yeah \u003c/3","steam_id":76561198986281248,"connected_time":193000000000,"state":"active","ping":63},{"user_id":336,"name":"jras","steam_id":76561198159797901,"connected_time":472000000000,"state":"active","ping":85},{"user_id":325,"name":"sergeant Adderall","steam_id":76561199010296481,"connected_time":1898000000000,"state":"active","ping":77},{"user_id":256,"name":"black fempyro mod installer","steam_id":76561198008455368,"connected_time":7235000000000,"state":"active","ping":65},{"user_id":327,"name":"iceball3","steam_id":76561198012040375,"connected_time":1491000000000,"state":"active","ping":105},{"user_id":337,"name":"Disco Fever","steam_id":76561198069532215,"connected_time":413000000000,"state":"active","ping":52},{"user_id":343,"name":"gromit","steam_id":76561198037746805,"connected_time":49000000000,"state":"active","ping":54},{"user_id":338,"name":"Soap","steam_id":76561198074619142,"connected_time":392000000000,"state":"active","ping":77},{"user_id":333,"name":"crime br√ªl√©e","steam_id":76561198026223621,"connected_time":795000000000,"state":"active","ping":59},{"user_id":330,"name":"Moon Seal","steam_id":76561198095827608,"connected_time":1161000000000,"state":"active","ping":127},{"user_id":324,"name":"AlexLovesYou","steam_id":76561199163263543,"connected_time":1933000000000,"state":"active","ping":96},{"user_id":329,"name":"Souper Scott","steam_id":76561198045518926,"connected_time":1369000000000,"state":"active","ping":70},{"user_id":203,"name":"Al Michaels","steam_id":76561198071217597,"connected_time":11243000000000,"state":"active","ping":63},{"user_id":316,"name":"Flamefishy","steam_id":76561198190284347,"connected_time":2513000000000,"state":"active","ping":52},{"user_id":298,"name":"Shmuzy","steam_id":76561198252123826,"connected_time":4739000000000,"state":"active","ping":149}]},{"server_id":16,"name":"Uncletopia | New York City | 4 | Community","name_short":"nyc-4","host":"nyc-1.us.uncletopia.com","port":27045,"enabled":true,"region":"us-east","cc":"us","latitude":40.73061,"longitude":-73.93524,"reserved":0,"last_update":"0001-01-01T00:00:00Z","name_a2s":"Uncletopia | New York City | 4 | Community","protocol":17,"map":"workshop/cp_sulfur_rc2.ugc619869471","folder":"tf","game":"Team Fortress","app_id":440,"player_count":0,"max_players":24,"Bots":0,"server_type":"Dedicated","server_os":"Linux","password":true,"vac":true,"version":"7708610","steam_id":85568392924742821,"keywords":["cp","nocrits","nodmgspread","uncletopia"],"game_id":440,"stv_port":27046,"stv_name":"Uncletopia | New York City | 4 | Community | STV","players":null},{"server_id":142,"name":"Uncletopia | S√£o Paulo | 1 | All Maps","name_short":"sao-1","host":"sao-1.br.uncletopia.com","port":27015,"enabled":true,"region":"sa","cc":"br","latitude":-23.533773,"longitude":-46.62529,"reserved":0,"last_update":"0001-01-01T00:00:00Z","name_a2s":"Uncletopia | S√£o Paulo | 1 | All Maps","protocol":17,"map":"koth_cascade","folder":"tf","game":"Team Fortress","app_id":440,"player_count":0,"max_players":24,"Bots":0,"server_type":"Dedicated","server_os":"Linux","password":true,"vac":true,"version":"7708610","steam_id":85568392924469996,"keywords":["cp","nocrits","nodmgspread","uncletopia"],"game_id":440,"stv_port":27016,"stv_name":"Uncletopia | S√£o Paulo | 1 | All Maps | STV","players":null},{"server_id":143,"name":"Uncletopia | S√£o Paulo | 2 | All Maps","name_short":"sao-2","host":"sao-2.br.uncletopia.com","port":27015,"enabled":true,"region":"sa","cc":"br","latitude":-23.533773,"longitude":-46.62529,"reserved":0,"last_update":"0001-01-01T00:00:00Z","name_a2s":"Uncletopia | S√£o Paulo | 2 | All Maps","protocol":17,"map":"koth_viaduct","folder":"tf","game":"Team Fortress","app_id":440,"player_count":0,"max_players":24,"Bots":0,"server_type":"Dedicated","server_os":"Linux","password":true,"vac":true,"version":"7708610","steam_id":85568392924485349,"keywords":["cp","nocrits","nodmgspread","uncletopia"],"game_id":440,"stv_port":27016,"stv_name":"Uncletopia | S√£o Paulo | 2 | All Maps | STV","players":null},{"server_id":7,"name":"Uncletopia | Seattle | 1 | All Maps","name_short":"sea-1","host":"sea-1.us.uncletopia.com","port":27015,"enabled":true,"region":"us-west","cc":"us","latitude":47.608013,"longitude":-122.33517,"reserved":0,"last_update":"0001-01-01T00:00:00Z","name_a2s":"Uncletopia | Seattle | 1 | All Maps","protocol":17,"map":"pl_frontier_final","folder":"tf","game":"Team Fortress","app_id":440,"player_count":21,"max_players":24,"Bots":0,"server_type":"Dedicated","server_os":"Linux","password":true,"vac":true,"version":"7708610","steam_id":85568392924469997,"keywords":["nocrits","nodmgspread","payload","uncletopia"],"game_id":440,"stv_port":27016,"stv_name":"Uncletopia | Seattle | 1 | All Maps | STV","players":[{"user_id":436,"name":"lol","steam_id":76561198026491738,"connected_time":4013000000000,"state":"active","ping":83},{"user_id":392,"name":"BoddhosDaughter","steam_id":76561198140202317,"connected_time":7814000000000,"state":"active","ping":105},{"user_id":437,"name":"Black Adam","steam_id":76561198066091050,"connected_time":4009000000000,"state":"active","ping":60},{"user_id":468,"name":"House","steam_id":76561198308405663,"connected_time":484000000000,"state":"active","ping":53},{"user_id":414,"name":"Sniff","steam_id":76561198010270922,"connected_time":6057000000000,"state":"active","ping":41},{"user_id":466,"name":"goldhed","steam_id":76561198051751133,"connected_time":690000000000,"state":"active","ping":55},{"user_id":455,"name":"Ayayahuasca","steam_id":76561199002906056,"connected_time":1582000000000,"state":"active","ping":54},{"user_id":388,"name":"Joy in A Box","steam_id":76561198156820753,"connected_time":8627000000000,"state":"active","ping":180},{"user_id":438,"name":"General Fisticuffs","steam_id":76561198255721392,"connected_time":4004000000000,"state":"active","ping":104},{"user_id":359,"name":"Luca","steam_id":76561198125087140,"connected_time":10484000000000,"state":"active","ping":46},{"user_id":430,"name":"SvicidalBug","steam_id":76561198221390504,"connected_time":5013000000000,"state":"active","ping":65},{"user_id":433,"name":"Tommy Pickles (Very Cool)","steam_id":76561198391261463,"connected_time":4293000000000,"state":"active","ping":120},{"user_id":461,"name":"Nuren","steam_id":76561198111190489,"connected_time":1023000000000,"state":"active","ping":136},{"user_id":439,"name":"s4lmon","steam_id":76561198055882807,"connected_time":3875000000000,"state":"active","ping":90},{"user_id":465,"name":"Tom Skirrett","steam_id":76561198014600788,"connected_time":703000000000,"state":"active","ping":68},{"user_id":453,"name":"Mapachito Lindo","steam_id":76561198031359995,"connected_time":1845000000000,"state":"active","ping":44},{"user_id":470,"name":"NickoDeeBz","steam_id":76561198294657867,"connected_time":349000000000,"state":"active","ping":91},{"user_id":463,"name":"Spaghetti Cat","steam_id":76561198027168510,"connected_time":937000000000,"state":"active","ping":74},{"user_id":457,"name":"shane","steam_id":76561198060491451,"connected_time":1552000000000,"state":"active","ping":91},{"user_id":393,"name":"Lambchop","steam_id":76561198043900363,"connected_time":7652000000000,"state":"active","ping":75},{"user_id":449,"name":"SolarusD","steam_id":76561198029279861,"connected_time":3095000000000,"state":"active","ping":64}]},{"server_id":119,"name":"Uncletopia | Seattle | 2 | All Maps","name_short":"sea-2","host":"sea-1.us.uncletopia.com","port":27025,"enabled":true,"region":"us-west","cc":"us","latitude":47.608013,"longitude":-122.33517,"reserved":0,"last_update":"0001-01-01T00:00:00Z","name_a2s":"Uncletopia | Seattle | 2 | All Maps","protocol":17,"map":"pl_barnblitz","folder":"tf","game":"Team Fortress","app_id":440,"player_count":24,"max_players":24,"Bots":0,"server_type":"Dedicated","server_os":"Linux","password":true,"vac":true,"version":"7708610","steam_id":85568392924469998,"keywords":["nocrits","nodmgspread","payload","uncletopia"],"game_id":440,"stv_port":27026,"stv_name":"Uncletopia | Seattle | 2 | All Maps | STV","players":[{"user_id":460,"name":"Testicular Torsion","steam_id":76561197968179862,"connected_time":1332000000000,"state":"active","ping":80},{"user_id":463,"name":"Cam","steam_id":76561198139174433,"connected_time":1192000000000,"state":"active","ping":87},{"user_id":418,"name":"Evanb","steam_id":76561198042057792,"connected_time":4959000000000,"state":"active","ping":54},{"user_id":435,"name":"mub","steam_id":76561197961943948,"connected_time":3690000000000,"state":"active","ping":45},{"user_id":426,"name":"Sinn","steam_id":76561199013434543,"connected_time":4664000000000,"state":"active","ping":83},{"user_id":437,"name":"JON","steam_id":76561198057971005,"connected_time":3647000000000,"state":"active","ping":40},{"user_id":457,"name":"Wormy Getting Coal","steam_id":76561198054539200,"connected_time":1578000000000,"state":"active","ping":57},{"user_id":455,"name":"[Bandit]","steam_id":76561197986919852,"connected_time":1963000000000,"state":"active","ping":50},{"user_id":451,"name":"bad spy player","steam_id":76561198873699671,"connected_time":2405000000000,"state":"active","ping":42},{"user_id":459,"name":"ApertureCity","steam_id":76561198004153607,"connected_time":1343000000000,"state":"active","ping":121},{"user_id":478,"name":"Xylemon","steam_id":76561197965297420,"connected_time":258000000000,"state":"active","ping":58},{"user_id":439,"name":"Kenpachi","steam_id":76561198803824764,"connected_time":3445000000000,"state":"active","ping":70},{"user_id":438,"name":"google","steam_id":76561198799673421,"connected_time":3524000000000,"state":"active","ping":71},{"user_id":407,"name":"tosm-AA-","steam_id":76561198130032444,"connected_time":5927000000000,"state":"active","ping":54},{"user_id":480,"name":"Discount","steam_id":76561198228825336,"connected_time":203000000000,"state":"active","ping":86},{"user_id":474,"name":"Japanese Pizza Girlfriend","steam_id":76561198044855147,"connected_time":403000000000,"state":"active","ping":45},{"user_id":479,"name":"Noah","steam_id":76561198059048749,"connected_time":232000000000,"state":"active","ping":63},{"user_id":471,"name":"‚ô•LET'S‚ô•GET‚ô•PHYSICAL‚ô•","steam_id":76561197961107982,"connected_time":694000000000,"state":"active","ping":80},{"user_id":475,"name":"OJ Simpson","steam_id":76561198056329143,"connected_time":377000000000,"state":"active","ping":81},{"user_id":462,"name":"Friends of Tina Kotek","steam_id":76561198257921898,"connected_time":1254000000000,"state":"active","ping":65},{"user_id":458,"name":"Flowey","steam_id":76561198442304406,"connected_time":1541000000000,"state":"active","ping":62},{"user_id":464,"name":"dex","steam_id":76561198202575667,"connected_time":1166000000000,"state":"active","ping":180},{"user_id":412,"name":"UV","steam_id":76561198083936918,"connected_time":5107000000000,"state":"active","ping":65},{"user_id":465,"name":"Parauder","steam_id":76561198131593741,"connected_time":1165000000000,"state":"active","ping":114}]},{"server_id":17,"name":"Uncletopia | San Francisco | 1 | All Maps","name_short":"sfo-1","host":"sfo-1.us.uncletopia.com","port":27015,"enabled":true,"region":"us-west","cc":"us","latitude":37.77397,"longitude":-122.4313,"reserved":0,"last_update":"0001-01-01T00:00:00Z","name_a2s":"Uncletopia | San Francisco | 1 | All Maps","protocol":17,"map":"cp_snakewater_final1","folder":"tf","game":"Team Fortress","app_id":440,"player_count":24,"max_players":24,"Bots":0,"server_type":"Dedicated","server_os":"Linux","password":true,"vac":true,"version":"7708610","steam_id":85568392924469999,"keywords":["cp","nocrits","nodmgspread","uncletopia"],"game_id":440,"stv_port":27016,"stv_name":"Uncletopia | San Francisco | 1 | All Maps | STV","players":[{"user_id":314,"name":"MEEPking","steam_id":76561198277668880,"connected_time":1194000000000,"state":"active","ping":51},{"user_id":323,"name":"Leroy Sinclair","steam_id":76561198116082889,"connected_time":468000000000,"state":"active","ping":72},{"user_id":306,"name":"best of worm related discussion","steam_id":76561198128164970,"connected_time":1247000000000,"state":"active","ping":61},{"user_id":262,"name":"Livin' Like Larry","steam_id":76561198313360974,"connected_time":4123000000000,"state":"active","ping":42},{"user_id":295,"name":"fyoure","steam_id":76561198083694047,"connected_time":2614000000000,"state":"active","ping":47},{"user_id":316,"name":"‚ù§ Alice","steam_id":76561198869945051,"connected_time":1082000000000,"state":"active","ping":96},{"user_id":305,"name":"best of gaslighting","steam_id":76561198410957728,"connected_time":1252000000000,"state":"active","ping":91},{"user_id":283,"name":"legendary member","steam_id":76561198093276401,"connected_time":3038000000000,"state":"active","ping":63},{"user_id":307,"name":"benglengler","steam_id":76561198150137369,"connected_time":1246000000000,"state":"active","ping":52},{"user_id":322,"name":"Amogous Supreme","steam_id":76561198025476774,"connected_time":574000000000,"state":"active","ping":53},{"user_id":318,"name":"vinta","steam_id":76561198078562885,"connected_time":1063000000000,"state":"active","ping":60},{"user_id":308,"name":"Branos","steam_id":76561198396414319,"connected_time":1237000000000,"state":"active","ping":67},{"user_id":302,"name":"Jax O'Gaytor","steam_id":76561198288922168,"connected_time":1543000000000,"state":"active","ping":68},{"user_id":315,"name":"Cute Gatito","steam_id":76561198351147780,"connected_time":1135000000000,"state":"active","ping":62},{"user_id":310,"name":"Susan","steam_id":76561198045705049,"connected_time":1232000000000,"state":"active","ping":63},{"user_id":301,"name":"Banjo","steam_id":76561198004652853,"connected_time":1561000000000,"state":"active","ping":62},{"user_id":320,"name":"Trips","steam_id":76561198054581597,"connected_time":991000000000,"state":"active","ping":48},{"user_id":324,"name":"VerSaKa","steam_id":76561198052392540,"connected_time":459000000000,"state":"active","ping":121},{"user_id":296,"name":"huiei","steam_id":76561198073763735,"connected_time":2429000000000,"state":"active","ping":56},{"user_id":172,"name":"Marzbee115","steam_id":76561198095821025,"connected_time":11388000000000,"state":"active","ping":59},{"user_id":319,"name":"Sgt. Screwball","steam_id":76561198307963570,"connected_time":1058000000000,"state":"active","ping":81},{"user_id":186,"name":"GameGuru the Green Gryphon","steam_id":76561198118495354,"connected_time":10728000000000,"state":"active","ping":70},{"user_id":189,"name":"Avem","steam_id":76561198058763710,"connected_time":10276000000000,"state":"active","ping":60},{"user_id":321,"name":"Uncle","steam_id":76561197988647705,"connected_time":959000000000,"state":"active","ping":110}]},{"server_id":18,"name":"Uncletopia | San Francisco | 2 | All Maps","name_short":"sfo-2","host":"sfo-1.us.uncletopia.com","port":27025,"enabled":true,"region":"us-west","cc":"us","latitude":37.77397,"longitude":-122.4313,"reserved":0,"last_update":"0001-01-01T00:00:00Z","name_a2s":"Uncletopia | San Francisco | 2 | All Maps","protocol":17,"map":"koth_viaduct","folder":"tf","game":"Team Fortress","app_id":440,"player_count":3,"max_players":24,"Bots":0,"server_type":"Dedicated","server_os":"Linux","password":true,"vac":true,"version":"7708610","steam_id":85568392924470000,"keywords":["cp","nocrits","nodmgspread","uncletopia"],"game_id":440,"stv_port":27026,"stv_name":"Uncletopia | San Francisco | 2 | All Maps | STV","players":[{"user_id":33,"name":"starfinder","steam_id":76561199071758773,"connected_time":1749000000000,"state":"active","ping":203},{"user_id":36,"name":"Underrocks","steam_id":76561198134725167,"connected_time":21000000000,"state":"active","ping":207},{"user_id":35,"name":"Musickness_1129","steam_id":76561198977664544,"connected_time":103000000000,"state":"active","ping":149}]},{"server_id":19,"name":"Uncletopia | San Francisco | 3 | No Payload","name_short":"sfo-3","host":"sfo-1.us.uncletopia.com","port":27035,"enabled":true,"region":"us-west","cc":"us","latitude":37.77397,"longitude":-122.4313,"reserved":0,"last_update":"0001-01-01T00:00:00Z","name_a2s":"Uncletopia | San Francisco | 3 | No Payload","protocol":17,"map":"plr_bananabay","folder":"tf","game":"Team Fortress","app_id":440,"player_count":0,"max_players":24,"Bots":0,"server_type":"Dedicated","server_os":"Linux","password":true,"vac":true,"version":"7708610","steam_id":85568392924742824,"keywords":["nocrits","nodmgspread","payload","uncletopia"],"game_id":440,"stv_port":27036,"stv_name":"Uncletopia | San Francisco | 3 | No Payload | STV","players":null},{"server_id":20,"name":"Uncletopia | San Francisco | 4 | Community","name_short":"sfo-4","host":"sfo-1.us.uncletopia.com","port":27045,"enabled":true,"region":"us-west","cc":"us","latitude":37.77397,"longitude":-122.4313,"reserved":0,"last_update":"0001-01-01T00:00:00Z","name_a2s":"Uncletopia | San Francisco | 4 | Community","protocol":17,"map":"workshop/koth_synthetic_rc6a.ugc1549817316","folder":"tf","game":"Team Fortress","app_id":440,"player_count":0,"max_players":24,"Bots":0,"server_type":"Dedicated","server_os":"Linux","password":true,"vac":true,"version":"7708610","steam_id":85568392924742826,"keywords":["cp","nocrits","nodmgspread","uncletopia"],"game_id":440,"stv_port":27046,"stv_name":"Uncletopia | San Francisco | 4 | Community | STV","players":null},{"server_id":141,"name":"Uncletopia | Sydney | 1 | All Maps","name_short":"syd-1","host":"syd-1.au.uncletopia.com","port":27015,"enabled":true,"region":"au","cc":"au","latitude":-33.865143,"longitude":151.2099,"reserved":0,"last_update":"0001-01-01T00:00:00Z","name_a2s":"Uncletopia | Sydney | 1 | All Maps","protocol":17,"map":"pl_wutville_event","folder":"tf","game":"Team Fortress","app_id":440,"player_count":24,"max_players":24,"Bots":0,"server_type":"Dedicated","server_os":"Linux","password":true,"vac":true,"version":"7708610","steam_id":85568392924470001,"keywords":["nocrits","nodmgspread","payload","uncletopia"],"game_id":440,"stv_port":27016,"stv_name":"Uncletopia | Sydney | 1 | All Maps | STV","players":[{"user_id":492,"name":"ishatmypants","steam_id":76561199189778979,"connected_time":1170000000000,"state":"active","ping":67},{"user_id":496,"name":"Jacobmeister","steam_id":76561198071652927,"connected_time":772000000000,"state":"active","ping":68},{"user_id":483,"name":"SkoKiE","steam_id":76561198283542986,"connected_time":1550000000000,"state":"active","ping":68},{"user_id":482,"name":"dorazioluca123","steam_id":76561198991142802,"connected_time":1976000000000,"state":"active","ping":57},{"user_id":500,"name":"PS6 maffaaa","steam_id":76561198074409027,"connected_time":406000000000,"state":"active","ping":52},{"user_id":503,"name":"Sy 4","steam_id":76561198879862702,"connected_time":4000000000,"state":"spawning","ping":47},{"user_id":374,"name":"‡∏∏bifcheg","steam_id":76561198319806610,"connected_time":9484000000000,"state":"active","ping":56},{"user_id":467,"name":"K‚ô•nt","steam_id":76561197990275171,"connected_time":3067000000000,"state":"active","ping":49},{"user_id":477,"name":"nice lad","steam_id":76561198055333637,"connected_time":2396000000000,"state":"active","ping":38},{"user_id":451,"name":"little raw meat boy","steam_id":76561199248254676,"connected_time":3919000000000,"state":"active","ping":54},{"user_id":479,"name":"ice_freeze101","steam_id":76561198060902496,"connected_time":2230000000000,"state":"active","ping":48},{"user_id":494,"name":"hazz_mcpie -BvM-","steam_id":76561198092450084,"connected_time":835000000000,"state":"active","ping":83},{"user_id":497,"name":"ruben","steam_id":76561198025063982,"connected_time":595000000000,"state":"active","ping":167},{"user_id":456,"name":"Fuzz","steam_id":76561198063077180,"connected_time":3677000000000,"state":"active","ping":58},{"user_id":501,"name":"floppinv2","steam_id":76561198213566569,"connected_time":336000000000,"state":"active","ping":96},{"user_id":502,"name":"UglyBarnicle","steam_id":76561198075921599,"connected_time":325000000000,"state":"active","ping":101},{"user_id":485,"name":"Flak","steam_id":76561198205833232,"connected_time":1449000000000,"state":"active","ping":41},{"user_id":480,"name":"KwassaKwassa","steam_id":76561198970205160,"connected_time":2088000000000,"state":"active","ping":64},{"user_id":486,"name":"Hot Yoga Instructor","steam_id":76561199163801558,"connected_time":1395000000000,"state":"active","ping":42},{"user_id":463,"name":"NewChris","steam_id":76561198254754182,"connected_time":3265000000000,"state":"active","ping":78},{"user_id":495,"name":"no teles 4 u","steam_id":76561198018478297,"connected_time":820000000000,"state":"active","ping":54},{"user_id":490,"name":"Altara","steam_id":76561198022306164,"connected_time":1321000000000,"state":"active","ping":61},{"user_id":466,"name":"Abyss (she/her)","steam_id":76561198049213583,"connected_time":3225000000000,"state":"active","ping":62},{"user_id":436,"name":"Eddie","steam_id":76561198081031350,"connected_time":5156000000000,"state":"active","ping":48}]},{"server_id":123,"name":"Uncletopia | Sydney | 2 | All Maps","name_short":"syd-2","host":"syd-1.au.uncletopia.com","port":27025,"enabled":true,"region":"au","cc":"au","latitude":-33.865143,"longitude":151.2099,"reserved":0,"last_update":"0001-01-01T00:00:00Z","name_a2s":"Uncletopia | Sydney | 2 | All Maps","protocol":17,"map":"koth_highpass","folder":"tf","game":"Team Fortress","app_id":440,"player_count":0,"max_players":24,"Bots":0,"server_type":"Dedicated","server_os":"Linux","password":true,"vac":true,"version":"7708610","steam_id":85568392924470002,"keywords":["cp","nocrits","nodmgspread","uncletopia"],"game_id":440,"stv_port":27026,"stv_name":"Uncletopia | Sydney | 2 | All Maps | STV","players":null},{"server_id":395,"name":"Uncletopia | Sydney | 3 | All Maps","name_short":"syd-3","host":"syd-1.au.uncletopia.com","port":27035,"enabled":true,"region":"au","cc":"au","latitude":-33.865143,"longitude":151.2099,"reserved":0,"last_update":"0001-01-01T00:00:00Z","name_a2s":"Uncletopia | Sydney | 3 | All Maps","protocol":17,"map":"koth_cascade","folder":"tf","game":"Team Fortress","app_id":440,"player_count":16,"max_players":24,"Bots":0,"server_type":"Dedicated","server_os":"Linux","password":true,"vac":true,"version":"7708610","steam_id":85568392925194467,"keywords":["cp","nocrits","nodmgspread","uncletopia"],"game_id":440,"stv_port":27036,"stv_name":"Uncletopia | Sydney | 3 | All Maps | STV","players":[{"user_id":167,"name":"bweegus wagoogus glumbus","steam_id":76561198063481761,"connected_time":1692000000000,"state":"active","ping":45},{"user_id":171,"name":"Fatass Yoshi","steam_id":76561198033784848,"connected_time":1364000000000,"state":"active","ping":52},{"user_id":184,"name":"juffowup","steam_id":76561198011036628,"connected_time":109000000000,"state":"active","ping":58},{"user_id":161,"name":"Pizzaray","steam_id":76561198005075102,"connected_time":2491000000000,"state":"active","ping":30},{"user_id":125,"name":"Bitcoin Gazillionare","steam_id":76561198411811796,"connected_time":4893000000000,"state":"active","ping":74},{"user_id":175,"name":"REAL SONICFOX","steam_id":76561198417183278,"connected_time":694000000000,"state":"active","ping":60},{"user_id":180,"name":"towtrucklover_2010","steam_id":76561198134572983,"connected_time":312000000000,"state":"active","ping":62},{"user_id":176,"name":"‚òÖZanTheZilla","steam_id":76561198255612266,"connected_time":676000000000,"state":"active","ping":64},{"user_id":160,"name":"kimmybob47","steam_id":76561198850317251,"connected_time":2496000000000,"state":"active","ping":72},{"user_id":177,"name":"BBOY","steam_id":76561198070719495,"connected_time":523000000000,"state":"active","ping":162},{"user_id":178,"name":"Bin","steam_id":76561199117653318,"connected_time":463000000000,"state":"active","ping":64},{"user_id":183,"name":"Havocking","steam_id":76561198053587032,"connected_time":232000000000,"state":"active","ping":60},{"user_id":185,"name":"ljpaters","steam_id":76561198094354484,"connected_time":58000000000,"state":"active","ping":56},{"user_id":181,"name":"JingleHoodie","steam_id":76561198928239080,"connected_time":268000000000,"state":"active","ping":126},{"user_id":166,"name":"Plastic_Wrapp","steam_id":76561198817560659,"connected_time":1801000000000,"state":"active","ping":80},{"user_id":162,"name":"Charm","steam_id":76561198028891054,"connected_time":2491000000000,"state":"active","ping":60}]},{"server_id":396,"name":"Uncletopia | Sydney | 4 | All Maps","name_short":"syd-4","host":"syd-1.au.uncletopia.com","port":27045,"enabled":true,"region":"au","cc":"au","latitude":-33.865143,"longitude":151.2099,"reserved":0,"last_update":"0001-01-01T00:00:00Z","name_a2s":"Uncletopia | Sydney | 4 | All Maps","protocol":17,"map":"koth_lakeside_final","folder":"tf","game":"Team Fortress","app_id":440,"player_count":0,"max_players":24,"Bots":0,"server_type":"Dedicated","server_os":"Linux","password":true,"vac":true,"version":"7708610","steam_id":85568392925397958,"keywords":["cp","nocrits","nodmgspread","uncletopia"],"game_id":440,"stv_port":0,"stv_name":"","players":null},{"server_id":58,"name":"Uncletopia | Sydney | 5 | No Payload","name_short":"syd-5","host":"syd-1.au.uncletopia.com","port":27055,"enabled":true,"region":"au","cc":"au","latitude":-33.865143,"longitude":151.2099,"reserved":0,"last_update":"0001-01-01T00:00:00Z","name_a2s":"Uncletopia | Sydney | 5 | No Payload","protocol":17,"map":"koth_cascade","folder":"tf","game":"Team Fortress","app_id":440,"player_count":0,"max_players":24,"Bots":0,"server_type":"Dedicated","server_os":"Linux","password":true,"vac":true,"version":"7708610","steam_id":85568392925397959,"keywords":["cp","nocrits","nodmgspread","uncletopia"],"game_id":440,"stv_port":0,"stv_name":"","players":null},{"server_id":59,"name":"Uncletopia | Sydney | 6 | Community","name_short":"syd-6","host":"syd-1.au.uncletopia.com","port":27065,"enabled":true,"region":"au","cc":"au","latitude":-33.865143,"longitude":151.2099,"reserved":0,"last_update":"0001-01-01T00:00:00Z","name_a2s":"Uncletopia | Sydney | 6 | Community","protocol":17,"map":"workshop/koth_synthetic_rc6a.ugc1549817316","folder":"tf","game":"Team Fortress","app_id":440,"player_count":0,"max_players":24,"Bots":0,"server_type":"Dedicated","server_os":"Linux","password":true,"vac":true,"version":"7708610","steam_id":85568392925397960,"keywords":["cp","nocrits","nodmgspread","uncletopia"],"game_id":440,"stv_port":27066,"stv_name":"Uncletopia | Sydney | 6 | Community | STV","players":null},{"server_id":49,"name":"Uncletopia | Warsaw | 1 | All Maps","name_short":"waw-1","host":"waw-1.pl.uncletopia.com","port":27015,"enabled":true,"region":"eu","cc":"pl","latitude":52.2297,"longitude":21.017532,"reserved":0,"last_update":"0001-01-01T00:00:00Z","name_a2s":"Uncletopia | Warsaw | 1 | All Maps","protocol":17,"map":"cp_mountainlab","folder":"tf","game":"Team Fortress","app_id":440,"player_count":0,"max_players":24,"Bots":0,"server_type":"Dedicated","server_os":"Linux","password":true,"vac":true,"version":"7708610","steam_id":85568392925397850,"keywords":["cp","nocrits","nodmgspread","uncletopia"],"game_id":440,"stv_port":0,"stv_name":"","players":null},{"server_id":50,"name":"Uncletopia | Warsaw | 2 | All Maps","name_short":"waw-2","host":"waw-1.pl.uncletopia.com","port":27025,"enabled":true,"region":"eu","cc":"pl","latitude":52.2297,"longitude":21.017532,"reserved":0,"last_update":"0001-01-01T00:00:00Z","name_a2s":"Uncletopia | Warsaw | 2 | All Maps","protocol":17,"map":"pl_badwater","folder":"tf","game":"Team Fortress","app_id":440,"player_count":0,"max_players":24,"Bots":0,"server_type":"Dedicated","server_os":"Linux","password":true,"vac":true,"version":"7708610","steam_id":85568392925397851,"keywords":["nocrits","nodmgspread","payload","uncletopia"],"game_id":440,"stv_port":0,"stv_name":"","players":null},{"server_id":51,"name":"Uncletopia | Warsaw | 3 | All Maps","name_short":"waw-3","host":"waw-1.pl.uncletopia.com","port":27035,"enabled":true,"region":"eu","cc":"pl","latitude":52.2297,"longitude":21.017532,"reserved":0,"last_update":"0001-01-01T00:00:00Z","name_a2s":"Uncletopia | Warsaw | 3 | All Maps","protocol":17,"map":"koth_cascade","folder":"tf","game":"Team Fortress","app_id":440,"player_count":0,"max_players":24,"Bots":0,"server_type":"Dedicated","server_os":"Linux","password":true,"vac":true,"version":"7708610","steam_id":85568392925397852,"keywords":["cp","nocrits","nodmgspread","uncletopia"],"game_id":440,"stv_port":0,"stv_name":"","players":null},{"server_id":52,"name":"Uncletopia | Warsaw | 4 | All Maps","name_short":"waw-4","host":"waw-1.pl.uncletopia.com","port":27045,"enabled":true,"region":"eu","cc":"pl","latitude":52.2297,"longitude":21.017532,"reserved":0,"last_update":"0001-01-01T00:00:00Z","name_a2s":"Uncletopia | Warsaw | 4 | All Maps","protocol":17,"map":"cp_mountainlab","folder":"tf","game":"Team Fortress","app_id":440,"player_count":0,"max_players":24,"Bots":0,"server_type":"Dedicated","server_os":"Linux","password":true,"vac":true,"version":"7708610","steam_id":85568392925397853,"keywords":["cp","nocrits","nodmgspread","uncletopia"],"game_id":440,"stv_port":0,"stv_name":"","players":null},{"server_id":53,"name":"Uncletopia | Warsaw | 5 | No Payload","name_short":"waw-5","host":"waw-1.pl.uncletopia.com","port":27055,"enabled":true,"region":"eu","cc":"pl","latitude":52.2297,"longitude":21.017532,"reserved":0,"last_update":"0001-01-01T00:00:00Z","name_a2s":"Uncletopia | Warsaw | 5 | No Payload","protocol":17,"map":"cp_dustbowl","folder":"tf","game":"Team Fortress","app_id":440,"player_count":0,"max_players":24,"Bots":0,"server_type":"Dedicated","server_os":"Linux","password":true,"vac":true,"version":"7708610","steam_id":85568392925397854,"keywords":["cp","nocrits","nodmgspread","uncletopia"],"game_id":440,"stv_port":0,"stv_name":"","players":null},{"server_id":54,"name":"Uncletopia | Warsaw | 6 | Community","name_short":"waw-6","host":"waw-1.pl.uncletopia.com","port":27065,"enabled":true,"region":"eu","cc":"pl","latitude":52.2297,"longitude":21.017532,"reserved":0,"last_update":"0001-01-01T00:00:00Z","name_a2s":"Uncletopia | Warsaw | 6 | Community","protocol":17,"map":"koth_highpass","folder":"tf","game":"Team Fortress","app_id":440,"player_count":0,"max_players":24,"Bots":0,"server_type":"Dedicated","server_os":"Linux","password":true,"vac":true,"version":"7708610","steam_id":85568392925397856,"keywords":["cp","nocrits","nodmgspread","uncletopia"],"game_id":440,"stv_port":0,"stv_name":"","players":null}]}