{"status":true,"message":"","result":[{"server_id":9,"name":"Uncletopia | Atlanta | 1 | All Maps","name_short":"atl-1","host":"atl-1.us.uncletopia.com","port":27015,"enabled":true,"region":"us-east","cc":"us","latitude":33.753746,"longitude":-84.38633,"reserved":0,"last_update":"0001-01-01T00:00:00Z","name_a2s":"Uncletopia | Atlanta | 1 | All Maps","protocol":17,"map":"pl_upward","folder":"tf","game":"Team Fortress","app_id":440,"player_count":24,"max_players":24,"Bots":0,"server_type":"Dedicated","server_os":"Linux","password":true,"vac":true,"version":"7742253","steam_id":85568392924469982,"keywords":["nocrits","nodmgspread","payload","uncletopia"],"game_id":440,"stv_port":27016,"stv_name":"Uncletopia | Atlanta | 1 | All Maps | STV","players":[{"user_id":643,"name":"Summon Ketamine Ape","steam_id":76561198143132686,"connected_time":1494000000000,"state":"active","ping":91},{"user_id":649,"name":"basil","steam_id":76561198075758026,"connected_time":381000000000,"state":"active","ping":76},{"user_id":519,"name":"ATL1 | to4st","steam_id":76561198981009008,"connected_time":13694000000000,"state":"active","ping":68},{"user_id":647,"name":"lil hog","steam_id":76561199230929836,"connected_time":829000000000,"state":"active","ping":71},{"user_id":627,"name":"ExplosiveGamer21","steam_id":76561198132370955,"connected_time":4386000000000,"state":"active","ping":105},{"user_id":644,"name":"Kabul","steam_id":76561198140176726,"connected_time":1263000000000,"state":"active","ping":111},{"user_id":561,"name":"Alt","steam_id":76561197992591984,"connected_time":10428000000000,"state":"active","ping":88},{"user_id":648,"name":"citrus","steam_id":76561198294606679,"connected_time":804000000000,"state":"active","ping":75},{"user_id":621,"name":"cola","steam_id":76561198374390458,"connected_time":5043000000000,"state":"active","ping":60},{"user_id":624,"name":"Femcel Fornicator","steam_id":76561198336584447,"connected_time":4554000000000,"state":"active","ping":77},{"user_id":651,"name":"tree of destiny","steam_id":76561198092135570,"connected_time":253000000000,"state":"active","ping":67},{"user_id":630,"name":"ATL1 | Lylith","steam_id":76561198386687546,"connected_time":2767000000000,"state":"active","ping":55},{"user_id":602,"name":"DFR Le4n!!!","steam_id":76561198045522596,"connected_time":7653000000000,"state":"active","ping":72},{"user_id":650,"name":"fragr","steam_id":76561198120440587,"connected_time":273000000000,"state":"active","ping":61},{"user_id":550,"name":"schizophrenic with a gun","steam_id":76561198016121536,"connected_time":11305000000000,"state":"active","ping":77},{"user_id":636,"name":"Bottom Trans Cowgirl","steam_id":76561198304239680,"connected_time":2704000000000,"state":"active","ping":73},{"user_id":628,"name":"DFR DeezNoodlez","steam_id":76561198246700372,"connected_time":3761000000000,"state":"active","ping":59},{"user_id":625,"name":"SeaBass","steam_id":76561198278914206,"connected_time":4529000000000,"state":"active","ping":71},{"user_id":652,"name":"Miramar","steam_id":76561198022057653,"connected_time":199000000000,"state":"active","ping":80},{"user_id":631,"name":"Shmoopy","steam_id":76561198030459152,"connected_time":2750000000000,"state":"active","ping":67},{"user_id":626,"name":"Aldinach","steam_id":76561198079912615,"connected_time":4523000000000,"state":"active","ping":70},{"user_id":582,"name":"Veilos","steam_id":76561198071897172,"connected_time":9026000000000,"state":"active","ping":79},{"user_id":646,"name":"Bunt","steam_id":76561198124477567,"connected_time":884000000000,"state":"active","ping":38},{"user_id":610,"name":"Tay1Qr","steam_id":76561198082809935,"connected_time":6583000000000,"state":"active","ping":72}]},{"server_id":400,"name":"Uncletopia | Atlanta | 3 | Stopwatch Beta","name_short":"atl-3","host":"atl-1.us.uncletopia.com","port":27035,"enabled":true,"region":"us-east","cc":"us","latitude":33.753746,"longitude":-84.38633,"reserved":0,"last_update":"0001-01-01T00:00:00Z","name_a2s":"Uncletopia | Atlanta | 3 | Stopwatch Beta","protocol":17,"map":"pl_pier","folder":"tf","game":"Team Fortress","app_id":440,"player_count":0,"max_players":24,"Bots":0,"server_type":"Dedicated","server_os":"Linux","password":true,"vac":true,"version":"7742253","steam_id":85568392924515187,"keywords":["nocrits","nodmgspread","payload","uncletopia"],"game_id":440,"stv_port":27036,"stv_name":"Uncletopia | Atlanta | 3 | Stopwatch Beta | STV","players":null},{"server_id":401,"name":"Uncletopia | Atlanta | 4 | No Payload","name_short":"atl-4","host":"atl-1.us.uncletopia.com","port":27045,"enabled":true,"region":"us-east","cc":"us","latitude":33.753746,"longitude":-84.38633,"reserved":0,"last_update":"0001-01-01T00:00:00Z","name_a2s":"Uncletopia | Atlanta | 4 | No Payload","protocol":17,"map":"pl_pier","folder":"tf","game":"Team Fortress","app_id":440,"player_count":0,"max_players":24,"Bots":0,"server_type":"Dedicated","server_os":"Linux","password":true,"vac":true,"version":"7723704","steam_id":85568392924515188,"keywords":["nocrits","nodmgspread","payload","uncletopia"],"game_id":440,"stv_port":27046,"stv_name":"Uncletopia | Atlanta | 4 | No Payload | STV","players":null},{"server_id":2,"name":"Uncletopia | Chicago | 1 | All Maps","name_short":"chi-1","host":"chi-1.us.uncletopia.com","port":27015,"enabled":true,"region":"us-central","cc":"us","latitude":41.881832,"longitude":-87.62318,"reserved":0,"last_update":"0001-01-01T00:00:00Z","name_a2s":"Uncletopia | Chicago | 1 | All Maps","protocol":17,"map":"pl_snowycoast","folder":"tf","game":"Team Fortress","app_id":440,"player_count":21,"max_players":24,"Bots":0,"server_type":"Dedicated","server_os":"Linux","password":true,"vac":true,"version":"7742253","steam_id":85568392924469984,"keywords":["nocrits","nodmgspread","payload","uncletopia"],"game_id":440,"stv_port":27016,"stv_name":"Uncletopia | Chicago | 1 | All Maps | STV","players":[{"user_id":640,"name":"Your Uncle Tom","steam_id":76561198356982648,"connected_time":122000000000,"state":"active","ping":60},{"user_id":641,"name":"Sarbanes-Oxley","steam_id":76561197975898479,"connected_time":119000000000,"state":"active","ping":75},{"user_id":630,"name":"vibe (amebo)","steam_id":76561198152690088,"connected_time":491000000000,"state":"active","ping":71},{"user_id":582,"name":"Wug","steam_id":76561198084112264,"connected_time":4975000000000,"state":"active","ping":80},{"user_id":639,"name":"Crabs on Deck","steam_id":76561198812183594,"connected_time":177000000000,"state":"active","ping":64},{"user_id":642,"name":"Fyre Fjord","steam_id":76561199022875891,"connected_time":79000000000,"state":"active","ping":68},{"user_id":622,"name":"ุ","steam_id":76561198170624701,"connected_time":920000000000,"state":"active","ping":76},{"user_id":617,"name":"darps","steam_id":76561198105227318,"connected_time":1165000000000,"state":"active","ping":51},{"user_id":619,"name":"csgohackfree.com","steam_id":76561198201259645,"connected_time":1082000000000,"state":"active","ping":71},{"user_id":637,"name":"faxxy","steam_id":76561198079621240,"connected_time":227000000000,"state":"active","ping":51},{"user_id":614,"name":"knip","steam_id":76561198147061182,"connected_time":1283000000000,"state":"active","ping":75},{"user_id":615,"name":"Nickson1","steam_id":76561198175839309,"connected_time":1250000000000,"state":"active","ping":79},{"user_id":628,"name":"48","steam_id":76561198156422760,"connected_time":515000000000,"state":"active","ping":59},{"user_id":644,"name":"Jay","steam_id":76561198084129048,"connected_time":38000000000,"state":"active","ping":115},{"user_id":633,"name":"BBL","steam_id":76561198819564432,"connected_time":437000000000,"state":"active","ping":45},{"user_id":612,"name":"Throckmorton627","steam_id":76561199147734259,"connected_time":1334000000000,"state":"active","ping":71},{"user_id":613,"name":"can my wife use your toilet","steam_id":76561198120973162,"connected_time":1330000000000,"state":"active","ping":75},{"user_id":536,"name":"The one piece (real)","steam_id":76561198045887994,"connected_time":10014000000000,"state":"active","ping":46},{"user_id":556,"name":"the deadliest pyroshark","steam_id":76561198374227766,"connected_time":8067000000000,"state":"active","ping":74},{"user_id":586,"name":"Inu","steam_id":76561198038745175,"connected_time":4822000000000,"state":"active","ping":137}]},{"server_id":106,"name":"Uncletopia | Chicago | 2 | All Maps","name_short":"chi-2","host":"chi-1.us.uncletopia.com","port":27025,"enabled":true,"region":"us-central","cc":"us","latitude":41.881832,"longitude":-87.62318,"reserved":0,"last_update":"0001-01-01T00:00:00Z","name_a2s":"Uncletopia | Chicago | 2 | All Maps","protocol":17,"map":"pl_badwater","folder":"tf","game":"Team Fortress","app_id":440,"player_count":16,"max_players":24,"Bots":0,"server_type":"Dedicated","server_os":"Linux","password":true,"vac":true,"version":"7742253","steam_id":85568392924469985,"keywords":["nocrits","nodmgspread","payload","uncletopia"],"game_id":440,"stv_port":27026,"stv_name":"Uncletopia | Chicago | 2 | All Maps | STV","players":[{"user_id":506,"name":"Sad German","steam_id":76561198178100797,"connected_time":193000000000,"state":"active","ping":96},{"user_id":480,"name":"Meet The Amazing Bret","steam_id":76561198137326099,"connected_time":2653000000000,"state":"active","ping":100},{"user_id":469,"name":"Crunchy Pancake","steam_id":76561198002555973,"connected_time":3332000000000,"state":"active","ping":64},{"user_id":507,"name":"q!k.glodfyeehs","steam_id":76561198086008437,"connected_time":168000000000,"state":"active","ping":73},{"user_id":496,"name":"O'Keearns","steam_id":76561198042213797,"connected_time":2351000000000,"state":"active","ping":60},{"user_id":508,"name":"FROYO donovin","steam_id":76561198045679387,"connected_time":112000000000,"state":"active","ping":45},{"user_id":485,"name":"PanCAKEEE","steam_id":76561198237489544,"connected_time":2583000000000,"state":"active","ping":104},{"user_id":486,"name":"hashmap","steam_id":76561198043794014,"connected_time":2568000000000,"state":"active","ping":85},{"user_id":489,"name":"Catass (cause why not)","steam_id":76561198255802361,"connected_time":2520000000000,"state":"active","ping":66},{"user_id":505,"name":"Scrumlet","steam_id":76561198339806643,"connected_time":263000000000,"state":"active","ping":85},{"user_id":502,"name":"dog-shaped dog","steam_id":76561198286166220,"connected_time":1366000000000,"state":"active","ping":58},{"user_id":499,"name":"Nexus","steam_id":76561198187929865,"connected_time":1655000000000,"state":"active","ping":45},{"user_id":497,"name":"guac","steam_id":76561198025481672,"connected_time":2315000000000,"state":"active","ping":67},{"user_id":494,"name":"Nightingale","steam_id":76561198067851381,"connected_time":2476000000000,"state":"active","ping":49},{"user_id":503,"name":"HanakoToast","steam_id":76561198045233131,"connected_time":1352000000000,"state":"active","ping":106},{"user_id":493,"name":"COFFIN FILLER","steam_id":76561198018271944,"connected_time":2496000000000,"state":"active","ping":51}]},{"server_id":402,"name":"Uncletopia | Chicago | 3 | All Maps","name_short":"chi-3","host":"chi-1.us.uncletopia.com","port":27035,"enabled":true,"region":"us-central","cc":"us","latitude":41.881832,"longitude":-87.62318,"reserved":0,"last_update":"0001-01-01T00:00:00Z","name_a2s":"Uncletopia | Chicago | 3 | All Maps","protocol":17,"map":"cp_egypt_final","folder":"tf","game":"Team Fortress","app_id":440,"player_count":24,"max_players":24,"Bots":0,"server_type":"Dedicated","server_os":"Linux","password":true,"vac":true,"version":"7742253","steam_id":85568392924515191,"keywords":["cp","nocrits","nodmgspread","uncletopia"],"game_id":440,"stv_port":27036,"stv_name":"Uncletopia | Chicago | 3 | All Maps | STV","players":[{"user_id":536,"name":"Miner2495","steam_id":76561198445904523,"connected_time":385000000000,"state":"active","ping":73},{"user_id":470,"name":"Brown_Dream","steam_id":76561198975766145,"connected_time":5230000000000,"state":"active","ping":75},{"user_id":543,"name":"Kaluka","steam_id":76561198036861445,"connected_time":207000000000,"state":"active","ping":72},{"user_id":514,"name":"The Eyeball Man","steam_id":76561198013534207,"connected_time":2513000000000,"state":"active","ping":62},{"user_id":528,"name":"The Janitor","steam_id":76561198370152780,"connected_time":800000000000,"state":"active","ping":60},{"user_id":532,"name":"TheBlue","steam_id":76561198363412851,"connected_time":758000000000,"state":"active","ping":45},{"user_id":537,"name":"CaucasianShaq","steam_id":76561198351623516,"connected_time":382000000000,"state":"active","ping":77},{"user_id":497,"name":"-","steam_id":76561198021308963,"connected_time":3762000000000,"state":"active","ping":73},{"user_id":544,"name":"Big kahuna","steam_id":76561198142024812,"connected_time":195000000000,"state":"active","ping":74},{"user_id":542,"name":"High Quality Ice","steam_id":76561198969178047,"connected_time":288000000000,"state":"active","ping":58},{"user_id":535,"name":"NoShen","steam_id":76561198147434663,"connected_time":409000000000,"state":"active","ping":63},{"user_id":500,"name":"Cyclops_672","steam_id":76561198080169497,"connected_time":3717000000000,"state":"active","ping":53},{"user_id":522,"name":"GreenApples","steam_id":76561198120559543,"connected_time":1892000000000,"state":"active","ping":103},{"user_id":540,"name":"Detective Parks","steam_id":76561198153415500,"connected_time":319000000000,"state":"active","ping":73},{"user_id":509,"name":"Hippo Muncher","steam_id":76561198055411557,"connected_time":3080000000000,"state":"active","ping":69},{"user_id":501,"name":"Candy Sparkles","steam_id":76561198126871264,"connected_time":3711000000000,"state":"active","ping":79},{"user_id":541,"name":"Dullahan","steam_id":76561198119668908,"connected_time":315000000000,"state":"active","ping":94},{"user_id":545,"name":"Air Fryer - $39.99 (4 Payments)","steam_id":76561198043572048,"connected_time":176000000000,"state":"active","ping":66},{"user_id":546,"name":"Rakk","steam_id":76561198855176174,"connected_time":118000000000,"state":"active","ping":106},{"user_id":547,"name":"Bibbymcbobby","steam_id":76561198292480758,"connected_time":106000000000,"state":"active","ping":56},{"user_id":504,"name":"Space⭐Taffy","steam_id":76561198002271720,"connected_time":3666000000000,"state":"active","ping":55},{"user_id":508,"name":"PigPig","steam_id":76561198068190834,"connected_time":3216000000000,"state":"active","ping":104},{"user_id":527,"name":"{FITH}™ Halcyon","steam_id":76561198049132808,"connected_time":989000000000,"state":"active","ping":69},{"user_id":506,"name":"Uncle Meat","steam_id":76561198012534850,"connected_time":3657000000000,"state":"active","ping":47}]},{"server_id":403,"name":"Uncletopia | Chicago | 4 | All Maps","name_short":"chi-4","host":"chi-1.us.uncletopia.com","port":27045,"enabled":true,"region":"us-central","cc":"us","latitude":41.881832,"longitude":-87.62318,"reserved":0,"last_update":"0001-01-01T00:00:00Z","name_a2s":"Uncletopia | Chicago | 4 | All Maps","protocol":17,"map":"cp_snakewater_final1","folder":"tf","game":"Team Fortress","app_id":440,"player_count":19,"max_players":24,"Bots":0,"server_type":"Dedicated","server_os":"Linux","password":true,"vac":true,"version":"7742253","steam_id":85568392924515193,"keywords":["cp","nocrits","nodmgspread","uncletopia"],"game_id":440,"stv_port":27046,"stv_name":"Uncletopia | Chicago | 4 | All Maps | STV","players":[{"user_id":362,"name":"SoWhich","steam_id":76561198237125842,"connected_time":1038000000000,"state":"active","ping":48},{"user_id":382,"name":"System","steam_id":76561198148087137,"connected_time":280000000000,"state":"active","ping":82},{"user_id":352,"name":"gulch","steam_id":76561199227946025,"connected_time":2046000000000,"state":"active","ping":65},{"user_id":383,"name":"maArk","steam_id":76561198200380143,"connected_time":222000000000,"state":"active","ping":142},{"user_id":384,"name":"Morphy_02","steam_id":76561199066220458,"connected_time":143000000000,"state":"active","ping":110},{"user_id":363,"name":"Roz257","steam_id":76561198842844532,"connected_time":1021000000000,"state":"active","ping":88},{"user_id":385,"name":"Metalogic","steam_id":76561198049469629,"connected_time":27000000000,"state":"active","ping":103},{"user_id":378,"name":"Ediot","steam_id":76561199349494096,"connected_time":561000000000,"state":"active","ping":72},{"user_id":365,"name":"devamar","steam_id":76561198069115467,"connected_time":1017000000000,"state":"active","ping":64},{"user_id":379,"name":"KaiaDoggy","steam_id":76561197997096301,"connected_time":542000000000,"state":"active","ping":70},{"user_id":369,"name":"dog","steam_id":76561198263873491,"connected_time":846000000000,"state":"active","ping":44},{"user_id":370,"name":"Dang","steam_id":76561198288874083,"connected_time":827000000000,"state":"active","ping":103},{"user_id":305,"name":"Rockgraham101","steam_id":76561198171740458,"connected_time":5541000000000,"state":"active","ping":77},{"user_id":372,"name":"Jibble","steam_id":76561198970704298,"connected_time":783000000000,"state":"active","ping":61},{"user_id":373,"name":"pelicAn","steam_id":76561197963422599,"connected_time":779000000000,"state":"active","ping":61},{"user_id":251,"name":"weewa","steam_id":76561198064876090,"connected_time":8128000000000,"state":"active","ping":70},{"user_id":374,"name":"Tobey","steam_id":76561198132769285,"connected_time":772000000000,"state":"active","ping":71},{"user_id":375,"name":"Anshin","steam_id":76561198018803214,"connected_time":771000000000,"state":"active","ping":80},{"user_id":308,"name":"James","steam_id":76561198081313916,"connected_time":5483000000000,"state":"active","ping":70}]},{"server_id":36,"name":"Uncletopia | Chicago | 5 | All Maps","name_short":"chi-5","host":"chi-2.us.uncletopia.com","port":27015,"enabled":true,"region":"us-central","cc":"us","latitude":41.881832,"longitude":-87.62318,"reserved":0,"last_update":"0001-01-01T00:00:00Z","name_a2s":"Uncletopia | Chicago | 5 | All Maps","protocol":17,"map":"pl_frontier_final","folder":"tf","game":"Team Fortress","app_id":440,"player_count":17,"max_players":24,"Bots":0,"server_type":"Dedicated","server_os":"Linux","password":true,"vac":true,"version":"7742253","steam_id":85568392924866362,"keywords":["nocrits","nodmgspread","payload","uncletopia"],"game_id":440,"stv_port":27016,"stv_name":"Uncletopia | Chicago | 5 | All Maps | STV","players":[{"user_id":314,"name":"hypermetalsonic5","steam_id":76561198074267655,"connected_time":1661000000000,"state":"active","ping":189},{"user_id":302,"name":"cartoonboyguy","steam_id":76561199091667539,"connected_time":2656000000000,"state":"active","ping":73},{"user_id":303,"name":"mai sentry","steam_id":76561198032404018,"connected_time":2586000000000,"state":"active","ping":125},{"user_id":304,"name":"Bry","steam_id":76561197996278591,"connected_time":2531000000000,"state":"spawning","ping":89},{"user_id":351,"name":"LonicTH","steam_id":76561198171059033,"connected_time":10000000000,"state":"spawning","ping":127},{"user_id":335,"name":"StarWither","steam_id":76561198383264295,"connected_time":938000000000,"state":"active","ping":100},{"user_id":344,"name":"Twan (no vibes plz)","steam_id":76561197991064908,"connected_time":392000000000,"state":"active","ping":61},{"user_id":311,"name":"YungKeet","steam_id":76561198293854963,"connected_time":1739000000000,"state":"active","ping":86},{"user_id":347,"name":"Big Pete","steam_id":76561198100754827,"connected_time":199000000000,"state":"active","ping":111},{"user_id":313,"name":"vdub63","steam_id":76561198093443689,"connected_time":1684000000000,"state":"active","ping":85},{"user_id":340,"name":"papersamurai","steam_id":76561198313608698,"connected_time":770000000000,"state":"active","ping":71},{"user_id":334,"name":"***","steam_id":76561198160976692,"connected_time":992000000000,"state":"active","ping":78},{"user_id":346,"name":"Jimmy The Tube","steam_id":76561198123216756,"connected_time":358000000000,"state":"active","ping":72},{"user_id":342,"name":"Lots0","steam_id":76561198043143145,"connected_time":541000000000,"state":"active","ping":147},{"user_id":343,"name":"totoro","steam_id":76561198210420871,"connected_time":431000000000,"state":"active","ping":41},{"user_id":324,"name":"Soju","steam_id":76561198044130442,"connected_time":1187000000000,"state":"active","ping":76},{"user_id":349,"name":"Lonka","steam_id":76561199008415182,"connected_time":138000000000,"state":"connecting","ping":126}]},{"server_id":37,"name":"Uncletopia | Chicago | 6 | All Maps","name_short":"chi-6","host":"chi-2.us.uncletopia.com","port":27025,"enabled":true,"region":"us-central","cc":"us","latitude":41.881832,"longitude":-87.62318,"reserved":0,"last_update":"0001-01-01T00:00:00Z","name_a2s":"Uncletopia | Chicago | 6 | All Maps","protocol":17,"map":"pl_frontier_final","folder":"tf","game":"Team Fortress","app_id":440,"player_count":24,"max_players":24,"Bots":0,"server_type":"Dedicated","server_os":"Linux","password":true,"vac":true,"version":"7742253","steam_id":85568392924866363,"keywords":["nocrits","nodmgspread","payload","uncletopia"],"game_id":440,"stv_port":27026,"stv_name":"Uncletopia | Chicago | 6 | All Maps | STV","players":[{"user_id":454,"name":"honked off the bobo","steam_id":76561198123287268,"connected_time":3076000000000,"state":"active","ping":45},{"user_id":486,"name":"Why Kappa","steam_id":76561198374425955,"connected_time":650000000000,"state":"active","ping":57},{"user_id":474,"name":"xd Clover","steam_id":76561198038905361,"connected_time":1053000000000,"state":"active","ping":59},{"user_id":494,"name":"TokyoJade","steam_id":76561198136297393,"connected_time":26000000000,"state":"active","ping":82},{"user_id":400,"name":"Lunchboxx","steam_id":76561198079735916,"connected_time":6695000000000,"state":"active","ping":53},{"user_id":491,"name":"dickgrabber","steam_id":76561198061768122,"connected_time":532000000000,"state":"active","ping":64},{"user_id":480,"name":"Alabit","steam_id":76561198065578560,"connected_time":874000000000,"state":"active","ping":76},{"user_id":455,"name":"Matches_                       ","steam_id":76561198048925904,"connected_time":3075000000000,"state":"active","ping":126},{"user_id":481,"name":"SpiritBear","steam_id":76561198099128035,"connected_time":868000000000,"state":"active","ping":90},{"user_id":458,"name":"rico suave","steam_id":76561198093252989,"connected_time":2899000000000,"state":"active","ping":91},{"user_id":471,"name":"Strangelove","steam_id":76561198353773611,"connected_time":1549000000000,"state":"active","ping":85},{"user_id":483,"name":"a crazy hobo","steam_id":76561198289650060,"connected_time":760000000000,"state":"active","ping":76},{"user_id":385,"name":"Zeno","steam_id":76561199122275941,"connected_time":7481000000000,"state":"active","ping":60},{"user_id":492,"name":"Nam","steam_id":76561198138253917,"connected_time":420000000000,"state":"active","ping":48},{"user_id":493,"name":"BuddyMocha","steam_id":76561198054654515,"connected_time":294000000000,"state":"active","ping":60},{"user_id":449,"name":"Arcane Flame","steam_id":76561198360024422,"connected_time":3773000000000,"state":"active","ping":112},{"user_id":485,"name":"viscodolante","steam_id":76561198013650292,"connected_time":676000000000,"state":"active","ping":119},{"user_id":487,"name":"Руинер","steam_id":76561198166980992,"connected_time":646000000000,"state":"active","ping":181},{"user_id":490,"name":"Patisserie","steam_id":76561198239169752,"connected_time":565000000000,"state":"active","ping":57},{"user_id":457,"name":"trobort","steam_id":76561198027150357,"connected_time":3070000000000,"state":"active","ping":84},{"user_id":451,"name":"flatts","steam_id":76561198094127177,"connected_time":3759000000000,"state":"active","ping":67},{"user_id":388,"name":"Nostalgicrossing","steam_id":76561198108646017,"connected_time":7438000000000,"state":"active","ping":64},{"user_id":465,"name":"nicolasje101","steam_id":76561198041232087,"connected_time":2321000000000,"state":"active","ping":116},{"user_id":473,"name":"korsu","steam_id":76561198359090934,"connected_time":1389000000000,"state":"active","ping":92}]},{"server_id":38,"name":"Uncletopia | Chicago | 7 | Stopwatch Beta","name_short":"chi-7","host":"chi-2.us.uncletopia.com","port":27035,"enabled":true,"region":"us-central","cc":"us","latitude":41.881832,"longitude":-87.62318,"reserved":0,"last_update":"0001-01-01T00:00:00Z","name_a2s":"Uncletopia | Chicago | 7 | Stopwatch Beta","protocol":17,"map":"workshop/koth_clearcut_b15.ugc2107050255","folder":"tf","game":"Team Fortress","app_id":440,"player_count":0,"max_players":24,"Bots":0,"server_type":"Dedicated","server_os":"Linux","password":true,"vac":true,"version":"7742253","steam_id":85568392924866364,"keywords":["cp","nocrits","nodmgspread","uncletopia"],"game_id":440,"stv_port":27036,"stv_name":"Uncletopia | Chicago | 7 | Stopwatch Beta | STV","players":null},{"server_id":39,"name":"Uncletopia | Chicago | 8 | Community","name_short":"chi-8","host":"chi-2.us.uncletopia.com","port":27045,"enabled":true,"region":"us-central","cc":"us","latitude":41.881832,"longitude":-87.62318,"reserved":0,"last_update":"0001-01-01T00:00:00Z","name_a2s":"Uncletopia | Chicago | 8 | Community","protocol":17,"map":"workshop/koth_bagel_rc5.ugc2514036946","folder":"tf","game":"Team Fortress","app_id":440,"player_count":0,"max_players":24,"Bots":0,"server_type":"Dedicated","server_os":"Linux","password":true,"vac":true,"version":"7742253","steam_id":85568392924866365,"keywords":["cp","nocrits","nodmgspread","uncletopia"],"game_id":440,"stv_port":27046,"stv_name":"Uncletopia | Chicago | 8 | Community | STV","players":null},{"server_id":8,"name":"Uncletopia | Dallas | 1 | All Maps","name_short":"dal-1","host":"dal-1.us.uncletopia.com","port":27015,"enabled":true,"region":"us-central","cc":"us","latitude":32.779167,"longitude":-96.80889,"reserved":0,"last_update":"0001-01-01T00:00:00Z","name_a2s":"Uncletopia | Dallas | 1 | All Maps","protocol":17,"map":"pl_barnblitz","folder":"tf","game":"Team Fortress","app_id":440,"player_count":24,"max_players":24,"Bots":0,"server_type":"Dedicated","server_os":"Linux","password":true,"vac":true,"version":"7742253","steam_id":85568392924469986,"keywords":["nocrits","nodmgspread","payload","uncletopia"],"game_id":440,"stv_port":27016,"stv_name":"Uncletopia | Dallas | 1 | All Maps | STV","players":[{"user_id":430,"name":"TheHunter","steam_id":76561198070828372,"connected_time":4829000000000,"state":"active","ping":63},{"user_id":479,"name":"nUwUb","steam_id":76561198164984099,"connected_time":1142000000000,"state":"active","ping":60},{"user_id":445,"name":"Lore","steam_id":76561198098407538,"connected_time":3761000000000,"state":"active","ping":76},{"user_id":428,"name":"09robcraft2","steam_id":76561199073189184,"connected_time":4891000000000,"state":"active","ping":92},{"user_id":484,"name":"جذيمة الأبرش","steam_id":76561198171033403,"connected_time":632000000000,"state":"active","ping":85},{"user_id":492,"name":"puke","steam_id":76561197999279693,"connected_time":499000000000,"state":"active","ping":69},{"user_id":386,"name":"JesusLovesYouYAY","steam_id":76561199146362676,"connected_time":8312000000000,"state":"active","ping":90},{"user_id":483,"name":"fish fingers","steam_id":76561199078516567,"connected_time":786000000000,"state":"active","ping":124},{"user_id":474,"name":"177013","steam_id":76561198072303290,"connected_time":1469000000000,"state":"active","ping":88},{"user_id":443,"name":"chiefin da oregano spliff","steam_id":76561198131166135,"connected_time":3792000000000,"state":"active","ping":91},{"user_id":486,"name":"Lu","steam_id":76561198273378705,"connected_time":611000000000,"state":"active","ping":176},{"user_id":328,"name":"bo scrungulus","steam_id":76561198038036122,"connected_time":12296000000000,"state":"active","ping":74},{"user_id":404,"name":"Wilhelmktx","steam_id":76561198158102295,"connected_time":7526000000000,"state":"active","ping":81},{"user_id":487,"name":"WannaSeeA","steam_id":76561198097701042,"connected_time":595000000000,"state":"active","ping":47},{"user_id":478,"name":"Toxic Medic Main","steam_id":76561198009314845,"connected_time":1302000000000,"state":"active","ping":57},{"user_id":488,"name":"(real)","steam_id":76561198072651849,"connected_time":593000000000,"state":"active","ping":77},{"user_id":493,"name":"LASAD","steam_id":76561198035410427,"connected_time":398000000000,"state":"active","ping":81},{"user_id":489,"name":"ThatCanadianPanda","steam_id":76561198085726540,"connected_time":577000000000,"state":"active","ping":91},{"user_id":490,"name":"drdoofus123","steam_id":76561198016826181,"connected_time":571000000000,"state":"active","ping":74},{"user_id":473,"name":"Zigadox","steam_id":76561198079813479,"connected_time":1502000000000,"state":"active","ping":87},{"user_id":465,"name":"MR.Badatgames","steam_id":76561198820423721,"connected_time":2331000000000,"state":"active","ping":61},{"user_id":491,"name":"K.A.R.M.A.","steam_id":76561198240750142,"connected_time":539000000000,"state":"active","ping":76},{"user_id":482,"name":"bushy","steam_id":76561198138088830,"connected_time":921000000000,"state":"active","ping":55},{"user_id":456,"name":"Razz","steam_id":76561198158027533,"connected_time":3202000000000,"state":"active","ping":74}]},{"server_id":108,"name":"Uncletopia | Dallas | 2 | All Maps","name_short":"dal-2","host":"dal-1.us.uncletopia.com","port":27025,"enabled":true,"region":"us-central","cc":"us","latitude":32.779167,"longitude":-96.80889,"reserved":0,"last_update":"0001-01-01T00:00:00Z","name_a2s":"Uncletopia | Dallas | 2 | All Maps","protocol":17,"map":"pl_barnblitz","folder":"tf","game":"Team Fortress","app_id":440,"player_count":6,"max_players":24,"Bots":0,"server_type":"Dedicated","server_os":"Linux","password":true,"vac":true,"version":"7742253","steam_id":85568392924469988,"keywords":["nocrits","nodmgspread","payload","uncletopia"],"game_id":440,"stv_port":27026,"stv_name":"Uncletopia | Dallas | 2 | All Maps | STV","players":[{"user_id":207,"name":"goofy guy","steam_id":76561198947654861,"connected_time":2032000000000,"state":"active","ping":47},{"user_id":226,"name":"FloatingQuaker","steam_id":76561198928993208,"connected_time":499000000000,"state":"active","ping":68},{"user_id":230,"name":"The Color Cyan idk im blind","steam_id":76561198978548208,"connected_time":1000000000,"state":"spawning","ping":72},{"user_id":222,"name":"Mengle","steam_id":76561198001953684,"connected_time":841000000000,"state":"active","ping":78},{"user_id":212,"name":"SPREAD CHRISTMAS CHEER AND JOY","steam_id":76561198800386026,"connected_time":1640000000000,"state":"active","ping":89},{"user_id":168,"name":"Potassium_","steam_id":76561199085021046,"connected_time":5492000000000,"state":"active","ping":51}]},{"server_id":5,"name":"Uncletopia | Frankfurt | 1 | All Maps","name_short":"frk-1","host":"frk-1.de.uncletopia.com","port":27015,"enabled":true,"region":"eu","cc":"de","latitude":50.110924,"longitude":8.682127,"reserved":0,"last_update":"0001-01-01T00:00:00Z","name_a2s":"Uncletopia | Frankfurt | 1 | All Maps","protocol":17,"map":"pl_borneo","folder":"tf","game":"Team Fortress","app_id":440,"player_count":0,"max_players":24,"Bots":0,"server_type":"Dedicated","server_os":"Linux","password":true,"vac":true,"version":"7742253","steam_id":85568392924469989,"keywords":["nocrits","nodmgspread","payload","uncletopia"],"game_id":440,"stv_port":27016,"stv_name":"Uncletopia | Frankfurt | 1 | All Maps | STV","players":null},{"server_id":110,"name":"Uncletopia | Frankfurt | 2 | All Maps","name_short":"frk-2","host":"frk-1.de.uncletopia.com","port":27025,"enabled":true,"region":"eu","cc":"de","latitude":50.110924,"longitude":8.682127,"reserved":0,"last_update":"0001-01-01T00:00:00Z","name_a2s":"Uncletopia | Frankfurt | 2 | All Maps","protocol":17,"map":"pl_swiftwater_final1","folder":"tf","game":"Team Fortress","app_id":440,"player_count":0,"max_players":24,"Bots":0,"server_type":"Dedicated","server_os":"Linux","password":true,"vac":true,"version":"7742253","steam_id":85568392924469990,"keywords":["nocrits","nodmgspread","payload","uncletopia"],"game_id":440,"stv_port":27026,"stv_name":"Uncletopia | Frankfurt | 2 | All Maps | STV","players":null},{"server_id":308,"name":"Uncletopia | Frankfurt | 3 | All Maps","name_short":"frk-3","host":"frk-1.de.uncletopia.com","port":27035,"enabled":true,"region":"eu","cc":"de","latitude":50.110924,"longitude":8.682127,"reserved":0,"last_update":"0001-01-01T00:00:00Z","name_a2s":"Uncletopia | Frankfurt | 3 | All Maps","protocol":17,"map":"pl_badwater","folder":"tf","game":"Team Fortress","app_id":440,"player_count":24,"max_players":24,"Bots":0,"server_type":"Dedicated","server_os":"Linux","password":true,"vac":true,"version":"7742253","steam_id":85568392924504274,"keywords":["nocrits","nodmgspread","payload","uncletopia"],"game_id":440,"stv_port":27036,"stv_name":"Uncletopia | Frankfurt | 3 | All Maps | STV","players":[{"user_id":3,"name":"raime","steam_id":76561198024903775,"connected_time":826000000000,"state":"active","ping":84},{"user_id":4,"name":"ErakTheBrave","steam_id":76561198041198994,"connected_time":826000000000,"state":"active","ping":54},{"user_id":5,"name":"pl_zławoda","steam_id":76561198040588109,"connected_time":826000000000,"state":"active","ping":74},{"user_id":6,"name":"pl_badwater","steam_id":76561198152184280,"connected_time":824000000000,"state":"active","ping":62},{"user_id":7,"name":"Pip Boy","steam_id":76561197960530280,"connected_time":823000000000,"state":"active","ping":64},{"user_id":8,"name":"etc","steam_id":76561197998394797,"connected_time":823000000000,"state":"active","ping":58},{"user_id":9,"name":"cereals","steam_id":76561198058656179,"connected_time":822000000000,"state":"active","ping":55},{"user_id":10,"name":"snowi","steam_id":76561198006502679,"connected_time":821000000000,"state":"active","ping":75},{"user_id":11,"name":"duster cat","steam_id":76561198832231975,"connected_time":820000000000,"state":"active","ping":87},{"user_id":12,"name":"Noodle","steam_id":76561197997208006,"connected_time":819000000000,"state":"active","ping":46},{"user_id":13,"name":"Echo of Abyss","steam_id":76561198981841782,"connected_time":819000000000,"state":"active","ping":78},{"user_id":14,"name":"poshto;))","steam_id":76561198106182078,"connected_time":818000000000,"state":"active","ping":96},{"user_id":15,"name":"Rambi","steam_id":76561199058078505,"connected_time":817000000000,"state":"active","ping":157},{"user_id":16,"name":"catboy trickster","steam_id":76561198075665211,"connected_time":814000000000,"state":"active","ping":35},{"user_id":17,"name":"Asmadeus","steam_id":76561198073428194,"connected_time":811000000000,"state":"active","ping":84},{"user_id":18,"name":"TaiDni","steam_id":76561198087750392,"connected_time":808000000000,"state":"active","ping":100},{"user_id":24,"name":"BONK","steam_id":76561199120275042,"connected_time":783000000000,"state":"active","ping":67},{"user_id":20,"name":"LxZurk","steam_id":76561198114054978,"connected_time":802000000000,"state":"active","ping":55},{"user_id":21,"name":"Fayr","steam_id":76561198064922131,"connected_time":801000000000,"state":"active","ping":84},{"user_id":22,"name":"Gort˚✧₊","steam_id":76561198085248515,"connected_time":800000000000,"state":"active","ping":123},{"user_id":28,"name":"Funi","steam_id":76561198237603082,"connected_time":359000000000,"state":"active","ping":90},{"user_id":25,"name":"stoppen","steam_id":76561197960281482,"connected_time":781000000000,"state":"active","ping":65},{"user_id":26,"name":"Melon","steam_id":76561198150893860,"connected_time":775000000000,"state":"active","ping":69},{"user_id":27,"name":"fector","steam_id":76561199204249586,"connected_time":770000000000,"state":"active","ping":126}]},{"server_id":309,"name":"Uncletopia | Frankfurt | 4 | All Maps","name_short":"frk-4","host":"frk-1.de.uncletopia.com","port":27045,"enabled":true,"region":"eu","cc":"de","latitude":50.110924,"longitude":8.682127,"reserved":0,"last_update":"0001-01-01T00:00:00Z","name_a2s":"Uncletopia | Frankfurt | 4 | All Maps","protocol":17,"map":"cp_sunshine","folder":"tf","game":"Team Fortress","app_id":440,"player_count":0,"max_players":24,"Bots":0,"server_type":"Dedicated","server_os":"Linux","password":true,"vac":true,"version":"7742253","steam_id":85568392924504275,"keywords":["cp","nocrits","nodmgspread","uncletopia"],"game_id":440,"stv_port":27046,"stv_name":"Uncletopia | Frankfurt | 4 | All Maps | STV","players":null},{"server_id":310,"name":"Uncletopia | Frankfurt | 5 | All Maps","name_short":"frk-5","host":"frk-1.de.uncletopia.com","port":27055,"enabled":true,"region":"eu","cc":"de","latitude":50.110924,"longitude":8.682127,"reserved":0,"last_update":"0001-01-01T00:00:00Z","name_a2s":"Uncletopia | Frankfurt | 5 | All Maps","protocol":17,"map":"cp_snakewater_final1","folder":"tf","game":"Team Fortress","app_id":440,"player_count":0,"max_players":24,"Bots":0,"server_type":"Dedicated","server_os":"Linux","password":true,"vac":true,"version":"7742253","steam_id":85568392924504277,"keywords":["cp","nocrits","nodmgspread","uncletopia"],"game_id":440,"stv_port":27056,"stv_name":"Uncletopia | Frankfurt | 5 | All Maps | STV","players":null},{"server_id":311,"name":"Uncletopia | Frankfurt | 6 | All Maps","name_short":"frk-6","host":"frk-1.de.uncletopia.com","port":27065,"enabled":true,"region":"eu","cc":"de","latitude":50.110924,"longitude":8.682127,"reserved":0,"last_update":"0001-01-01T00:00:00Z","name_a2s":"Uncletopia | Frankfurt | 6 | All Maps","protocol":17,"map":"koth_lakeside_final","folder":"tf","game":"Team Fortress","app_id":440,"player_count":0,"max_players":24,"Bots":0,"server_type":"Dedicated","server_os":"Linux","password":true,"vac":true,"version":"7742253","steam_id":85568392924504278,"keywords":["cp","nocrits","nodmgspread","uncletopia"],"game_id":440,"stv_port":27066,"stv_name":"Uncletopia | Frankfurt | 6 | All Maps | STV","players":null},{"server_id":23,"name":"Uncletopia | Frankfurt | 7 | Stopwatch Beta","name_short":"frk-7","host":"frk-1.de.uncletopia.com","port":27075,"enabled":true,"region":"eu","cc":"de","latitude":50.110924,"longitude":8.682127,"reserved":0,"last_update":"0001-01-01T00:00:00Z","name_a2s":"Uncletopia | Frankfurt | 7 | Stopwatch Beta","protocol":17,"map":"pl_badwater","folder":"tf","game":"Team Fortress","app_id":440,"player_count":0,"max_players":24,"Bots":0,"server_type":"Dedicated","server_os":"Linux","password":true,"vac":true,"version":"7742253","steam_id":85568392924742827,"keywords":["nocrits","nodmgspread","payload","uncletopia"],"game_id":440,"stv_port":27076,"stv_name":"Uncletopia | Frankfurt | 7 | Stopwatch Beta | STV","players":null},{"server_id":24,"name":"Uncletopia | Frankfurt | 8 | Community","name_short":"frk-8","host":"frk-1.de.uncletopia.com","port":27085,"enabled":true,"region":"eu","cc":"de","latitude":50.110924,"longitude":8.682127,"reserved":0,"last_update":"0001-01-01T00:00:00Z","name_a2s":"Uncletopia | Frankfurt | 8 | Community","protocol":17,"map":"koth_cascade","folder":"tf","game":"Team Fortress","app_id":440,"player_count":0,"max_players":24,"Bots":0,"server_type":"Dedicated","server_os":"Linux","password":true,"vac":true,"version":"7742253","steam_id":85568392924742828,"keywords":["cp","nocrits","nodmgspread","uncletopia"],"game_id":440,"stv_port":27086,"stv_name":"Uncletopia | Frankfurt | 8 | Community | STV","players":null},{"server_id":202,"name":"Uncletopia | Hong Kong | 1 | All Maps","name_short":"hgk-1","host":"hgk-1.hk.uncletopia.com","port":27015,"enabled":true,"region":"asia","cc":"hk","latitude":22.302711,"longitude":114.177216,"reserved":0,"last_update":"0001-01-01T00:00:00Z","name_a2s":"Uncletopia | Hong Kong | 1 | All Maps","protocol":17,"map":"koth_harvest_final","folder":"tf","game":"Team Fortress","app_id":440,"player_count":0,"max_players":24,"Bots":0,"server_type":"Dedicated","server_os":"Linux","password":true,"vac":true,"version":"7742253","steam_id":85568392924494504,"keywords":["cp","nocrits","nodmgspread","uncletopia"],"game_id":440,"stv_port":27016,"stv_name":"Uncletopia | Hong Kong | 1 | All Maps | STV","players":null},{"server_id":1,"name":"Uncletopia | Los Angeles | 1 | All Maps","name_short":"lax-1","host":"lax-1.us.uncletopia.com","port":27015,"enabled":true,"region":"us-west","cc":"us","latitude":33.94279,"longitude":-118.41004,"reserved":0,"last_update":"0001-01-01T00:00:00Z","name_a2s":"Uncletopia | Los Angeles | 1 | All Maps","protocol":17,"map":"pl_borneo","folder":"tf","game":"Team Fortress","app_id":440,"player_count":7,"max_players":24,"Bots":0,"server_type":"Dedicated","server_os":"Linux","password":true,"vac":true,"version":"7742253","steam_id":85568392924469991,"keywords":["nocrits","nodmgspread","payload","uncletopia"],"game_id":440,"stv_port":27016,"stv_name":"Uncletopia | Los Angeles | 1 | All Maps | STV","players":[{"user_id":126,"name":"Delimeat","steam_id":76561198043824595,"connected_time":1129000000000,"state":"active","ping":42},{"user_id":124,"name":"Luigiminer8","steam_id":76561198803438732,"connected_time":2425000000000,"state":"active","ping":79},{"user_id":125,"name":"Vegasx702s","steam_id":76561198799772874,"connected_time":2406000000000,"state":"active","ping":74},{"user_id":127,"name":"Frazzer","steam_id":76561198088679707,"connected_time":1128000000000,"state":"active","ping":47},{"user_id":128,"name":"nfseskimo","steam_id":76561198078745666,"connected_time":647000000000,"state":"active","ping":62},{"user_id":131,"name":"Mechadrago","steam_id":76561198028058543,"connected_time":76000000000,"state":"active","ping":70},{"user_id":132,"name":"GroovinMagic","steam_id":76561198438867849,"connected_time":48000000000,"state":"active","ping":54}]},{"server_id":112,"name":"Uncletopia | Los Angeles | 2 | All Maps","name_short":"lax-2","host":"lax-1.us.uncletopia.com","port":27025,"enabled":true,"region":"us-west","cc":"us","latitude":33.94279,"longitude":-118.41004,"reserved":0,"last_update":"0001-01-01T00:00:00Z","name_a2s":"Uncletopia | Los Angeles | 2 | All Maps","protocol":17,"map":"cp_sunshine","folder":"tf","game":"Team Fortress","app_id":440,"player_count":0,"max_players":24,"Bots":0,"server_type":"Dedicated","server_os":"Linux","password":true,"vac":true,"version":"7742253","steam_id":85568392924469992,"keywords":["cp","nocrits","nodmgspread","uncletopia"],"game_id":440,"stv_port":27026,"stv_name":"Uncletopia | Los Angeles | 2 | All Maps | STV","players":null},{"server_id":324,"name":"Uncletopia | Los Angeles | 3 | All Maps","name_short":"lax-3","host":"lax-1.us.uncletopia.com","port":27035,"enabled":true,"region":"us-west","cc":"us","latitude":33.94279,"longitude":-118.41004,"reserved":0,"last_update":"0001-01-01T00:00:00Z","name_a2s":"Uncletopia | Los Angeles | 3 | All Maps","protocol":17,"map":"pl_barnblitz","folder":"tf","game":"Team Fortress","app_id":440,"player_count":24,"max_players":24,"Bots":0,"server_type":"Dedicated","server_os":"Linux","password":true,"vac":true,"version":"7742253","steam_id":85568392924510198,"keywords":["nocrits","nodmgspread","payload","uncletopia"],"game_id":440,"stv_port":27036,"stv_name":"Uncletopia | Los Angeles | 3 | All Maps | STV","players":[{"user_id":123,"name":"Nez","steam_id":76561197963109059,"connected_time":2897000000000,"state":"active","ping":60},{"user_id":152,"name":"TeCon","steam_id":76561198049127236,"connected_time":433000000000,"state":"active","ping":56},{"user_id":143,"name":"doobiebob","steam_id":76561198071963742,"connected_time":1156000000000,"state":"active","ping":52},{"user_id":144,"name":"bitmabako","steam_id":76561199000786530,"connected_time":1042000000000,"state":"active","ping":78},{"user_id":147,"name":"just leo","steam_id":76561198094491158,"connected_time":549000000000,"state":"active","ping":63},{"user_id":153,"name":"TTV GarrettOnDaMic","steam_id":76561198354125623,"connected_time":425000000000,"state":"active","ping":86},{"user_id":124,"name":"Grungus","steam_id":76561198047700230,"connected_time":2879000000000,"state":"active","ping":60},{"user_id":149,"name":"LarryOfAllTrades","steam_id":76561198325492137,"connected_time":492000000000,"state":"active","ping":62},{"user_id":156,"name":"comis8","steam_id":76561198067262270,"connected_time":69000000000,"state":"active","ping":41},{"user_id":44,"name":"DarthJiggles","steam_id":76561198088383875,"connected_time":8077000000000,"state":"active","ping":53},{"user_id":136,"name":"Tam Honks","steam_id":76561198044347961,"connected_time":2521000000000,"state":"active","ping":63},{"user_id":145,"name":"SHADOW (he/him)","steam_id":76561198207768148,"connected_time":998000000000,"state":"active","ping":64},{"user_id":138,"name":"kr1tsurf3r","steam_id":76561198076402476,"connected_time":2375000000000,"state":"active","ping":60},{"user_id":129,"name":"John Wick's puppy","steam_id":76561198064662875,"connected_time":2698000000000,"state":"active","ping":60},{"user_id":151,"name":"ArumiKaze","steam_id":76561198026814729,"connected_time":442000000000,"state":"active","ping":54},{"user_id":90,"name":"the hunchback of gay paris","steam_id":76561197987056308,"connected_time":6174000000000,"state":"active","ping":49},{"user_id":141,"name":"Dragons\u003eEverything","steam_id":76561199140784635,"connected_time":1416000000000,"state":"active","ping":65},{"user_id":132,"name":"Zenix","steam_id":76561198261817732,"connected_time":2580000000000,"state":"active","ping":55},{"user_id":91,"name":"The Dumptruck of Notre-Dame","steam_id":76561198004815026,"connected_time":6159000000000,"state":"active","ping":50},{"user_id":154,"name":"Post_Anarchism","steam_id":76561198109189627,"connected_time":410000000000,"state":"active","ping":64},{"user_id":150,"name":"Gears the Proto","steam_id":76561198442285002,"connected_time":488000000000,"state":"active","ping":125},{"user_id":155,"name":"Kzjytsugn","steam_id":76561198130241974,"connected_time":402000000000,"state":"active","ping":74},{"user_id":134,"name":"ImNotZelda","steam_id":76561198866570682,"connected_time":2573000000000,"state":"active","ping":69},{"user_id":139,"name":"Bob the Builder","steam_id":76561199069029812,"connected_time":2201000000000,"state":"active","ping":80}]},{"server_id":25,"name":"Uncletopia | Los Angeles | 4 | Stopwatch Beta","name_short":"lax-4","host":"lax-1.us.uncletopia.com","port":27045,"enabled":true,"region":"us-west","cc":"us","latitude":33.94279,"longitude":-118.41004,"reserved":0,"last_update":"0001-01-01T00:00:00Z","name_a2s":"Uncletopia | Los Angeles | 4 | Stopwatch Beta","protocol":17,"map":"workshop/koth_clearcut_b15.ugc2107050255","folder":"tf","game":"Team Fortress","app_id":440,"player_count":0,"max_players":24,"Bots":0,"server_type":"Dedicated","server_os":"Linux","password":true,"vac":true,"version":"7742253","steam_id":85568392924510199,"keywords":["cp","nocrits","nodmgspread","uncletopia"],"game_id":440,"stv_port":27046,"stv_name":"Uncletopia | Los Angeles | 4 | Stopwatch Beta | STV","players":null},{"server_id":11,"name":"Uncletopia | London | 1 | All Maps","name_short":"lon-1","host":"lon-1.uk.uncletopia.com","port":27015,"enabled":true,"region":"eu","cc":"gb","latitude":51.509865,"longitude":-0.118092,"reserved":0,"last_update":"0001-01-01T00:00:00Z","name_a2s":"Uncletopia | London | 1 | All Maps","protocol":17,"map":"pl_pier","folder":"tf","game":"Team Fortress","app_id":440,"player_count":0,"max_players":24,"Bots":0,"server_type":"Dedicated","server_os":"Linux","password":true,"vac":true,"version":"7742253","steam_id":85568392924367362,"keywords":["nocrits","nodmgspread","payload","uncletopia"],"game_id":440,"stv_port":27016,"stv_name":"Uncletopia | London | 1 | All Maps | STV","players":null},{"server_id":114,"name":"Uncletopia | London | 2 | All Maps","name_short":"lon-2","host":"lon-1.uk.uncletopia.com","port":27025,"enabled":true,"region":"eu","cc":"gb","latitude":51.509865,"longitude":-0.118092,"reserved":0,"last_update":"0001-01-01T00:00:00Z","name_a2s":"Uncletopia | London | 2 | All Maps","protocol":17,"map":"cp_dustbowl","folder":"tf","game":"Team Fortress","app_id":440,"player_count":19,"max_players":24,"Bots":0,"server_type":"Dedicated","server_os":"Linux","password":true,"vac":true,"version":"7742253","steam_id":85568392924470941,"keywords":["cp","nocrits","nodmgspread","uncletopia"],"game_id":440,"stv_port":27026,"stv_name":"Uncletopia | London | 2 | All Maps | STV","players":[{"user_id":1142,"name":"MEDIC!","steam_id":76561198883848767,"connected_time":731000000000,"state":"active","ping":59},{"user_id":1157,"name":"Lambdadelta","steam_id":76561198086654069,"connected_time":91000000000,"state":"active","ping":75},{"user_id":1144,"name":"ryzorandol","steam_id":76561199037726166,"connected_time":441000000000,"state":"active","ping":46},{"user_id":1149,"name":"Mr. Nope","steam_id":76561198043851703,"connected_time":350000000000,"state":"active","ping":137},{"user_id":1107,"name":"Zoey","steam_id":76561198071492875,"connected_time":2334000000000,"state":"active","ping":129},{"user_id":1152,"name":"zen","steam_id":76561198160747675,"connected_time":312000000000,"state":"active","ping":93},{"user_id":1150,"name":"Iclucia","steam_id":76561198082273929,"connected_time":332000000000,"state":"active","ping":185},{"user_id":1136,"name":"Insanecrusader19","steam_id":76561198133614464,"connected_time":1044000000000,"state":"active","ping":154},{"user_id":1151,"name":"Uncle Motong","steam_id":76561198029093635,"connected_time":328000000000,"state":"active","ping":64},{"user_id":1153,"name":"The Animated Gamer","steam_id":76561198120639995,"connected_time":283000000000,"state":"active","ping":371},{"user_id":1154,"name":"Doomz","steam_id":76561198029147860,"connected_time":283000000000,"state":"active","ping":132},{"user_id":1139,"name":"hmscole09","steam_id":76561198811362788,"connected_time":873000000000,"state":"active","ping":49},{"user_id":1155,"name":"Shun Rosen","steam_id":76561198012823909,"connected_time":269000000000,"state":"active","ping":136},{"user_id":1141,"name":"Spukky","steam_id":76561198133649308,"connected_time":828000000000,"state":"active","ping":56},{"user_id":1080,"name":"Knifey","steam_id":76561199114525070,"connected_time":4678000000000,"state":"active","ping":69},{"user_id":1146,"name":"nocerinostefano045","steam_id":76561199310302506,"connected_time":406000000000,"state":"active","ping":78},{"user_id":1147,"name":"marsel","steam_id":76561198116168271,"connected_time":390000000000,"state":"active","ping":78},{"user_id":1156,"name":"RiAvoTheOfficial","steam_id":76561199121022061,"connected_time":262000000000,"state":"active","ping":125},{"user_id":1158,"name":"SimpleWolf","steam_id":76561198128907601,"connected_time":28000000000,"state":"active","ping":50}]},{"server_id":320,"name":"Uncletopia | London | 3 | All Maps","name_short":"lon-3","host":"lon-1.uk.uncletopia.com","port":27035,"enabled":true,"region":"eu","cc":"gb","latitude":51.509865,"longitude":-0.118092,"reserved":0,"last_update":"0001-01-01T00:00:00Z","name_a2s":"Uncletopia | London | 3 | All Maps","protocol":17,"map":"koth_lakeside_final","folder":"tf","game":"Team Fortress","app_id":440,"player_count":0,"max_players":24,"Bots":0,"server_type":"Dedicated","server_os":"Linux","password":true,"vac":true,"version":"7742253","steam_id":85568392924510192,"keywords":["cp","nocrits","nodmgspread","uncletopia"],"game_id":440,"stv_port":27036,"stv_name":"Uncletopia | London | 3 | All Maps | STV","players":null},{"server_id":321,"name":"Uncletopia | London | 4 | All Maps","name_short":"lon-4","host":"lon-1.uk.uncletopia.com","port":27045,"enabled":true,"region":"eu","cc":"gb","latitude":51.509865,"longitude":-0.118092,"reserved":0,"last_update":"0001-01-01T00:00:00Z","name_a2s":"Uncletopia | London | 4 | All Maps","protocol":17,"map":"cp_dustbowl","folder":"tf","game":"Team Fortress","app_id":440,"player_count":0,"max_players":24,"Bots":0,"server_type":"Dedicated","server_os":"Linux","password":true,"vac":true,"version":"7742253","steam_id":85568392924510193,"keywords":["cp","nocrits","nodmgspread","uncletopia"],"game_id":440,"stv_port":27046,"stv_name":"Uncletopia | London | 4 | All Maps | STV","players":null},{"server_id":21,"name":"Uncletopia | London | 5 | All Maps","name_short":"lon-5","host":"lon-1.uk.uncletopia.com","port":27055,"enabled":true,"region":"eu","cc":"gb","latitude":51.509865,"longitude":-0.118092,"reserved":0,"last_update":"0001-01-01T00:00:00Z","name_a2s":"Uncletopia | London | 5 | All Maps","protocol":17,"map":"koth_cascade","folder":"tf","game":"Team Fortress","app_id":440,"player_count":0,"max_players":24,"Bots":0,"server_type":"Dedicated","server_os":"Linux","password":true,"vac":true,"version":"7742253","steam_id":85568392924742829,"keywords":["cp","nocrits","nodmgspread","uncletopia"],"game_id":440,"stv_port":27056,"stv_name":"Uncletopia | London | 5 | All Maps | STV","players":null},{"server_id":22,"name":"Uncletopia | London | 6 | All Maps","name_short":"lon-6","host":"lon-1.uk.uncletopia.com","port":27065,"enabled":true,"region":"eu","cc":"gb","latitude":51.509865,"longitude":-0.118092,"reserved":0,"last_update":"0001-01-01T00:00:00Z","name_a2s":"Uncletopia | London | 6 | All Maps","protocol":17,"map":"cp_dustbowl","folder":"tf","game":"Team Fortress","app_id":440,"player_count":0,"max_players":24,"Bots":0,"server_type":"Dedicated","server_os":"Linux","password":true,"vac":true,"version":"7742253","steam_id":85568392924742830,"keywords":["cp","nocrits","nodmgspread","uncletopia"],"game_id":440,"stv_port":27066,"stv_name":"Uncletopia | London | 6 | All Maps | STV","players":null},{"server_id":40,"name":"Uncletopia | London | 7 | No Payload","name_short":"lon-7","host":"lon-1.uk.uncletopia.com","port":27075,"enabled":true,"region":"eu","cc":"gb","latitude":51.509865,"longitude":-0.118092,"reserved":0,"last_update":"0001-01-01T00:00:00Z","name_a2s":"Uncletopia | London | 7 | No Payload","protocol":17,"map":"cp_badlands","folder":"tf","game":"Team Fortress","app_id":440,"player_count":0,"max_players":24,"Bots":0,"server_type":"Dedicated","server_os":"Linux","password":true,"vac":true,"version":"7742253","steam_id":85568392924964314,"keywords":["cp","nocrits","nodmgspread","uncletopia"],"game_id":440,"stv_port":27076,"stv_name":"Uncletopia | London | 7 | No Payload | STV","players":null},{"server_id":41,"name":"Uncletopia | London | 8 | Community","name_short":"lon-8","host":"lon-1.uk.uncletopia.com","port":27085,"enabled":true,"region":"eu","cc":"gb","latitude":51.509865,"longitude":-0.118092,"reserved":0,"last_update":"0001-01-01T00:00:00Z","name_a2s":"Uncletopia | London | 8 | Community","protocol":17,"map":"workshop/koth_ashville_final.ugc2130459942","folder":"tf","game":"Team Fortress","app_id":440,"player_count":2,"max_players":24,"Bots":0,"server_type":"Dedicated","server_os":"Linux","password":true,"vac":true,"version":"7742253","steam_id":85568392924964315,"keywords":["cp","nocrits","nodmgspread","uncletopia"],"game_id":440,"stv_port":27086,"stv_name":"Uncletopia | London | 8 | Community | STV","players":[{"user_id":18,"name":"Big Guy","steam_id":76561198335472021,"connected_time":261000000000,"state":"active","ping":48},{"user_id":19,"name":"risposta_","steam_id":76561198374310186,"connected_time":249000000000,"state":"active","ping":62}]},{"server_id":300,"name":"Uncletopia | Montréal | 1 | All Maps","name_short":"mtl-1","host":"mtl-1.ca.uncletopia.com","port":27015,"enabled":true,"region":"us-east","cc":"ca","latitude":45.50889,"longitude":-73.56167,"reserved":0,"last_update":"0001-01-01T00:00:00Z","name_a2s":"Uncletopia | Montréal | 1 | All Maps","protocol":17,"map":"pl_snowycoast","folder":"tf","game":"Team Fortress","app_id":440,"player_count":0,"max_players":24,"Bots":0,"server_type":"Dedicated","server_os":"Linux","password":true,"vac":true,"version":"7742253","steam_id":85568392924500087,"keywords":["nocrits","nodmgspread","payload","uncletopia"],"game_id":440,"stv_port":27016,"stv_name":"Uncletopia | Montréal | 1 | All Maps | STV","players":null},{"server_id":301,"name":"Uncletopia | Montréal | 2 | All Maps","name_short":"mtl-2","host":"mtl-1.ca.uncletopia.com","port":27025,"enabled":true,"region":"us-east","cc":"ca","latitude":45.50889,"longitude":-73.56167,"reserved":0,"last_update":"0001-01-01T00:00:00Z","name_a2s":"Uncletopia | Montréal | 2 | All Maps","protocol":17,"map":"cp_mountainlab","folder":"tf","game":"Team Fortress","app_id":440,"player_count":0,"max_players":24,"Bots":0,"server_type":"Dedicated","server_os":"Linux","password":true,"vac":true,"version":"7742253","steam_id":85568392924500088,"keywords":["cp","nocrits","nodmgspread","uncletopia"],"game_id":440,"stv_port":27026,"stv_name":"Uncletopia | Montréal | 2 | All Maps | STV","players":null},{"server_id":302,"name":"Uncletopia | Montréal | 3 | All Maps","name_short":"mtl-3","host":"mtl-1.ca.uncletopia.com","port":27035,"enabled":true,"region":"us-east","cc":"ca","latitude":45.50889,"longitude":-73.56167,"reserved":0,"last_update":"0001-01-01T00:00:00Z","name_a2s":"Uncletopia | Montréal | 3 | All Maps","protocol":17,"map":"koth_viaduct","folder":"tf","game":"Team Fortress","app_id":440,"player_count":3,"max_players":24,"Bots":0,"server_type":"Dedicated","server_os":"Linux","password":true,"vac":true,"version":"7742253","steam_id":85568392924500089,"keywords":["cp","nocrits","nodmgspread","uncletopia"],"game_id":440,"stv_port":27036,"stv_name":"Uncletopia | Montréal | 3 | All Maps | STV","players":[{"user_id":16,"name":"watchfull","steam_id":76561198433266742,"connected_time":5907000000000,"state":"active","ping":124},{"user_id":17,"name":"Elegant Ejaculation","steam_id":76561198014190878,"connected_time":5679000000000,"state":"active","ping":123},{"user_id":19,"name":"Monsterjessy","steam_id":76561198035630985,"connected_time":3586000000000,"state":"active","ping":50}]},{"server_id":303,"name":"Uncletopia | Montréal | 4 | No Payload","name_short":"mtl-4","host":"mtl-1.ca.uncletopia.com","port":27045,"enabled":true,"region":"us-east","cc":"ca","latitude":45.50889,"longitude":-73.56167,"reserved":0,"last_update":"0001-01-01T00:00:00Z","name_a2s":"Uncletopia | Montréal | 4 | No Payload","protocol":17,"map":"cp_process_final","folder":"tf","game":"Team Fortress","app_id":440,"player_count":0,"max_players":24,"Bots":0,"server_type":"Dedicated","server_os":"Linux","password":true,"vac":true,"version":"7742253","steam_id":85568392924500090,"keywords":["cp","nocrits","nodmgspread","uncletopia"],"game_id":440,"stv_port":27046,"stv_name":"Uncletopia | Montréal | 4 | No Payload | STV","players":null},{"server_id":13,"name":"Uncletopia | New York City | 1 | All Maps","name_short":"nyc-1","host":"nyc-1.us.uncletopia.com","port":27015,"enabled":true,"region":"us-east","cc":"us","latitude":40.73061,"longitude":-73.93524,"reserved":0,"last_update":"0001-01-01T00:00:00Z","name_a2s":"Uncletopia | New York City | 1 | All Maps","protocol":17,"map":"cp_sunshine","folder":"tf","game":"Team Fortress","app_id":440,"player_count":20,"max_players":24,"Bots":0,"server_type":"Dedicated","server_os":"Linux","password":true,"vac":true,"version":"7742253","steam_id":85568392924469993,"keywords":["cp","nocrits","nodmgspread","uncletopia"],"game_id":440,"stv_port":27016,"stv_name":"Uncletopia | New York City | 1 | All Maps | STV","players":[{"user_id":780,"name":"Bones","steam_id":76561198084646266,"connected_time":1559000000000,"state":"active","ping":83},{"user_id":800,"name":"MontellWilliams","steam_id":76561198172143015,"connected_time":144000000000,"state":"active","ping":47},{"user_id":799,"name":"Godfinger","steam_id":76561198426346549,"connected_time":243000000000,"state":"active","ping":90},{"user_id":770,"name":"Adolf The Toast Jesus™","steam_id":76561198024553767,"connected_time":2437000000000,"state":"active","ping":84},{"user_id":788,"name":"PieSpie","steam_id":76561198054531169,"connected_time":1309000000000,"state":"active","ping":63},{"user_id":775,"name":"kametro4","steam_id":76561198835430429,"connected_time":1676000000000,"state":"active","ping":89},{"user_id":801,"name":"The ghostly Piss MN","steam_id":76561198209197020,"connected_time":128000000000,"state":"active","ping":53},{"user_id":743,"name":"ashelin praxis nude mod","steam_id":76561198167907089,"connected_time":4240000000000,"state":"active","ping":76},{"user_id":724,"name":"astron","steam_id":76561198058546328,"connected_time":5493000000000,"state":"active","ping":68},{"user_id":744,"name":"sinisterMayo","steam_id":76561198087244649,"connected_time":4235000000000,"state":"active","ping":69},{"user_id":746,"name":"BoneMonk","steam_id":76561198213201172,"connected_time":4225000000000,"state":"active","ping":129},{"user_id":794,"name":"Concerned Mom1","steam_id":76561198106010459,"connected_time":972000000000,"state":"active","ping":45},{"user_id":796,"name":"Dean","steam_id":76561198261537011,"connected_time":761000000000,"state":"active","ping":133},{"user_id":726,"name":"spooky","steam_id":76561198122964663,"connected_time":5488000000000,"state":"active","ping":47},{"user_id":786,"name":"NastyStarchy","steam_id":76561198291849732,"connected_time":1421000000000,"state":"active","ping":74},{"user_id":784,"name":"$200 Shirt","steam_id":76561197977329534,"connected_time":1435000000000,"state":"active","ping":48},{"user_id":797,"name":"Wool","steam_id":76561198332704108,"connected_time":354000000000,"state":"active","ping":66},{"user_id":705,"name":"Laelaps","steam_id":76561198100061416,"connected_time":6716000000000,"state":"active","ping":58},{"user_id":766,"name":"PLATYPUS","steam_id":76561198255796625,"connected_time":2932000000000,"state":"active","ping":122},{"user_id":792,"name":"lker","steam_id":76561197976975075,"connected_time":1150000000000,"state":"active","ping":60}]},{"server_id":14,"name":"Uncletopia | New York City | 2 | All Maps","name_short":"nyc-2","host":"nyc-1.us.uncletopia.com","port":27025,"enabled":true,"region":"us-east","cc":"us","latitude":40.73061,"longitude":-73.93524,"reserved":0,"last_update":"0001-01-01T00:00:00Z","name_a2s":"Uncletopia | New York City | 2 | All Maps","protocol":17,"map":"cp_dustbowl","folder":"tf","game":"Team Fortress","app_id":440,"player_count":24,"max_players":24,"Bots":0,"server_type":"Dedicated","server_os":"Linux","password":true,"vac":true,"version":"7742253","steam_id":85568392924469994,"keywords":["cp","nocrits","nodmgspread","uncletopia"],"game_id":440,"stv_port":27026,"stv_name":"Uncletopia | New York City | 2 | All Maps | STV","players":[{"user_id":834,"name":"Ice","steam_id":76561198045076794,"connected_time":2076000000000,"state":"active","ping":73},{"user_id":805,"name":"Vince Offer","steam_id":76561198991008825,"connected_time":4799000000000,"state":"active","ping":58},{"user_id":858,"name":"KFC☭","steam_id":76561199206815320,"connected_time":991000000000,"state":"active","ping":104},{"user_id":836,"name":"matkaster","steam_id":76561197998546486,"connected_time":2038000000000,"state":"active","ping":77},{"user_id":859,"name":"Crackhead","steam_id":76561198883918047,"connected_time":979000000000,"state":"active","ping":66},{"user_id":857,"name":"bench","steam_id":76561198055339968,"connected_time":1028000000000,"state":"active","ping":45},{"user_id":873,"name":"geoff","steam_id":76561198038448355,"connected_time":45000000000,"state":"active","ping":67},{"user_id":861,"name":"The Muffin Man","steam_id":76561199088286427,"connected_time":935000000000,"state":"active","ping":107},{"user_id":840,"name":"too funky ᗜˬᗜ","steam_id":76561199120399776,"connected_time":1884000000000,"state":"active","ping":90},{"user_id":870,"name":"Chesh","steam_id":76561197990316722,"connected_time":352000000000,"state":"active","ping":74},{"user_id":869,"name":"Mike Rowe Penis","steam_id":76561198041120471,"connected_time":560000000000,"state":"active","ping":56},{"user_id":841,"name":"Froman Joe","steam_id":76561197991243253,"connected_time":1879000000000,"state":"active","ping":63},{"user_id":830,"name":"StrangeSaus","steam_id":76561198147790758,"connected_time":2865000000000,"state":"active","ping":59},{"user_id":867,"name":"Anji's onlyfans","steam_id":76561198353160282,"connected_time":712000000000,"state":"active","ping":81},{"user_id":844,"name":"squeako","steam_id":76561199031480674,"connected_time":1848000000000,"state":"active","ping":70},{"user_id":827,"name":"vyx","steam_id":76561198037205391,"connected_time":3504000000000,"state":"active","ping":87},{"user_id":852,"name":"Brass beast heavy","steam_id":76561198274197623,"connected_time":1571000000000,"state":"active","ping":134},{"user_id":746,"name":"Filthy Acts at Reasonable Price","steam_id":76561198354615890,"connected_time":9086000000000,"state":"active","ping":80},{"user_id":846,"name":"Cafe Alpha","steam_id":76561197965022076,"connected_time":1832000000000,"state":"active","ping":67},{"user_id":855,"name":"Lawtumn","steam_id":76561198347286009,"connected_time":1302000000000,"state":"active","ping":52},{"user_id":810,"name":"Disambiguation","steam_id":76561198133963270,"connected_time":4608000000000,"state":"active","ping":63},{"user_id":868,"name":"PeopleOrderOurPatties","steam_id":76561198323144922,"connected_time":607000000000,"state":"active","ping":91},{"user_id":872,"name":"B/S/SuperBoof","steam_id":76561197992030936,"connected_time":286000000000,"state":"active","ping":53},{"user_id":787,"name":"Kuddly Kay (She/Her)","steam_id":76561198353432576,"connected_time":6250000000000,"state":"active","ping":73}]},{"server_id":15,"name":"Uncletopia | New York City | 3 | Stopwatch Beta","name_short":"nyc-3","host":"nyc-1.us.uncletopia.com","port":27035,"enabled":true,"region":"us-east","cc":"us","latitude":40.73061,"longitude":-73.93524,"reserved":0,"last_update":"0001-01-01T00:00:00Z","name_a2s":"Uncletopia | New York City | 3 | Stopwatch Beta","protocol":17,"map":"workshop/pl_badwater_pro_v12.ugc2142942074","folder":"tf","game":"Team Fortress","app_id":440,"player_count":0,"max_players":24,"Bots":0,"server_type":"Dedicated","server_os":"Linux","password":true,"vac":true,"version":"7742253","steam_id":85568392924742820,"keywords":["nocrits","nodmgspread","payload","uncletopia"],"game_id":440,"stv_port":27036,"stv_name":"Uncletopia | New York City | 3 | Stopwatch Beta | STV","players":null},{"server_id":16,"name":"Uncletopia | New York City | 4 | Community","name_short":"nyc-4","host":"nyc-1.us.uncletopia.com","port":27045,"enabled":true,"region":"us-east","cc":"us","latitude":40.73061,"longitude":-73.93524,"reserved":0,"last_update":"0001-01-01T00:00:00Z","name_a2s":"Uncletopia | New York City | 4 | Community","protocol":17,"map":"workshop/koth_ramjam_rc1.ugc459778887","folder":"tf","game":"Team Fortress","app_id":440,"player_count":0,"max_players":24,"Bots":0,"server_type":"Dedicated","server_os":"Linux","password":true,"vac":true,"version":"7742253","steam_id":85568392924742821,"keywords":["cp","nocrits","nodmgspread","uncletopia"],"game_id":440,"stv_port":27046,"stv_name":"Uncletopia | New York City | 4 | Community | STV","players":null},{"server_id":142,"name":"Uncletopia | São Paulo | 1 | All Maps","name_short":"sao-1","host":"sao-1.br.uncletopia.com","port":27015,"enabled":true,"region":"sa","cc":"br","latitude":-23.533773,"longitude":-46.62529,"reserved":0,"last_update":"0001-01-01T00:00:00Z","name_a2s":"Uncletopia | São Paulo | 1 | All Maps","protocol":17,"map":"koth_viaduct","folder":"tf","game":"Team Fortress","app_id":440,"player_count":0,"max_players":24,"Bots":0,"server_type":"Dedicated","server_os":"Linux","password":true,"vac":true,"version":"7742253","steam_id":85568392924469996,"keywords":["cp","nocrits","nodmgspread","uncletopia"],"game_id":440,"stv_port":27016,"stv_name":"Uncletopia | São Paulo | 1 | All Maps | STV","players":null},{"server_id":143,"name":"Uncletopia | São Paulo | 2 | All Maps","name_short":"sao-2","host":"sao-2.br.uncletopia.com","port":27015,"enabled":true,"region":"sa","cc":"br","latitude":-23.533773,"longitude":-46.62529,"reserved":0,"last_update":"0001-01-01T00:00:00Z","name_a2s":"Uncletopia | São Paulo | 2 | All Maps","protocol":17,"map":"koth_highpass","folder":"tf","game":"Team Fortress","app_id":440,"player_count":0,"max_players":24,"Bots":0,"server_type":"Dedicated","server_os":"Linux","password":true,"vac":true,"version":"7742253","steam_id":85568392924485349,"keywords":["cp","nocrits","nodmgspread","uncletopia"],"game_id":440,"stv_port":27016,"stv_name":"Uncletopia | São Paulo | 2 | All Maps | STV","players":null},{"server_id":7,"name":"Uncletopia | Seattle | 1 | All Maps","name_short":"sea-1","host":"sea-1.us.uncletopia.com","port":27015,"enabled":true,"region":"us-west","cc":"us","latitude":47.608013,"longitude":-122.33517,"reserved":0,"last_update":"0001-01-01T00:00:00Z","name_a2s":"Uncletopia | Seattle | 1 | All Maps","protocol":17,"map":"pl_barnblitz","folder":"tf","game":"Team Fortress","app_id":440,"player_count":24,"max_players":24,"Bots":0,"server_type":"Dedicated","server_os":"Linux","password":true,"vac":true,"version":"7742253","steam_id":85568392924469997,"keywords":["nocrits","nodmgspread","payload","uncletopia"],"game_id":440,"stv_port":27016,"stv_name":"Uncletopia | Seattle | 1 | All Maps | STV","players":[{"user_id":588,"name":"Frongus","steam_id":76561197979056451,"connected_time":12112000000000,"state":"active","ping":45},{"user_id":682,"name":"Arsonist Goose","steam_id":76561198147441830,"connected_time":5134000000000,"state":"active","ping":73},{"user_id":704,"name":"Elias","steam_id":76561198031295139,"connected_time":3338000000000,"state":"active","ping":56},{"user_id":751,"name":"spenca","steam_id":76561198025371154,"connected_time":426000000000,"state":"active","ping":79},{"user_id":712,"name":"Anderswo","steam_id":76561198253224241,"connected_time":2763000000000,"state":"active","ping":52},{"user_id":594,"name":"Level 99 Mudcrab","steam_id":76561198077452771,"connected_time":11742000000000,"state":"active","ping":59},{"user_id":749,"name":"Dorte Voloxi","steam_id":76561198118620969,"connected_time":872000000000,"state":"active","ping":62},{"user_id":715,"name":"Alset","steam_id":76561197993820174,"connected_time":2721000000000,"state":"active","ping":105},{"user_id":755,"name":"U of SC Office of Financial Aid","steam_id":76561198182294378,"connected_time":200000000000,"state":"active","ping":77},{"user_id":675,"name":"ORANGE","steam_id":76561198000401769,"connected_time":5912000000000,"state":"active","ping":45},{"user_id":736,"name":"MaryJanee","steam_id":76561198072200952,"connected_time":1628000000000,"state":"active","ping":82},{"user_id":739,"name":"godmode","steam_id":76561199245670274,"connected_time":1457000000000,"state":"active","ping":82},{"user_id":748,"name":"magunyamu","steam_id":76561198823083676,"connected_time":917000000000,"state":"active","ping":90},{"user_id":597,"name":"self sufficient kitten","steam_id":76561197960592612,"connected_time":11280000000000,"state":"active","ping":46},{"user_id":741,"name":"Mr. Mystical Perfection","steam_id":76561198036444997,"connected_time":1380000000000,"state":"active","ping":45},{"user_id":714,"name":"Professor Cuthbert Calculus","steam_id":76561198003257461,"connected_time":2759000000000,"state":"active","ping":52},{"user_id":752,"name":"gorlab","steam_id":76561198025089694,"connected_time":412000000000,"state":"active","ping":62},{"user_id":745,"name":"Potatobreeder","steam_id":76561199077867000,"connected_time":1079000000000,"state":"active","ping":65},{"user_id":729,"name":"STrong Bomber","steam_id":76561198805051139,"connected_time":2051000000000,"state":"active","ping":47},{"user_id":756,"name":"2 Point Tom","steam_id":76561198087617008,"connected_time":70000000000,"state":"active","ping":58},{"user_id":727,"name":"Zenyaru","steam_id":76561199128779995,"connected_time":2085000000000,"state":"active","ping":81},{"user_id":753,"name":"Mysteryred12","steam_id":76561199206772814,"connected_time":411000000000,"state":"active","ping":60},{"user_id":754,"name":"Mike Hawk","steam_id":76561198045053326,"connected_time":369000000000,"state":"active","ping":48},{"user_id":711,"name":"Sweets","steam_id":76561198998446307,"connected_time":2808000000000,"state":"active","ping":67}]},{"server_id":119,"name":"Uncletopia | Seattle | 2 | All Maps","name_short":"sea-2","host":"sea-1.us.uncletopia.com","port":27025,"enabled":true,"region":"us-west","cc":"us","latitude":47.608013,"longitude":-122.33517,"reserved":0,"last_update":"0001-01-01T00:00:00Z","name_a2s":"Uncletopia | Seattle | 2 | All Maps","protocol":17,"map":"pl_swiftwater_final1","folder":"tf","game":"Team Fortress","app_id":440,"player_count":24,"max_players":24,"Bots":0,"server_type":"Dedicated","server_os":"Linux","password":true,"vac":true,"version":"7742253","steam_id":85568392924469998,"keywords":["nocrits","nodmgspread","payload","uncletopia"],"game_id":440,"stv_port":27026,"stv_name":"Uncletopia | Seattle | 2 | All Maps | STV","players":[{"user_id":551,"name":"Austin the Forecaster","steam_id":76561198141635855,"connected_time":759000000000,"state":"active","ping":78},{"user_id":546,"name":"The_Pacific_gamer","steam_id":76561198089491446,"connected_time":1116000000000,"state":"active","ping":45},{"user_id":532,"name":"teh mummy","steam_id":76561198044123636,"connected_time":1729000000000,"state":"active","ping":65},{"user_id":547,"name":"Chicanery","steam_id":76561198977589038,"connected_time":1070000000000,"state":"active","ping":108},{"user_id":510,"name":"Alltrex","steam_id":76561198202254225,"connected_time":4336000000000,"state":"active","ping":46},{"user_id":552,"name":"zzrat","steam_id":76561198014925415,"connected_time":706000000000,"state":"active","ping":53},{"user_id":550,"name":"Lightworker","steam_id":76561198063949642,"connected_time":769000000000,"state":"active","ping":41},{"user_id":562,"name":"Jonatello","steam_id":76561198045699189,"connected_time":302000000000,"state":"active","ping":83},{"user_id":526,"name":"Lakue","steam_id":76561198047993241,"connected_time":2283000000000,"state":"active","ping":59},{"user_id":535,"name":"Tomato Soup","steam_id":76561198051834684,"connected_time":1513000000000,"state":"active","ping":51},{"user_id":520,"name":"General Fisticuffs","steam_id":76561198255721392,"connected_time":3027000000000,"state":"active","ping":109},{"user_id":564,"name":"Isopentyl Ethanoate","steam_id":76561198116389072,"connected_time":124000000000,"state":"active","ping":59},{"user_id":511,"name":"Hernandez$","steam_id":76561198019324588,"connected_time":3852000000000,"state":"active","ping":89},{"user_id":560,"name":"lucas","steam_id":76561198067047284,"connected_time":440000000000,"state":"active","ping":127},{"user_id":537,"name":"Y'o","steam_id":76561198098462500,"connected_time":1408000000000,"state":"active","ping":73},{"user_id":540,"name":"MrNoodles","steam_id":76561197998876110,"connected_time":1290000000000,"state":"active","ping":97},{"user_id":541,"name":"Splandido ☠","steam_id":76561198062096626,"connected_time":1290000000000,"state":"active","ping":50},{"user_id":561,"name":"skyler","steam_id":76561198323038574,"connected_time":352000000000,"state":"active","ping":129},{"user_id":543,"name":"TheCowledWiz","steam_id":76561198016735868,"connected_time":1275000000000,"state":"active","ping":48},{"user_id":548,"name":"KingTinkerer","steam_id":76561198226856548,"connected_time":792000000000,"state":"active","ping":74},{"user_id":559,"name":"Brynkiwi","steam_id":76561198052177917,"connected_time":571000000000,"state":"active","ping":84},{"user_id":497,"name":"foura","steam_id":76561198181972739,"connected_time":5740000000000,"state":"active","ping":63},{"user_id":460,"name":"p9 squash","steam_id":76561198150281353,"connected_time":7475000000000,"state":"active","ping":55},{"user_id":565,"name":"Jæræmy","steam_id":76561198100517520,"connected_time":7000000000,"state":"spawning","ping":53}]},{"server_id":406,"name":"Uncletopia | Seattle | 3 | Stopwatch Beta","name_short":"sea-3","host":"sea-1.us.uncletopia.com","port":27035,"enabled":true,"region":"us-west","cc":"us","latitude":47.608013,"longitude":-122.33517,"reserved":0,"last_update":"0001-01-01T00:00:00Z","name_a2s":"Uncletopia | Seattle | 3 | Stopwatch Beta","protocol":17,"map":"pl_borneo","folder":"tf","game":"Team Fortress","app_id":440,"player_count":0,"max_players":24,"Bots":0,"server_type":"Dedicated","server_os":"Linux","password":true,"vac":true,"version":"7742253","steam_id":85568392924515217,"keywords":["nocrits","nodmgspread","payload","uncletopia"],"game_id":440,"stv_port":27036,"stv_name":"Uncletopia | Seattle | 3 | Stopwatch Beta | STV","players":null},{"server_id":17,"name":"Uncletopia | San Francisco | 1 | All Maps","name_short":"sfo-1","host":"sfo-1.us.uncletopia.com","port":27015,"enabled":true,"region":"us-west","cc":"us","latitude":37.77397,"longitude":-122.4313,"reserved":0,"last_update":"0001-01-01T00:00:00Z","name_a2s":"Uncletopia | San Francisco | 1 | All Maps","protocol":17,"map":"pl_upward","folder":"tf","game":"Team Fortress","app_id":440,"player_count":23,"max_players":24,"Bots":0,"server_type":"Dedicated","server_os":"Linux","password":true,"vac":true,"version":"7742253","steam_id":85568392924469999,"keywords":["nocrits","nodmgspread","payload","uncletopia"],"game_id":440,"stv_port":27016,"stv_name":"Uncletopia | San Francisco | 1 | All Maps | STV","players":[{"user_id":60,"name":"red","steam_id":76561198166308053,"connected_time":2516000000000,"state":"active","ping":73},{"user_id":41,"name":"Spybusters","steam_id":76561198951505681,"connected_time":3955000000000,"state":"active","ping":49},{"user_id":34,"name":"Feel the bern","steam_id":76561198078824519,"connected_time":4347000000000,"state":"active","ping":85},{"user_id":83,"name":"evil jesus 05","steam_id":76561198419315893,"connected_time":30000000000,"state":"active","ping":60},{"user_id":67,"name":"Len","steam_id":76561199141913673,"connected_time":1734000000000,"state":"active","ping":44},{"user_id":81,"name":"chinosdjjeej","steam_id":76561199159561914,"connected_time":294000000000,"state":"active","ping":64},{"user_id":72,"name":"Schnitz","steam_id":76561198265484253,"connected_time":1304000000000,"state":"active","ping":66},{"user_id":70,"name":"Diesel","steam_id":76561198448815852,"connected_time":1335000000000,"state":"active","ping":39},{"user_id":73,"name":"Whapper","steam_id":76561198044029606,"connected_time":1246000000000,"state":"active","ping":48},{"user_id":80,"name":"gamer in rehab","steam_id":76561198858328080,"connected_time":377000000000,"state":"active","ping":53},{"user_id":32,"name":"Gustavo Fring (Real)","steam_id":76561198048886059,"connected_time":4434000000000,"state":"active","ping":66},{"user_id":36,"name":"BrightOrangeMango","steam_id":76561198023144607,"connected_time":4260000000000,"state":"active","ping":64},{"user_id":74,"name":"Yoozer","steam_id":76561198420257694,"connected_time":1209000000000,"state":"active","ping":59},{"user_id":38,"name":"FiddyFoMike","steam_id":76561198057072581,"connected_time":4156000000000,"state":"active","ping":46},{"user_id":39,"name":"OwenJAYEH","steam_id":76561197960880103,"connected_time":4060000000000,"state":"active","ping":76},{"user_id":77,"name":"Sadodere Grimace","steam_id":76561198008332028,"connected_time":849000000000,"state":"active","ping":63},{"user_id":76,"name":"tobrehto","steam_id":76561198097544038,"connected_time":1001000000000,"state":"active","ping":71},{"user_id":57,"name":"devils nightmare","steam_id":76561198068136765,"connected_time":2931000000000,"state":"active","ping":52},{"user_id":64,"name":"Zobozo","steam_id":76561198028954297,"connected_time":2340000000000,"state":"active","ping":57},{"user_id":82,"name":"sweaterfan","steam_id":76561199389567214,"connected_time":190000000000,"state":"active","ping":151},{"user_id":78,"name":"Bittr","steam_id":76561198097694185,"connected_time":581000000000,"state":"active","ping":68},{"user_id":68,"name":"Tenma","steam_id":76561198296557689,"connected_time":1533000000000,"state":"active","ping":59},{"user_id":75,"name":"EightySix","steam_id":76561198186678831,"connected_time":1204000000000,"state":"active","ping":60}]},{"server_id":18,"name":"Uncletopia | San Francisco | 2 | All Maps","name_short":"sfo-2","host":"sfo-1.us.uncletopia.com","port":27025,"enabled":true,"region":"us-west","cc":"us","latitude":37.77397,"longitude":-122.4313,"reserved":0,"last_update":"0001-01-01T00:00:00Z","name_a2s":"Uncletopia | San Francisco | 2 | All Maps","protocol":17,"map":"pl_badwater","folder":"tf","game":"Team Fortress","app_id":440,"player_count":24,"max_players":24,"Bots":0,"server_type":"Dedicated","server_os":"Linux","password":true,"vac":true,"version":"7742253","steam_id":85568392924470000,"keywords":["nocrits","nodmgspread","payload","uncletopia"],"game_id":440,"stv_port":27026,"stv_name":"Uncletopia | San Francisco | 2 | All Maps | STV","players":[{"user_id":193,"name":"Dezzithediscoduck","steam_id":76561198037043489,"connected_time":1627000000000,"state":"active","ping":52},{"user_id":194,"name":"SheepWithPants","steam_id":76561198169158454,"connected_time":1554000000000,"state":"active","ping":72},{"user_id":205,"name":"blubby blubster","steam_id":76561198175955138,"connected_time":219000000000,"state":"active","ping":48},{"user_id":199,"name":"Lylsburg","steam_id":76561198001137022,"connected_time":1136000000000,"state":"active","ping":59},{"user_id":181,"name":"moe","steam_id":76561198929586245,"connected_time":2364000000000,"state":"active","ping":62},{"user_id":201,"name":"Trooper5k","steam_id":76561198308230713,"connected_time":942000000000,"state":"active","ping":67},{"user_id":162,"name":"MarshallMellows","steam_id":76561198231561020,"connected_time":3488000000000,"state":"active","ping":60},{"user_id":207,"name":"Hans Burr","steam_id":76561197994592491,"connected_time":117000000000,"state":"active","ping":118},{"user_id":204,"name":"Nuggies","steam_id":76561198272432592,"connected_time":369000000000,"state":"active","ping":60},{"user_id":111,"name":"jungus","steam_id":76561198129862008,"connected_time":8688000000000,"state":"active","ping":57},{"user_id":146,"name":"Mignyanne :3","steam_id":76561198048754056,"connected_time":5603000000000,"state":"active","ping":47},{"user_id":184,"name":"Gunk Shot #saveTF2","steam_id":76561198799314149,"connected_time":2320000000000,"state":"active","ping":56},{"user_id":187,"name":"Fresh","steam_id":76561198068565728,"connected_time":1957000000000,"state":"active","ping":46},{"user_id":208,"name":"Life is Pain I Hate","steam_id":76561198184565718,"connected_time":72000000000,"state":"active","ping":72},{"user_id":195,"name":"sly1","steam_id":76561198049014977,"connected_time":1544000000000,"state":"active","ping":74},{"user_id":183,"name":"rmbl","steam_id":76561198150137369,"connected_time":2347000000000,"state":"active","ping":57},{"user_id":203,"name":"MerkyWaters","steam_id":76561197998853063,"connected_time":548000000000,"state":"active","ping":67},{"user_id":209,"name":"8core","steam_id":76561198131163454,"connected_time":40000000000,"state":"active","ping":76},{"user_id":185,"name":"AKKAWI","steam_id":76561198203159952,"connected_time":2269000000000,"state":"active","ping":75},{"user_id":198,"name":"Spiffle","steam_id":76561199089811047,"connected_time":1227000000000,"state":"active","ping":62},{"user_id":64,"name":"Uncle Warcrimes","steam_id":76561198413013439,"connected_time":11596000000000,"state":"active","ping":70},{"user_id":178,"name":"Yokogaijin Jr.","steam_id":76561199124647094,"connected_time":2779000000000,"state":"active","ping":37},{"user_id":192,"name":"Big Blue","steam_id":76561198084930108,"connected_time":1672000000000,"state":"active","ping":48},{"user_id":179,"name":"Pudsla","steam_id":76561198258974036,"connected_time":2495000000000,"state":"active","ping":77}]},{"server_id":19,"name":"Uncletopia | San Francisco | 3 | Stopwatch Beta","name_short":"sfo-3","host":"sfo-1.us.uncletopia.com","port":27035,"enabled":true,"region":"us-west","cc":"us","latitude":37.77397,"longitude":-122.4313,"reserved":0,"last_update":"0001-01-01T00:00:00Z","name_a2s":"Uncletopia | San Francisco | 3 | Stopwatch Beta","protocol":17,"map":"koth_lakeside_final","folder":"tf","game":"Team Fortress","app_id":440,"player_count":2,"max_players":24,"Bots":0,"server_type":"Dedicated","server_os":"Linux","password":true,"vac":true,"version":"7742253","steam_id":85568392924742824,"keywords":["cp","nocrits","nodmgspread","uncletopia"],"game_id":440,"stv_port":27036,"stv_name":"Uncletopia | San Francisco | 3 | Stopwatch Beta | STV","players":[{"user_id":14,"name":"raymond.boyd0831","steam_id":76561199261496394,"connected_time":265000000000,"state":"active","ping":52},{"user_id":15,"name":"Fireboy1-UP","steam_id":76561199073267048,"connected_time":207000000000,"state":"active","ping":58}]},{"server_id":20,"name":"Uncletopia | San Francisco | 4 | Community","name_short":"sfo-4","host":"sfo-1.us.uncletopia.com","port":27045,"enabled":true,"region":"us-west","cc":"us","latitude":37.77397,"longitude":-122.4313,"reserved":0,"last_update":"0001-01-01T00:00:00Z","name_a2s":"Uncletopia | San Francisco | 4 | Community","protocol":17,"map":"workshop/rd_asteroid_redux_b1.ugc2154902912","folder":"tf","game":"Team Fortress","app_id":440,"player_count":0,"max_players":24,"Bots":0,"server_type":"Dedicated","server_os":"Linux","password":true,"vac":true,"version":"7742253","steam_id":85568392924742826,"keywords":["beta","nocrits","nodmgspread","rd","uncletopia"],"game_id":440,"stv_port":27046,"stv_name":"Uncletopia | San Francisco | 4 | Community | STV","players":null},{"server_id":141,"name":"Uncletopia | Sydney | 1 | All Maps","name_short":"syd-1","host":"syd-1.au.uncletopia.com","port":27015,"enabled":true,"region":"au","cc":"au","latitude":-33.865143,"longitude":151.2099,"reserved":0,"last_update":"0001-01-01T00:00:00Z","name_a2s":"Uncletopia | Sydney | 1 | All Maps","protocol":17,"map":"pl_badwater","folder":"tf","game":"Team Fortress","app_id":440,"player_count":24,"max_players":24,"Bots":0,"server_type":"Dedicated","server_os":"Linux","password":true,"vac":true,"version":"7742253","steam_id":85568392924470001,"keywords":["nocrits","nodmgspread","payload","uncletopia"],"game_id":440,"stv_port":27016,"stv_name":"Uncletopia | Sydney | 1 | All Maps | STV","players":[{"user_id":303,"name":"poopbutt","steam_id":76561198031293430,"connected_time":2778000000000,"state":"active","ping":82},{"user_id":306,"name":"ratbag","steam_id":76561198048064049,"connected_time":2694000000000,"state":"active","ping":83},{"user_id":331,"name":"working","steam_id":76561198339646430,"connected_time":528000000000,"state":"active","ping":55},{"user_id":330,"name":"Lord Oink","steam_id":76561198125237921,"connected_time":669000000000,"state":"active","ping":33},{"user_id":344,"name":"dolphin","steam_id":76561198206754736,"connected_time":24000000000,"state":"spawning","ping":56},{"user_id":193,"name":"Enchanted Cat","steam_id":76561198866538028,"connected_time":11217000000000,"state":"active","ping":80},{"user_id":312,"name":"cullen","steam_id":76561198128695488,"connected_time":2059000000000,"state":"active","ping":56},{"user_id":276,"name":"zebulon","steam_id":76561198063481761,"connected_time":4915000000000,"state":"active","ping":45},{"user_id":304,"name":"helton1 #RemoveCrossbow","steam_id":76561198841855657,"connected_time":2743000000000,"state":"active","ping":58},{"user_id":250,"name":"Muffin™","steam_id":76561198819353439,"connected_time":7159000000000,"state":"active","ping":54},{"user_id":314,"name":"Boys are pretty \u003c3","steam_id":76561198831775550,"connected_time":1919000000000,"state":"active","ping":50},{"user_id":332,"name":"Flakey","steam_id":76561198021618682,"connected_time":506000000000,"state":"active","ping":63},{"user_id":294,"name":"Cv76","steam_id":76561198817942619,"connected_time":3209000000000,"state":"active","ping":44},{"user_id":313,"name":"pooparse","steam_id":76561198217959591,"connected_time":2048000000000,"state":"active","ping":71},{"user_id":341,"name":"Really","steam_id":76561198153397177,"connected_time":199000000000,"state":"active","ping":53},{"user_id":285,"name":"the rot consumes","steam_id":76561199445490119,"connected_time":3602000000000,"state":"active","ping":40},{"user_id":326,"name":"Salada","steam_id":76561198135447457,"connected_time":1126000000000,"state":"active","ping":39},{"user_id":343,"name":"Garry's Mod Rod","steam_id":76561197977993958,"connected_time":60000000000,"state":"active","ping":51},{"user_id":334,"name":"Zeal","steam_id":76561198060829393,"connected_time":474000000000,"state":"active","ping":71},{"user_id":329,"name":"xbox720","steam_id":76561198452767008,"connected_time":735000000000,"state":"active","ping":61},{"user_id":337,"name":"wody","steam_id":76561198867007873,"connected_time":369000000000,"state":"active","ping":105},{"user_id":339,"name":"jimmy mushrooms","steam_id":76561199057568663,"connected_time":300000000000,"state":"active","ping":60},{"user_id":308,"name":"Livid","steam_id":76561198060024585,"connected_time":2557000000000,"state":"active","ping":40},{"user_id":340,"name":"demoman","steam_id":76561199083914239,"connected_time":229000000000,"state":"active","ping":67}]},{"server_id":123,"name":"Uncletopia | Sydney | 2 | All Maps","name_short":"syd-2","host":"syd-1.au.uncletopia.com","port":27025,"enabled":true,"region":"au","cc":"au","latitude":-33.865143,"longitude":151.2099,"reserved":0,"last_update":"0001-01-01T00:00:00Z","name_a2s":"Uncletopia | Sydney | 2 | All Maps","protocol":17,"map":"pl_borneo","folder":"tf","game":"Team Fortress","app_id":440,"player_count":9,"max_players":24,"Bots":0,"server_type":"Dedicated","server_os":"Linux","password":true,"vac":true,"version":"7742253","steam_id":85568392924470002,"keywords":["nocrits","nodmgspread","payload","uncletopia"],"game_id":440,"stv_port":27026,"stv_name":"Uncletopia | Sydney | 2 | All Maps | STV","players":[{"user_id":102,"name":"Who are YOU?","steam_id":76561199233995507,"connected_time":205000000000,"state":"active","ping":77},{"user_id":100,"name":"ElectGibbon","steam_id":76561198379243449,"connected_time":445000000000,"state":"active","ping":57},{"user_id":103,"name":"Treggles","steam_id":76561198042806226,"connected_time":129000000000,"state":"active","ping":76},{"user_id":104,"name":"Hero","steam_id":76561198024744611,"connected_time":120000000000,"state":"active","ping":50},{"user_id":66,"name":"SoundlessPlum","steam_id":76561198077872547,"connected_time":2839000000000,"state":"active","ping":52},{"user_id":105,"name":"bread","steam_id":76561199405764106,"connected_time":30000000000,"state":"active","ping":31},{"user_id":64,"name":"Glockenspe (She/Her)","steam_id":76561199184115241,"connected_time":3070000000000,"state":"active","ping":46},{"user_id":29,"name":"bird","steam_id":76561198258514103,"connected_time":4305000000000,"state":"active","ping":62},{"user_id":96,"name":"just a person","steam_id":76561198949021408,"connected_time":765000000000,"state":"active","ping":53}]},{"server_id":395,"name":"Uncletopia | Sydney | 3 | All Maps","name_short":"syd-3","host":"syd-1.au.uncletopia.com","port":27035,"enabled":true,"region":"au","cc":"au","latitude":-33.865143,"longitude":151.2099,"reserved":0,"last_update":"0001-01-01T00:00:00Z","name_a2s":"Uncletopia | Sydney | 3 | All Maps","protocol":17,"map":"pl_snowycoast","folder":"tf","game":"Team Fortress","app_id":440,"player_count":0,"max_players":24,"Bots":0,"server_type":"Dedicated","server_os":"Linux","password":true,"vac":true,"version":"7742253","steam_id":85568392925194467,"keywords":["nocrits","nodmgspread","payload","uncletopia"],"game_id":440,"stv_port":27036,"stv_name":"Uncletopia | Sydney | 3 | All Maps | STV","players":null},{"server_id":396,"name":"Uncletopia | Sydney | 4 | All Maps","name_short":"syd-4","host":"syd-1.au.uncletopia.com","port":27045,"enabled":true,"region":"au","cc":"au","latitude":-33.865143,"longitude":151.2099,"reserved":0,"last_update":"0001-01-01T00:00:00Z","name_a2s":"Uncletopia | Sydney | 4 | All Maps","protocol":17,"map":"pl_frontier_final","folder":"tf","game":"Team Fortress","app_id":440,"player_count":0,"max_players":24,"Bots":0,"server_type":"Dedicated","server_os":"Linux","password":true,"vac":true,"version":"7742253","steam_id":85568392925397958,"keywords":["nocrits","nodmgspread","payload","uncletopia"],"game_id":440,"stv_port":27046,"stv_name":"Uncletopia | Sydney | 4 | All Maps | STV","players":null},{"server_id":58,"name":"Uncletopia | Sydney | 5 | Stopwatch Beta","name_short":"syd-5","host":"syd-1.au.uncletopia.com","port":27055,"enabled":true,"region":"au","cc":"au","latitude":-33.865143,"longitude":151.2099,"reserved":0,"last_update":"0001-01-01T00:00:00Z","name_a2s":"Uncletopia | Sydney | 5 | Stopwatch Beta","protocol":17,"map":"cp_process_final","folder":"tf","game":"Team Fortress","app_id":440,"player_count":0,"max_players":24,"Bots":0,"server_type":"Dedicated","server_os":"Linux","password":true,"vac":true,"version":"7742253","steam_id":85568392925397959,"keywords":["cp","nocrits","nodmgspread","uncletopia"],"game_id":440,"stv_port":27056,"stv_name":"Uncletopia | Sydney | 5 | Stopwatch Beta | STV","players":null},{"server_id":59,"name":"Uncletopia | Sydney | 6 | Community","name_short":"syd-6","host":"syd-1.au.uncletopia.com","port":27065,"enabled":true,"region":"au","cc":"au","latitude":-33.865143,"longitude":151.2099,"reserved":0,"last_update":"0001-01-01T00:00:00Z","name_a2s":"Uncletopia | Sydney | 6 | Community","protocol":17,"map":"workshop/pl_barnblitz_pro7.ugc582280235","folder":"tf","game":"Team Fortress","app_id":440,"player_count":0,"max_players":24,"Bots":0,"server_type":"Dedicated","server_os":"Linux","password":true,"vac":true,"version":"7742253","steam_id":85568392925397960,"keywords":["nocrits","nodmgspread","payload","uncletopia"],"game_id":440,"stv_port":27066,"stv_name":"Uncletopia | Sydney | 6 | Community | STV","players":null},{"server_id":49,"name":"Uncletopia | Warsaw | 1 | All Maps","name_short":"waw-1","host":"waw-1.pl.uncletopia.com","port":27015,"enabled":true,"region":"eu","cc":"pl","latitude":52.2297,"longitude":21.017532,"reserved":0,"last_update":"0001-01-01T00:00:00Z","name_a2s":"","protocol":0,"map":"","folder":"","game":"","app_id":0,"player_count":0,"max_players":0,"Bots":0,"server_type":"","server_os":"","password":false,"vac":false,"version":"","steam_id":0,"keywords":null,"game_id":0,"stv_port":0,"stv_name":"","players":null},{"server_id":50,"name":"Uncletopia | Warsaw | 2 | All Maps","name_short":"waw-2","host":"waw-1.pl.uncletopia.com","port":27025,"enabled":true,"region":"eu","cc":"pl","latitude":52.2297,"longitude":21.017532,"reserved":0,"last_update":"0001-01-01T00:00:00Z","name_a2s":"Uncletopia | Warsaw | 2 | All Maps","protocol":17,"map":"pl_upward","folder":"tf","game":"Team Fortress","app_id":440,"player_count":0,"max_players":24,"Bots":0,"server_type":"Dedicated","server_os":"Linux","password":true,"vac":true,"version":"7742253","steam_id":85568392925397851,"keywords":["nocrits","nodmgspread","payload","uncletopia"],"game_id":440,"stv_port":27026,"stv_name":"Uncletopia | Warsaw | 2 | All Maps | STV","players":null},{"server_id":51,"name":"Uncletopia | Warsaw | 3 | All Maps","name_short":"waw-3","host":"waw-1.pl.uncletopia.com","port":27035,"enabled":true,"region":"eu","cc":"pl","latitude":52.2297,"longitude":21.017532,"reserved":0,"last_update":"0001-01-01T00:00:00Z","name_a2s":"Uncletopia | Warsaw | 3 | All Maps","protocol":17,"map":"koth_lakeside_final","folder":"tf","game":"Team Fortress","app_id":440,"player_count":0,"max_players":24,"Bots":0,"server_type":"Dedicated","server_os":"Linux","password":true,"vac":true,"version":"7742253","steam_id":85568392925397852,"keywords":["cp","nocrits","nodmgspread","uncletopia"],"game_id":440,"stv_port":27036,"stv_name":"Uncletopia | Warsaw | 3 | All Maps | STV","players":null},{"server_id":52,"name":"Uncletopia | Warsaw | 4 | All Maps","name_short":"waw-4","host":"waw-1.pl.uncletopia.com","port":27045,"enabled":true,"region":"eu","cc":"pl","latitude":52.2297,"longitude":21.017532,"reserved":0,"last_update":"0001-01-01T00:00:00Z","name_a2s":"Uncletopia | Warsaw | 4 | All Maps","protocol":17,"map":"pl_upward","folder":"tf","game":"Team Fortress","app_id":440,"player_count":0,"max_players":24,"Bots":0,"server_type":"Dedicated","server_os":"Linux","password":true,"vac":true,"version":"7742253","steam_id":85568392925397853,"keywords":["nocrits","nodmgspread","payload","uncletopia"],"game_id":440,"stv_port":27046,"stv_name":"Uncletopia | Warsaw | 4 | All Maps | STV","players":null},{"server_id":53,"name":"Uncletopia | Warsaw | 5 | Stopwatch Beta","name_short":"waw-5","host":"waw-1.pl.uncletopia.com","port":27055,"enabled":true,"region":"eu","cc":"pl","latitude":52.2297,"longitude":21.017532,"reserved":0,"last_update":"0001-01-01T00:00:00Z","name_a2s":"Uncletopia | Warsaw | 5 | Stopwatch Beta","protocol":17,"map":"pl_swiftwater_final1","folder":"tf","game":"Team Fortress","app_id":440,"player_count":0,"max_players":24,"Bots":0,"server_type":"Dedicated","server_os":"Linux","password":true,"vac":true,"version":"7742253","steam_id":85568392925397854,"keywords":["nocrits","nodmgspread","payload","uncletopia"],"game_id":440,"stv_port":27056,"stv_name":"Uncletopia | Warsaw | 5 | Stopwatch Beta | STV","players":null},{"server_id":54,"name":"Uncletopia | Warsaw | 6 | Community","name_short":"waw-6","host":"waw-1.pl.uncletopia.com","port":27065,"enabled":true,"region":"eu","cc":"pl","latitude":52.2297,"longitude":21.017532,"reserved":0,"last_update":"0001-01-01T00:00:00Z","name_a2s":"Uncletopia | Warsaw | 6 | Community","protocol":17,"map":"koth_highpass","folder":"tf","game":"Team Fortress","app_id":440,"player_count":0,"max_players":24,"Bots":0,"server_type":"Dedicated","server_os":"Linux","password":true,"vac":true,"version":"7742253","steam_id":85568392925397856,"keywords":["cp","nocrits","nodmgspread","uncletopia"],"game_id":440,"stv_port":27066,"stv_name":"Uncletopia | Warsaw | 6 | Community | STV","players":null}]}