{"status":true,"message":"","result":[{"server_id":9,"name":"Uncletopia | Atlanta | 1 | All Maps","name_short":"atl-1","host":"atl-1.us.uncletopia.com","port":27015,"enabled":true,"region":"us-east","cc":"us","latitude":33.753746,"longitude":-84.38633,"reserved":0,"last_update":"0001-01-01T00:00:00Z","name_a2s":"Uncletopia | Atlanta | 1 | All Maps","protocol":17,"map":"pl_snowycoast","folder":"tf","game":"Team Fortress","app_id":440,"player_count":22,"max_players":24,"Bots":0,"server_type":"Dedicated","server_os":"Linux","password":true,"vac":true,"version":"7757534","steam_id":85568392924469982,"keywords":["nocrits","nodmgspread","payload","uncletopia"],"game_id":440,"stv_port":27016,"stv_name":"Uncletopia | Atlanta | 1 | All Maps | STV","players":[{"user_id":58,"name":"Wife beater","steam_id":76561199135927968,"connected_time":196000000000,"state":"active","ping":100},{"user_id":44,"name":"Broken Cereal‚àö","steam_id":76561198087489795,"connected_time":1287000000000,"state":"active","ping":64},{"user_id":27,"name":"rat on a computer","steam_id":76561199154326885,"connected_time":2048000000000,"state":"active","ping":90},{"user_id":50,"name":"Theodore Roosevelt","steam_id":76561197993295656,"connected_time":673000000000,"state":"active","ping":60},{"user_id":54,"name":"Jared In Target","steam_id":76561198372449718,"connected_time":463000000000,"state":"active","ping":61},{"user_id":55,"name":"Slashuur","steam_id":76561198157385316,"connected_time":430000000000,"state":"active","ping":76},{"user_id":22,"name":"Helios","steam_id":76561199260846464,"connected_time":2134000000000,"state":"active","ping":162},{"user_id":56,"name":"basil","steam_id":76561198075758026,"connected_time":319000000000,"state":"active","ping":71},{"user_id":57,"name":"BackwardsEagle","steam_id":76561199013712612,"connected_time":305000000000,"state":"active","ping":75},{"user_id":46,"name":"Albino Jellyfish","steam_id":76561198208561097,"connected_time":998000000000,"state":"active","ping":69},{"user_id":59,"name":"rothmans","steam_id":76561198012414439,"connected_time":159000000000,"state":"active","ping":131},{"user_id":51,"name":"CH2OYT","steam_id":76561199224120496,"connected_time":643000000000,"state":"active","ping":65},{"user_id":31,"name":"cl","steam_id":76561199436640904,"connected_time":1926000000000,"state":"active","ping":167},{"user_id":32,"name":"JellyParrot","steam_id":76561199190990163,"connected_time":1914000000000,"state":"active","ping":54},{"user_id":33,"name":"Doomagedden","steam_id":76561198272589475,"connected_time":1908000000000,"state":"active","ping":83},{"user_id":34,"name":"Trove","steam_id":76561198110970476,"connected_time":1904000000000,"state":"active","ping":35},{"user_id":42,"name":"CRWND","steam_id":76561198329810027,"connected_time":1525000000000,"state":"active","ping":149},{"user_id":36,"name":"Sea raider","steam_id":76561198123982355,"connected_time":1878000000000,"state":"active","ping":120},{"user_id":43,"name":"Ashes!","steam_id":76561197998475441,"connected_time":1469000000000,"state":"active","ping":72},{"user_id":47,"name":"GailusTerran","steam_id":76561198319509387,"connected_time":768000000000,"state":"active","ping":62},{"user_id":39,"name":"Centipede on a Game Boy","steam_id":76561199016285746,"connected_time":1825000000000,"state":"active","ping":76},{"user_id":60,"name":"vitamin","steam_id":76561198277799227,"connected_time":159000000000,"state":"active","ping":60}]},{"server_id":104,"name":"Uncletopia | Atlanta | 2 | All Maps","name_short":"atl-2","host":"atl-1.us.uncletopia.com","port":27025,"enabled":true,"region":"us-east","cc":"us","latitude":33.753746,"longitude":-84.38633,"reserved":0,"last_update":"0001-01-01T00:00:00Z","name_a2s":"Uncletopia | Atlanta | 2 | All Maps","protocol":17,"map":"koth_highpass","folder":"tf","game":"Team Fortress","app_id":440,"player_count":0,"max_players":24,"Bots":0,"server_type":"Dedicated","server_os":"Linux","password":true,"vac":true,"version":"7757534","steam_id":85568392924469983,"keywords":["cp","nocrits","nodmgspread","uncletopia"],"game_id":440,"stv_port":27026,"stv_name":"Uncletopia | Atlanta | 2 | All Maps | STV","players":null},{"server_id":400,"name":"Uncletopia | Atlanta | 3 | Community","name_short":"atl-3","host":"atl-1.us.uncletopia.com","port":27035,"enabled":true,"region":"us-east","cc":"us","latitude":33.753746,"longitude":-84.38633,"reserved":0,"last_update":"0001-01-01T00:00:00Z","name_a2s":"Uncletopia | Atlanta | 3 | Community","protocol":17,"map":"workshop/cp_caldera_rc2.ugc2834196889","folder":"tf","game":"Team Fortress","app_id":440,"player_count":0,"max_players":24,"Bots":0,"server_type":"Dedicated","server_os":"Linux","password":true,"vac":true,"version":"7757534","steam_id":85568392924515187,"keywords":["cp","nocrits","nodmgspread","uncletopia"],"game_id":440,"stv_port":27036,"stv_name":"Uncletopia | Atlanta | 3 | Community | STV","players":null},{"server_id":401,"name":"Uncletopia | Atlanta | 4 | No Payload","name_short":"atl-4","host":"atl-1.us.uncletopia.com","port":27045,"enabled":true,"region":"us-east","cc":"us","latitude":33.753746,"longitude":-84.38633,"reserved":0,"last_update":"0001-01-01T00:00:00Z","name_a2s":"","protocol":0,"map":"","folder":"","game":"","app_id":0,"player_count":0,"max_players":0,"Bots":0,"server_type":"","server_os":"","password":false,"vac":false,"version":"","steam_id":0,"keywords":null,"game_id":0,"stv_port":0,"stv_name":"","players":null},{"server_id":2,"name":"Uncletopia | Chicago | 1 | All Maps","name_short":"chi-1","host":"chi-1.us.uncletopia.com","port":27015,"enabled":true,"region":"us-central","cc":"us","latitude":41.881832,"longitude":-87.62318,"reserved":0,"last_update":"0001-01-01T00:00:00Z","name_a2s":"Uncletopia | Chicago | 1 | All Maps","protocol":17,"map":"pl_barnblitz","folder":"tf","game":"Team Fortress","app_id":440,"player_count":22,"max_players":24,"Bots":0,"server_type":"Dedicated","server_os":"Linux","password":true,"vac":true,"version":"7757534","steam_id":85568392924469984,"keywords":["nocrits","nodmgspread","payload","uncletopia"],"game_id":440,"stv_port":27016,"stv_name":"Uncletopia | Chicago | 1 | All Maps | STV","players":[{"user_id":290,"name":"Ceiling Man","steam_id":76561198003959902,"connected_time":1350000000000,"state":"active","ping":59},{"user_id":264,"name":"stockhack","steam_id":76561198050220225,"connected_time":4845000000000,"state":"active","ping":60},{"user_id":291,"name":"Fuegan Ra","steam_id":76561198287923849,"connected_time":1265000000000,"state":"active","ping":51},{"user_id":308,"name":"Kurt Biscuitmaker","steam_id":76561198331701823,"connected_time":564000000000,"state":"active","ping":74},{"user_id":310,"name":"Wingman","steam_id":76561198066270405,"connected_time":172000000000,"state":"active","ping":90},{"user_id":293,"name":"Shark Sandwich","steam_id":76561198025007938,"connected_time":1244000000000,"state":"active","ping":131},{"user_id":220,"name":"WatchWill","steam_id":76561198157237945,"connected_time":7941000000000,"state":"active","ping":84},{"user_id":297,"name":"H-manFTW","steam_id":76561198316122689,"connected_time":1069000000000,"state":"active","ping":45},{"user_id":294,"name":"Thingy","steam_id":76561198140161202,"connected_time":1164000000000,"state":"active","ping":83},{"user_id":309,"name":"Recursive Gamer","steam_id":76561198042102952,"connected_time":358000000000,"state":"active","ping":57},{"user_id":295,"name":"swooce","steam_id":76561198156232484,"connected_time":1154000000000,"state":"active","ping":64},{"user_id":273,"name":"Chocoflakes15","steam_id":76561198184714901,"connected_time":3593000000000,"state":"active","ping":61},{"user_id":298,"name":"Gus Fring","steam_id":76561198053303170,"connected_time":1060000000000,"state":"active","ping":94},{"user_id":288,"name":"Coach McFish","steam_id":76561198210456405,"connected_time":2133000000000,"state":"active","ping":76},{"user_id":307,"name":"recycle","steam_id":76561198819562111,"connected_time":711000000000,"state":"active","ping":72},{"user_id":304,"name":"¬¨‚Äø¬¨","steam_id":76561198325526945,"connected_time":864000000000,"state":"active","ping":75},{"user_id":262,"name":"TallBit","steam_id":76561199059748976,"connected_time":4857000000000,"state":"active","ping":51},{"user_id":311,"name":"Sky!","steam_id":76561198141953747,"connected_time":86000000000,"state":"active","ping":60},{"user_id":312,"name":"!! BRO IS FLABBERGASTED !!","steam_id":76561198135036396,"connected_time":58000000000,"state":"active","ping":85},{"user_id":283,"name":"Swifz","steam_id":76561199074464840,"connected_time":2928000000000,"state":"active","ping":77},{"user_id":303,"name":"Stitched_with_Twine","steam_id":76561198864985227,"connected_time":879000000000,"state":"active","ping":80},{"user_id":302,"name":"Big Bean Burrito","steam_id":76561199121920624,"connected_time":981000000000,"state":"active","ping":48}]},{"server_id":106,"name":"Uncletopia | Chicago | 2 | All Maps","name_short":"chi-2","host":"chi-1.us.uncletopia.com","port":27025,"enabled":true,"region":"us-central","cc":"us","latitude":41.881832,"longitude":-87.62318,"reserved":0,"last_update":"0001-01-01T00:00:00Z","name_a2s":"Uncletopia | Chicago | 2 | All Maps","protocol":17,"map":"pl_borneo","folder":"tf","game":"Team Fortress","app_id":440,"player_count":24,"max_players":24,"Bots":0,"server_type":"Dedicated","server_os":"Linux","password":true,"vac":true,"version":"7757534","steam_id":85568392924469985,"keywords":["nocrits","nodmgspread","payload","uncletopia"],"game_id":440,"stv_port":27026,"stv_name":"Uncletopia | Chicago | 2 | All Maps | STV","players":[{"user_id":260,"name":"The King","steam_id":76561198117344758,"connected_time":4190000000000,"state":"active","ping":91},{"user_id":312,"name":"femboy gaming","steam_id":76561199222157613,"connected_time":636000000000,"state":"active","ping":174},{"user_id":259,"name":"BearAteMahoney","steam_id":76561198020439356,"connected_time":4214000000000,"state":"active","ping":69},{"user_id":297,"name":"amanofboys91","steam_id":76561199474653798,"connected_time":1222000000000,"state":"active","ping":129},{"user_id":303,"name":"Bren","steam_id":76561198093573384,"connected_time":868000000000,"state":"active","ping":61},{"user_id":295,"name":"Sergeant Joker #savetf2","steam_id":76561198854616604,"connected_time":1265000000000,"state":"active","ping":66},{"user_id":296,"name":"128gb sd card","steam_id":76561198043636749,"connected_time":1252000000000,"state":"active","ping":91},{"user_id":291,"name":"trobin120","steam_id":76561199122420273,"connected_time":1556000000000,"state":"active","ping":63},{"user_id":182,"name":"Austin - Tags.tf","steam_id":76561198115507647,"connected_time":7090000000000,"state":"active","ping":88},{"user_id":299,"name":"my tomach hurt 100","steam_id":76561198046111695,"connected_time":1175000000000,"state":"active","ping":61},{"user_id":268,"name":"kermitcreeper(ZAZA)","steam_id":76561199222829972,"connected_time":3384000000000,"state":"active","ping":48},{"user_id":304,"name":"bitboxtunes","steam_id":76561198190955579,"connected_time":821000000000,"state":"active","ping":73},{"user_id":316,"name":"The Golden Python","steam_id":76561199250203505,"connected_time":295000000000,"state":"active","ping":120},{"user_id":286,"name":"Sinklefink","steam_id":76561199220662103,"connected_time":1924000000000,"state":"active","ping":72},{"user_id":179,"name":"ThatGamingKiwi","steam_id":76561199170522237,"connected_time":7152000000000,"state":"active","ping":78},{"user_id":235,"name":"ÔºîÔºê Ôº¶Ôº∞Ôº≥","steam_id":76561198272394965,"connected_time":4764000000000,"state":"active","ping":126},{"user_id":305,"name":"TheCheeseWizard","steam_id":76561198058931315,"connected_time":803000000000,"state":"active","ping":56},{"user_id":317,"name":"mog","steam_id":76561198148059714,"connected_time":53000000000,"state":"active","ping":62},{"user_id":300,"name":"Zyzx","steam_id":76561198054177355,"connected_time":1152000000000,"state":"active","ping":66},{"user_id":281,"name":"Admiral Crumbs","steam_id":76561198108791583,"connected_time":2427000000000,"state":"active","ping":70},{"user_id":283,"name":"jorjor wells","steam_id":76561199073429082,"connected_time":1966000000000,"state":"active","ping":62},{"user_id":306,"name":"GKEmperor","steam_id":76561197995187011,"connected_time":789000000000,"state":"active","ping":62},{"user_id":315,"name":"boskizgon","steam_id":76561199021718168,"connected_time":508000000000,"state":"active","ping":196},{"user_id":275,"name":"Dietrich","steam_id":76561198028163840,"connected_time":3154000000000,"state":"active","ping":90}]},{"server_id":402,"name":"Uncletopia | Chicago | 3 | All Maps","name_short":"chi-3","host":"chi-1.us.uncletopia.com","port":27035,"enabled":true,"region":"us-central","cc":"us","latitude":41.881832,"longitude":-87.62318,"reserved":0,"last_update":"0001-01-01T00:00:00Z","name_a2s":"Uncletopia | Chicago | 3 | All Maps","protocol":17,"map":"cp_dustbowl","folder":"tf","game":"Team Fortress","app_id":440,"player_count":0,"max_players":24,"Bots":0,"server_type":"Dedicated","server_os":"Linux","password":true,"vac":true,"version":"7757534","steam_id":85568392924515191,"keywords":["cp","nocrits","nodmgspread","uncletopia"],"game_id":440,"stv_port":27036,"stv_name":"Uncletopia | Chicago | 3 | All Maps | STV","players":null},{"server_id":403,"name":"Uncletopia | Chicago | 4 | All Maps","name_short":"chi-4","host":"chi-1.us.uncletopia.com","port":27045,"enabled":true,"region":"us-central","cc":"us","latitude":41.881832,"longitude":-87.62318,"reserved":0,"last_update":"0001-01-01T00:00:00Z","name_a2s":"Uncletopia | Chicago | 4 | All Maps","protocol":17,"map":"koth_lakeside_final","folder":"tf","game":"Team Fortress","app_id":440,"player_count":0,"max_players":24,"Bots":0,"server_type":"Dedicated","server_os":"Linux","password":true,"vac":true,"version":"7757534","steam_id":85568392924515193,"keywords":["cp","nocrits","nodmgspread","uncletopia"],"game_id":440,"stv_port":27046,"stv_name":"Uncletopia | Chicago | 4 | All Maps | STV","players":null},{"server_id":36,"name":"Uncletopia | Chicago | 5 | All Maps","name_short":"chi-5","host":"chi-2.us.uncletopia.com","port":27015,"enabled":true,"region":"us-central","cc":"us","latitude":41.881832,"longitude":-87.62318,"reserved":0,"last_update":"0001-01-01T00:00:00Z","name_a2s":"Uncletopia | Chicago | 5 | All Maps","protocol":17,"map":"koth_cascade","folder":"tf","game":"Team Fortress","app_id":440,"player_count":0,"max_players":24,"Bots":0,"server_type":"Dedicated","server_os":"Linux","password":true,"vac":true,"version":"7757534","steam_id":85568392924866362,"keywords":["cp","nocrits","nodmgspread","uncletopia"],"game_id":440,"stv_port":27016,"stv_name":"Uncletopia | Chicago | 5 | All Maps | STV","players":null},{"server_id":37,"name":"Uncletopia | Chicago | 6 | All Maps","name_short":"chi-6","host":"chi-2.us.uncletopia.com","port":27025,"enabled":true,"region":"us-central","cc":"us","latitude":41.881832,"longitude":-87.62318,"reserved":0,"last_update":"0001-01-01T00:00:00Z","name_a2s":"Uncletopia | Chicago | 6 | All Maps","protocol":17,"map":"pl_pier","folder":"tf","game":"Team Fortress","app_id":440,"player_count":23,"max_players":24,"Bots":0,"server_type":"Dedicated","server_os":"Linux","password":true,"vac":true,"version":"7757534","steam_id":85568392924866363,"keywords":["nocrits","nodmgspread","payload","uncletopia"],"game_id":440,"stv_port":27026,"stv_name":"Uncletopia | Chicago | 6 | All Maps | STV","players":[{"user_id":83,"name":"Dr. Anonymous","steam_id":76561198061654197,"connected_time":3407000000000,"state":"active","ping":77},{"user_id":106,"name":"Drachma","steam_id":76561198007310514,"connected_time":1559000000000,"state":"active","ping":71},{"user_id":107,"name":"GingerToePics","steam_id":76561199418178639,"connected_time":1552000000000,"state":"active","ping":56},{"user_id":84,"name":"m√•lingen","steam_id":76561198035014807,"connected_time":3343000000000,"state":"active","ping":118},{"user_id":54,"name":"Zin","steam_id":76561199041369507,"connected_time":6381000000000,"state":"active","ping":75},{"user_id":70,"name":"Blue-Lobster-Gaming","steam_id":76561199220578772,"connected_time":4246000000000,"state":"active","ping":80},{"user_id":125,"name":"A Shiny Meat Bicycle","steam_id":76561198358757709,"connected_time":1007000000000,"state":"active","ping":97},{"user_id":128,"name":"Ace","steam_id":76561198155489173,"connected_time":833000000000,"state":"active","ping":68},{"user_id":85,"name":"Suns","steam_id":76561198272323195,"connected_time":3320000000000,"state":"active","ping":100},{"user_id":108,"name":"bakouhlib","steam_id":76561197972605325,"connected_time":1537000000000,"state":"active","ping":183},{"user_id":110,"name":"Weerk","steam_id":76561199209543551,"connected_time":1363000000000,"state":"active","ping":76},{"user_id":87,"name":"DualiTea","steam_id":76561198081733870,"connected_time":3304000000000,"state":"active","ping":49},{"user_id":56,"name":"Carmine Lupertazzi Jr.","steam_id":76561198059535856,"connected_time":5994000000000,"state":"active","ping":75},{"user_id":129,"name":"Hot Milk + Sweet Delight","steam_id":76561197988989149,"connected_time":832000000000,"state":"active","ping":84},{"user_id":130,"name":"15pounds","steam_id":76561198179606183,"connected_time":808000000000,"state":"active","ping":72},{"user_id":135,"name":"Blitzy","steam_id":76561198149472890,"connected_time":9000000000,"state":"spawning","ping":65},{"user_id":132,"name":"kup","steam_id":76561198046816932,"connected_time":738000000000,"state":"active","ping":60},{"user_id":124,"name":"garfield","steam_id":76561198114119308,"connected_time":1193000000000,"state":"active","ping":64},{"user_id":82,"name":"paetho YT","steam_id":76561198152690003,"connected_time":3490000000000,"state":"active","ping":59},{"user_id":101,"name":"Konrad Vilulf","steam_id":76561198111124481,"connected_time":1944000000000,"state":"active","ping":94},{"user_id":75,"name":"Mr. Dry Lips","steam_id":76561198028157625,"connected_time":3972000000000,"state":"active","ping":91},{"user_id":123,"name":"Daehypeels","steam_id":76561198268981599,"connected_time":1298000000000,"state":"active","ping":62},{"user_id":90,"name":"Gaminglast","steam_id":76561198362927765,"connected_time":3266000000000,"state":"active","ping":125}]},{"server_id":38,"name":"Uncletopia | Chicago | 7 | Stopwatch Beta","name_short":"chi-7","host":"chi-2.us.uncletopia.com","port":27035,"enabled":true,"region":"us-central","cc":"us","latitude":41.881832,"longitude":-87.62318,"reserved":0,"last_update":"0001-01-01T00:00:00Z","name_a2s":"Uncletopia | Chicago | 7 | Stopwatch Beta","protocol":17,"map":"pl_barnblitz","folder":"tf","game":"Team Fortress","app_id":440,"player_count":0,"max_players":24,"Bots":0,"server_type":"Dedicated","server_os":"Linux","password":true,"vac":true,"version":"7757534","steam_id":85568392924866364,"keywords":["nocrits","nodmgspread","payload","uncletopia"],"game_id":440,"stv_port":27036,"stv_name":"Uncletopia | Chicago | 7 | Stopwatch Beta | STV","players":null},{"server_id":39,"name":"Uncletopia | Chicago | 8 | Community","name_short":"chi-8","host":"chi-2.us.uncletopia.com","port":27045,"enabled":true,"region":"us-central","cc":"us","latitude":41.881832,"longitude":-87.62318,"reserved":0,"last_update":"0001-01-01T00:00:00Z","name_a2s":"Uncletopia | Chicago | 8 | Community","protocol":17,"map":"koth_cascade","folder":"tf","game":"Team Fortress","app_id":440,"player_count":0,"max_players":24,"Bots":0,"server_type":"Dedicated","server_os":"Linux","password":true,"vac":true,"version":"7757534","steam_id":85568392924866365,"keywords":["cp","nocrits","nodmgspread","uncletopia"],"game_id":440,"stv_port":27046,"stv_name":"Uncletopia | Chicago | 8 | Community | STV","players":null},{"server_id":8,"name":"Uncletopia | Dallas | 1 | All Maps","name_short":"dal-1","host":"dal-1.us.uncletopia.com","port":27015,"enabled":true,"region":"us-central","cc":"us","latitude":32.779167,"longitude":-96.80889,"reserved":0,"last_update":"0001-01-01T00:00:00Z","name_a2s":"Uncletopia | Dallas | 1 | All Maps","protocol":17,"map":"cp_process_final","folder":"tf","game":"Team Fortress","app_id":440,"player_count":23,"max_players":24,"Bots":0,"server_type":"Dedicated","server_os":"Linux","password":true,"vac":true,"version":"7757534","steam_id":85568392924469986,"keywords":["cp","nocrits","nodmgspread","uncletopia"],"game_id":440,"stv_port":27016,"stv_name":"Uncletopia | Dallas | 1 | All Maps | STV","players":[{"user_id":351,"name":"Zeek","steam_id":76561197987204351,"connected_time":150000000000,"state":"active","ping":74},{"user_id":329,"name":"shawty say i smell","steam_id":76561198059560324,"connected_time":1801000000000,"state":"active","ping":86},{"user_id":342,"name":"Nightlygalad","steam_id":76561198170693990,"connected_time":348000000000,"state":"active","ping":75},{"user_id":328,"name":"Obliterate the French","steam_id":76561198197352885,"connected_time":1870000000000,"state":"active","ping":51},{"user_id":346,"name":"Cam","steam_id":76561198139174433,"connected_time":315000000000,"state":"active","ping":72},{"user_id":326,"name":"ark","steam_id":76561198041066271,"connected_time":2699000000000,"state":"active","ping":61},{"user_id":335,"name":"Aradia","steam_id":76561198800087430,"connected_time":1058000000000,"state":"active","ping":90},{"user_id":349,"name":"shadowarrior","steam_id":76561198231304076,"connected_time":228000000000,"state":"active","ping":67},{"user_id":339,"name":"shit yourself right now","steam_id":76561198072362182,"connected_time":675000000000,"state":"active","ping":75},{"user_id":336,"name":"soph","steam_id":76561198067497459,"connected_time":1057000000000,"state":"active","ping":90},{"user_id":344,"name":"Take 5 Ghost","steam_id":76561198417885871,"connected_time":341000000000,"state":"active","ping":137},{"user_id":340,"name":"Johaun","steam_id":76561198296328253,"connected_time":623000000000,"state":"active","ping":78},{"user_id":345,"name":"silvestrelops","steam_id":76561198275189720,"connected_time":337000000000,"state":"active","ping":131},{"user_id":332,"name":"Joshy","steam_id":76561198061405421,"connected_time":1325000000000,"state":"active","ping":92},{"user_id":347,"name":"biigman","steam_id":76561198111147624,"connected_time":315000000000,"state":"active","ping":74},{"user_id":348,"name":"Alara","steam_id":76561198083144491,"connected_time":309000000000,"state":"active","ping":90},{"user_id":310,"name":"Bonk","steam_id":76561198116945752,"connected_time":4082000000000,"state":"active","ping":65},{"user_id":334,"name":"Hindmost","steam_id":76561199081837220,"connected_time":1312000000000,"state":"active","ping":72},{"user_id":350,"name":"Vishi","steam_id":76561198028710179,"connected_time":195000000000,"state":"active","ping":131},{"user_id":317,"name":"vinny","steam_id":76561198069307954,"connected_time":3410000000000,"state":"active","ping":84},{"user_id":338,"name":"sCommander","steam_id":76561199013287225,"connected_time":895000000000,"state":"active","ping":124},{"user_id":117,"name":"Also UbeR","steam_id":76561198166926843,"connected_time":17537000000000,"state":"active","ping":84},{"user_id":298,"name":"SamTheSUS42069","steam_id":76561199107726672,"connected_time":4242000000000,"state":"active","ping":84}]},{"server_id":108,"name":"Uncletopia | Dallas | 2 | All Maps","name_short":"dal-2","host":"dal-1.us.uncletopia.com","port":27025,"enabled":true,"region":"us-central","cc":"us","latitude":32.779167,"longitude":-96.80889,"reserved":0,"last_update":"0001-01-01T00:00:00Z","name_a2s":"Uncletopia | Dallas | 2 | All Maps","protocol":17,"map":"pl_barnblitz","folder":"tf","game":"Team Fortress","app_id":440,"player_count":24,"max_players":24,"Bots":0,"server_type":"Dedicated","server_os":"Linux","password":true,"vac":true,"version":"7757534","steam_id":85568392924469988,"keywords":["nocrits","nodmgspread","payload","uncletopia"],"game_id":440,"stv_port":27026,"stv_name":"Uncletopia | Dallas | 2 | All Maps | STV","players":[{"user_id":242,"name":"truebosnianking","steam_id":76561199440060597,"connected_time":972000000000,"state":"active","ping":190},{"user_id":244,"name":"mkl","steam_id":76561197986401685,"connected_time":914000000000,"state":"active","ping":63},{"user_id":225,"name":"overlord6644","steam_id":76561198101366032,"connected_time":1785000000000,"state":"active","ping":63},{"user_id":237,"name":"kai","steam_id":76561198258789116,"connected_time":1150000000000,"state":"active","ping":65},{"user_id":226,"name":"Germ_X","steam_id":76561198228835180,"connected_time":1763000000000,"state":"active","ping":42},{"user_id":246,"name":"Grand Piano Tuna","steam_id":76561198135137213,"connected_time":448000000000,"state":"active","ping":60},{"user_id":199,"name":"GLXy","steam_id":76561198207551544,"connected_time":2905000000000,"state":"active","ping":114},{"user_id":203,"name":"Mimic","steam_id":76561198267452386,"connected_time":2601000000000,"state":"active","ping":53},{"user_id":245,"name":"GlizzLord","steam_id":76561198321010427,"connected_time":471000000000,"state":"active","ping":100},{"user_id":243,"name":"Nekogaming1500","steam_id":76561198979123816,"connected_time":958000000000,"state":"active","ping":104},{"user_id":194,"name":"carol in HR","steam_id":76561198071775268,"connected_time":3560000000000,"state":"active","ping":109},{"user_id":229,"name":"because I'll never be ‚ú®him‚ú®","steam_id":76561198261007627,"connected_time":1709000000000,"state":"active","ping":67},{"user_id":220,"name":"Try Gardening","steam_id":76561198120311340,"connected_time":2225000000000,"state":"active","ping":71},{"user_id":236,"name":"Freeza","steam_id":76561198050341005,"connected_time":1174000000000,"state":"active","ping":69},{"user_id":168,"name":"Duckywinner","steam_id":76561198254828139,"connected_time":6050000000000,"state":"active","ping":83},{"user_id":209,"name":"cass","steam_id":76561198074502046,"connected_time":2433000000000,"state":"active","ping":78},{"user_id":234,"name":"Pixeled","steam_id":76561198088917077,"connected_time":1450000000000,"state":"active","ping":93},{"user_id":247,"name":"Taco","steam_id":76561198034670953,"connected_time":276000000000,"state":"active","ping":65},{"user_id":231,"name":"muddy","steam_id":76561198035015260,"connected_time":1639000000000,"state":"active","ping":70},{"user_id":215,"name":"Caoticaos","steam_id":76561198114800227,"connected_time":2343000000000,"state":"active","ping":144},{"user_id":239,"name":"SnekyAnimus","steam_id":76561198072251769,"connected_time":1133000000000,"state":"active","ping":74},{"user_id":240,"name":"Adlai130s","steam_id":76561198571410221,"connected_time":1129000000000,"state":"active","ping":98},{"user_id":241,"name":"joe mama","steam_id":76561198180696981,"connected_time":1026000000000,"state":"active","ping":96},{"user_id":186,"name":"Aqua Tofana","steam_id":76561198351183381,"connected_time":4871000000000,"state":"active","ping":110}]},{"server_id":5,"name":"Uncletopia | Frankfurt | 1 | All Maps","name_short":"frk-1","host":"frk-1.de.uncletopia.com","port":27015,"enabled":true,"region":"eu","cc":"de","latitude":50.110924,"longitude":8.682127,"reserved":0,"last_update":"0001-01-01T00:00:00Z","name_a2s":"Uncletopia | Frankfurt | 1 | All Maps","protocol":17,"map":"koth_lakeside_final","folder":"tf","game":"Team Fortress","app_id":440,"player_count":24,"max_players":24,"Bots":0,"server_type":"Dedicated","server_os":"Linux","password":true,"vac":true,"version":"7757534","steam_id":85568392924469989,"keywords":["cp","nocrits","nodmgspread","uncletopia"],"game_id":440,"stv_port":27016,"stv_name":"Uncletopia | Frankfurt | 1 | All Maps | STV","players":[{"user_id":25,"name":"Bad To Bone","steam_id":76561199445614767,"connected_time":2898000000000,"state":"active","ping":118},{"user_id":42,"name":"kurtdeli60tr","steam_id":76561199077016760,"connected_time":2250000000000,"state":"active","ping":117},{"user_id":75,"name":"Carl","steam_id":76561198045638738,"connected_time":615000000000,"state":"active","ping":76},{"user_id":79,"name":"L√∂ss√∂","steam_id":76561197994254413,"connected_time":324000000000,"state":"active","ping":67},{"user_id":29,"name":"dancefloor degrader (2010)","steam_id":76561198193357946,"connected_time":2526000000000,"state":"active","ping":108},{"user_id":59,"name":"MrRifleman","steam_id":76561199068459991,"connected_time":1924000000000,"state":"active","ping":78},{"user_id":31,"name":"UnknownHero","steam_id":76561198864766392,"connected_time":2429000000000,"state":"active","ping":74},{"user_id":43,"name":"Radegast the Brown","steam_id":76561198075489505,"connected_time":2240000000000,"state":"active","ping":61},{"user_id":61,"name":"Tyra","steam_id":76561198043739064,"connected_time":1572000000000,"state":"active","ping":68},{"user_id":78,"name":"Safe Joint","steam_id":76561198017799687,"connected_time":458000000000,"state":"active","ping":115},{"user_id":71,"name":"JaneDoe","steam_id":76561198067081506,"connected_time":861000000000,"state":"active","ping":88},{"user_id":77,"name":"youmme95","steam_id":76561198049802823,"connected_time":593000000000,"state":"active","ping":87},{"user_id":38,"name":"Magirby","steam_id":76561198818777390,"connected_time":2311000000000,"state":"active","ping":114},{"user_id":80,"name":"Vikcat","steam_id":76561198123059340,"connected_time":145000000000,"state":"active","ping":37},{"user_id":74,"name":"Atronic","steam_id":76561198354960567,"connected_time":686000000000,"state":"active","ping":48},{"user_id":68,"name":"easily pronounceable name","steam_id":76561198000092350,"connected_time":1001000000000,"state":"active","ping":71},{"user_id":55,"name":"Peanut","steam_id":76561198018865486,"connected_time":2084000000000,"state":"active","ping":80},{"user_id":45,"name":"texory","steam_id":76561198060339391,"connected_time":2216000000000,"state":"active","ping":44},{"user_id":57,"name":"sun tzu","steam_id":76561198041844615,"connected_time":1972000000000,"state":"active","ping":96},{"user_id":47,"name":"r0nii","steam_id":76561198119197768,"connected_time":2202000000000,"state":"active","ping":45},{"user_id":53,"name":"Soyboy","steam_id":76561198053885716,"connected_time":2118000000000,"state":"active","ping":85},{"user_id":64,"name":"MoistMomMauler","steam_id":76561198069359049,"connected_time":1084000000000,"state":"active","ping":90},{"user_id":50,"name":"Gbus","steam_id":76561198072335838,"connected_time":2196000000000,"state":"active","ping":54},{"user_id":73,"name":"schmick h_stt 0","steam_id":76561198039537958,"connected_time":760000000000,"state":"active","ping":58}]},{"server_id":110,"name":"Uncletopia | Frankfurt | 2 | All Maps","name_short":"frk-2","host":"frk-1.de.uncletopia.com","port":27025,"enabled":true,"region":"eu","cc":"de","latitude":50.110924,"longitude":8.682127,"reserved":0,"last_update":"0001-01-01T00:00:00Z","name_a2s":"Uncletopia | Frankfurt | 2 | All Maps","protocol":17,"map":"pl_swiftwater_final1","folder":"tf","game":"Team Fortress","app_id":440,"player_count":24,"max_players":24,"Bots":0,"server_type":"Dedicated","server_os":"Linux","password":true,"vac":true,"version":"7757534","steam_id":85568392924469990,"keywords":["nocrits","nodmgspread","payload","uncletopia"],"game_id":440,"stv_port":27026,"stv_name":"Uncletopia | Frankfurt | 2 | All Maps | STV","players":[{"user_id":131,"name":"grain","steam_id":76561198134473236,"connected_time":1941000000000,"state":"active","ping":73},{"user_id":133,"name":"Kleiner Engel","steam_id":76561198009922500,"connected_time":1744000000000,"state":"active","ping":75},{"user_id":136,"name":"chssdk","steam_id":76561198262231733,"connected_time":1228000000000,"state":"active","ping":73},{"user_id":144,"name":"Tom Foolery","steam_id":76561198358895809,"connected_time":207000000000,"state":"active","ping":71},{"user_id":113,"name":"‚ù§Some Generic Femboy‚ù§","steam_id":76561199202438796,"connected_time":3054000000000,"state":"active","ping":64},{"user_id":104,"name":"Ar|es","steam_id":76561198819160313,"connected_time":3502000000000,"state":"active","ping":83},{"user_id":141,"name":"A Literal Fucking Rat","steam_id":76561198178872429,"connected_time":524000000000,"state":"active","ping":178},{"user_id":143,"name":"Tyzone‚ô•","steam_id":76561198024844539,"connected_time":289000000000,"state":"active","ping":52},{"user_id":142,"name":"CNTRL","steam_id":76561199125803827,"connected_time":463000000000,"state":"active","ping":68},{"user_id":35,"name":"robie","steam_id":76561198914744938,"connected_time":8658000000000,"state":"active","ping":97},{"user_id":36,"name":"Miss_Sparklezz","steam_id":76561198101745576,"connected_time":8648000000000,"state":"active","ping":67},{"user_id":88,"name":"rob","steam_id":76561198122211848,"connected_time":5095000000000,"state":"active","ping":92},{"user_id":139,"name":"Cliff Barnes","steam_id":76561198032213783,"connected_time":702000000000,"state":"active","ping":64},{"user_id":65,"name":"small_boy","steam_id":76561199466836649,"connected_time":6945000000000,"state":"active","ping":91},{"user_id":105,"name":"CAMON ENGELAND","steam_id":76561198054301125,"connected_time":3481000000000,"state":"active","ping":92},{"user_id":59,"name":"Pronton","steam_id":76561198082502910,"connected_time":7828000000000,"state":"active","ping":52},{"user_id":120,"name":"BOB","steam_id":76561198797287684,"connected_time":2745000000000,"state":"active","ping":69},{"user_id":140,"name":"Wlkr","steam_id":76561197990117572,"connected_time":644000000000,"state":"active","ping":68},{"user_id":129,"name":"Mr. Hunts","steam_id":76561197981910397,"connected_time":2444000000000,"state":"active","ping":68},{"user_id":132,"name":"JohkupohkuXD","steam_id":76561198391108762,"connected_time":1777000000000,"state":"active","ping":85},{"user_id":126,"name":"powej","steam_id":76561198056381418,"connected_time":2479000000000,"state":"active","ping":54},{"user_id":134,"name":"That Phlog mfer","steam_id":76561198050416948,"connected_time":1417000000000,"state":"active","ping":60},{"user_id":138,"name":"ash","steam_id":76561198004728744,"connected_time":1210000000000,"state":"active","ping":50},{"user_id":109,"name":"—Å—ã–Ω –¥–∂–µ—Ñ—Ñ–∞ —É–±–∏–π—Ü\ufffd","steam_id":76561199149307190,"connected_time":3421000000000,"state":"active","ping":77}]},{"server_id":308,"name":"Uncletopia | Frankfurt | 3 | All Maps","name_short":"frk-3","host":"frk-1.de.uncletopia.com","port":27035,"enabled":true,"region":"eu","cc":"de","latitude":50.110924,"longitude":8.682127,"reserved":0,"last_update":"0001-01-01T00:00:00Z","name_a2s":"Uncletopia | Frankfurt | 3 | All Maps","protocol":17,"map":"koth_highpass","folder":"tf","game":"Team Fortress","app_id":440,"player_count":0,"max_players":24,"Bots":0,"server_type":"Dedicated","server_os":"Linux","password":true,"vac":true,"version":"7757534","steam_id":85568392924504274,"keywords":["cp","nocrits","nodmgspread","uncletopia"],"game_id":440,"stv_port":27036,"stv_name":"Uncletopia | Frankfurt | 3 | All Maps | STV","players":null},{"server_id":309,"name":"Uncletopia | Frankfurt | 4 | All Maps","name_short":"frk-4","host":"frk-1.de.uncletopia.com","port":27045,"enabled":true,"region":"eu","cc":"de","latitude":50.110924,"longitude":8.682127,"reserved":0,"last_update":"0001-01-01T00:00:00Z","name_a2s":"Uncletopia | Frankfurt | 4 | All Maps","protocol":17,"map":"koth_viaduct","folder":"tf","game":"Team Fortress","app_id":440,"player_count":0,"max_players":24,"Bots":0,"server_type":"Dedicated","server_os":"Linux","password":true,"vac":true,"version":"7757534","steam_id":85568392924504275,"keywords":["cp","nocrits","nodmgspread","uncletopia"],"game_id":440,"stv_port":27046,"stv_name":"Uncletopia | Frankfurt | 4 | All Maps | STV","players":null},{"server_id":310,"name":"Uncletopia | Frankfurt | 5 | All Maps","name_short":"frk-5","host":"frk-1.de.uncletopia.com","port":27055,"enabled":true,"region":"eu","cc":"de","latitude":50.110924,"longitude":8.682127,"reserved":0,"last_update":"0001-01-01T00:00:00Z","name_a2s":"Uncletopia | Frankfurt | 5 | All Maps","protocol":17,"map":"pl_frontier_final","folder":"tf","game":"Team Fortress","app_id":440,"player_count":24,"max_players":24,"Bots":0,"server_type":"Dedicated","server_os":"Linux","password":true,"vac":true,"version":"7757534","steam_id":85568392924504277,"keywords":["nocrits","nodmgspread","payload","uncletopia"],"game_id":440,"stv_port":27056,"stv_name":"Uncletopia | Frankfurt | 5 | All Maps | STV","players":[{"user_id":395,"name":"RadialMount","steam_id":76561198063002562,"connected_time":153000000000,"state":"active","ping":56},{"user_id":387,"name":"PAN","steam_id":76561198118671779,"connected_time":881000000000,"state":"active","ping":99},{"user_id":393,"name":"Punk","steam_id":76561198268369013,"connected_time":224000000000,"state":"active","ping":78},{"user_id":371,"name":"Sir.Wheatly","steam_id":76561197995938007,"connected_time":1272000000000,"state":"active","ping":102},{"user_id":389,"name":"gagalak","steam_id":76561198089979108,"connected_time":718000000000,"state":"active","ping":90},{"user_id":396,"name":"johnny dorito","steam_id":76561198148074472,"connected_time":152000000000,"state":"active","ping":43},{"user_id":365,"name":"Lux","steam_id":76561198060417740,"connected_time":2030000000000,"state":"active","ping":45},{"user_id":367,"name":"0xDEADBEEF","steam_id":76561199075416111,"connected_time":1807000000000,"state":"active","ping":92},{"user_id":373,"name":"Francisco","steam_id":76561198074614581,"connected_time":1245000000000,"state":"active","ping":74},{"user_id":348,"name":"Katae","steam_id":76561199191465517,"connected_time":3339000000000,"state":"active","ping":89},{"user_id":403,"name":"juni","steam_id":76561198036504214,"connected_time":46000000000,"state":"spawning","ping":45},{"user_id":388,"name":"WolfmanCZ","steam_id":76561199157141414,"connected_time":825000000000,"state":"active","ping":71},{"user_id":376,"name":"il","steam_id":76561198122662610,"connected_time":1187000000000,"state":"active","ping":121},{"user_id":392,"name":"Dictatorial Karelian","steam_id":76561198196736457,"connected_time":255000000000,"state":"active","ping":75},{"user_id":385,"name":"DariBro","steam_id":76561198155444173,"connected_time":995000000000,"state":"active","ping":70},{"user_id":402,"name":"FWARE$$HOUR -∆í$-","steam_id":76561198101292843,"connected_time":94000000000,"state":"active","ping":46},{"user_id":400,"name":"stock piano music","steam_id":76561198163244605,"connected_time":135000000000,"state":"active","ping":60},{"user_id":326,"name":"pfear","steam_id":76561197999207328,"connected_time":4210000000000,"state":"active","ping":75},{"user_id":401,"name":"worst feeling ever","steam_id":76561198147277460,"connected_time":129000000000,"state":"active","ping":59},{"user_id":390,"name":"Pogi820","steam_id":76561198320573568,"connected_time":272000000000,"state":"active","ping":111},{"user_id":378,"name":"Volodymyr Zelenskyy","steam_id":76561198343960221,"connected_time":1165000000000,"state":"active","ping":86},{"user_id":384,"name":"a Regurar Barroon","steam_id":76561198834913692,"connected_time":1054000000000,"state":"active","ping":59},{"user_id":380,"name":"CarrotFlowers","steam_id":76561198154714698,"connected_time":1160000000000,"state":"active","ping":58},{"user_id":399,"name":"F","steam_id":76561199149462792,"connected_time":141000000000,"state":"active","ping":67}]},{"server_id":311,"name":"Uncletopia | Frankfurt | 6 | All Maps","name_short":"frk-6","host":"frk-1.de.uncletopia.com","port":27065,"enabled":true,"region":"eu","cc":"de","latitude":50.110924,"longitude":8.682127,"reserved":0,"last_update":"0001-01-01T00:00:00Z","name_a2s":"Uncletopia | Frankfurt | 6 | All Maps","protocol":17,"map":"pl_goldrush","folder":"tf","game":"Team Fortress","app_id":440,"player_count":23,"max_players":24,"Bots":0,"server_type":"Dedicated","server_os":"Linux","password":true,"vac":true,"version":"7757534","steam_id":85568392924504278,"keywords":["nocrits","nodmgspread","payload","uncletopia"],"game_id":440,"stv_port":27066,"stv_name":"Uncletopia | Frankfurt | 6 | All Maps | STV","players":[{"user_id":500,"name":"Soerlssoelss√∂en","steam_id":76561197993060585,"connected_time":5935000000000,"state":"active","ping":72},{"user_id":584,"name":"justin_ (f2p) (real)","steam_id":76561198839843428,"connected_time":326000000000,"state":"active","ping":118},{"user_id":556,"name":"MAKENTAKEN","steam_id":76561199127359587,"connected_time":2090000000000,"state":"active","ping":94},{"user_id":551,"name":"soopeli","steam_id":76561198003350251,"connected_time":3045000000000,"state":"active","ping":60},{"user_id":559,"name":"Amiable","steam_id":76561198111462976,"connected_time":1916000000000,"state":"active","ping":83},{"user_id":570,"name":"Sandvich","steam_id":76561199079493666,"connected_time":1652000000000,"state":"active","ping":90},{"user_id":564,"name":"Kretur","steam_id":76561198161086266,"connected_time":1873000000000,"state":"active","ping":91},{"user_id":513,"name":"Seeker","steam_id":76561198873052772,"connected_time":5361000000000,"state":"active","ping":61},{"user_id":503,"name":"goblinninja110","steam_id":76561198269159354,"connected_time":5730000000000,"state":"active","ping":71},{"user_id":583,"name":"W√ºstenfuchs","steam_id":76561198453885708,"connected_time":584000000000,"state":"active","ping":73},{"user_id":543,"name":"Zelmor","steam_id":76561197997708311,"connected_time":3432000000000,"state":"active","ping":54},{"user_id":532,"name":"üç≠ùí¶ùëíùìÅùìÅùìéüç≠‚ù§","steam_id":76561198092156531,"connected_time":4561000000000,"state":"active","ping":62},{"user_id":535,"name":"Revo","steam_id":76561198117315580,"connected_time":3948000000000,"state":"active","ping":88},{"user_id":534,"name":"kyuta","steam_id":76561198382281653,"connected_time":4132000000000,"state":"active","ping":89},{"user_id":581,"name":"ran is running","steam_id":76561199443185667,"connected_time":698000000000,"state":"active","ping":142},{"user_id":560,"name":"finbar","steam_id":76561198056812396,"connected_time":1915000000000,"state":"active","ping":75},{"user_id":573,"name":"roaddog","steam_id":76561197960601225,"connected_time":1155000000000,"state":"active","ping":65},{"user_id":565,"name":"Bob Sacamano","steam_id":76561198085610701,"connected_time":1847000000000,"state":"active","ping":91},{"user_id":566,"name":"Knockerss","steam_id":76561198392511341,"connected_time":1836000000000,"state":"active","ping":71},{"user_id":550,"name":"Practice","steam_id":76561198104765420,"connected_time":3083000000000,"state":"active","ping":57},{"user_id":585,"name":"Nobody","steam_id":76561198157416665,"connected_time":176000000000,"state":"active","ping":75},{"user_id":580,"name":"Setade","steam_id":76561198161957305,"connected_time":761000000000,"state":"active","ping":55},{"user_id":582,"name":"SuperBob103","steam_id":76561199175360012,"connected_time":662000000000,"state":"active","ping":66}]},{"server_id":23,"name":"Uncletopia | Frankfurt | 7 | Stopwatch Beta","name_short":"frk-7","host":"frk-1.de.uncletopia.com","port":27075,"enabled":true,"region":"eu","cc":"de","latitude":50.110924,"longitude":8.682127,"reserved":0,"last_update":"0001-01-01T00:00:00Z","name_a2s":"Uncletopia | Frankfurt | 7 | Stopwatch Beta","protocol":17,"map":"workshop/koth_ashville_final.ugc2130459942","folder":"tf","game":"Team Fortress","app_id":440,"player_count":0,"max_players":24,"Bots":0,"server_type":"Dedicated","server_os":"Linux","password":true,"vac":true,"version":"7757534","steam_id":85568392924742827,"keywords":["cp","nocrits","nodmgspread","uncletopia"],"game_id":440,"stv_port":27076,"stv_name":"Uncletopia | Frankfurt | 7 | Stopwatch Beta | STV","players":null},{"server_id":24,"name":"Uncletopia | Frankfurt | 8 | Community","name_short":"frk-8","host":"frk-1.de.uncletopia.com","port":27085,"enabled":true,"region":"eu","cc":"de","latitude":50.110924,"longitude":8.682127,"reserved":0,"last_update":"0001-01-01T00:00:00Z","name_a2s":"Uncletopia | Frankfurt | 8 | Community","protocol":17,"map":"workshop/cp_alloy_rc3.ugc592805587","folder":"tf","game":"Team Fortress","app_id":440,"player_count":0,"max_players":24,"Bots":0,"server_type":"Dedicated","server_os":"Linux","password":true,"vac":true,"version":"7757534","steam_id":85568392924742828,"keywords":["cp","nocrits","nodmgspread","uncletopia"],"game_id":440,"stv_port":27086,"stv_name":"Uncletopia | Frankfurt | 8 | Community | STV","players":null},{"server_id":202,"name":"Uncletopia | Hong Kong | 1 | All Maps","name_short":"hgk-1","host":"hgk-1.hk.uncletopia.com","port":27015,"enabled":true,"region":"asia","cc":"hk","latitude":22.302711,"longitude":114.177216,"reserved":0,"last_update":"0001-01-01T00:00:00Z","name_a2s":"Uncletopia | Hong Kong | 1 | All Maps","protocol":17,"map":"koth_viaduct","folder":"tf","game":"Team Fortress","app_id":440,"player_count":0,"max_players":24,"Bots":0,"server_type":"Dedicated","server_os":"Linux","password":true,"vac":true,"version":"7757534","steam_id":85568392924494504,"keywords":["cp","nocrits","nodmgspread","uncletopia"],"game_id":440,"stv_port":27016,"stv_name":"Uncletopia | Hong Kong | 1 | All Maps | STV","players":null},{"server_id":1,"name":"Uncletopia | Los Angeles | 1 | All Maps","name_short":"lax-1","host":"lax-1.us.uncletopia.com","port":27015,"enabled":true,"region":"us-west","cc":"us","latitude":33.94279,"longitude":-118.41004,"reserved":0,"last_update":"0001-01-01T00:00:00Z","name_a2s":"Uncletopia | Los Angeles | 1 | All Maps","protocol":17,"map":"koth_lakeside_final","folder":"tf","game":"Team Fortress","app_id":440,"player_count":0,"max_players":24,"Bots":0,"server_type":"Dedicated","server_os":"Linux","password":true,"vac":true,"version":"7757534","steam_id":85568392924469991,"keywords":["cp","nocrits","nodmgspread","uncletopia"],"game_id":440,"stv_port":27016,"stv_name":"Uncletopia | Los Angeles | 1 | All Maps | STV","players":null},{"server_id":112,"name":"Uncletopia | Los Angeles | 2 | All Maps","name_short":"lax-2","host":"lax-1.us.uncletopia.com","port":27025,"enabled":true,"region":"us-west","cc":"us","latitude":33.94279,"longitude":-118.41004,"reserved":0,"last_update":"0001-01-01T00:00:00Z","name_a2s":"Uncletopia | Los Angeles | 2 | All Maps","protocol":17,"map":"pl_badwater","folder":"tf","game":"Team Fortress","app_id":440,"player_count":0,"max_players":24,"Bots":0,"server_type":"Dedicated","server_os":"Linux","password":true,"vac":true,"version":"7757534","steam_id":85568392924469992,"keywords":["nocrits","nodmgspread","payload","uncletopia"],"game_id":440,"stv_port":27026,"stv_name":"Uncletopia | Los Angeles | 2 | All Maps | STV","players":null},{"server_id":324,"name":"Uncletopia | Los Angeles | 3 | All Maps","name_short":"lax-3","host":"lax-1.us.uncletopia.com","port":27035,"enabled":true,"region":"us-west","cc":"us","latitude":33.94279,"longitude":-118.41004,"reserved":0,"last_update":"0001-01-01T00:00:00Z","name_a2s":"Uncletopia | Los Angeles | 3 | All Maps","protocol":17,"map":"pl_barnblitz","folder":"tf","game":"Team Fortress","app_id":440,"player_count":0,"max_players":24,"Bots":0,"server_type":"Dedicated","server_os":"Linux","password":true,"vac":true,"version":"7757534","steam_id":85568392924510198,"keywords":["nocrits","nodmgspread","payload","uncletopia"],"game_id":440,"stv_port":27036,"stv_name":"Uncletopia | Los Angeles | 3 | All Maps | STV","players":null},{"server_id":25,"name":"Uncletopia | Los Angeles | 4 | Stopwatch Beta","name_short":"lax-4","host":"lax-1.us.uncletopia.com","port":27045,"enabled":true,"region":"us-west","cc":"us","latitude":33.94279,"longitude":-118.41004,"reserved":0,"last_update":"0001-01-01T00:00:00Z","name_a2s":"Uncletopia | Los Angeles | 4 | Stopwatch Beta","protocol":17,"map":"pl_swiftwater_final1","folder":"tf","game":"Team Fortress","app_id":440,"player_count":0,"max_players":24,"Bots":0,"server_type":"Dedicated","server_os":"Linux","password":true,"vac":true,"version":"7757534","steam_id":85568392924510199,"keywords":["nocrits","nodmgspread","payload","uncletopia"],"game_id":440,"stv_port":27046,"stv_name":"Uncletopia | Los Angeles | 4 | Stopwatch Beta | STV","players":null},{"server_id":11,"name":"Uncletopia | London | 1 | All Maps","name_short":"lon-1","host":"lon-1.uk.uncletopia.com","port":27015,"enabled":true,"region":"eu","cc":"gb","latitude":51.509865,"longitude":-0.118092,"reserved":0,"last_update":"0001-01-01T00:00:00Z","name_a2s":"Uncletopia | London | 1 | All Maps","protocol":17,"map":"cp_badlands","folder":"tf","game":"Team Fortress","app_id":440,"player_count":24,"max_players":24,"Bots":0,"server_type":"Dedicated","server_os":"Linux","password":true,"vac":true,"version":"7757534","steam_id":85568392924367362,"keywords":["cp","nocrits","nodmgspread","uncletopia"],"game_id":440,"stv_port":27016,"stv_name":"Uncletopia | London | 1 | All Maps | STV","players":[{"user_id":505,"name":"Lyncurion","steam_id":76561199260022725,"connected_time":4713000000000,"state":"active","ping":82},{"user_id":531,"name":"SirSangoor","steam_id":76561198044462559,"connected_time":2908000000000,"state":"active","ping":115},{"user_id":553,"name":"fairyboy","steam_id":76561198042359587,"connected_time":1834000000000,"state":"active","ping":47},{"user_id":499,"name":"BreadBubbles","steam_id":76561198174332826,"connected_time":6282000000000,"state":"active","ping":69},{"user_id":536,"name":"Raingnome @SaveTF2","steam_id":76561198007394958,"connected_time":2734000000000,"state":"active","ping":58},{"user_id":577,"name":"trite","steam_id":76561197983765323,"connected_time":330000000000,"state":"active","ping":55},{"user_id":539,"name":"Minimi","steam_id":76561198873850443,"connected_time":2481000000000,"state":"active","ping":48},{"user_id":563,"name":"KingVoker","steam_id":76561198039602539,"connected_time":1357000000000,"state":"active","ping":75},{"user_id":566,"name":"KPhii","steam_id":76561198970587061,"connected_time":1260000000000,"state":"active","ping":75},{"user_id":571,"name":"astra","steam_id":76561198042980579,"connected_time":908000000000,"state":"active","ping":61},{"user_id":569,"name":"kag","steam_id":76561198059813166,"connected_time":1081000000000,"state":"active","ping":47},{"user_id":534,"name":"Piox","steam_id":76561198125689157,"connected_time":2844000000000,"state":"active","ping":75},{"user_id":579,"name":"Locke","steam_id":76561198339408300,"connected_time":152000000000,"state":"active","ping":60},{"user_id":567,"name":"hananamanna","steam_id":76561198006570285,"connected_time":1217000000000,"state":"active","ping":117},{"user_id":562,"name":"Dzan50","steam_id":76561198059758591,"connected_time":1412000000000,"state":"active","ping":92},{"user_id":391,"name":"Fruit","steam_id":76561198346687933,"connected_time":15174000000000,"state":"active","ping":61},{"user_id":557,"name":"Drazmax","steam_id":76561198116750395,"connected_time":1674000000000,"state":"active","ping":78},{"user_id":555,"name":"plazma","steam_id":76561198886594048,"connected_time":1810000000000,"state":"active","ping":115},{"user_id":560,"name":"Son Goku","steam_id":76561199383437138,"connected_time":1528000000000,"state":"active","ping":119},{"user_id":578,"name":"big al","steam_id":76561198800662675,"connected_time":237000000000,"state":"active","ping":61},{"user_id":545,"name":"Pinkchup","steam_id":76561198106802803,"connected_time":2296000000000,"state":"active","ping":77},{"user_id":561,"name":"Bits\u0026Peices","steam_id":76561199225453607,"connected_time":1519000000000,"state":"active","ping":104},{"user_id":556,"name":"dr. coom","steam_id":76561198172193711,"connected_time":1772000000000,"state":"active","ping":41},{"user_id":576,"name":"Sodsboy","steam_id":76561198030482006,"connected_time":783000000000,"state":"active","ping":45}]},{"server_id":114,"name":"Uncletopia | London | 2 | All Maps","name_short":"lon-2","host":"lon-1.uk.uncletopia.com","port":27025,"enabled":true,"region":"eu","cc":"gb","latitude":51.509865,"longitude":-0.118092,"reserved":0,"last_update":"0001-01-01T00:00:00Z","name_a2s":"Uncletopia | London | 2 | All Maps","protocol":17,"map":"cp_snakewater_final1","folder":"tf","game":"Team Fortress","app_id":440,"player_count":23,"max_players":24,"Bots":0,"server_type":"Dedicated","server_os":"Linux","password":true,"vac":true,"version":"7757534","steam_id":85568392924470941,"keywords":["cp","nocrits","nodmgspread","uncletopia"],"game_id":440,"stv_port":27026,"stv_name":"Uncletopia | London | 2 | All Maps | STV","players":[{"user_id":218,"name":"Ooze","steam_id":76561198039642637,"connected_time":1822000000000,"state":"active","ping":75},{"user_id":232,"name":"gabagool","steam_id":76561198307111838,"connected_time":826000000000,"state":"active","ping":33},{"user_id":250,"name":"ThatTFguy","steam_id":76561198056794321,"connected_time":36000000000,"state":"active","ping":59},{"user_id":231,"name":"Zerfesh","steam_id":76561198117534358,"connected_time":1134000000000,"state":"active","ping":101},{"user_id":251,"name":"Brick Samson","steam_id":76561198019076104,"connected_time":35000000000,"state":"active","ping":106},{"user_id":252,"name":"chris","steam_id":76561198069723264,"connected_time":27000000000,"state":"active","ping":51},{"user_id":201,"name":"Love Machine","steam_id":76561198040569265,"connected_time":2647000000000,"state":"active","ping":60},{"user_id":239,"name":"AXAL","steam_id":76561198178250598,"connected_time":325000000000,"state":"active","ping":56},{"user_id":253,"name":"SkyiiWasHere (She/Her)","steam_id":76561199102005549,"connected_time":23000000000,"state":"spawning","ping":70},{"user_id":234,"name":"Seaney","steam_id":76561198059138839,"connected_time":774000000000,"state":"active","ping":72},{"user_id":245,"name":"FatalRyhme","steam_id":76561198018713483,"connected_time":286000000000,"state":"active","ping":90},{"user_id":246,"name":"quickfast","steam_id":76561199438900919,"connected_time":244000000000,"state":"active","ping":44},{"user_id":224,"name":"gmem","steam_id":76561198070006725,"connected_time":1592000000000,"state":"active","ping":62},{"user_id":254,"name":"Eosson","steam_id":76561198108642113,"connected_time":4000000000,"state":"spawning","ping":148},{"user_id":204,"name":"...","steam_id":76561198969234594,"connected_time":2625000000000,"state":"active","ping":73},{"user_id":169,"name":"Sn1perK1ng","steam_id":76561198128065329,"connected_time":4368000000000,"state":"active","ping":60},{"user_id":233,"name":"Spliffendor","steam_id":76561198144020209,"connected_time":798000000000,"state":"active","ping":41},{"user_id":247,"name":"men69","steam_id":76561198047359132,"connected_time":244000000000,"state":"active","ping":90},{"user_id":206,"name":"Dapper","steam_id":76561198093372308,"connected_time":2619000000000,"state":"active","ping":145},{"user_id":243,"name":"spaghettisaucerer","steam_id":76561198145133200,"connected_time":311000000000,"state":"active","ping":68},{"user_id":170,"name":"WALTER WHITE","steam_id":76561199147666336,"connected_time":4366000000000,"state":"active","ping":82},{"user_id":127,"name":"lol","steam_id":76561198322087870,"connected_time":6409000000000,"state":"active","ping":106},{"user_id":216,"name":"Rexu","steam_id":76561198246738850,"connected_time":1938000000000,"state":"active","ping":75}]},{"server_id":320,"name":"Uncletopia | London | 3 | All Maps","name_short":"lon-3","host":"lon-1.uk.uncletopia.com","port":27035,"enabled":true,"region":"eu","cc":"gb","latitude":51.509865,"longitude":-0.118092,"reserved":0,"last_update":"0001-01-01T00:00:00Z","name_a2s":"Uncletopia | London | 3 | All Maps","protocol":17,"map":"pl_pier","folder":"tf","game":"Team Fortress","app_id":440,"player_count":24,"max_players":24,"Bots":0,"server_type":"Dedicated","server_os":"Linux","password":true,"vac":true,"version":"7757534","steam_id":85568392924510192,"keywords":["nocrits","nodmgspread","payload","uncletopia"],"game_id":440,"stv_port":27036,"stv_name":"Uncletopia | London | 3 | All Maps | STV","players":[{"user_id":425,"name":"dar","steam_id":76561198371657696,"connected_time":1173000000000,"state":"active","ping":66},{"user_id":390,"name":"Birdseye","steam_id":76561198025852216,"connected_time":1937000000000,"state":"active","ping":46},{"user_id":418,"name":"Bgm_","steam_id":76561198056452044,"connected_time":1437000000000,"state":"active","ping":71},{"user_id":361,"name":"Qwerty","steam_id":76561198023525894,"connected_time":3829000000000,"state":"active","ping":88},{"user_id":414,"name":"The Sex Defender","steam_id":76561198165732391,"connected_time":1511000000000,"state":"active","ping":82},{"user_id":430,"name":"ü¶ê Tust ü¶ê","steam_id":76561198045694677,"connected_time":968000000000,"state":"active","ping":47},{"user_id":441,"name":"Doctor Marijuana","steam_id":76561198288289879,"connected_time":199000000000,"state":"active","ping":52},{"user_id":363,"name":"jabar7","steam_id":76561198055137986,"connected_time":3814000000000,"state":"active","ping":65},{"user_id":386,"name":"Space","steam_id":76561198021572167,"connected_time":1992000000000,"state":"active","ping":45},{"user_id":424,"name":"e henry","steam_id":76561198146716131,"connected_time":1232000000000,"state":"active","ping":157},{"user_id":429,"name":"Kibby","steam_id":76561197990056450,"connected_time":1071000000000,"state":"active","ping":56},{"user_id":335,"name":"pepper","steam_id":76561198059782462,"connected_time":6120000000000,"state":"active","ping":61},{"user_id":257,"name":"Qpangfire","steam_id":76561198094354139,"connected_time":10601000000000,"state":"active","ping":44},{"user_id":434,"name":"Vershal Smershal","steam_id":76561198116223995,"connected_time":537000000000,"state":"active","ping":59},{"user_id":437,"name":"Denl","steam_id":76561198037494982,"connected_time":290000000000,"state":"active","ping":65},{"user_id":431,"name":"bugpov","steam_id":76561198104896547,"connected_time":945000000000,"state":"active","ping":76},{"user_id":435,"name":"Rhardok","steam_id":76561198026733663,"connected_time":393000000000,"state":"active","ping":70},{"user_id":432,"name":":\u003e","steam_id":76561198149978882,"connected_time":945000000000,"state":"active","ping":72},{"user_id":433,"name":"Tobb_Harvard","steam_id":76561199222100485,"connected_time":929000000000,"state":"active","ping":82},{"user_id":324,"name":"Max Andrew","steam_id":76561198158955194,"connected_time":6833000000000,"state":"active","ping":56},{"user_id":396,"name":"update hype","steam_id":76561198083615367,"connected_time":1800000000000,"state":"active","ping":37},{"user_id":440,"name":"Gimli","steam_id":76561198004149706,"connected_time":244000000000,"state":"active","ping":66},{"user_id":442,"name":"androbzik","steam_id":76561199438255231,"connected_time":186000000000,"state":"active","ping":114},{"user_id":311,"name":"noob_STALIN","steam_id":76561198273030727,"connected_time":7296000000000,"state":"active","ping":46}]},{"server_id":321,"name":"Uncletopia | London | 4 | All Maps","name_short":"lon-4","host":"lon-1.uk.uncletopia.com","port":27045,"enabled":true,"region":"eu","cc":"gb","latitude":51.509865,"longitude":-0.118092,"reserved":0,"last_update":"0001-01-01T00:00:00Z","name_a2s":"Uncletopia | London | 4 | All Maps","protocol":17,"map":"pl_swiftwater_final1","folder":"tf","game":"Team Fortress","app_id":440,"player_count":24,"max_players":24,"Bots":0,"server_type":"Dedicated","server_os":"Linux","password":true,"vac":true,"version":"7757534","steam_id":85568392924510193,"keywords":["nocrits","nodmgspread","payload","uncletopia"],"game_id":440,"stv_port":27046,"stv_name":"Uncletopia | London | 4 | All Maps | STV","players":[{"user_id":71,"name":"Lennox","steam_id":76561198069063554,"connected_time":2353000000000,"state":"active","ping":52},{"user_id":22,"name":"Ixsus\u003c3","steam_id":76561198094756869,"connected_time":5093000000000,"state":"active","ping":66},{"user_id":31,"name":"LazyBane","steam_id":76561198032359132,"connected_time":4179000000000,"state":"active","ping":51},{"user_id":78,"name":"kotamine","steam_id":76561198068907991,"connected_time":1506000000000,"state":"active","ping":74},{"user_id":26,"name":"nvmHastee","steam_id":76561199371458295,"connected_time":4525000000000,"state":"active","ping":85},{"user_id":72,"name":"violent male","steam_id":76561199042470246,"connected_time":2291000000000,"state":"active","ping":69},{"user_id":75,"name":"drew","steam_id":76561198012304706,"connected_time":1519000000000,"state":"active","ping":105},{"user_id":79,"name":"Mr.killer","steam_id":76561198290584189,"connected_time":1473000000000,"state":"active","ping":99},{"user_id":88,"name":"My pp is a scooter","steam_id":76561198173218318,"connected_time":575000000000,"state":"active","ping":81},{"user_id":74,"name":"LawrenceFishdom","steam_id":76561199190918059,"connected_time":1612000000000,"state":"active","ping":64},{"user_id":73,"name":"bean","steam_id":76561198161013815,"connected_time":2087000000000,"state":"active","ping":49},{"user_id":39,"name":"Joejee","steam_id":76561199122423976,"connected_time":3975000000000,"state":"active","ping":63},{"user_id":87,"name":"FTH","steam_id":76561198066287815,"connected_time":769000000000,"state":"active","ping":106},{"user_id":77,"name":"GogsCrunchyNuts","steam_id":76561198150599213,"connected_time":1516000000000,"state":"active","ping":94},{"user_id":80,"name":"komantoN^-","steam_id":76561198017929662,"connected_time":1451000000000,"state":"active","ping":57},{"user_id":68,"name":"Kumquat","steam_id":76561198200490386,"connected_time":2691000000000,"state":"active","ping":64},{"user_id":86,"name":"jovi_","steam_id":76561198449280552,"connected_time":807000000000,"state":"active","ping":51},{"user_id":82,"name":"I'm Pain","steam_id":76561199167781869,"connected_time":1349000000000,"state":"active","ping":78},{"user_id":48,"name":"i am gaslighting u","steam_id":76561198058012525,"connected_time":3917000000000,"state":"active","ping":88},{"user_id":83,"name":"Pauler le one","steam_id":76561198398152855,"connected_time":1287000000000,"state":"active","ping":85},{"user_id":84,"name":"I jazzed myself","steam_id":76561198203016603,"connected_time":1006000000000,"state":"active","ping":58},{"user_id":59,"name":"a straight white male","steam_id":76561198381120660,"connected_time":3580000000000,"state":"active","ping":93},{"user_id":63,"name":"Boki","steam_id":76561198044553351,"connected_time":3448000000000,"state":"active","ping":75},{"user_id":60,"name":"FlameTheGame","steam_id":76561198841108519,"connected_time":3575000000000,"state":"active","ping":103}]},{"server_id":21,"name":"Uncletopia | London | 5 | All Maps","name_short":"lon-5","host":"lon-1.uk.uncletopia.com","port":27055,"enabled":true,"region":"eu","cc":"gb","latitude":51.509865,"longitude":-0.118092,"reserved":0,"last_update":"0001-01-01T00:00:00Z","name_a2s":"Uncletopia | London | 5 | All Maps","protocol":17,"map":"ctf_2fort","folder":"tf","game":"Team Fortress","app_id":440,"player_count":24,"max_players":24,"Bots":0,"server_type":"Dedicated","server_os":"Linux","password":true,"vac":true,"version":"7757534","steam_id":85568392924742829,"keywords":["ctf","nocrits","nodmgspread","uncletopia"],"game_id":440,"stv_port":27056,"stv_name":"Uncletopia | London | 5 | All Maps | STV","players":[{"user_id":399,"name":"Cypher","steam_id":76561197996967254,"connected_time":3944000000000,"state":"active","ping":60},{"user_id":453,"name":"Endi","steam_id":76561198914938199,"connected_time":571000000000,"state":"active","ping":100},{"user_id":475,"name":"fallingpencil","steam_id":76561199230233148,"connected_time":43000000000,"state":"active","ping":56},{"user_id":396,"name":"help","steam_id":76561199056338917,"connected_time":3985000000000,"state":"active","ping":163},{"user_id":472,"name":"Hardway","steam_id":76561198272529254,"connected_time":149000000000,"state":"active","ping":60},{"user_id":448,"name":"Michael","steam_id":76561198003146906,"connected_time":687000000000,"state":"active","ping":53},{"user_id":470,"name":"Tea","steam_id":76561198799243030,"connected_time":166000000000,"state":"active","ping":54},{"user_id":468,"name":"PlayDest87","steam_id":76561198173782017,"connected_time":192000000000,"state":"active","ping":61},{"user_id":452,"name":"TJ1212","steam_id":76561199013575313,"connected_time":595000000000,"state":"active","ping":66},{"user_id":454,"name":"Painkiller (real)‚òë","steam_id":76561199036837091,"connected_time":540000000000,"state":"active","ping":90},{"user_id":442,"name":"Hey, I¬¥m Andy!","steam_id":76561198060337777,"connected_time":1226000000000,"state":"active","ping":83},{"user_id":456,"name":"t.tv/FamilyGuyFunnyMoments277","steam_id":76561198416047580,"connected_time":496000000000,"state":"active","ping":139},{"user_id":473,"name":"BunkerBoy","steam_id":76561198859439313,"connected_time":133000000000,"state":"active","ping":88},{"user_id":476,"name":"Donnie's Boyfriend","steam_id":76561198068990383,"connected_time":15000000000,"state":"spawning","ping":47},{"user_id":459,"name":"i eat batteries","steam_id":76561198451607163,"connected_time":443000000000,"state":"active","ping":72},{"user_id":439,"name":"Slim3rs","steam_id":76561199088010585,"connected_time":1752000000000,"state":"active","ping":181},{"user_id":469,"name":"Windows 95 Soda Can","steam_id":76561198378357559,"connected_time":180000000000,"state":"active","ping":44},{"user_id":299,"name":"Amon Ynous","steam_id":76561198034312260,"connected_time":9172000000000,"state":"active","ping":73},{"user_id":461,"name":"InariTPG (They Them)","steam_id":76561198872670782,"connected_time":426000000000,"state":"active","ping":65},{"user_id":444,"name":"UltimateSlayer","steam_id":76561198384109309,"connected_time":736000000000,"state":"active","ping":61},{"user_id":477,"name":"franco","steam_id":76561198113693551,"connected_time":5000000000,"state":"spawning","ping":275},{"user_id":409,"name":"Vanta_BlackLD","steam_id":76561198346271576,"connected_time":3756000000000,"state":"active","ping":68},{"user_id":474,"name":"quake 2 hater","steam_id":76561198101451654,"connected_time":120000000000,"state":"active","ping":45},{"user_id":415,"name":"The Punch","steam_id":76561198212488780,"connected_time":3538000000000,"state":"active","ping":65}]},{"server_id":22,"name":"Uncletopia | London | 6 | All Maps","name_short":"lon-6","host":"lon-1.uk.uncletopia.com","port":27065,"enabled":true,"region":"eu","cc":"gb","latitude":51.509865,"longitude":-0.118092,"reserved":0,"last_update":"0001-01-01T00:00:00Z","name_a2s":"Uncletopia | London | 6 | All Maps","protocol":17,"map":"koth_highpass","folder":"tf","game":"Team Fortress","app_id":440,"player_count":0,"max_players":24,"Bots":0,"server_type":"Dedicated","server_os":"Linux","password":true,"vac":true,"version":"7757534","steam_id":85568392924742830,"keywords":["cp","nocrits","nodmgspread","uncletopia"],"game_id":440,"stv_port":27066,"stv_name":"Uncletopia | London | 6 | All Maps | STV","players":null},{"server_id":40,"name":"Uncletopia | London | 7 | No Payload","name_short":"lon-7","host":"lon-1.uk.uncletopia.com","port":27075,"enabled":true,"region":"eu","cc":"gb","latitude":51.509865,"longitude":-0.118092,"reserved":0,"last_update":"0001-01-01T00:00:00Z","name_a2s":"Uncletopia | London | 7 | No Payload","protocol":17,"map":"plr_nightfall_final","folder":"tf","game":"Team Fortress","app_id":440,"player_count":0,"max_players":24,"Bots":0,"server_type":"Dedicated","server_os":"Linux","password":true,"vac":true,"version":"7757534","steam_id":85568392924964314,"keywords":["nocrits","nodmgspread","payload","uncletopia"],"game_id":440,"stv_port":27076,"stv_name":"Uncletopia | London | 7 | No Payload | STV","players":null},{"server_id":41,"name":"Uncletopia | London | 8 | Community","name_short":"lon-8","host":"lon-1.uk.uncletopia.com","port":27085,"enabled":true,"region":"eu","cc":"gb","latitude":51.509865,"longitude":-0.118092,"reserved":0,"last_update":"0001-01-01T00:00:00Z","name_a2s":"Uncletopia | London | 8 | Community","protocol":17,"map":"workshop/pl_cashworks_final1.ugc2904065412","folder":"tf","game":"Team Fortress","app_id":440,"player_count":3,"max_players":24,"Bots":0,"server_type":"Dedicated","server_os":"Linux","password":true,"vac":true,"version":"7757534","steam_id":85568392924964315,"keywords":["nocrits","nodmgspread","payload","uncletopia"],"game_id":440,"stv_port":27086,"stv_name":"Uncletopia | London | 8 | Community | STV","players":[{"user_id":5,"name":"OOF","steam_id":76561198263698995,"connected_time":329000000000,"state":"active","ping":69},{"user_id":6,"name":"Brinier","steam_id":76561199012604288,"connected_time":318000000000,"state":"active","ping":69},{"user_id":7,"name":"Chris","steam_id":76561198018626828,"connected_time":274000000000,"state":"active","ping":39}]},{"server_id":300,"name":"Uncletopia | Montr√©al | 1 | All Maps","name_short":"mtl-1","host":"mtl-1.ca.uncletopia.com","port":27015,"enabled":true,"region":"us-east","cc":"ca","latitude":45.50889,"longitude":-73.56167,"reserved":0,"last_update":"0001-01-01T00:00:00Z","name_a2s":"Uncletopia | Montr√©al | 1 | All Maps","protocol":17,"map":"pl_snowycoast","folder":"tf","game":"Team Fortress","app_id":440,"player_count":0,"max_players":24,"Bots":0,"server_type":"Dedicated","server_os":"Linux","password":true,"vac":true,"version":"7757534","steam_id":85568392924500087,"keywords":["nocrits","nodmgspread","payload","uncletopia"],"game_id":440,"stv_port":27016,"stv_name":"Uncletopia | Montr√©al | 1 | All Maps | STV","players":null},{"server_id":301,"name":"Uncletopia | Montr√©al | 2 | All Maps","name_short":"mtl-2","host":"mtl-1.ca.uncletopia.com","port":27025,"enabled":true,"region":"us-east","cc":"ca","latitude":45.50889,"longitude":-73.56167,"reserved":0,"last_update":"0001-01-01T00:00:00Z","name_a2s":"Uncletopia | Montr√©al | 2 | All Maps","protocol":17,"map":"plr_hightower","folder":"tf","game":"Team Fortress","app_id":440,"player_count":0,"max_players":24,"Bots":0,"server_type":"Dedicated","server_os":"Linux","password":true,"vac":true,"version":"7757534","steam_id":85568392924500088,"keywords":["nocrits","nodmgspread","payload","uncletopia"],"game_id":440,"stv_port":27026,"stv_name":"Uncletopia | Montr√©al | 2 | All Maps | STV","players":null},{"server_id":302,"name":"Uncletopia | Montr√©al | 3 | All Maps","name_short":"mtl-3","host":"mtl-1.ca.uncletopia.com","port":27035,"enabled":true,"region":"us-east","cc":"ca","latitude":45.50889,"longitude":-73.56167,"reserved":0,"last_update":"0001-01-01T00:00:00Z","name_a2s":"Uncletopia | Montr√©al | 3 | All Maps","protocol":17,"map":"pl_swiftwater_final1","folder":"tf","game":"Team Fortress","app_id":440,"player_count":0,"max_players":24,"Bots":0,"server_type":"Dedicated","server_os":"Linux","password":true,"vac":true,"version":"7757534","steam_id":85568392924500089,"keywords":["nocrits","nodmgspread","payload","uncletopia"],"game_id":440,"stv_port":27036,"stv_name":"Uncletopia | Montr√©al | 3 | All Maps | STV","players":null},{"server_id":303,"name":"Uncletopia | Montr√©al | 4 | No Payload","name_short":"mtl-4","host":"mtl-1.ca.uncletopia.com","port":27045,"enabled":true,"region":"us-east","cc":"ca","latitude":45.50889,"longitude":-73.56167,"reserved":0,"last_update":"0001-01-01T00:00:00Z","name_a2s":"Uncletopia | Montr√©al | 4 | No Payload","protocol":17,"map":"pl_pier","folder":"tf","game":"Team Fortress","app_id":440,"player_count":0,"max_players":24,"Bots":0,"server_type":"Dedicated","server_os":"Linux","password":true,"vac":true,"version":"7757534","steam_id":85568392924500090,"keywords":["nocrits","nodmgspread","payload","uncletopia"],"game_id":440,"stv_port":27046,"stv_name":"Uncletopia | Montr√©al | 4 | No Payload | STV","players":null},{"server_id":13,"name":"Uncletopia | New York City | 1 | All Maps","name_short":"nyc-1","host":"nyc-1.us.uncletopia.com","port":27015,"enabled":true,"region":"us-east","cc":"us","latitude":40.73061,"longitude":-73.93524,"reserved":0,"last_update":"0001-01-01T00:00:00Z","name_a2s":"Uncletopia | New York City | 1 | All Maps","protocol":17,"map":"pl_snowycoast","folder":"tf","game":"Team Fortress","app_id":440,"player_count":23,"max_players":24,"Bots":0,"server_type":"Dedicated","server_os":"Linux","password":true,"vac":true,"version":"7757534","steam_id":85568392924469993,"keywords":["nocrits","nodmgspread","payload","uncletopia"],"game_id":440,"stv_port":27016,"stv_name":"Uncletopia | New York City | 1 | All Maps | STV","players":[{"user_id":174,"name":"„Å°„Çá„Å£„Å®ÊÇ≤„Åó„ÅÑ","steam_id":76561198855839023,"connected_time":459000000000,"state":"active","ping":60},{"user_id":163,"name":"wflz","steam_id":76561198134675147,"connected_time":895000000000,"state":"active","ping":74},{"user_id":179,"name":"Smell my finger","steam_id":76561198173921691,"connected_time":412000000000,"state":"active","ping":104},{"user_id":60,"name":"MontellWilliams","steam_id":76561198172143015,"connected_time":7166000000000,"state":"active","ping":37},{"user_id":148,"name":"beastierbeast","steam_id":76561199030645530,"connected_time":2003000000000,"state":"active","ping":84},{"user_id":176,"name":"Simply_Komeiji","steam_id":76561198354177703,"connected_time":441000000000,"state":"active","ping":96},{"user_id":155,"name":"the spy behind the healing (F2P","steam_id":76561198854070384,"connected_time":1116000000000,"state":"active","ping":129},{"user_id":177,"name":"Schplichael","steam_id":76561198007792525,"connected_time":418000000000,"state":"active","ping":105},{"user_id":150,"name":"STANDING HERE I REALIZE","steam_id":76561198101144414,"connected_time":1965000000000,"state":"active","ping":87},{"user_id":180,"name":"Big kahuna","steam_id":76561198142024812,"connected_time":397000000000,"state":"active","ping":64},{"user_id":182,"name":"The Colonel","steam_id":76561198004147927,"connected_time":313000000000,"state":"active","ping":61},{"user_id":185,"name":"playersunknown339","steam_id":76561199065232810,"connected_time":77000000000,"state":"active","ping":320},{"user_id":157,"name":"whoopsydoodle","steam_id":76561198045145360,"connected_time":1045000000000,"state":"active","ping":47},{"user_id":186,"name":"Jaydyn","steam_id":76561198140326797,"connected_time":72000000000,"state":"active","ping":67},{"user_id":171,"name":"Urbanzpinapple","steam_id":76561198115426938,"connected_time":527000000000,"state":"active","ping":66},{"user_id":127,"name":"Click on DvD by Adam Sandler","steam_id":76561199009151946,"connected_time":3272000000000,"state":"active","ping":75},{"user_id":134,"name":"Pogmanson","steam_id":76561198919953445,"connected_time":3156000000000,"state":"active","ping":106},{"user_id":184,"name":"BasicPeaches","steam_id":76561198190890150,"connected_time":218000000000,"state":"active","ping":61},{"user_id":159,"name":"Kaluka","steam_id":76561198036861445,"connected_time":973000000000,"state":"active","ping":60},{"user_id":170,"name":"fart shitson","steam_id":76561198986534519,"connected_time":632000000000,"state":"active","ping":114},{"user_id":164,"name":"Spreadator","steam_id":76561198159562200,"connected_time":841000000000,"state":"active","ping":129},{"user_id":187,"name":"Mineboi98","steam_id":76561199076830259,"connected_time":5000000000,"state":"spawning","ping":59},{"user_id":140,"name":"Mefir","steam_id":76561198013650292,"connected_time":2860000000000,"state":"active","ping":106}]},{"server_id":14,"name":"Uncletopia | New York City | 2 | All Maps","name_short":"nyc-2","host":"nyc-1.us.uncletopia.com","port":27025,"enabled":true,"region":"us-east","cc":"us","latitude":40.73061,"longitude":-73.93524,"reserved":0,"last_update":"0001-01-01T00:00:00Z","name_a2s":"Uncletopia | New York City | 2 | All Maps","protocol":17,"map":"pl_swiftwater_final1","folder":"tf","game":"Team Fortress","app_id":440,"player_count":20,"max_players":24,"Bots":0,"server_type":"Dedicated","server_os":"Linux","password":true,"vac":true,"version":"7757534","steam_id":85568392924469994,"keywords":["nocrits","nodmgspread","payload","uncletopia"],"game_id":440,"stv_port":27026,"stv_name":"Uncletopia | New York City | 2 | All Maps | STV","players":[{"user_id":65,"name":"Jin","steam_id":76561198119873148,"connected_time":10360000000000,"state":"active","ping":69},{"user_id":202,"name":"kametro4","steam_id":76561198835430429,"connected_time":218000000000,"state":"active","ping":80},{"user_id":185,"name":"Dr.BendyBones","steam_id":76561198048846641,"connected_time":1258000000000,"state":"active","ping":59},{"user_id":198,"name":"Chief Balupa","steam_id":76561198045583454,"connected_time":523000000000,"state":"active","ping":144},{"user_id":166,"name":"guyinatophat51","steam_id":76561198180230694,"connected_time":2724000000000,"state":"active","ping":55},{"user_id":203,"name":"mmrabet","steam_id":76561198073032124,"connected_time":209000000000,"state":"active","ping":74},{"user_id":204,"name":"DiscoTraveler","steam_id":76561199240168088,"connected_time":190000000000,"state":"active","ping":60},{"user_id":190,"name":"_normal","steam_id":76561198338505734,"connected_time":960000000000,"state":"active","ping":54},{"user_id":179,"name":"65 degrees in February","steam_id":76561198091585491,"connected_time":1728000000000,"state":"active","ping":37},{"user_id":189,"name":"i forgor","steam_id":76561199120622265,"connected_time":972000000000,"state":"active","ping":97},{"user_id":162,"name":"lactose father","steam_id":76561199408853457,"connected_time":3158000000000,"state":"active","ping":155},{"user_id":191,"name":"Deki","steam_id":76561198031914490,"connected_time":934000000000,"state":"active","ping":130},{"user_id":205,"name":"Dragon Kid","steam_id":76561198397873029,"connected_time":18000000000,"state":"spawning","ping":48},{"user_id":152,"name":"jema","steam_id":76561198276513608,"connected_time":4233000000000,"state":"active","ping":160},{"user_id":206,"name":"Spimtmot733","steam_id":76561199029189825,"connected_time":8000000000,"state":"spawning","ping":48},{"user_id":176,"name":"Sin¬∞","steam_id":76561198952843442,"connected_time":1823000000000,"state":"active","ping":83},{"user_id":195,"name":"Pinto","steam_id":76561199105386998,"connected_time":775000000000,"state":"active","ping":92},{"user_id":184,"name":"inflation","steam_id":76561198090626597,"connected_time":1445000000000,"state":"active","ping":57},{"user_id":182,"name":"BlazLoch","steam_id":76561198872613199,"connected_time":1626000000000,"state":"active","ping":68},{"user_id":172,"name":"HavocGDI","steam_id":76561199388371914,"connected_time":2421000000000,"state":"active","ping":77}]},{"server_id":15,"name":"Uncletopia | New York City | 3 | Stopwatch Beta","name_short":"nyc-3","host":"nyc-1.us.uncletopia.com","port":27035,"enabled":true,"region":"us-east","cc":"us","latitude":40.73061,"longitude":-73.93524,"reserved":0,"last_update":"0001-01-01T00:00:00Z","name_a2s":"Uncletopia | New York City | 3 | Stopwatch Beta","protocol":17,"map":"workshop/koth_ashville_final.ugc2130459942","folder":"tf","game":"Team Fortress","app_id":440,"player_count":0,"max_players":24,"Bots":0,"server_type":"Dedicated","server_os":"Linux","password":true,"vac":true,"version":"7757534","steam_id":85568392924742820,"keywords":["cp","nocrits","nodmgspread","uncletopia"],"game_id":440,"stv_port":27036,"stv_name":"Uncletopia | New York City | 3 | Stopwatch Beta | STV","players":null},{"server_id":16,"name":"Uncletopia | New York City | 4 | Community","name_short":"nyc-4","host":"nyc-1.us.uncletopia.com","port":27045,"enabled":true,"region":"us-east","cc":"us","latitude":40.73061,"longitude":-73.93524,"reserved":0,"last_update":"0001-01-01T00:00:00Z","name_a2s":"Uncletopia | New York City | 4 | Community","protocol":17,"map":"pl_swiftwater_final1","folder":"tf","game":"Team Fortress","app_id":440,"player_count":0,"max_players":24,"Bots":0,"server_type":"Dedicated","server_os":"Linux","password":true,"vac":true,"version":"7757534","steam_id":85568392924742821,"keywords":["nocrits","nodmgspread","payload","uncletopia"],"game_id":440,"stv_port":27046,"stv_name":"Uncletopia | New York City | 4 | Community | STV","players":null},{"server_id":142,"name":"Uncletopia | S√£o Paulo | 1 | All Maps","name_short":"sao-1","host":"sao-1.br.uncletopia.com","port":27015,"enabled":true,"region":"sa","cc":"br","latitude":-23.533773,"longitude":-46.62529,"reserved":0,"last_update":"0001-01-01T00:00:00Z","name_a2s":"Uncletopia | S√£o Paulo | 1 | All Maps","protocol":17,"map":"koth_lakeside_final","folder":"tf","game":"Team Fortress","app_id":440,"player_count":0,"max_players":24,"Bots":0,"server_type":"Dedicated","server_os":"Linux","password":true,"vac":true,"version":"7757534","steam_id":85568392924469996,"keywords":["cp","nocrits","nodmgspread","uncletopia"],"game_id":440,"stv_port":27016,"stv_name":"Uncletopia | S√£o Paulo | 1 | All Maps | STV","players":null},{"server_id":143,"name":"Uncletopia | S√£o Paulo | 2 | All Maps","name_short":"sao-2","host":"sao-2.br.uncletopia.com","port":27015,"enabled":true,"region":"sa","cc":"br","latitude":-23.533773,"longitude":-46.62529,"reserved":0,"last_update":"0001-01-01T00:00:00Z","name_a2s":"Uncletopia | S√£o Paulo | 2 | All Maps","protocol":17,"map":"koth_lakeside_final","folder":"tf","game":"Team Fortress","app_id":440,"player_count":0,"max_players":24,"Bots":0,"server_type":"Dedicated","server_os":"Linux","password":true,"vac":true,"version":"7757534","steam_id":85568392924485349,"keywords":["cp","nocrits","nodmgspread","uncletopia"],"game_id":440,"stv_port":27016,"stv_name":"Uncletopia | S√£o Paulo | 2 | All Maps | STV","players":null},{"server_id":7,"name":"Uncletopia | Seattle | 1 | All Maps","name_short":"sea-1","host":"sea-1.us.uncletopia.com","port":27015,"enabled":true,"region":"us-west","cc":"us","latitude":47.608013,"longitude":-122.33517,"reserved":0,"last_update":"0001-01-01T00:00:00Z","name_a2s":"Uncletopia | Seattle | 1 | All Maps","protocol":17,"map":"pl_frontier_final","folder":"tf","game":"Team Fortress","app_id":440,"player_count":24,"max_players":24,"Bots":0,"server_type":"Dedicated","server_os":"Linux","password":true,"vac":true,"version":"7757534","steam_id":85568392924469997,"keywords":["nocrits","nodmgspread","payload","uncletopia"],"game_id":440,"stv_port":27016,"stv_name":"Uncletopia | Seattle | 1 | All Maps | STV","players":[{"user_id":136,"name":"shy guy","steam_id":76561198151246059,"connected_time":387000000000,"state":"active","ping":62},{"user_id":33,"name":"Treekincko","steam_id":76561198047995911,"connected_time":7059000000000,"state":"active","ping":46},{"user_id":126,"name":"Strikerbolt","steam_id":76561199095622897,"connected_time":1041000000000,"state":"active","ping":85},{"user_id":129,"name":"Koolaid","steam_id":76561199200296010,"connected_time":683000000000,"state":"active","ping":135},{"user_id":137,"name":"Geogeo","steam_id":76561198091567973,"connected_time":350000000000,"state":"active","ping":67},{"user_id":123,"name":"charm quark","steam_id":76561198098770777,"connected_time":1342000000000,"state":"active","ping":48},{"user_id":70,"name":"PachucoWaffle","steam_id":76561198051491032,"connected_time":5175000000000,"state":"active","ping":55},{"user_id":22,"name":"Captain Jack Gaming","steam_id":76561198128460335,"connected_time":7405000000000,"state":"active","ping":110},{"user_id":113,"name":"JR","steam_id":76561199013221822,"connected_time":1655000000000,"state":"active","ping":179},{"user_id":125,"name":"Witchings","steam_id":76561198247431254,"connected_time":1151000000000,"state":"active","ping":113},{"user_id":130,"name":"roanoke‚Ä∫","steam_id":76561198048007844,"connected_time":683000000000,"state":"active","ping":75},{"user_id":115,"name":"joe rippa","steam_id":76561198170402666,"connected_time":1603000000000,"state":"active","ping":72},{"user_id":119,"name":"SilentFootba11","steam_id":76561199006570947,"connected_time":1410000000000,"state":"active","ping":136},{"user_id":131,"name":"FedSmoker","steam_id":76561198255854081,"connected_time":682000000000,"state":"active","ping":61},{"user_id":95,"name":"TheMightyWoz","steam_id":76561198428397322,"connected_time":3126000000000,"state":"active","ping":67},{"user_id":106,"name":"|3lack","steam_id":76561198082632923,"connected_time":2466000000000,"state":"active","ping":108},{"user_id":132,"name":"Slothy","steam_id":76561198967069349,"connected_time":672000000000,"state":"active","ping":58},{"user_id":94,"name":"mingo","steam_id":76561198308290211,"connected_time":3185000000000,"state":"active","ping":92},{"user_id":97,"name":"R√∂ntgen","steam_id":76561197993492325,"connected_time":3051000000000,"state":"active","ping":64},{"user_id":110,"name":"Little Linguine","steam_id":76561198816986370,"connected_time":2092000000000,"state":"active","ping":55},{"user_id":80,"name":"CDI_FrEAk","steam_id":76561198004708244,"connected_time":3707000000000,"state":"active","ping":93},{"user_id":112,"name":"vulture pupy","steam_id":76561198061963965,"connected_time":1673000000000,"state":"active","ping":61},{"user_id":135,"name":"8 raw papers","steam_id":76561198424248616,"connected_time":477000000000,"state":"active","ping":82},{"user_id":121,"name":"tetra","steam_id":76561198353462102,"connected_time":1401000000000,"state":"active","ping":108}]},{"server_id":119,"name":"Uncletopia | Seattle | 2 | All Maps","name_short":"sea-2","host":"sea-1.us.uncletopia.com","port":27025,"enabled":true,"region":"us-west","cc":"us","latitude":47.608013,"longitude":-122.33517,"reserved":0,"last_update":"0001-01-01T00:00:00Z","name_a2s":"Uncletopia | Seattle | 2 | All Maps","protocol":17,"map":"koth_highpass","folder":"tf","game":"Team Fortress","app_id":440,"player_count":0,"max_players":24,"Bots":0,"server_type":"Dedicated","server_os":"Linux","password":true,"vac":true,"version":"7757534","steam_id":85568392924469998,"keywords":["cp","nocrits","nodmgspread","uncletopia"],"game_id":440,"stv_port":27026,"stv_name":"Uncletopia | Seattle | 2 | All Maps | STV","players":null},{"server_id":406,"name":"Uncletopia | Seattle | 3 | Stopwatch Beta","name_short":"sea-3","host":"sea-1.us.uncletopia.com","port":27035,"enabled":true,"region":"us-west","cc":"us","latitude":47.608013,"longitude":-122.33517,"reserved":0,"last_update":"0001-01-01T00:00:00Z","name_a2s":"Uncletopia | Seattle | 3 | Stopwatch Beta","protocol":17,"map":"cp_dustbowl","folder":"tf","game":"Team Fortress","app_id":440,"player_count":0,"max_players":24,"Bots":0,"server_type":"Dedicated","server_os":"Linux","password":true,"vac":true,"version":"7757534","steam_id":85568392924515217,"keywords":["cp","nocrits","nodmgspread","uncletopia"],"game_id":440,"stv_port":27036,"stv_name":"Uncletopia | Seattle | 3 | Stopwatch Beta | STV","players":null},{"server_id":17,"name":"Uncletopia | San Francisco | 1 | All Maps","name_short":"sfo-1","host":"sfo-1.us.uncletopia.com","port":27015,"enabled":true,"region":"us-west","cc":"us","latitude":37.77397,"longitude":-122.4313,"reserved":0,"last_update":"0001-01-01T00:00:00Z","name_a2s":"Uncletopia | San Francisco | 1 | All Maps","protocol":17,"map":"pl_frontier_final","folder":"tf","game":"Team Fortress","app_id":440,"player_count":0,"max_players":24,"Bots":0,"server_type":"Dedicated","server_os":"Linux","password":true,"vac":true,"version":"7757534","steam_id":85568392924469999,"keywords":["nocrits","nodmgspread","payload","uncletopia"],"game_id":440,"stv_port":27016,"stv_name":"Uncletopia | San Francisco | 1 | All Maps | STV","players":null},{"server_id":18,"name":"Uncletopia | San Francisco | 2 | All Maps","name_short":"sfo-2","host":"sfo-1.us.uncletopia.com","port":27025,"enabled":true,"region":"us-west","cc":"us","latitude":37.77397,"longitude":-122.4313,"reserved":0,"last_update":"0001-01-01T00:00:00Z","name_a2s":"Uncletopia | San Francisco | 2 | All Maps","protocol":17,"map":"koth_highpass","folder":"tf","game":"Team Fortress","app_id":440,"player_count":0,"max_players":24,"Bots":0,"server_type":"Dedicated","server_os":"Linux","password":true,"vac":true,"version":"7757534","steam_id":85568392924470000,"keywords":["cp","nocrits","nodmgspread","uncletopia"],"game_id":440,"stv_port":27026,"stv_name":"Uncletopia | San Francisco | 2 | All Maps | STV","players":null},{"server_id":19,"name":"Uncletopia | San Francisco | 3 | Stopwatch Beta","name_short":"sfo-3","host":"sfo-1.us.uncletopia.com","port":27035,"enabled":true,"region":"us-west","cc":"us","latitude":37.77397,"longitude":-122.4313,"reserved":0,"last_update":"0001-01-01T00:00:00Z","name_a2s":"Uncletopia | San Francisco | 3 | Stopwatch Beta","protocol":17,"map":"koth_lakeside_final","folder":"tf","game":"Team Fortress","app_id":440,"player_count":0,"max_players":24,"Bots":0,"server_type":"Dedicated","server_os":"Linux","password":true,"vac":true,"version":"7757534","steam_id":85568392924742824,"keywords":["cp","nocrits","nodmgspread","uncletopia"],"game_id":440,"stv_port":27036,"stv_name":"Uncletopia | San Francisco | 3 | Stopwatch Beta | STV","players":null},{"server_id":20,"name":"Uncletopia | San Francisco | 4 | Community","name_short":"sfo-4","host":"sfo-1.us.uncletopia.com","port":27045,"enabled":true,"region":"us-west","cc":"us","latitude":37.77397,"longitude":-122.4313,"reserved":0,"last_update":"0001-01-01T00:00:00Z","name_a2s":"Uncletopia | San Francisco | 4 | Community","protocol":17,"map":"workshop/pl_cashworks_final1.ugc2904065412","folder":"tf","game":"Team Fortress","app_id":440,"player_count":0,"max_players":24,"Bots":0,"server_type":"Dedicated","server_os":"Linux","password":true,"vac":true,"version":"7757534","steam_id":85568392924742826,"keywords":["nocrits","nodmgspread","payload","uncletopia"],"game_id":440,"stv_port":27046,"stv_name":"Uncletopia | San Francisco | 4 | Community | STV","players":null},{"server_id":141,"name":"Uncletopia | Sydney | 1 | All Maps","name_short":"syd-1","host":"syd-1.au.uncletopia.com","port":27015,"enabled":true,"region":"au","cc":"au","latitude":-33.865143,"longitude":151.2099,"reserved":0,"last_update":"0001-01-01T00:00:00Z","name_a2s":"Uncletopia | Sydney | 1 | All Maps","protocol":17,"map":"pl_frontier_final","folder":"tf","game":"Team Fortress","app_id":440,"player_count":0,"max_players":24,"Bots":0,"server_type":"Dedicated","server_os":"Linux","password":true,"vac":true,"version":"7757534","steam_id":85568392924470001,"keywords":["nocrits","nodmgspread","payload","uncletopia"],"game_id":440,"stv_port":27016,"stv_name":"Uncletopia | Sydney | 1 | All Maps | STV","players":null},{"server_id":123,"name":"Uncletopia | Sydney | 2 | All Maps","name_short":"syd-2","host":"syd-1.au.uncletopia.com","port":27025,"enabled":true,"region":"au","cc":"au","latitude":-33.865143,"longitude":151.2099,"reserved":0,"last_update":"0001-01-01T00:00:00Z","name_a2s":"Uncletopia | Sydney | 2 | All Maps","protocol":17,"map":"cp_process_final","folder":"tf","game":"Team Fortress","app_id":440,"player_count":0,"max_players":24,"Bots":0,"server_type":"Dedicated","server_os":"Linux","password":true,"vac":true,"version":"7757534","steam_id":85568392924470002,"keywords":["cp","nocrits","nodmgspread","uncletopia"],"game_id":440,"stv_port":27026,"stv_name":"Uncletopia | Sydney | 2 | All Maps | STV","players":null},{"server_id":395,"name":"Uncletopia | Sydney | 3 | All Maps","name_short":"syd-3","host":"syd-1.au.uncletopia.com","port":27035,"enabled":true,"region":"au","cc":"au","latitude":-33.865143,"longitude":151.2099,"reserved":0,"last_update":"0001-01-01T00:00:00Z","name_a2s":"Uncletopia | Sydney | 3 | All Maps","protocol":17,"map":"pl_swiftwater_final1","folder":"tf","game":"Team Fortress","app_id":440,"player_count":0,"max_players":24,"Bots":0,"server_type":"Dedicated","server_os":"Linux","password":true,"vac":true,"version":"7757534","steam_id":85568392925194467,"keywords":["nocrits","nodmgspread","payload","uncletopia"],"game_id":440,"stv_port":27036,"stv_name":"Uncletopia | Sydney | 3 | All Maps | STV","players":null},{"server_id":396,"name":"Uncletopia | Sydney | 4 | All Maps","name_short":"syd-4","host":"syd-1.au.uncletopia.com","port":27045,"enabled":true,"region":"au","cc":"au","latitude":-33.865143,"longitude":151.2099,"reserved":0,"last_update":"0001-01-01T00:00:00Z","name_a2s":"Uncletopia | Sydney | 4 | All Maps","protocol":17,"map":"cp_altitude","folder":"tf","game":"Team Fortress","app_id":440,"player_count":0,"max_players":24,"Bots":0,"server_type":"Dedicated","server_os":"Linux","password":true,"vac":true,"version":"7757534","steam_id":85568392925397958,"keywords":["cp","nocrits","nodmgspread","uncletopia"],"game_id":440,"stv_port":27046,"stv_name":"Uncletopia | Sydney | 4 | All Maps | STV","players":null},{"server_id":58,"name":"Uncletopia | Sydney | 5 | Stopwatch Beta","name_short":"syd-5","host":"syd-1.au.uncletopia.com","port":27055,"enabled":true,"region":"au","cc":"au","latitude":-33.865143,"longitude":151.2099,"reserved":0,"last_update":"0001-01-01T00:00:00Z","name_a2s":"Uncletopia | Sydney | 5 | Stopwatch Beta","protocol":17,"map":"workshop/koth_ashville_final.ugc2130459942","folder":"tf","game":"Team Fortress","app_id":440,"player_count":0,"max_players":24,"Bots":0,"server_type":"Dedicated","server_os":"Linux","password":true,"vac":true,"version":"7757534","steam_id":85568392925397959,"keywords":["cp","nocrits","nodmgspread","uncletopia"],"game_id":440,"stv_port":27056,"stv_name":"Uncletopia | Sydney | 5 | Stopwatch Beta | STV","players":null},{"server_id":59,"name":"Uncletopia | Sydney | 6 | Community","name_short":"syd-6","host":"syd-1.au.uncletopia.com","port":27065,"enabled":true,"region":"au","cc":"au","latitude":-33.865143,"longitude":151.2099,"reserved":0,"last_update":"0001-01-01T00:00:00Z","name_a2s":"Uncletopia | Sydney | 6 | Community","protocol":17,"map":"workshop/pl_badwater_pro_v12.ugc2142942074","folder":"tf","game":"Team Fortress","app_id":440,"player_count":0,"max_players":24,"Bots":0,"server_type":"Dedicated","server_os":"Linux","password":true,"vac":true,"version":"7757534","steam_id":85568392925397960,"keywords":["nocrits","nodmgspread","payload","uncletopia"],"game_id":440,"stv_port":27066,"stv_name":"Uncletopia | Sydney | 6 | Community | STV","players":null},{"server_id":49,"name":"Uncletopia | Warsaw | 1 | All Maps","name_short":"waw-1","host":"waw-1.pl.uncletopia.com","port":27015,"enabled":true,"region":"eu","cc":"pl","latitude":52.2297,"longitude":21.017532,"reserved":0,"last_update":"0001-01-01T00:00:00Z","name_a2s":"","protocol":0,"map":"","folder":"","game":"","app_id":0,"player_count":0,"max_players":0,"Bots":0,"server_type":"","server_os":"","password":false,"vac":false,"version":"","steam_id":0,"keywords":null,"game_id":0,"stv_port":0,"stv_name":"","players":null},{"server_id":50,"name":"Uncletopia | Warsaw | 2 | All Maps","name_short":"waw-2","host":"waw-1.pl.uncletopia.com","port":27025,"enabled":true,"region":"eu","cc":"pl","latitude":52.2297,"longitude":21.017532,"reserved":0,"last_update":"0001-01-01T00:00:00Z","name_a2s":"Uncletopia | Warsaw | 2 | All Maps","protocol":17,"map":"koth_viaduct","folder":"tf","game":"Team Fortress","app_id":440,"player_count":0,"max_players":24,"Bots":0,"server_type":"Dedicated","server_os":"Linux","password":true,"vac":true,"version":"7757534","steam_id":85568392925397851,"keywords":["cp","nocrits","nodmgspread","uncletopia"],"game_id":440,"stv_port":27026,"stv_name":"Uncletopia | Warsaw | 2 | All Maps | STV","players":null},{"server_id":51,"name":"Uncletopia | Warsaw | 3 | All Maps","name_short":"waw-3","host":"waw-1.pl.uncletopia.com","port":27035,"enabled":true,"region":"eu","cc":"pl","latitude":52.2297,"longitude":21.017532,"reserved":0,"last_update":"0001-01-01T00:00:00Z","name_a2s":"Uncletopia | Warsaw | 3 | All Maps","protocol":17,"map":"pl_badwater","folder":"tf","game":"Team Fortress","app_id":440,"player_count":9,"max_players":24,"Bots":0,"server_type":"Dedicated","server_os":"Linux","password":true,"vac":true,"version":"7757534","steam_id":85568392925397852,"keywords":["nocrits","nodmgspread","payload","uncletopia"],"game_id":440,"stv_port":27036,"stv_name":"Uncletopia | Warsaw | 3 | All Maps | STV","players":[{"user_id":6,"name":"jo bidn' | ETLARTORM","steam_id":76561198869576262,"connected_time":2220000000000,"state":"active","ping":103},{"user_id":7,"name":"Dodoshka","steam_id":76561198093464840,"connected_time":2192000000000,"state":"active","ping":114},{"user_id":11,"name":"THE CIPHER","steam_id":76561198365946083,"connected_time":1463000000000,"state":"active","ping":88},{"user_id":12,"name":"engineergaming","steam_id":76561199351791105,"connected_time":1193000000000,"state":"active","ping":200},{"user_id":13,"name":"DJ","steam_id":76561198018244114,"connected_time":1164000000000,"state":"active","ping":118},{"user_id":16,"name":"RaidBoss","steam_id":76561198138777659,"connected_time":703000000000,"state":"active","ping":80},{"user_id":17,"name":"schulzsam8","steam_id":76561199468299991,"connected_time":432000000000,"state":"active","ping":88},{"user_id":18,"name":"bibib17","steam_id":76561198143319217,"connected_time":416000000000,"state":"active","ping":59},{"user_id":19,"name":"rabbitface26","steam_id":76561198327540113,"connected_time":287000000000,"state":"active","ping":70}]},{"server_id":52,"name":"Uncletopia | Warsaw | 4 | All Maps","name_short":"waw-4","host":"waw-1.pl.uncletopia.com","port":27045,"enabled":true,"region":"eu","cc":"pl","latitude":52.2297,"longitude":21.017532,"reserved":0,"last_update":"0001-01-01T00:00:00Z","name_a2s":"Uncletopia | Warsaw | 4 | All Maps","protocol":17,"map":"koth_lakeside_final","folder":"tf","game":"Team Fortress","app_id":440,"player_count":0,"max_players":24,"Bots":0,"server_type":"Dedicated","server_os":"Linux","password":true,"vac":true,"version":"7757534","steam_id":85568392925397853,"keywords":["cp","nocrits","nodmgspread","uncletopia"],"game_id":440,"stv_port":27046,"stv_name":"Uncletopia | Warsaw | 4 | All Maps | STV","players":null},{"server_id":53,"name":"Uncletopia | Warsaw | 5 | Stopwatch Beta","name_short":"waw-5","host":"waw-1.pl.uncletopia.com","port":27055,"enabled":true,"region":"eu","cc":"pl","latitude":52.2297,"longitude":21.017532,"reserved":0,"last_update":"0001-01-01T00:00:00Z","name_a2s":"Uncletopia | Warsaw | 5 | Stopwatch Beta","protocol":17,"map":"pl_borneo","folder":"tf","game":"Team Fortress","app_id":440,"player_count":0,"max_players":24,"Bots":0,"server_type":"Dedicated","server_os":"Linux","password":true,"vac":true,"version":"7757534","steam_id":85568392925397854,"keywords":["nocrits","nodmgspread","payload","uncletopia"],"game_id":440,"stv_port":27056,"stv_name":"Uncletopia | Warsaw | 5 | Stopwatch Beta | STV","players":null},{"server_id":54,"name":"Uncletopia | Warsaw | 6 | Community","name_short":"waw-6","host":"waw-1.pl.uncletopia.com","port":27065,"enabled":true,"region":"eu","cc":"pl","latitude":52.2297,"longitude":21.017532,"reserved":0,"last_update":"0001-01-01T00:00:00Z","name_a2s":"Uncletopia | Warsaw | 6 | Community","protocol":17,"map":"koth_lakeside_final","folder":"tf","game":"Team Fortress","app_id":440,"player_count":7,"max_players":24,"Bots":0,"server_type":"Dedicated","server_os":"Linux","password":true,"vac":true,"version":"7757534","steam_id":85568392925397856,"keywords":["cp","nocrits","nodmgspread","uncletopia"],"game_id":440,"stv_port":27066,"stv_name":"Uncletopia | Warsaw | 6 | Community | STV","players":[{"user_id":3,"name":"ewgenix1439","steam_id":76561199477712693,"connected_time":1545000000000,"state":"active","ping":47},{"user_id":4,"name":"blagorodnijnekon","steam_id":76561199472763674,"connected_time":1243000000000,"state":"active","ping":58},{"user_id":5,"name":"TSx* Naxer","steam_id":76561198011986779,"connected_time":1142000000000,"state":"active","ping":45},{"user_id":6,"name":"TSx* Osa__PL","steam_id":76561198027016799,"connected_time":963000000000,"state":"active","ping":46},{"user_id":7,"name":"TSx* Bargal","steam_id":76561198040266872,"connected_time":886000000000,"state":"active","ping":52},{"user_id":8,"name":"H","steam_id":76561198141897738,"connected_time":630000000000,"state":"active","ping":62},{"user_id":9,"name":"TSx* {Demon-Angel}","steam_id":76561198151486463,"connected_time":200000000000,"state":"active","ping":56}]}]}