{"status":true,"message":"","result":[{"server_id":9,"name":"Uncletopia | Atlanta | 1 | All Maps","name_short":"atl-1","host":"atl-1.us.uncletopia.com","port":27015,"enabled":true,"region":"us-east","cc":"us","latitude":33.753746,"longitude":-84.38633,"reserved":0,"last_update":"0001-01-01T00:00:00Z","name_a2s":"Uncletopia | Atlanta | 1 | All Maps","protocol":17,"map":"pl_swiftwater_final1","folder":"tf","game":"Team Fortress","app_id":440,"player_count":24,"max_players":24,"Bots":0,"server_type":"Dedicated","server_os":"Linux","password":true,"vac":true,"version":"7757534","steam_id":85568392924469982,"keywords":["nocrits","nodmgspread","payload","uncletopia"],"game_id":440,"stv_port":27016,"stv_name":"Uncletopia | Atlanta | 1 | All Maps | STV","players":[{"user_id":389,"name":"Jabawakai","steam_id":76561198088881254,"connected_time":9300000000000,"state":"active","ping":71},{"user_id":411,"name":"lil hog","steam_id":76561199230929836,"connected_time":6612000000000,"state":"active","ping":97},{"user_id":475,"name":"i love machine girl","steam_id":76561199187747394,"connected_time":1730000000000,"state":"active","ping":68},{"user_id":461,"name":"Nox","steam_id":76561198141950842,"connected_time":3345000000000,"state":"active","ping":44},{"user_id":417,"name":"RavenwolF","steam_id":76561197963374354,"connected_time":6323000000000,"state":"active","ping":137},{"user_id":451,"name":"BIG HOG","steam_id":76561198079923652,"connected_time":3995000000000,"state":"active","ping":74},{"user_id":484,"name":"ATL1 | cola","steam_id":76561198374390458,"connected_time":705000000000,"state":"active","ping":58},{"user_id":483,"name":"DFR Le4n!!!","steam_id":76561198045522596,"connected_time":706000000000,"state":"active","ping":71},{"user_id":476,"name":"CrusaderMarshal","steam_id":76561198209086801,"connected_time":1724000000000,"state":"active","ping":76},{"user_id":467,"name":"tyg","steam_id":76561198056246867,"connected_time":2986000000000,"state":"active","ping":73},{"user_id":453,"name":"Darghul the Skeleton Lord","steam_id":76561198004140161,"connected_time":3502000000000,"state":"active","ping":64},{"user_id":462,"name":"Jake The Snake","steam_id":76561198047722285,"connected_time":3310000000000,"state":"active","ping":72},{"user_id":471,"name":"floofy","steam_id":76561198389769098,"connected_time":2429000000000,"state":"active","ping":82},{"user_id":452,"name":"Onyx","steam_id":76561198275349640,"connected_time":3639000000000,"state":"active","ping":83},{"user_id":454,"name":"Broken Cereal‚àö","steam_id":76561198087489795,"connected_time":3497000000000,"state":"active","ping":66},{"user_id":479,"name":"Ace Attorney","steam_id":76561198133011705,"connected_time":1691000000000,"state":"active","ping":57},{"user_id":485,"name":"vitamin","steam_id":76561198277799227,"connected_time":704000000000,"state":"active","ping":67},{"user_id":463,"name":"Pokon","steam_id":76561198053113088,"connected_time":3309000000000,"state":"active","ping":53},{"user_id":464,"name":"UNIT 220","steam_id":76561198042243497,"connected_time":3263000000000,"state":"active","ping":73},{"user_id":474,"name":"Dr.Zarann","steam_id":76561198163952958,"connected_time":1777000000000,"state":"active","ping":57},{"user_id":448,"name":"Jin Gulilo","steam_id":76561198065151242,"connected_time":4184000000000,"state":"active","ping":75},{"user_id":468,"name":"noided","steam_id":76561198353924837,"connected_time":2917000000000,"state":"active","ping":85},{"user_id":450,"name":"‚ô•Bunny‚ô•Slut‚ô•","steam_id":76561198206376851,"connected_time":4039000000000,"state":"active","ping":99},{"user_id":478,"name":"xiii","steam_id":76561198079416036,"connected_time":1705000000000,"state":"active","ping":79}]},{"server_id":104,"name":"Uncletopia | Atlanta | 2 | All Maps","name_short":"atl-2","host":"atl-1.us.uncletopia.com","port":27025,"enabled":true,"region":"us-east","cc":"us","latitude":33.753746,"longitude":-84.38633,"reserved":0,"last_update":"0001-01-01T00:00:00Z","name_a2s":"Uncletopia | Atlanta | 2 | All Maps","protocol":17,"map":"pl_hoodoo_final","folder":"tf","game":"Team Fortress","app_id":440,"player_count":23,"max_players":24,"Bots":0,"server_type":"Dedicated","server_os":"Linux","password":true,"vac":true,"version":"7757534","steam_id":85568392924469983,"keywords":["nocrits","nodmgspread","payload","uncletopia"],"game_id":440,"stv_port":27026,"stv_name":"Uncletopia | Atlanta | 2 | All Maps | STV","players":[{"user_id":280,"name":"anime","steam_id":76561198092581225,"connected_time":2818000000000,"state":"active","ping":83},{"user_id":290,"name":"sweaterfan","steam_id":76561199389567214,"connected_time":2195000000000,"state":"active","ping":60},{"user_id":275,"name":"Surg","steam_id":76561198081267222,"connected_time":3110000000000,"state":"active","ping":82},{"user_id":263,"name":"Swaus","steam_id":76561198035761308,"connected_time":4058000000000,"state":"active","ping":69},{"user_id":259,"name":"avant","steam_id":76561198104921055,"connected_time":4414000000000,"state":"active","ping":78},{"user_id":304,"name":"Tuchpi","steam_id":76561197967581205,"connected_time":470000000000,"state":"active","ping":74},{"user_id":294,"name":"roman","steam_id":76561198170066797,"connected_time":948000000000,"state":"active","ping":59},{"user_id":265,"name":"Antifa Supersoldier","steam_id":76561198141816516,"connected_time":4037000000000,"state":"active","ping":82},{"user_id":301,"name":"Monky duh luppy","steam_id":76561198035410427,"connected_time":642000000000,"state":"active","ping":96},{"user_id":296,"name":"Aura","steam_id":76561198010021047,"connected_time":775000000000,"state":"active","ping":78},{"user_id":260,"name":"Chance","steam_id":76561198360789770,"connected_time":4107000000000,"state":"active","ping":66},{"user_id":293,"name":"Bonchiko","steam_id":76561198065133470,"connected_time":1079000000000,"state":"active","ping":58},{"user_id":297,"name":"Rain","steam_id":76561198123437878,"connected_time":763000000000,"state":"active","ping":76},{"user_id":302,"name":"nup noodle","steam_id":76561198101278181,"connected_time":590000000000,"state":"active","ping":79},{"user_id":298,"name":"Sybil","steam_id":76561198042533062,"connected_time":749000000000,"state":"active","ping":107},{"user_id":230,"name":"Nephs","steam_id":76561198136763403,"connected_time":6772000000000,"state":"active","ping":76},{"user_id":277,"name":"Insert_Name_Here","steam_id":76561198089428414,"connected_time":3029000000000,"state":"active","ping":90},{"user_id":299,"name":"Reed.Dook","steam_id":76561198046625664,"connected_time":746000000000,"state":"active","ping":88},{"user_id":267,"name":"bob","steam_id":76561198261060542,"connected_time":4028000000000,"state":"active","ping":80},{"user_id":300,"name":"Spherigon","steam_id":76561198149867606,"connected_time":743000000000,"state":"active","ping":45},{"user_id":303,"name":"James","steam_id":76561198055687973,"connected_time":529000000000,"state":"active","ping":46},{"user_id":278,"name":"bobbymcbobington","steam_id":76561199089411172,"connected_time":2992000000000,"state":"active","ping":101},{"user_id":289,"name":"LiMPs","steam_id":76561198176806234,"connected_time":2213000000000,"state":"active","ping":72}]},{"server_id":400,"name":"Uncletopia | Atlanta | 3 | Community","name_short":"atl-3","host":"atl-1.us.uncletopia.com","port":27035,"enabled":true,"region":"us-east","cc":"us","latitude":33.753746,"longitude":-84.38633,"reserved":0,"last_update":"0001-01-01T00:00:00Z","name_a2s":"Uncletopia | Atlanta | 3 | Community","protocol":17,"map":"workshop/cp_logjam_rc12.ugc454812035","folder":"tf","game":"Team Fortress","app_id":440,"player_count":0,"max_players":24,"Bots":0,"server_type":"Dedicated","server_os":"Linux","password":true,"vac":true,"version":"7757534","steam_id":85568392924515187,"keywords":["cp","nocrits","nodmgspread","uncletopia"],"game_id":440,"stv_port":27036,"stv_name":"Uncletopia | Atlanta | 3 | Community | STV","players":null},{"server_id":401,"name":"Uncletopia | Atlanta | 4 | No Payload","name_short":"atl-4","host":"atl-1.us.uncletopia.com","port":27045,"enabled":true,"region":"us-east","cc":"us","latitude":33.753746,"longitude":-84.38633,"reserved":0,"last_update":"0001-01-01T00:00:00Z","name_a2s":"","protocol":0,"map":"","folder":"","game":"","app_id":0,"player_count":0,"max_players":0,"Bots":0,"server_type":"","server_os":"","password":false,"vac":false,"version":"","steam_id":0,"keywords":null,"game_id":0,"stv_port":0,"stv_name":"","players":null},{"server_id":2,"name":"Uncletopia | Chicago | 1 | All Maps","name_short":"chi-1","host":"chi-1.us.uncletopia.com","port":27015,"enabled":true,"region":"us-central","cc":"us","latitude":41.881832,"longitude":-87.62318,"reserved":0,"last_update":"0001-01-01T00:00:00Z","name_a2s":"Uncletopia | Chicago | 1 | All Maps","protocol":17,"map":"pl_barnblitz","folder":"tf","game":"Team Fortress","app_id":440,"player_count":24,"max_players":24,"Bots":0,"server_type":"Dedicated","server_os":"Linux","password":true,"vac":true,"version":"7757534","steam_id":85568392924469984,"keywords":["nocrits","nodmgspread","payload","uncletopia"],"game_id":440,"stv_port":27016,"stv_name":"Uncletopia | Chicago | 1 | All Maps | STV","players":[{"user_id":686,"name":"Rafl","steam_id":76561198055222756,"connected_time":889000000000,"state":"active","ping":67},{"user_id":652,"name":"Tay","steam_id":76561198059605568,"connected_time":4281000000000,"state":"active","ping":74},{"user_id":687,"name":"JestinJester","steam_id":76561198411846094,"connected_time":849000000000,"state":"active","ping":70},{"user_id":562,"name":"Wallem","steam_id":76561198052361822,"connected_time":11194000000000,"state":"active","ping":72},{"user_id":693,"name":"Clam","steam_id":76561198059476610,"connected_time":233000000000,"state":"active","ping":53},{"user_id":689,"name":"heimdall","steam_id":76561198069380992,"connected_time":839000000000,"state":"active","ping":89},{"user_id":690,"name":"Gay Cowboy","steam_id":76561198151549658,"connected_time":830000000000,"state":"active","ping":95},{"user_id":655,"name":"kermitcreeper(ZAZA)","steam_id":76561199222829972,"connected_time":3646000000000,"state":"active","ping":56},{"user_id":640,"name":"wiiblob","steam_id":76561198109106242,"connected_time":5304000000000,"state":"active","ping":141},{"user_id":691,"name":"craxyt","steam_id":76561198050192689,"connected_time":825000000000,"state":"active","ping":105},{"user_id":680,"name":"Mightythor","steam_id":76561199162355715,"connected_time":1559000000000,"state":"active","ping":83},{"user_id":644,"name":"Bolty","steam_id":76561198084199165,"connected_time":5122000000000,"state":"active","ping":86},{"user_id":678,"name":"Chief Diggery K.","steam_id":76561198066629137,"connected_time":1657000000000,"state":"active","ping":111},{"user_id":681,"name":"mr.edderkopper","steam_id":76561198152614478,"connected_time":1510000000000,"state":"active","ping":48},{"user_id":645,"name":"Astoriae!","steam_id":76561199090168858,"connected_time":4848000000000,"state":"active","ping":83},{"user_id":692,"name":"‚Ä∫ snow","steam_id":76561198109783729,"connected_time":787000000000,"state":"active","ping":48},{"user_id":674,"name":"SIGMA [BS]","steam_id":76561197962604879,"connected_time":1846000000000,"state":"active","ping":70},{"user_id":671,"name":"hehehe ha","steam_id":76561198159823948,"connected_time":2367000000000,"state":"active","ping":59},{"user_id":685,"name":"Pepsiman","steam_id":76561198436946165,"connected_time":1125000000000,"state":"active","ping":79},{"user_id":560,"name":"blob","steam_id":76561198122375328,"connected_time":11230000000000,"state":"active","ping":70},{"user_id":649,"name":"Protato","steam_id":76561198061182563,"connected_time":4836000000000,"state":"active","ping":75},{"user_id":597,"name":"freak ya nature","steam_id":76561198310502474,"connected_time":8377000000000,"state":"active","ping":53},{"user_id":504,"name":"HumFreY","steam_id":76561198076639682,"connected_time":16735000000000,"state":"active","ping":73},{"user_id":613,"name":"Soda","steam_id":76561198219209367,"connected_time":7662000000000,"state":"active","ping":70}]},{"server_id":106,"name":"Uncletopia | Chicago | 2 | All Maps","name_short":"chi-2","host":"chi-1.us.uncletopia.com","port":27025,"enabled":true,"region":"us-central","cc":"us","latitude":41.881832,"longitude":-87.62318,"reserved":0,"last_update":"0001-01-01T00:00:00Z","name_a2s":"Uncletopia | Chicago | 2 | All Maps","protocol":17,"map":"pl_borneo","folder":"tf","game":"Team Fortress","app_id":440,"player_count":24,"max_players":24,"Bots":0,"server_type":"Dedicated","server_os":"Linux","password":true,"vac":true,"version":"7757534","steam_id":85568392924469985,"keywords":["nocrits","nodmgspread","payload","uncletopia"],"game_id":440,"stv_port":27026,"stv_name":"Uncletopia | Chicago | 2 | All Maps | STV","players":[{"user_id":554,"name":"puffpuffpomf","steam_id":76561199033436550,"connected_time":464000000000,"state":"active","ping":67},{"user_id":516,"name":"‚ñ≥","steam_id":76561198060642242,"connected_time":4048000000000,"state":"active","ping":87},{"user_id":555,"name":"SomeFuckingGuy #SAVETF2","steam_id":76561199239165015,"connected_time":455000000000,"state":"active","ping":76},{"user_id":553,"name":"crayonnipple","steam_id":76561198070253331,"connected_time":529000000000,"state":"active","ping":71},{"user_id":540,"name":"BOTBOT","steam_id":76561198271928618,"connected_time":1721000000000,"state":"active","ping":99},{"user_id":546,"name":"Reverie","steam_id":76561198987005784,"connected_time":993000000000,"state":"active","ping":61},{"user_id":549,"name":"hello moto","steam_id":76561198337692867,"connected_time":929000000000,"state":"active","ping":66},{"user_id":496,"name":"üê∫-Iwky-ü¶ä","steam_id":76561198185616311,"connected_time":7097000000000,"state":"active","ping":91},{"user_id":534,"name":"The local hobo","steam_id":76561198289650060,"connected_time":2346000000000,"state":"active","ping":84},{"user_id":562,"name":"basilberry","steam_id":76561198145275937,"connected_time":373000000000,"state":"active","ping":89},{"user_id":551,"name":"Gabriel","steam_id":76561198369862983,"connected_time":794000000000,"state":"active","ping":67},{"user_id":547,"name":"Mr. Jazzels","steam_id":76561198046368958,"connected_time":981000000000,"state":"active","ping":78},{"user_id":560,"name":"FS Jorda","steam_id":76561198071421459,"connected_time":385000000000,"state":"active","ping":56},{"user_id":538,"name":"Underqualified Gunman","steam_id":76561198111061367,"connected_time":1871000000000,"state":"active","ping":64},{"user_id":558,"name":"Jombi","steam_id":76561198427813097,"connected_time":388000000000,"state":"active","ping":73},{"user_id":565,"name":"deadpixel","steam_id":76561198150249843,"connected_time":103000000000,"state":"active","ping":50},{"user_id":544,"name":"Stick","steam_id":76561198001509374,"connected_time":1097000000000,"state":"active","ping":74},{"user_id":548,"name":"meh","steam_id":76561198040910380,"connected_time":960000000000,"state":"active","ping":99},{"user_id":541,"name":"Walter White","steam_id":76561199030987614,"connected_time":1280000000000,"state":"active","ping":85},{"user_id":536,"name":"The magic doo bus","steam_id":76561198243387974,"connected_time":2302000000000,"state":"active","ping":77},{"user_id":528,"name":"Knight","steam_id":76561198154529952,"connected_time":3101000000000,"state":"active","ping":93},{"user_id":523,"name":"postgres","steam_id":76561198011204750,"connected_time":3869000000000,"state":"active","ping":87},{"user_id":563,"name":"Sprinklingmydoughnut","steam_id":76561198168009092,"connected_time":368000000000,"state":"active","ping":89},{"user_id":550,"name":"Bowl","steam_id":76561198133931159,"connected_time":917000000000,"state":"active","ping":61}]},{"server_id":402,"name":"Uncletopia | Chicago | 3 | All Maps","name_short":"chi-3","host":"chi-1.us.uncletopia.com","port":27035,"enabled":true,"region":"us-central","cc":"us","latitude":41.881832,"longitude":-87.62318,"reserved":0,"last_update":"0001-01-01T00:00:00Z","name_a2s":"Uncletopia | Chicago | 3 | All Maps","protocol":17,"map":"pl_pier","folder":"tf","game":"Team Fortress","app_id":440,"player_count":24,"max_players":24,"Bots":0,"server_type":"Dedicated","server_os":"Linux","password":true,"vac":true,"version":"7757534","steam_id":85568392924515191,"keywords":["nocrits","nodmgspread","payload","uncletopia"],"game_id":440,"stv_port":27036,"stv_name":"Uncletopia | Chicago | 3 | All Maps | STV","players":[{"user_id":697,"name":"jonatan.leandoer96","steam_id":76561199112133755,"connected_time":297000000000,"state":"active","ping":63},{"user_id":664,"name":"chiswola","steam_id":76561198046920142,"connected_time":2745000000000,"state":"active","ping":85},{"user_id":674,"name":"ClericsRose","steam_id":76561198011013806,"connected_time":2511000000000,"state":"active","ping":77},{"user_id":572,"name":"griff928","steam_id":76561198149614679,"connected_time":9087000000000,"state":"active","ping":51},{"user_id":688,"name":"Monkey","steam_id":76561198031015186,"connected_time":770000000000,"state":"active","ping":81},{"user_id":690,"name":"Ashia","steam_id":76561198089336357,"connected_time":718000000000,"state":"active","ping":74},{"user_id":707,"name":"oxbudy","steam_id":76561198022120207,"connected_time":179000000000,"state":"active","ping":67},{"user_id":624,"name":"Raydn","steam_id":76561198418414338,"connected_time":6225000000000,"state":"active","ping":81},{"user_id":651,"name":"Jharlembuschk","steam_id":76561198132174368,"connected_time":3957000000000,"state":"active","ping":57},{"user_id":687,"name":"Rudy","steam_id":76561198013456828,"connected_time":1297000000000,"state":"active","ping":61},{"user_id":698,"name":"Sprit ‚ô•","steam_id":76561198268780781,"connected_time":271000000000,"state":"active","ping":46},{"user_id":699,"name":"MILK","steam_id":76561198253574099,"connected_time":266000000000,"state":"active","ping":61},{"user_id":681,"name":"sonic1394","steam_id":76561198054636788,"connected_time":1902000000000,"state":"active","ping":76},{"user_id":668,"name":"ETHAN NATION","steam_id":76561198215446665,"connected_time":2579000000000,"state":"active","ping":66},{"user_id":663,"name":"‚Ñã‚Ñá·ºÇ·πº‡¥¥","steam_id":76561199062259389,"connected_time":3135000000000,"state":"active","ping":107},{"user_id":700,"name":"6t26j","steam_id":76561198278282836,"connected_time":264000000000,"state":"active","ping":52},{"user_id":694,"name":"KTB","steam_id":76561197990744614,"connected_time":329000000000,"state":"active","ping":47},{"user_id":704,"name":"Velocity9000YT","steam_id":76561199456605785,"connected_time":228000000000,"state":"active","ping":130},{"user_id":695,"name":"L_J","steam_id":76561198331514963,"connected_time":328000000000,"state":"active","ping":46},{"user_id":599,"name":"Donnie Blasto","steam_id":76561198043432005,"connected_time":8200000000000,"state":"active","ping":50},{"user_id":686,"name":"Boogie","steam_id":76561198043626626,"connected_time":1322000000000,"state":"active","ping":60},{"user_id":696,"name":"Goldensliv","steam_id":76561198161673891,"connected_time":326000000000,"state":"active","ping":98},{"user_id":684,"name":"Krellah","steam_id":76561198287045069,"connected_time":1853000000000,"state":"active","ping":60},{"user_id":708,"name":"meat gummy","steam_id":76561198055952234,"connected_time":170000000000,"state":"active","ping":65}]},{"server_id":403,"name":"Uncletopia | Chicago | 4 | All Maps","name_short":"chi-4","host":"chi-1.us.uncletopia.com","port":27045,"enabled":true,"region":"us-central","cc":"us","latitude":41.881832,"longitude":-87.62318,"reserved":0,"last_update":"0001-01-01T00:00:00Z","name_a2s":"Uncletopia | Chicago | 4 | All Maps","protocol":17,"map":"pl_frontier_final","folder":"tf","game":"Team Fortress","app_id":440,"player_count":24,"max_players":24,"Bots":0,"server_type":"Dedicated","server_os":"Linux","password":true,"vac":true,"version":"7757534","steam_id":85568392924515193,"keywords":["nocrits","nodmgspread","payload","uncletopia"],"game_id":440,"stv_port":27046,"stv_name":"Uncletopia | Chicago | 4 | All Maps | STV","players":[{"user_id":237,"name":"Rukks","steam_id":76561197993918954,"connected_time":962000000000,"state":"active","ping":87},{"user_id":248,"name":"Marshmallow Supreme","steam_id":76561198057291909,"connected_time":223000000000,"state":"active","ping":58},{"user_id":210,"name":"goldrush80","steam_id":76561198029344788,"connected_time":2210000000000,"state":"active","ping":56},{"user_id":238,"name":"Strangelove","steam_id":76561198353773611,"connected_time":893000000000,"state":"active","ping":71},{"user_id":225,"name":"keffers","steam_id":76561198202338796,"connected_time":1623000000000,"state":"active","ping":69},{"user_id":239,"name":"lol.com","steam_id":76561198231764164,"connected_time":800000000000,"state":"active","ping":153},{"user_id":249,"name":"Bored Barred Owl","steam_id":76561198263895597,"connected_time":94000000000,"state":"active","ping":79},{"user_id":157,"name":"Motorbung87","steam_id":76561198976821898,"connected_time":6560000000000,"state":"active","ping":99},{"user_id":194,"name":"Battery Acid Addict","steam_id":76561198439793697,"connected_time":3385000000000,"state":"active","ping":75},{"user_id":227,"name":"Cherry_Dust","steam_id":76561198805193208,"connected_time":1539000000000,"state":"active","ping":88},{"user_id":240,"name":"beans","steam_id":76561198067655341,"connected_time":733000000000,"state":"active","ping":86},{"user_id":236,"name":"captainskullet","steam_id":76561198314597170,"connected_time":1055000000000,"state":"active","ping":66},{"user_id":246,"name":"Jakobee129","steam_id":76561198353234674,"connected_time":597000000000,"state":"active","ping":141},{"user_id":250,"name":"Stoopnagle","steam_id":76561198011942560,"connected_time":36000000000,"state":"active","ping":83},{"user_id":229,"name":"CollDragon","steam_id":76561198067534450,"connected_time":1489000000000,"state":"active","ping":65},{"user_id":244,"name":"VerdantSunset","steam_id":76561198062313478,"connected_time":634000000000,"state":"active","ping":86},{"user_id":215,"name":"Lore","steam_id":76561198098407538,"connected_time":2123000000000,"state":"active","ping":56},{"user_id":201,"name":"Menachem","steam_id":76561198041226420,"connected_time":3203000000000,"state":"active","ping":48},{"user_id":216,"name":"AudaCD","steam_id":76561198202775853,"connected_time":2121000000000,"state":"active","ping":45},{"user_id":233,"name":"ewwa","steam_id":76561198018564445,"connected_time":1148000000000,"state":"active","ping":60},{"user_id":230,"name":"Shrake","steam_id":76561198114379995,"connected_time":1475000000000,"state":"active","ping":35},{"user_id":245,"name":"AutoMail","steam_id":76561198308151588,"connected_time":634000000000,"state":"active","ping":116},{"user_id":232,"name":"fac","steam_id":76561198009818412,"connected_time":1321000000000,"state":"active","ping":74},{"user_id":247,"name":"ssstEVe","steam_id":76561198063475894,"connected_time":442000000000,"state":"active","ping":65}]},{"server_id":36,"name":"Uncletopia | Chicago | 5 | All Maps","name_short":"chi-5","host":"chi-2.us.uncletopia.com","port":27015,"enabled":true,"region":"us-central","cc":"us","latitude":41.881832,"longitude":-87.62318,"reserved":0,"last_update":"0001-01-01T00:00:00Z","name_a2s":"Uncletopia | Chicago | 5 | All Maps","protocol":17,"map":"koth_viaduct","folder":"tf","game":"Team Fortress","app_id":440,"player_count":22,"max_players":24,"Bots":0,"server_type":"Dedicated","server_os":"Linux","password":true,"vac":true,"version":"7757534","steam_id":85568392924866362,"keywords":["cp","nocrits","nodmgspread","uncletopia"],"game_id":440,"stv_port":27016,"stv_name":"Uncletopia | Chicago | 5 | All Maps | STV","players":[{"user_id":199,"name":"Sov","steam_id":76561198042208527,"connected_time":6452000000000,"state":"active","ping":74},{"user_id":276,"name":"Detective Conner","steam_id":76561198272050414,"connected_time":355000000000,"state":"active","ping":140},{"user_id":259,"name":"OfficialGir","steam_id":76561198256026535,"connected_time":1047000000000,"state":"active","ping":97},{"user_id":278,"name":"IQ =/- 69","steam_id":76561198102681457,"connected_time":342000000000,"state":"active","ping":69},{"user_id":257,"name":"Alice","steam_id":76561198254447217,"connected_time":1332000000000,"state":"active","ping":115},{"user_id":266,"name":"Wandering Conjuror","steam_id":76561198036444997,"connected_time":496000000000,"state":"active","ping":82},{"user_id":262,"name":"Periwinkle","steam_id":76561198092154097,"connected_time":599000000000,"state":"active","ping":73},{"user_id":263,"name":"Mighty","steam_id":76561198096569755,"connected_time":570000000000,"state":"active","ping":95},{"user_id":264,"name":"Sprucelass","steam_id":76561197998391724,"connected_time":566000000000,"state":"active","ping":56},{"user_id":265,"name":"the real d.b. cooper","steam_id":76561198053164901,"connected_time":556000000000,"state":"active","ping":60},{"user_id":267,"name":"Swannie","steam_id":76561199472877209,"connected_time":493000000000,"state":"active","ping":75},{"user_id":279,"name":"Frog King","steam_id":76561197965022076,"connected_time":315000000000,"state":"active","ping":59},{"user_id":269,"name":"JelloMotion","steam_id":76561198045892038,"connected_time":481000000000,"state":"active","ping":60},{"user_id":270,"name":"Bryguy","steam_id":76561198092096120,"connected_time":477000000000,"state":"active","ping":30},{"user_id":254,"name":"Rakk","steam_id":76561198855176174,"connected_time":1544000000000,"state":"active","ping":104},{"user_id":280,"name":"Asanez3","steam_id":76561198037381436,"connected_time":304000000000,"state":"active","ping":91},{"user_id":271,"name":"evilstuntman","steam_id":76561198056911537,"connected_time":415000000000,"state":"active","ping":52},{"user_id":281,"name":"WarMace","steam_id":76561198395937853,"connected_time":276000000000,"state":"active","ping":80},{"user_id":282,"name":"rMuralCDLX","steam_id":76561198975798517,"connected_time":263000000000,"state":"active","ping":116},{"user_id":283,"name":"General Jimbo","steam_id":76561198075426735,"connected_time":217000000000,"state":"active","ping":80},{"user_id":285,"name":"threethree","steam_id":76561198177354155,"connected_time":137000000000,"state":"active","ping":52},{"user_id":286,"name":"Ethan","steam_id":76561198371216468,"connected_time":127000000000,"state":"active","ping":86}]},{"server_id":37,"name":"Uncletopia | Chicago | 6 | All Maps","name_short":"chi-6","host":"chi-2.us.uncletopia.com","port":27025,"enabled":true,"region":"us-central","cc":"us","latitude":41.881832,"longitude":-87.62318,"reserved":0,"last_update":"0001-01-01T00:00:00Z","name_a2s":"Uncletopia | Chicago | 6 | All Maps","protocol":17,"map":"plr_bananabay","folder":"tf","game":"Team Fortress","app_id":440,"player_count":21,"max_players":24,"Bots":0,"server_type":"Dedicated","server_os":"Linux","password":true,"vac":true,"version":"7757534","steam_id":85568392924866363,"keywords":["nocrits","nodmgspread","payload","uncletopia"],"game_id":440,"stv_port":27026,"stv_name":"Uncletopia | Chicago | 6 | All Maps | STV","players":[{"user_id":192,"name":"dahperson","steam_id":76561198067207467,"connected_time":10699000000000,"state":"active","ping":55},{"user_id":150,"name":"Hunter Biden's laptop","steam_id":76561199475829930,"connected_time":14335000000000,"state":"active","ping":82},{"user_id":334,"name":"Bludgeon","steam_id":76561198272009412,"connected_time":655000000000,"state":"active","ping":109},{"user_id":336,"name":"DJ Sheeve","steam_id":76561198095910139,"connected_time":531000000000,"state":"active","ping":57},{"user_id":339,"name":"Poptart From Mars","steam_id":76561197979930960,"connected_time":370000000000,"state":"active","ping":73},{"user_id":303,"name":"(¬¥-Œπ_-ÔΩÄ)","steam_id":76561198007464245,"connected_time":2932000000000,"state":"active","ping":75},{"user_id":295,"name":"Dot.","steam_id":76561198149463984,"connected_time":3308000000000,"state":"active","ping":46},{"user_id":340,"name":"ATF_DEK3RD","steam_id":76561199122074660,"connected_time":315000000000,"state":"active","ping":90},{"user_id":324,"name":"Joe is oatmeal","steam_id":76561198971103594,"connected_time":1365000000000,"state":"active","ping":103},{"user_id":300,"name":"FATMAN....HOOVY","steam_id":76561198125277447,"connected_time":3233000000000,"state":"active","ping":58},{"user_id":341,"name":"‚õàÔ∏èRagdollWraith‚òî","steam_id":76561198028469167,"connected_time":268000000000,"state":"active","ping":60},{"user_id":342,"name":"MayaBon","steam_id":76561198797968261,"connected_time":257000000000,"state":"active","ping":101},{"user_id":343,"name":"[DEEP] Danmar33","steam_id":76561198056453091,"connected_time":250000000000,"state":"active","ping":53},{"user_id":344,"name":"Induce Salt","steam_id":76561198116645978,"connected_time":247000000000,"state":"active","ping":53},{"user_id":304,"name":"Mr. Dry Lips","steam_id":76561198028157625,"connected_time":2918000000000,"state":"active","ping":88},{"user_id":302,"name":"magical_mage0","steam_id":76561198213271916,"connected_time":3113000000000,"state":"active","ping":63},{"user_id":318,"name":"faxxy","steam_id":76561198079621240,"connected_time":2142000000000,"state":"active","ping":59},{"user_id":282,"name":"Op banana","steam_id":76561198303231451,"connected_time":4369000000000,"state":"active","ping":72},{"user_id":306,"name":"Robo Intern","steam_id":76561199067098696,"connected_time":2823000000000,"state":"active","ping":88},{"user_id":331,"name":"Seedkns","steam_id":76561199092210172,"connected_time":1013000000000,"state":"active","ping":73},{"user_id":332,"name":"Sardinio","steam_id":76561198065097426,"connected_time":888000000000,"state":"active","ping":90}]},{"server_id":38,"name":"Uncletopia | Chicago | 7 | Stopwatch Beta","name_short":"chi-7","host":"chi-2.us.uncletopia.com","port":27035,"enabled":true,"region":"us-central","cc":"us","latitude":41.881832,"longitude":-87.62318,"reserved":0,"last_update":"0001-01-01T00:00:00Z","name_a2s":"Uncletopia | Chicago | 7 | Stopwatch Beta","protocol":17,"map":"pl_borneo","folder":"tf","game":"Team Fortress","app_id":440,"player_count":0,"max_players":24,"Bots":0,"server_type":"Dedicated","server_os":"Linux","password":true,"vac":true,"version":"7757534","steam_id":85568392924866364,"keywords":["nocrits","nodmgspread","payload","uncletopia"],"game_id":440,"stv_port":27036,"stv_name":"Uncletopia | Chicago | 7 | Stopwatch Beta | STV","players":null},{"server_id":39,"name":"Uncletopia | Chicago | 8 | Community","name_short":"chi-8","host":"chi-2.us.uncletopia.com","port":27045,"enabled":true,"region":"us-central","cc":"us","latitude":41.881832,"longitude":-87.62318,"reserved":0,"last_update":"0001-01-01T00:00:00Z","name_a2s":"Uncletopia | Chicago | 8 | Community","protocol":17,"map":"workshop/cp_indulge.ugc528106646","folder":"tf","game":"Team Fortress","app_id":440,"player_count":24,"max_players":24,"Bots":0,"server_type":"Dedicated","server_os":"Linux","password":true,"vac":true,"version":"7757534","steam_id":85568392924866365,"keywords":["cp","nocrits","nodmgspread","uncletopia"],"game_id":440,"stv_port":27046,"stv_name":"Uncletopia | Chicago | 8 | Community | STV","players":[{"user_id":253,"name":"Ace Chromatica","steam_id":76561198042211131,"connected_time":19000000000,"state":"active","ping":54},{"user_id":234,"name":"\u003e\u003e=","steam_id":76561198337705174,"connected_time":1325000000000,"state":"active","ping":75},{"user_id":211,"name":"Caveman","steam_id":76561198025832534,"connected_time":3722000000000,"state":"active","ping":67},{"user_id":203,"name":"Miss Star","steam_id":76561199106587693,"connected_time":4166000000000,"state":"active","ping":73},{"user_id":224,"name":"PixelsofFear","steam_id":76561198077787508,"connected_time":2379000000000,"state":"active","ping":122},{"user_id":210,"name":"Infinitytacos","steam_id":76561198884260211,"connected_time":3732000000000,"state":"active","ping":45},{"user_id":225,"name":"MontyEgg77","steam_id":76561198126961122,"connected_time":2266000000000,"state":"active","ping":100},{"user_id":208,"name":"Leaderofthe00fkins","steam_id":76561198281999872,"connected_time":3750000000000,"state":"active","ping":109},{"user_id":217,"name":"MOBILEFERRET797","steam_id":76561198368063718,"connected_time":3421000000000,"state":"active","ping":72},{"user_id":237,"name":"Huey","steam_id":76561198972816386,"connected_time":1035000000000,"state":"active","ping":90},{"user_id":242,"name":"Architect","steam_id":76561198015242016,"connected_time":753000000000,"state":"active","ping":45},{"user_id":212,"name":"Ludidas","steam_id":76561198156272124,"connected_time":3605000000000,"state":"active","ping":60},{"user_id":238,"name":"HE‚ÄôS IN THE GODDAMN WALLS","steam_id":76561198363267009,"connected_time":1010000000000,"state":"active","ping":72},{"user_id":209,"name":"\"Chinese\" Weather Balloon","steam_id":76561198151674993,"connected_time":3741000000000,"state":"active","ping":60},{"user_id":226,"name":"Genn","steam_id":76561198070450699,"connected_time":2206000000000,"state":"active","ping":60},{"user_id":236,"name":"bought this cart for 15 dollars","steam_id":76561198253731826,"connected_time":1058000000000,"state":"active","ping":93},{"user_id":245,"name":"Karma's Camera","steam_id":76561198059385185,"connected_time":645000000000,"state":"active","ping":60},{"user_id":229,"name":"Sir Squirrell","steam_id":76561198090769409,"connected_time":2129000000000,"state":"active","ping":86},{"user_id":250,"name":"BurR","steam_id":76561198055431367,"connected_time":307000000000,"state":"active","ping":295},{"user_id":252,"name":"Toasty Gyro","steam_id":76561198001026643,"connected_time":149000000000,"state":"active","ping":45},{"user_id":248,"name":"boy from the rafters","steam_id":76561198042926224,"connected_time":532000000000,"state":"active","ping":87},{"user_id":230,"name":"Dr Lazer","steam_id":76561199086408216,"connected_time":2117000000000,"state":"active","ping":88},{"user_id":251,"name":"The Pan Man From Slavic Land","steam_id":76561198401875841,"connected_time":179000000000,"state":"active","ping":56},{"user_id":249,"name":"Doppelpunkt","steam_id":76561198102137730,"connected_time":531000000000,"state":"active","ping":51}]},{"server_id":8,"name":"Uncletopia | Dallas | 1 | All Maps","name_short":"dal-1","host":"dal-1.us.uncletopia.com","port":27015,"enabled":true,"region":"us-central","cc":"us","latitude":32.779167,"longitude":-96.80889,"reserved":0,"last_update":"0001-01-01T00:00:00Z","name_a2s":"Uncletopia | Dallas | 1 | All Maps","protocol":17,"map":"pl_barnblitz","folder":"tf","game":"Team Fortress","app_id":440,"player_count":24,"max_players":24,"Bots":0,"server_type":"Dedicated","server_os":"Linux","password":true,"vac":true,"version":"7757534","steam_id":85568392924469986,"keywords":["nocrits","nodmgspread","payload","uncletopia"],"game_id":440,"stv_port":27016,"stv_name":"Uncletopia | Dallas | 1 | All Maps | STV","players":[{"user_id":482,"name":"Chicken Soup","steam_id":76561197989268948,"connected_time":2365000000000,"state":"active","ping":68},{"user_id":501,"name":"Mr. Luggy","steam_id":76561198072723392,"connected_time":1030000000000,"state":"active","ping":61},{"user_id":506,"name":"DoubleTee","steam_id":76561198018980347,"connected_time":409000000000,"state":"active","ping":108},{"user_id":511,"name":"ChErrY","steam_id":76561198045614766,"connected_time":43000000000,"state":"active","ping":126},{"user_id":434,"name":"King (Who's on a budget)","steam_id":76561199086357213,"connected_time":4618000000000,"state":"active","ping":81},{"user_id":493,"name":"Noisgamer02","steam_id":76561198129665722,"connected_time":1714000000000,"state":"active","ping":61},{"user_id":509,"name":"Pornelius Hubert","steam_id":76561198186128723,"connected_time":218000000000,"state":"active","ping":51},{"user_id":497,"name":"ScoutSecoTF2","steam_id":76561198366212156,"connected_time":1457000000000,"state":"active","ping":75},{"user_id":454,"name":"white woman","steam_id":76561199116679777,"connected_time":3573000000000,"state":"active","ping":68},{"user_id":472,"name":"NOT Susie Deltarune (not real)","steam_id":76561199007365488,"connected_time":2660000000000,"state":"active","ping":68},{"user_id":437,"name":"Samrizo el Chorizo","steam_id":76561198009838162,"connected_time":4579000000000,"state":"active","ping":88},{"user_id":503,"name":"Shamrock Shake Oct.10.2020 @8pm","steam_id":76561198833313201,"connected_time":506000000000,"state":"active","ping":91},{"user_id":504,"name":"god's drunkest driver","steam_id":76561198212115640,"connected_time":467000000000,"state":"active","ping":79},{"user_id":507,"name":"plink","steam_id":76561198057829889,"connected_time":249000000000,"state":"active","ping":105},{"user_id":474,"name":"An Erect Penis :)","steam_id":76561198086477485,"connected_time":2597000000000,"state":"active","ping":64},{"user_id":505,"name":"Searot","steam_id":76561198070800170,"connected_time":465000000000,"state":"active","ping":58},{"user_id":499,"name":"DemoLiberTF2","steam_id":76561198095378689,"connected_time":1433000000000,"state":"active","ping":120},{"user_id":495,"name":"Spector","steam_id":76561198008137094,"connected_time":1687000000000,"state":"active","ping":58},{"user_id":475,"name":"Veridian","steam_id":76561198096334078,"connected_time":2522000000000,"state":"active","ping":75},{"user_id":487,"name":"zpalmtree","steam_id":76561198134307620,"connected_time":2252000000000,"state":"active","ping":90},{"user_id":445,"name":"DragonHeart","steam_id":76561198013245625,"connected_time":3812000000000,"state":"active","ping":70},{"user_id":466,"name":"Dr. Pootis, PhD","steam_id":76561198182123655,"connected_time":2941000000000,"state":"active","ping":66},{"user_id":490,"name":"Mufalito","steam_id":76561198951889482,"connected_time":2064000000000,"state":"active","ping":152}]},{"server_id":108,"name":"Uncletopia | Dallas | 2 | All Maps","name_short":"dal-2","host":"dal-1.us.uncletopia.com","port":27025,"enabled":true,"region":"us-central","cc":"us","latitude":32.779167,"longitude":-96.80889,"reserved":0,"last_update":"0001-01-01T00:00:00Z","name_a2s":"Uncletopia | Dallas | 2 | All Maps","protocol":17,"map":"pl_upward","folder":"tf","game":"Team Fortress","app_id":440,"player_count":24,"max_players":24,"Bots":0,"server_type":"Dedicated","server_os":"Linux","password":true,"vac":true,"version":"7757534","steam_id":85568392924469988,"keywords":["nocrits","nodmgspread","payload","uncletopia"],"game_id":440,"stv_port":27026,"stv_name":"Uncletopia | Dallas | 2 | All Maps | STV","players":[{"user_id":610,"name":"austintacious","steam_id":76561198054118061,"connected_time":1743000000000,"state":"active","ping":65},{"user_id":628,"name":"Gelliterate","steam_id":76561198107233070,"connected_time":715000000000,"state":"active","ping":48},{"user_id":515,"name":"MiKE","steam_id":76561198115112269,"connected_time":10957000000000,"state":"active","ping":69},{"user_id":606,"name":"carol in HR","steam_id":76561198071775268,"connected_time":2481000000000,"state":"active","ping":67},{"user_id":629,"name":"Squiliam","steam_id":76561198025278006,"connected_time":659000000000,"state":"active","ping":36},{"user_id":631,"name":"Nomad","steam_id":76561198272103822,"connected_time":591000000000,"state":"active","ping":68},{"user_id":616,"name":"Deewey","steam_id":76561198084768933,"connected_time":1690000000000,"state":"active","ping":52},{"user_id":630,"name":"Notation","steam_id":76561198119509319,"connected_time":622000000000,"state":"active","ping":60},{"user_id":600,"name":"trinqette","steam_id":76561198119543621,"connected_time":2954000000000,"state":"active","ping":51},{"user_id":591,"name":"Sean","steam_id":76561198011422340,"connected_time":3751000000000,"state":"active","ping":52},{"user_id":638,"name":"Trumpetspyman59","steam_id":76561198048989561,"connected_time":16000000000,"state":"active","ping":70},{"user_id":632,"name":"Jacket","steam_id":76561198125415247,"connected_time":583000000000,"state":"active","ping":75},{"user_id":639,"name":"Finn","steam_id":76561198170196298,"connected_time":15000000000,"state":"active","ping":96},{"user_id":618,"name":"Mac","steam_id":76561198081296586,"connected_time":1681000000000,"state":"active","ping":103},{"user_id":640,"name":"xZackAttack27x","steam_id":76561198035446639,"connected_time":14000000000,"state":"spawning","ping":85},{"user_id":609,"name":"OddSlaush","steam_id":76561198043898488,"connected_time":2154000000000,"state":"active","ping":60},{"user_id":636,"name":"Dravenation","steam_id":76561198012411483,"connected_time":59000000000,"state":"active","ping":130},{"user_id":614,"name":"Danger McHazard","steam_id":76561198059451274,"connected_time":1722000000000,"state":"active","ping":74},{"user_id":634,"name":"ecto cooler","steam_id":76561198068409067,"connected_time":559000000000,"state":"active","ping":76},{"user_id":621,"name":"FUSION","steam_id":76561197972659738,"connected_time":1425000000000,"state":"active","ping":72},{"user_id":625,"name":"Five","steam_id":76561198026640473,"connected_time":1021000000000,"state":"active","ping":63},{"user_id":641,"name":"Thingy","steam_id":76561198140161202,"connected_time":6000000000,"state":"spawning","ping":61},{"user_id":627,"name":"Stillkill","steam_id":76561198065069057,"connected_time":788000000000,"state":"active","ping":36},{"user_id":635,"name":"üå∏MelWormüå∏","steam_id":76561198084145814,"connected_time":553000000000,"state":"active","ping":100}]},{"server_id":5,"name":"Uncletopia | Frankfurt | 1 | All Maps","name_short":"frk-1","host":"frk-1.de.uncletopia.com","port":27015,"enabled":true,"region":"eu","cc":"de","latitude":50.110924,"longitude":8.682127,"reserved":0,"last_update":"0001-01-01T00:00:00Z","name_a2s":"Uncletopia | Frankfurt | 1 | All Maps","protocol":17,"map":"pl_upward","folder":"tf","game":"Team Fortress","app_id":440,"player_count":0,"max_players":24,"Bots":0,"server_type":"Dedicated","server_os":"Linux","password":true,"vac":true,"version":"7757534","steam_id":85568392924469989,"keywords":["nocrits","nodmgspread","payload","uncletopia"],"game_id":440,"stv_port":27016,"stv_name":"Uncletopia | Frankfurt | 1 | All Maps | STV","players":null},{"server_id":110,"name":"Uncletopia | Frankfurt | 2 | All Maps","name_short":"frk-2","host":"frk-1.de.uncletopia.com","port":27025,"enabled":true,"region":"eu","cc":"de","latitude":50.110924,"longitude":8.682127,"reserved":0,"last_update":"0001-01-01T00:00:00Z","name_a2s":"Uncletopia | Frankfurt | 2 | All Maps","protocol":17,"map":"ctf_sawmill","folder":"tf","game":"Team Fortress","app_id":440,"player_count":0,"max_players":24,"Bots":0,"server_type":"Dedicated","server_os":"Linux","password":true,"vac":true,"version":"7757534","steam_id":85568392924469990,"keywords":["ctf","nocrits","nodmgspread","uncletopia"],"game_id":440,"stv_port":27026,"stv_name":"Uncletopia | Frankfurt | 2 | All Maps | STV","players":null},{"server_id":308,"name":"Uncletopia | Frankfurt | 3 | All Maps","name_short":"frk-3","host":"frk-1.de.uncletopia.com","port":27035,"enabled":true,"region":"eu","cc":"de","latitude":50.110924,"longitude":8.682127,"reserved":0,"last_update":"0001-01-01T00:00:00Z","name_a2s":"Uncletopia | Frankfurt | 3 | All Maps","protocol":17,"map":"koth_cascade","folder":"tf","game":"Team Fortress","app_id":440,"player_count":0,"max_players":24,"Bots":0,"server_type":"Dedicated","server_os":"Linux","password":true,"vac":true,"version":"7757534","steam_id":85568392924504274,"keywords":["cp","nocrits","nodmgspread","uncletopia"],"game_id":440,"stv_port":27036,"stv_name":"Uncletopia | Frankfurt | 3 | All Maps | STV","players":null},{"server_id":309,"name":"Uncletopia | Frankfurt | 4 | All Maps","name_short":"frk-4","host":"frk-1.de.uncletopia.com","port":27045,"enabled":true,"region":"eu","cc":"de","latitude":50.110924,"longitude":8.682127,"reserved":0,"last_update":"0001-01-01T00:00:00Z","name_a2s":"Uncletopia | Frankfurt | 4 | All Maps","protocol":17,"map":"ctf_sawmill","folder":"tf","game":"Team Fortress","app_id":440,"player_count":0,"max_players":24,"Bots":0,"server_type":"Dedicated","server_os":"Linux","password":true,"vac":true,"version":"7757534","steam_id":85568392924504275,"keywords":["ctf","nocrits","nodmgspread","uncletopia"],"game_id":440,"stv_port":27046,"stv_name":"Uncletopia | Frankfurt | 4 | All Maps | STV","players":null},{"server_id":310,"name":"Uncletopia | Frankfurt | 5 | All Maps","name_short":"frk-5","host":"frk-1.de.uncletopia.com","port":27055,"enabled":true,"region":"eu","cc":"de","latitude":50.110924,"longitude":8.682127,"reserved":0,"last_update":"0001-01-01T00:00:00Z","name_a2s":"Uncletopia | Frankfurt | 5 | All Maps","protocol":17,"map":"ctf_sawmill","folder":"tf","game":"Team Fortress","app_id":440,"player_count":0,"max_players":24,"Bots":0,"server_type":"Dedicated","server_os":"Linux","password":true,"vac":true,"version":"7757534","steam_id":85568392924504277,"keywords":["ctf","nocrits","nodmgspread","uncletopia"],"game_id":440,"stv_port":27056,"stv_name":"Uncletopia | Frankfurt | 5 | All Maps | STV","players":null},{"server_id":311,"name":"Uncletopia | Frankfurt | 6 | All Maps","name_short":"frk-6","host":"frk-1.de.uncletopia.com","port":27065,"enabled":true,"region":"eu","cc":"de","latitude":50.110924,"longitude":8.682127,"reserved":0,"last_update":"0001-01-01T00:00:00Z","name_a2s":"Uncletopia | Frankfurt | 6 | All Maps","protocol":17,"map":"ctf_sawmill","folder":"tf","game":"Team Fortress","app_id":440,"player_count":0,"max_players":24,"Bots":0,"server_type":"Dedicated","server_os":"Linux","password":true,"vac":true,"version":"7757534","steam_id":85568392924504278,"keywords":["ctf","nocrits","nodmgspread","uncletopia"],"game_id":440,"stv_port":27066,"stv_name":"Uncletopia | Frankfurt | 6 | All Maps | STV","players":null},{"server_id":23,"name":"Uncletopia | Frankfurt | 7 | Stopwatch Beta","name_short":"frk-7","host":"frk-1.de.uncletopia.com","port":27075,"enabled":true,"region":"eu","cc":"de","latitude":50.110924,"longitude":8.682127,"reserved":0,"last_update":"0001-01-01T00:00:00Z","name_a2s":"Uncletopia | Frankfurt | 7 | Stopwatch Beta","protocol":17,"map":"koth_highpass","folder":"tf","game":"Team Fortress","app_id":440,"player_count":0,"max_players":24,"Bots":0,"server_type":"Dedicated","server_os":"Linux","password":true,"vac":true,"version":"7757534","steam_id":85568392924742827,"keywords":["cp","nocrits","nodmgspread","uncletopia"],"game_id":440,"stv_port":27076,"stv_name":"Uncletopia | Frankfurt | 7 | Stopwatch Beta | STV","players":null},{"server_id":24,"name":"Uncletopia | Frankfurt | 8 | Community","name_short":"frk-8","host":"frk-1.de.uncletopia.com","port":27085,"enabled":true,"region":"eu","cc":"de","latitude":50.110924,"longitude":8.682127,"reserved":0,"last_update":"0001-01-01T00:00:00Z","name_a2s":"Uncletopia | Frankfurt | 8 | Community","protocol":17,"map":"workshop/koth_bagel_rc6.ugc2514036946","folder":"tf","game":"Team Fortress","app_id":440,"player_count":0,"max_players":24,"Bots":0,"server_type":"Dedicated","server_os":"Linux","password":true,"vac":true,"version":"7757534","steam_id":85568392924742828,"keywords":["cp","nocrits","nodmgspread","uncletopia"],"game_id":440,"stv_port":27086,"stv_name":"Uncletopia | Frankfurt | 8 | Community | STV","players":null},{"server_id":202,"name":"Uncletopia | Hong Kong | 1 | All Maps","name_short":"hgk-1","host":"hgk-1.hk.uncletopia.com","port":27015,"enabled":true,"region":"asia","cc":"hk","latitude":22.302711,"longitude":114.177216,"reserved":0,"last_update":"0001-01-01T00:00:00Z","name_a2s":"Uncletopia | Hong Kong | 1 | All Maps","protocol":17,"map":"koth_highpass","folder":"tf","game":"Team Fortress","app_id":440,"player_count":0,"max_players":24,"Bots":0,"server_type":"Dedicated","server_os":"Linux","password":true,"vac":true,"version":"7757534","steam_id":85568392924494504,"keywords":["cp","nocrits","nodmgspread","uncletopia"],"game_id":440,"stv_port":27016,"stv_name":"Uncletopia | Hong Kong | 1 | All Maps | STV","players":null},{"server_id":1,"name":"Uncletopia | Los Angeles | 1 | All Maps","name_short":"lax-1","host":"lax-1.us.uncletopia.com","port":27015,"enabled":true,"region":"us-west","cc":"us","latitude":33.94279,"longitude":-118.41004,"reserved":0,"last_update":"0001-01-01T00:00:00Z","name_a2s":"Uncletopia | Los Angeles | 1 | All Maps","protocol":17,"map":"pl_pier","folder":"tf","game":"Team Fortress","app_id":440,"player_count":24,"max_players":24,"Bots":0,"server_type":"Dedicated","server_os":"Linux","password":true,"vac":true,"version":"7757534","steam_id":85568392924469991,"keywords":["nocrits","nodmgspread","payload","uncletopia"],"game_id":440,"stv_port":27016,"stv_name":"Uncletopia | Los Angeles | 1 | All Maps | STV","players":[{"user_id":298,"name":"Bony","steam_id":76561199001748822,"connected_time":2704000000000,"state":"active","ping":85},{"user_id":330,"name":"lol","steam_id":76561198026491738,"connected_time":1020000000000,"state":"active","ping":58},{"user_id":318,"name":"philo","steam_id":76561198070492523,"connected_time":1591000000000,"state":"active","ping":36},{"user_id":345,"name":"Bomb Squirtle‚Ñ¢","steam_id":76561197998931145,"connected_time":358000000000,"state":"active","ping":128},{"user_id":325,"name":"Rage Pyro","steam_id":76561197998285726,"connected_time":1113000000000,"state":"active","ping":124},{"user_id":337,"name":"Sidekick","steam_id":76561198392740835,"connected_time":687000000000,"state":"active","ping":78},{"user_id":340,"name":"brassygraph261","steam_id":76561199024736398,"connected_time":650000000000,"state":"active","ping":63},{"user_id":350,"name":"GlizzLord","steam_id":76561198321010427,"connected_time":175000000000,"state":"active","ping":69},{"user_id":332,"name":"MegaBron James","steam_id":76561198066091050,"connected_time":899000000000,"state":"active","ping":80},{"user_id":348,"name":"(TPT) Ghost","steam_id":76561198123262873,"connected_time":266000000000,"state":"active","ping":66},{"user_id":230,"name":"werolat","steam_id":76561197960544784,"connected_time":6606000000000,"state":"active","ping":53},{"user_id":321,"name":"Sonata","steam_id":76561198088165440,"connected_time":1347000000000,"state":"active","ping":54},{"user_id":347,"name":"zinnk","steam_id":76561198092081825,"connected_time":289000000000,"state":"active","ping":58},{"user_id":346,"name":"arandomchicken","steam_id":76561198850703385,"connected_time":338000000000,"state":"active","ping":71},{"user_id":328,"name":"Brain Magic","steam_id":76561198010201477,"connected_time":1058000000000,"state":"active","ping":56},{"user_id":349,"name":"CheeseCake488","steam_id":76561199407617942,"connected_time":223000000000,"state":"active","ping":93},{"user_id":339,"name":"Power Jake","steam_id":76561198051510260,"connected_time":665000000000,"state":"active","ping":62},{"user_id":351,"name":"finman","steam_id":76561198127639913,"connected_time":43000000000,"state":"active","ping":54},{"user_id":314,"name":"thedomterTTV","steam_id":76561198045169719,"connected_time":2197000000000,"state":"active","ping":103},{"user_id":304,"name":"Crom","steam_id":76561198132031007,"connected_time":2619000000000,"state":"active","ping":100},{"user_id":305,"name":"Furious George","steam_id":76561198405111646,"connected_time":2605000000000,"state":"active","ping":58},{"user_id":307,"name":"Mugen","steam_id":76561198411174773,"connected_time":2568000000000,"state":"active","ping":54},{"user_id":329,"name":"dash23‚Ñ¢","steam_id":76561198314951185,"connected_time":1046000000000,"state":"active","ping":84},{"user_id":256,"name":"John Wick's puppy","steam_id":76561198064662875,"connected_time":4826000000000,"state":"active","ping":59}]},{"server_id":112,"name":"Uncletopia | Los Angeles | 2 | All Maps","name_short":"lax-2","host":"lax-1.us.uncletopia.com","port":27025,"enabled":true,"region":"us-west","cc":"us","latitude":33.94279,"longitude":-118.41004,"reserved":0,"last_update":"0001-01-01T00:00:00Z","name_a2s":"Uncletopia | Los Angeles | 2 | All Maps","protocol":17,"map":"pl_swiftwater_final1","folder":"tf","game":"Team Fortress","app_id":440,"player_count":22,"max_players":24,"Bots":0,"server_type":"Dedicated","server_os":"Linux","password":true,"vac":true,"version":"7757534","steam_id":85568392924469992,"keywords":["nocrits","nodmgspread","payload","uncletopia"],"game_id":440,"stv_port":27026,"stv_name":"Uncletopia | Los Angeles | 2 | All Maps | STV","players":[{"user_id":167,"name":"wizard","steam_id":76561197974871380,"connected_time":341000000000,"state":"active","ping":68},{"user_id":79,"name":"demomanfan2008","steam_id":76561198077030486,"connected_time":6750000000000,"state":"active","ping":67},{"user_id":172,"name":"dAiLyGrInD","steam_id":76561198163531915,"connected_time":30000000000,"state":"active","ping":88},{"user_id":165,"name":"Ghwhaine","steam_id":76561199045414702,"connected_time":607000000000,"state":"active","ping":85},{"user_id":111,"name":"Minted","steam_id":76561198051562461,"connected_time":4726000000000,"state":"active","ping":75},{"user_id":169,"name":"golia","steam_id":76561198000264266,"connected_time":171000000000,"state":"active","ping":69},{"user_id":166,"name":"‚ù§ Ashley ‚ù§","steam_id":76561198056428303,"connected_time":505000000000,"state":"active","ping":46},{"user_id":162,"name":"kr1tsurf3r","steam_id":76561198076402476,"connected_time":864000000000,"state":"active","ping":67},{"user_id":145,"name":"Mikey Decoy","steam_id":76561198070496601,"connected_time":2143000000000,"state":"active","ping":78},{"user_id":163,"name":"ScoutBox","steam_id":76561198111539895,"connected_time":853000000000,"state":"active","ping":50},{"user_id":158,"name":"mechanicvirus","steam_id":76561198038161480,"connected_time":1180000000000,"state":"active","ping":61},{"user_id":156,"name":"Twombly","steam_id":76561198056532348,"connected_time":1292000000000,"state":"active","ping":56},{"user_id":143,"name":"squart guy","steam_id":76561199411560141,"connected_time":2765000000000,"state":"active","ping":76},{"user_id":170,"name":"Dry","steam_id":76561198124135416,"connected_time":167000000000,"state":"active","ping":100},{"user_id":60,"name":"Thexx ‚ù§","steam_id":76561198113823050,"connected_time":8323000000000,"state":"active","ping":76},{"user_id":135,"name":"Fajita Master","steam_id":76561198329150962,"connected_time":3100000000000,"state":"active","ping":102},{"user_id":171,"name":"ttv//Zeubiess","steam_id":76561198074392917,"connected_time":143000000000,"state":"active","ping":93},{"user_id":136,"name":"Viper_Ray","steam_id":76561199068788737,"connected_time":3064000000000,"state":"active","ping":76},{"user_id":146,"name":"Poop Train Conductor","steam_id":76561198073677619,"connected_time":1878000000000,"state":"active","ping":76},{"user_id":89,"name":"Drakon","steam_id":76561198078210822,"connected_time":6609000000000,"state":"active","ping":67},{"user_id":142,"name":"BrightOrangeMango","steam_id":76561198023144607,"connected_time":2806000000000,"state":"active","ping":61},{"user_id":159,"name":"bigninji","steam_id":76561199479630499,"connected_time":918000000000,"state":"active","ping":68}]},{"server_id":324,"name":"Uncletopia | Los Angeles | 3 | All Maps","name_short":"lax-3","host":"lax-1.us.uncletopia.com","port":27035,"enabled":true,"region":"us-west","cc":"us","latitude":33.94279,"longitude":-118.41004,"reserved":0,"last_update":"0001-01-01T00:00:00Z","name_a2s":"Uncletopia | Los Angeles | 3 | All Maps","protocol":17,"map":"pl_snowycoast","folder":"tf","game":"Team Fortress","app_id":440,"player_count":24,"max_players":24,"Bots":0,"server_type":"Dedicated","server_os":"Linux","password":true,"vac":true,"version":"7757534","steam_id":85568392924510198,"keywords":["nocrits","nodmgspread","payload","uncletopia"],"game_id":440,"stv_port":27036,"stv_name":"Uncletopia | Los Angeles | 3 | All Maps | STV","players":[{"user_id":345,"name":"josie","steam_id":76561198170848553,"connected_time":1253000000000,"state":"active","ping":74},{"user_id":343,"name":"Average Linkin Park fan","steam_id":76561198880671191,"connected_time":1297000000000,"state":"active","ping":62},{"user_id":348,"name":"snezhnaya","steam_id":76561198076395081,"connected_time":1197000000000,"state":"active","ping":53},{"user_id":342,"name":"adolf tickler","steam_id":76561198163120788,"connected_time":2004000000000,"state":"active","ping":45},{"user_id":346,"name":"ExplosiveGamer21","steam_id":76561198132370955,"connected_time":1235000000000,"state":"active","ping":74},{"user_id":338,"name":"zeplinnn","steam_id":76561198301300987,"connected_time":2961000000000,"state":"active","ping":66},{"user_id":337,"name":"Grassman (Cc)","steam_id":76561198026488532,"connected_time":3112000000000,"state":"active","ping":52},{"user_id":355,"name":"......","steam_id":76561198067612741,"connected_time":817000000000,"state":"active","ping":73},{"user_id":357,"name":"Axelfreeze14","steam_id":76561198436383913,"connected_time":586000000000,"state":"active","ping":44},{"user_id":360,"name":"vioxynteris","steam_id":76561198161428666,"connected_time":159000000000,"state":"active","ping":39},{"user_id":359,"name":"wings of redemption","steam_id":76561198121756894,"connected_time":281000000000,"state":"active","ping":88},{"user_id":356,"name":"Salmon","steam_id":76561198285883040,"connected_time":715000000000,"state":"active","ping":83},{"user_id":361,"name":"G N O M E","steam_id":76561199147823754,"connected_time":120000000000,"state":"active","ping":181},{"user_id":349,"name":"fridge","steam_id":76561199328301077,"connected_time":1105000000000,"state":"active","ping":51},{"user_id":362,"name":"Lock'd","steam_id":76561198170108230,"connected_time":113000000000,"state":"active","ping":47},{"user_id":363,"name":"perc 10","steam_id":76561198116471653,"connected_time":110000000000,"state":"active","ping":61},{"user_id":364,"name":"Stapler","steam_id":76561198099295077,"connected_time":106000000000,"state":"active","ping":47},{"user_id":332,"name":"BurningKev","steam_id":76561198057688837,"connected_time":3509000000000,"state":"active","ping":77},{"user_id":365,"name":"HeroOfTime","steam_id":76561199096218001,"connected_time":89000000000,"state":"active","ping":54},{"user_id":352,"name":"Trevorisntdead","steam_id":76561199001421095,"connected_time":1009000000000,"state":"active","ping":86},{"user_id":351,"name":"ÔΩåÔΩÖ ÔΩîÔΩèÔΩÅÔΩìÔΩîÔΩÖÔΩí","steam_id":76561198061636611,"connected_time":1074000000000,"state":"active","ping":101},{"user_id":366,"name":"06","steam_id":76561198141817197,"connected_time":88000000000,"state":"active","ping":45},{"user_id":309,"name":"The Mafia","steam_id":76561198417172375,"connected_time":5901000000000,"state":"active","ping":89},{"user_id":353,"name":"BIO_HAZARD","steam_id":76561198208167836,"connected_time":920000000000,"state":"active","ping":67}]},{"server_id":25,"name":"Uncletopia | Los Angeles | 4 | Stopwatch Beta","name_short":"lax-4","host":"lax-1.us.uncletopia.com","port":27045,"enabled":true,"region":"us-west","cc":"us","latitude":33.94279,"longitude":-118.41004,"reserved":0,"last_update":"0001-01-01T00:00:00Z","name_a2s":"Uncletopia | Los Angeles | 4 | Stopwatch Beta","protocol":17,"map":"pl_swiftwater_final1","folder":"tf","game":"Team Fortress","app_id":440,"player_count":0,"max_players":24,"Bots":0,"server_type":"Dedicated","server_os":"Linux","password":true,"vac":true,"version":"7757534","steam_id":85568392924510199,"keywords":["nocrits","nodmgspread","payload","uncletopia"],"game_id":440,"stv_port":27046,"stv_name":"Uncletopia | Los Angeles | 4 | Stopwatch Beta | STV","players":null},{"server_id":11,"name":"Uncletopia | London | 1 | All Maps","name_short":"lon-1","host":"lon-1.uk.uncletopia.com","port":27015,"enabled":true,"region":"eu","cc":"gb","latitude":51.509865,"longitude":-0.118092,"reserved":0,"last_update":"0001-01-01T00:00:00Z","name_a2s":"Uncletopia | London | 1 | All Maps","protocol":17,"map":"pl_frontier_final","folder":"tf","game":"Team Fortress","app_id":440,"player_count":14,"max_players":24,"Bots":0,"server_type":"Dedicated","server_os":"Linux","password":true,"vac":true,"version":"7757534","steam_id":85568392924367362,"keywords":["nocrits","nodmgspread","payload","uncletopia"],"game_id":440,"stv_port":27016,"stv_name":"Uncletopia | London | 1 | All Maps | STV","players":[{"user_id":1037,"name":"U1F","steam_id":76561198053700703,"connected_time":134000000000,"state":"active","ping":228},{"user_id":1028,"name":"Random_Fandom_Mania","steam_id":76561198897879478,"connected_time":1651000000000,"state":"active","ping":202},{"user_id":1015,"name":"Pastraspec","steam_id":76561198290182963,"connected_time":2648000000000,"state":"active","ping":150},{"user_id":1038,"name":"Republic Of China","steam_id":76561198846784757,"connected_time":105000000000,"state":"active","ping":54},{"user_id":1005,"name":"Taste","steam_id":76561197994506978,"connected_time":4411000000000,"state":"active","ping":55},{"user_id":1034,"name":"sam-","steam_id":76561198013770973,"connected_time":784000000000,"state":"active","ping":67},{"user_id":958,"name":"jones","steam_id":76561198044434971,"connected_time":9081000000000,"state":"active","ping":64},{"user_id":965,"name":"ciliorkun18","steam_id":76561198228942500,"connected_time":8398000000000,"state":"active","ping":89},{"user_id":1014,"name":"implyDoods","steam_id":76561198856320759,"connected_time":3051000000000,"state":"active","ping":52},{"user_id":1020,"name":"BroThatsRad","steam_id":76561198212459756,"connected_time":2326000000000,"state":"active","ping":141},{"user_id":954,"name":"CumbustiblePunda","steam_id":76561197974274677,"connected_time":9447000000000,"state":"active","ping":59},{"user_id":962,"name":"Tesco Mixed Herbs","steam_id":76561198136239861,"connected_time":8988000000000,"state":"active","ping":45},{"user_id":1022,"name":"MEGOS","steam_id":76561198172740637,"connected_time":2221000000000,"state":"active","ping":55},{"user_id":1023,"name":"vert2spooky // GRAND WITCH","steam_id":76561198914976373,"connected_time":2121000000000,"state":"active","ping":37}]},{"server_id":114,"name":"Uncletopia | London | 2 | All Maps","name_short":"lon-2","host":"lon-1.uk.uncletopia.com","port":27025,"enabled":true,"region":"eu","cc":"gb","latitude":51.509865,"longitude":-0.118092,"reserved":0,"last_update":"0001-01-01T00:00:00Z","name_a2s":"Uncletopia | London | 2 | All Maps","protocol":17,"map":"koth_highpass","folder":"tf","game":"Team Fortress","app_id":440,"player_count":0,"max_players":24,"Bots":0,"server_type":"Dedicated","server_os":"Linux","password":true,"vac":true,"version":"7757534","steam_id":85568392924470941,"keywords":["cp","nocrits","nodmgspread","uncletopia"],"game_id":440,"stv_port":27026,"stv_name":"Uncletopia | London | 2 | All Maps | STV","players":null},{"server_id":320,"name":"Uncletopia | London | 3 | All Maps","name_short":"lon-3","host":"lon-1.uk.uncletopia.com","port":27035,"enabled":true,"region":"eu","cc":"gb","latitude":51.509865,"longitude":-0.118092,"reserved":0,"last_update":"0001-01-01T00:00:00Z","name_a2s":"Uncletopia | London | 3 | All Maps","protocol":17,"map":"koth_lakeside_final","folder":"tf","game":"Team Fortress","app_id":440,"player_count":0,"max_players":24,"Bots":0,"server_type":"Dedicated","server_os":"Linux","password":true,"vac":true,"version":"7757534","steam_id":85568392924510192,"keywords":["cp","nocrits","nodmgspread","uncletopia"],"game_id":440,"stv_port":27036,"stv_name":"Uncletopia | London | 3 | All Maps | STV","players":null},{"server_id":321,"name":"Uncletopia | London | 4 | All Maps","name_short":"lon-4","host":"lon-1.uk.uncletopia.com","port":27045,"enabled":true,"region":"eu","cc":"gb","latitude":51.509865,"longitude":-0.118092,"reserved":0,"last_update":"0001-01-01T00:00:00Z","name_a2s":"Uncletopia | London | 4 | All Maps","protocol":17,"map":"pl_swiftwater_final1","folder":"tf","game":"Team Fortress","app_id":440,"player_count":0,"max_players":24,"Bots":0,"server_type":"Dedicated","server_os":"Linux","password":true,"vac":true,"version":"7757534","steam_id":85568392924510193,"keywords":["nocrits","nodmgspread","payload","uncletopia"],"game_id":440,"stv_port":27046,"stv_name":"Uncletopia | London | 4 | All Maps | STV","players":null},{"server_id":21,"name":"Uncletopia | London | 5 | All Maps","name_short":"lon-5","host":"lon-1.uk.uncletopia.com","port":27055,"enabled":true,"region":"eu","cc":"gb","latitude":51.509865,"longitude":-0.118092,"reserved":0,"last_update":"0001-01-01T00:00:00Z","name_a2s":"Uncletopia | London | 5 | All Maps","protocol":17,"map":"pl_frontier_final","folder":"tf","game":"Team Fortress","app_id":440,"player_count":0,"max_players":24,"Bots":0,"server_type":"Dedicated","server_os":"Linux","password":true,"vac":true,"version":"7757534","steam_id":85568392924742829,"keywords":["nocrits","nodmgspread","payload","uncletopia"],"game_id":440,"stv_port":27056,"stv_name":"Uncletopia | London | 5 | All Maps | STV","players":null},{"server_id":22,"name":"Uncletopia | London | 6 | All Maps","name_short":"lon-6","host":"lon-1.uk.uncletopia.com","port":27065,"enabled":true,"region":"eu","cc":"gb","latitude":51.509865,"longitude":-0.118092,"reserved":0,"last_update":"0001-01-01T00:00:00Z","name_a2s":"Uncletopia | London | 6 | All Maps","protocol":17,"map":"cp_sunshine","folder":"tf","game":"Team Fortress","app_id":440,"player_count":0,"max_players":24,"Bots":0,"server_type":"Dedicated","server_os":"Linux","password":true,"vac":true,"version":"7757534","steam_id":85568392924742830,"keywords":["cp","nocrits","nodmgspread","uncletopia"],"game_id":440,"stv_port":27066,"stv_name":"Uncletopia | London | 6 | All Maps | STV","players":null},{"server_id":40,"name":"Uncletopia | London | 7 | No Payload","name_short":"lon-7","host":"lon-1.uk.uncletopia.com","port":27075,"enabled":true,"region":"eu","cc":"gb","latitude":51.509865,"longitude":-0.118092,"reserved":0,"last_update":"0001-01-01T00:00:00Z","name_a2s":"Uncletopia | London | 7 | No Payload","protocol":17,"map":"koth_king","folder":"tf","game":"Team Fortress","app_id":440,"player_count":0,"max_players":24,"Bots":0,"server_type":"Dedicated","server_os":"Linux","password":true,"vac":true,"version":"7757534","steam_id":85568392924964314,"keywords":["cp","nocrits","nodmgspread","uncletopia"],"game_id":440,"stv_port":27076,"stv_name":"Uncletopia | London | 7 | No Payload | STV","players":null},{"server_id":41,"name":"Uncletopia | London | 8 | Community","name_short":"lon-8","host":"lon-1.uk.uncletopia.com","port":27085,"enabled":true,"region":"eu","cc":"gb","latitude":51.509865,"longitude":-0.118092,"reserved":0,"last_update":"0001-01-01T00:00:00Z","name_a2s":"Uncletopia | London | 8 | Community","protocol":17,"map":"workshop/koth_ramjam_rc1.ugc459778887","folder":"tf","game":"Team Fortress","app_id":440,"player_count":0,"max_players":24,"Bots":0,"server_type":"Dedicated","server_os":"Linux","password":true,"vac":true,"version":"7757534","steam_id":85568392924964315,"keywords":["cp","nocrits","nodmgspread","uncletopia"],"game_id":440,"stv_port":27086,"stv_name":"Uncletopia | London | 8 | Community | STV","players":null},{"server_id":300,"name":"Uncletopia | Montr√©al | 1 | All Maps","name_short":"mtl-1","host":"mtl-1.ca.uncletopia.com","port":27015,"enabled":true,"region":"us-east","cc":"ca","latitude":45.50889,"longitude":-73.56167,"reserved":0,"last_update":"0001-01-01T00:00:00Z","name_a2s":"Uncletopia | Montr√©al | 1 | All Maps","protocol":17,"map":"pl_barnblitz","folder":"tf","game":"Team Fortress","app_id":440,"player_count":0,"max_players":24,"Bots":0,"server_type":"Dedicated","server_os":"Linux","password":true,"vac":true,"version":"7757534","steam_id":85568392924500087,"keywords":["nocrits","nodmgspread","payload","uncletopia"],"game_id":440,"stv_port":27016,"stv_name":"Uncletopia | Montr√©al | 1 | All Maps | STV","players":null},{"server_id":301,"name":"Uncletopia | Montr√©al | 2 | All Maps","name_short":"mtl-2","host":"mtl-1.ca.uncletopia.com","port":27025,"enabled":true,"region":"us-east","cc":"ca","latitude":45.50889,"longitude":-73.56167,"reserved":0,"last_update":"0001-01-01T00:00:00Z","name_a2s":"Uncletopia | Montr√©al | 2 | All Maps","protocol":17,"map":"pl_snowycoast","folder":"tf","game":"Team Fortress","app_id":440,"player_count":0,"max_players":24,"Bots":0,"server_type":"Dedicated","server_os":"Linux","password":true,"vac":true,"version":"7757534","steam_id":85568392924500088,"keywords":["nocrits","nodmgspread","payload","uncletopia"],"game_id":440,"stv_port":27026,"stv_name":"Uncletopia | Montr√©al | 2 | All Maps | STV","players":null},{"server_id":302,"name":"Uncletopia | Montr√©al | 3 | All Maps","name_short":"mtl-3","host":"mtl-1.ca.uncletopia.com","port":27035,"enabled":true,"region":"us-east","cc":"ca","latitude":45.50889,"longitude":-73.56167,"reserved":0,"last_update":"0001-01-01T00:00:00Z","name_a2s":"Uncletopia | Montr√©al | 3 | All Maps","protocol":17,"map":"koth_highpass","folder":"tf","game":"Team Fortress","app_id":440,"player_count":0,"max_players":24,"Bots":0,"server_type":"Dedicated","server_os":"Linux","password":true,"vac":true,"version":"7757534","steam_id":85568392924500089,"keywords":["cp","nocrits","nodmgspread","uncletopia"],"game_id":440,"stv_port":27036,"stv_name":"Uncletopia | Montr√©al | 3 | All Maps | STV","players":null},{"server_id":303,"name":"Uncletopia | Montr√©al | 4 | No Payload","name_short":"mtl-4","host":"mtl-1.ca.uncletopia.com","port":27045,"enabled":true,"region":"us-east","cc":"ca","latitude":45.50889,"longitude":-73.56167,"reserved":0,"last_update":"0001-01-01T00:00:00Z","name_a2s":"Uncletopia | Montr√©al | 4 | No Payload","protocol":17,"map":"koth_lakeside_final","folder":"tf","game":"Team Fortress","app_id":440,"player_count":0,"max_players":24,"Bots":0,"server_type":"Dedicated","server_os":"Linux","password":true,"vac":true,"version":"7757534","steam_id":85568392924500090,"keywords":["cp","nocrits","nodmgspread","uncletopia"],"game_id":440,"stv_port":27046,"stv_name":"Uncletopia | Montr√©al | 4 | No Payload | STV","players":null},{"server_id":13,"name":"Uncletopia | New York City | 1 | All Maps","name_short":"nyc-1","host":"nyc-1.us.uncletopia.com","port":27015,"enabled":true,"region":"us-east","cc":"us","latitude":40.73061,"longitude":-73.93524,"reserved":0,"last_update":"0001-01-01T00:00:00Z","name_a2s":"Uncletopia | New York City | 1 | All Maps","protocol":17,"map":"pl_snowycoast","folder":"tf","game":"Team Fortress","app_id":440,"player_count":23,"max_players":24,"Bots":0,"server_type":"Dedicated","server_os":"Linux","password":true,"vac":true,"version":"7757534","steam_id":85568392924469993,"keywords":["nocrits","nodmgspread","payload","uncletopia"],"game_id":440,"stv_port":27016,"stv_name":"Uncletopia | New York City | 1 | All Maps | STV","players":[{"user_id":525,"name":"Big Cat, CEO of Pain Train Inc.","steam_id":76561198115695203,"connected_time":146000000000,"state":"active","ping":60},{"user_id":502,"name":"stbb","steam_id":76561198173047169,"connected_time":882000000000,"state":"active","ping":44},{"user_id":522,"name":"Moonshine Man","steam_id":76561198088010073,"connected_time":227000000000,"state":"active","ping":94},{"user_id":523,"name":"Ping","steam_id":76561199206514106,"connected_time":213000000000,"state":"active","ping":73},{"user_id":468,"name":"SneakySneak","steam_id":76561198064847921,"connected_time":2052000000000,"state":"active","ping":85},{"user_id":471,"name":"Toa of Time","steam_id":76561198086867556,"connected_time":2018000000000,"state":"active","ping":100},{"user_id":503,"name":"pipebombrater","steam_id":76561199029030831,"connected_time":864000000000,"state":"active","ping":65},{"user_id":451,"name":"Viz√∏","steam_id":76561198130142542,"connected_time":3400000000000,"state":"active","ping":76},{"user_id":508,"name":"MagicalBoyChan","steam_id":76561198024776873,"connected_time":790000000000,"state":"active","ping":124},{"user_id":491,"name":"Uzi bin Laden","steam_id":76561198218811453,"connected_time":1305000000000,"state":"active","ping":61},{"user_id":452,"name":"Jankyo","steam_id":76561198083339492,"connected_time":3357000000000,"state":"active","ping":80},{"user_id":473,"name":"tweedle-dee","steam_id":76561198278906807,"connected_time":1885000000000,"state":"active","ping":83},{"user_id":453,"name":"box","steam_id":76561198985635309,"connected_time":3345000000000,"state":"active","ping":87},{"user_id":505,"name":"Wique","steam_id":76561198071217597,"connected_time":837000000000,"state":"active","ping":71},{"user_id":477,"name":"Serb","steam_id":76561198135049906,"connected_time":1730000000000,"state":"active","ping":75},{"user_id":475,"name":"Dylanxp300","steam_id":76561198271974937,"connected_time":1867000000000,"state":"active","ping":74},{"user_id":476,"name":"Doomeister","steam_id":76561198070277587,"connected_time":1813000000000,"state":"active","ping":124},{"user_id":496,"name":"peepee_luigi","steam_id":76561198355667121,"connected_time":1240000000000,"state":"active","ping":135},{"user_id":494,"name":"Unstopable","steam_id":76561198827546585,"connected_time":1255000000000,"state":"active","ping":89},{"user_id":447,"name":"the real babytron","steam_id":76561197989627918,"connected_time":3650000000000,"state":"active","ping":74},{"user_id":458,"name":"Iron","steam_id":76561198135637882,"connected_time":3290000000000,"state":"active","ping":86},{"user_id":456,"name":"Big Ounce","steam_id":76561198167904254,"connected_time":3327000000000,"state":"active","ping":95},{"user_id":479,"name":"Narwhal","steam_id":76561198132448838,"connected_time":1695000000000,"state":"active","ping":41}]},{"server_id":14,"name":"Uncletopia | New York City | 2 | All Maps","name_short":"nyc-2","host":"nyc-1.us.uncletopia.com","port":27025,"enabled":true,"region":"us-east","cc":"us","latitude":40.73061,"longitude":-73.93524,"reserved":0,"last_update":"0001-01-01T00:00:00Z","name_a2s":"Uncletopia | New York City | 2 | All Maps","protocol":17,"map":"pl_upward","folder":"tf","game":"Team Fortress","app_id":440,"player_count":2,"max_players":24,"Bots":0,"server_type":"Dedicated","server_os":"Linux","password":true,"vac":true,"version":"7757534","steam_id":85568392924469994,"keywords":["nocrits","nodmgspread","payload","uncletopia"],"game_id":440,"stv_port":27026,"stv_name":"Uncletopia | New York City | 2 | All Maps | STV","players":[{"user_id":731,"name":"mogan","steam_id":76561198071700821,"connected_time":6511000000000,"state":"active","ping":60},{"user_id":733,"name":"who is gavin?","steam_id":76561198069415057,"connected_time":6498000000000,"state":"active","ping":38}]},{"server_id":15,"name":"Uncletopia | New York City | 3 | Stopwatch Beta","name_short":"nyc-3","host":"nyc-1.us.uncletopia.com","port":27035,"enabled":true,"region":"us-east","cc":"us","latitude":40.73061,"longitude":-73.93524,"reserved":0,"last_update":"0001-01-01T00:00:00Z","name_a2s":"Uncletopia | New York City | 3 | Stopwatch Beta","protocol":17,"map":"workshop/koth_product_final.ugc454272353","folder":"tf","game":"Team Fortress","app_id":440,"player_count":0,"max_players":24,"Bots":0,"server_type":"Dedicated","server_os":"Linux","password":true,"vac":true,"version":"7757534","steam_id":85568392924742820,"keywords":["cp","nocrits","nodmgspread","uncletopia"],"game_id":440,"stv_port":27036,"stv_name":"Uncletopia | New York City | 3 | Stopwatch Beta | STV","players":null},{"server_id":16,"name":"Uncletopia | New York City | 4 | Community","name_short":"nyc-4","host":"nyc-1.us.uncletopia.com","port":27045,"enabled":true,"region":"us-east","cc":"us","latitude":40.73061,"longitude":-73.93524,"reserved":0,"last_update":"0001-01-01T00:00:00Z","name_a2s":"Uncletopia | New York City | 4 | Community","protocol":17,"map":"workshop/pl_vigil_rc9.ugc1266210012","folder":"tf","game":"Team Fortress","app_id":440,"player_count":4,"max_players":24,"Bots":0,"server_type":"Dedicated","server_os":"Linux","password":true,"vac":true,"version":"7757534","steam_id":85568392924742821,"keywords":["nocrits","nodmgspread","payload","uncletopia"],"game_id":440,"stv_port":27046,"stv_name":"Uncletopia | New York City | 4 | Community | STV","players":[{"user_id":96,"name":"Tom Cr√∫aich","steam_id":76561197999439911,"connected_time":1197000000000,"state":"active","ping":90},{"user_id":91,"name":"Lone Rider","steam_id":76561198091978968,"connected_time":2725000000000,"state":"active","ping":85},{"user_id":92,"name":"Crotonga","steam_id":76561198077178900,"connected_time":2720000000000,"state":"active","ping":70},{"user_id":99,"name":"en","steam_id":76561199129590802,"connected_time":643000000000,"state":"active","ping":89}]},{"server_id":142,"name":"Uncletopia | S√£o Paulo | 1 | All Maps","name_short":"sao-1","host":"sao-1.br.uncletopia.com","port":27015,"enabled":true,"region":"sa","cc":"br","latitude":-23.533773,"longitude":-46.62529,"reserved":0,"last_update":"0001-01-01T00:00:00Z","name_a2s":"Uncletopia | S√£o Paulo | 1 | All Maps","protocol":17,"map":"pl_snowycoast","folder":"tf","game":"Team Fortress","app_id":440,"player_count":0,"max_players":24,"Bots":0,"server_type":"Dedicated","server_os":"Linux","password":true,"vac":true,"version":"7757534","steam_id":85568392924469996,"keywords":["nocrits","nodmgspread","payload","uncletopia"],"game_id":440,"stv_port":27016,"stv_name":"Uncletopia | S√£o Paulo | 1 | All Maps | STV","players":null},{"server_id":143,"name":"Uncletopia | S√£o Paulo | 2 | All Maps","name_short":"sao-2","host":"sao-2.br.uncletopia.com","port":27015,"enabled":true,"region":"sa","cc":"br","latitude":-23.533773,"longitude":-46.62529,"reserved":0,"last_update":"0001-01-01T00:00:00Z","name_a2s":"Uncletopia | S√£o Paulo | 2 | All Maps","protocol":17,"map":"koth_lakeside_final","folder":"tf","game":"Team Fortress","app_id":440,"player_count":0,"max_players":24,"Bots":0,"server_type":"Dedicated","server_os":"Linux","password":true,"vac":true,"version":"7757534","steam_id":85568392924485349,"keywords":["cp","nocrits","nodmgspread","uncletopia"],"game_id":440,"stv_port":27016,"stv_name":"Uncletopia | S√£o Paulo | 2 | All Maps | STV","players":null},{"server_id":7,"name":"Uncletopia | Seattle | 1 | All Maps","name_short":"sea-1","host":"sea-1.us.uncletopia.com","port":27015,"enabled":true,"region":"us-west","cc":"us","latitude":47.608013,"longitude":-122.33517,"reserved":0,"last_update":"0001-01-01T00:00:00Z","name_a2s":"Uncletopia | Seattle | 1 | All Maps","protocol":17,"map":"pl_badwater","folder":"tf","game":"Team Fortress","app_id":440,"player_count":24,"max_players":24,"Bots":0,"server_type":"Dedicated","server_os":"Linux","password":true,"vac":true,"version":"7757534","steam_id":85568392924469997,"keywords":["nocrits","nodmgspread","payload","uncletopia"],"game_id":440,"stv_port":27016,"stv_name":"Uncletopia | Seattle | 1 | All Maps | STV","players":[{"user_id":754,"name":"Hassium","steam_id":76561198162541373,"connected_time":716000000000,"state":"active","ping":52},{"user_id":746,"name":"Capt.Swag","steam_id":76561198088340994,"connected_time":1462000000000,"state":"active","ping":122},{"user_id":713,"name":"RING DONG DORINGOS","steam_id":76561198043558709,"connected_time":5504000000000,"state":"active","ping":50},{"user_id":758,"name":"MightFall","steam_id":76561198322369718,"connected_time":143000000000,"state":"active","ping":67},{"user_id":723,"name":"SaltyFlump","steam_id":76561199379601288,"connected_time":4102000000000,"state":"active","ping":56},{"user_id":725,"name":"NEBULA","steam_id":76561198086878595,"connected_time":3916000000000,"state":"active","ping":75},{"user_id":751,"name":"Vapeinhand","steam_id":76561198134439943,"connected_time":993000000000,"state":"active","ping":123},{"user_id":744,"name":"Arsonist Goose","steam_id":76561198147441830,"connected_time":1777000000000,"state":"active","ping":70},{"user_id":755,"name":"shy guy","steam_id":76561198151246059,"connected_time":545000000000,"state":"active","ping":64},{"user_id":757,"name":"spenca","steam_id":76561198025371154,"connected_time":326000000000,"state":"active","ping":74},{"user_id":753,"name":"Ôº≥Ôº¨Ôº∂Ôº¥Ôº£Ôº®Ôº°Ôº≠Ôº∞","steam_id":76561198883157736,"connected_time":968000000000,"state":"active","ping":61},{"user_id":752,"name":"Velvety","steam_id":76561198081922813,"connected_time":983000000000,"state":"active","ping":68},{"user_id":733,"name":"viciousbeatmaker","steam_id":76561198086876652,"connected_time":3131000000000,"state":"active","ping":73},{"user_id":717,"name":"WACKY JIM","steam_id":76561198961641122,"connected_time":4836000000000,"state":"active","ping":57},{"user_id":750,"name":"shoe","steam_id":76561198451476220,"connected_time":1139000000000,"state":"active","ping":51},{"user_id":760,"name":"litcherally in vents","steam_id":76561199169558959,"connected_time":79000000000,"state":"active","ping":50},{"user_id":688,"name":"shiadyne","steam_id":76561198271939793,"connected_time":8732000000000,"state":"active","ping":49},{"user_id":704,"name":"Mitch McHoover","steam_id":76561198178827614,"connected_time":6243000000000,"state":"active","ping":56},{"user_id":650,"name":"sentry up there","steam_id":76561198301598124,"connected_time":11609000000000,"state":"active","ping":141},{"user_id":705,"name":"Mignyanne :3","steam_id":76561198048754056,"connected_time":5977000000000,"state":"active","ping":61},{"user_id":720,"name":"rat gets the cheese","steam_id":76561198031234032,"connected_time":4306000000000,"state":"active","ping":101},{"user_id":759,"name":"5392vin","steam_id":76561198880493511,"connected_time":91000000000,"state":"active","ping":63},{"user_id":761,"name":"manga man","steam_id":76561198106435815,"connected_time":79000000000,"state":"active","ping":63},{"user_id":762,"name":"Akira","steam_id":76561198294601519,"connected_time":79000000000,"state":"active","ping":40}]},{"server_id":119,"name":"Uncletopia | Seattle | 2 | All Maps","name_short":"sea-2","host":"sea-1.us.uncletopia.com","port":27025,"enabled":true,"region":"us-west","cc":"us","latitude":47.608013,"longitude":-122.33517,"reserved":0,"last_update":"0001-01-01T00:00:00Z","name_a2s":"Uncletopia | Seattle | 2 | All Maps","protocol":17,"map":"pl_swiftwater_final1","folder":"tf","game":"Team Fortress","app_id":440,"player_count":18,"max_players":24,"Bots":0,"server_type":"Dedicated","server_os":"Linux","password":true,"vac":true,"version":"7757534","steam_id":85568392924469998,"keywords":["nocrits","nodmgspread","payload","uncletopia"],"game_id":440,"stv_port":27026,"stv_name":"Uncletopia | Seattle | 2 | All Maps | STV","players":[{"user_id":555,"name":"QUIXERS","steam_id":76561198178647067,"connected_time":61000000000,"state":"active","ping":95},{"user_id":546,"name":"El Duderino","steam_id":76561199427900685,"connected_time":756000000000,"state":"active","ping":90},{"user_id":560,"name":"wuddles","steam_id":76561198025782349,"connected_time":30000000000,"state":"active","ping":65},{"user_id":562,"name":"O","steam_id":76561198450073779,"connected_time":5000000000,"state":"spawning","ping":178},{"user_id":540,"name":"keithykeithers","steam_id":76561197995552615,"connected_time":1223000000000,"state":"active","ping":46},{"user_id":561,"name":"soup","steam_id":76561198077790130,"connected_time":13000000000,"state":"active","ping":103},{"user_id":549,"name":"themadlad67","steam_id":76561199309554436,"connected_time":644000000000,"state":"active","ping":55},{"user_id":533,"name":"Soviet Toasters","steam_id":76561198062122354,"connected_time":1834000000000,"state":"active","ping":90},{"user_id":534,"name":"‚ô• Milo Stefferson ‚ô• (Soupca","steam_id":76561198056269538,"connected_time":1778000000000,"state":"active","ping":59},{"user_id":551,"name":"They/Them Rattussy","steam_id":76561198238186628,"connected_time":99000000000,"state":"active","ping":72},{"user_id":553,"name":"Vespen","steam_id":76561198259984019,"connected_time":88000000000,"state":"active","ping":68},{"user_id":559,"name":"El Gato Paranoico","steam_id":76561198116567116,"connected_time":39000000000,"state":"active","ping":120},{"user_id":530,"name":"Dietrich","steam_id":76561198028163840,"connected_time":1968000000000,"state":"active","ping":86},{"user_id":535,"name":"NOT FRIENDLY","steam_id":76561198041327231,"connected_time":1757000000000,"state":"active","ping":60},{"user_id":536,"name":"AverageCEO","steam_id":76561198341738788,"connected_time":1697000000000,"state":"active","ping":112},{"user_id":525,"name":"--","steam_id":76561198101196930,"connected_time":2506000000000,"state":"active","ping":120},{"user_id":544,"name":"Klone","steam_id":76561198854485605,"connected_time":868000000000,"state":"active","ping":108},{"user_id":548,"name":"unit","steam_id":76561198079474904,"connected_time":741000000000,"state":"active","ping":60}]},{"server_id":406,"name":"Uncletopia | Seattle | 3 | Stopwatch Beta","name_short":"sea-3","host":"sea-1.us.uncletopia.com","port":27035,"enabled":true,"region":"us-west","cc":"us","latitude":47.608013,"longitude":-122.33517,"reserved":0,"last_update":"0001-01-01T00:00:00Z","name_a2s":"Uncletopia | Seattle | 3 | Stopwatch Beta","protocol":17,"map":"workshop/koth_ramjam_rc1.ugc459778887","folder":"tf","game":"Team Fortress","app_id":440,"player_count":0,"max_players":24,"Bots":0,"server_type":"Dedicated","server_os":"Linux","password":true,"vac":true,"version":"7757534","steam_id":85568392924515217,"keywords":["cp","nocrits","nodmgspread","uncletopia"],"game_id":440,"stv_port":27036,"stv_name":"Uncletopia | Seattle | 3 | Stopwatch Beta | STV","players":null},{"server_id":17,"name":"Uncletopia | San Francisco | 1 | All Maps","name_short":"sfo-1","host":"sfo-1.us.uncletopia.com","port":27015,"enabled":true,"region":"us-west","cc":"us","latitude":37.77397,"longitude":-122.4313,"reserved":0,"last_update":"0001-01-01T00:00:00Z","name_a2s":"Uncletopia | San Francisco | 1 | All Maps","protocol":17,"map":"pl_borneo","folder":"tf","game":"Team Fortress","app_id":440,"player_count":24,"max_players":24,"Bots":0,"server_type":"Dedicated","server_os":"Linux","password":true,"vac":true,"version":"7757534","steam_id":85568392924469999,"keywords":["nocrits","nodmgspread","payload","uncletopia"],"game_id":440,"stv_port":27016,"stv_name":"Uncletopia | San Francisco | 1 | All Maps | STV","players":[{"user_id":300,"name":"kym","steam_id":76561198340743816,"connected_time":4942000000000,"state":"active","ping":52},{"user_id":337,"name":"Uluyo","steam_id":76561198065857148,"connected_time":1941000000000,"state":"active","ping":89},{"user_id":323,"name":"momus","steam_id":76561198966979196,"connected_time":3202000000000,"state":"active","ping":59},{"user_id":322,"name":"AAAAAAAAAAAAAAAAAAAAAAAAAAAAAAA","steam_id":76561198125467937,"connected_time":3236000000000,"state":"active","ping":67},{"user_id":350,"name":"ronald","steam_id":76561197960691622,"connected_time":1116000000000,"state":"active","ping":59},{"user_id":338,"name":"Phlogging Solly","steam_id":76561198020580071,"connected_time":1901000000000,"state":"active","ping":54},{"user_id":347,"name":"Harold","steam_id":76561198057317770,"connected_time":1229000000000,"state":"active","ping":45},{"user_id":352,"name":"Pulse Astra","steam_id":76561198199809253,"connected_time":875000000000,"state":"active","ping":116},{"user_id":316,"name":"SpringIvan","steam_id":76561199133179509,"connected_time":4102000000000,"state":"active","ping":45},{"user_id":353,"name":"Witchings","steam_id":76561198247431254,"connected_time":525000000000,"state":"active","ping":118},{"user_id":321,"name":"spacetoven","steam_id":76561198115821131,"connected_time":3243000000000,"state":"active","ping":53},{"user_id":332,"name":"Ayyyy","steam_id":76561198121729211,"connected_time":2794000000000,"state":"active","ping":49},{"user_id":354,"name":"Idiotden","steam_id":76561199340950135,"connected_time":487000000000,"state":"active","ping":57},{"user_id":293,"name":"Landlord","steam_id":76561198987913057,"connected_time":5586000000000,"state":"active","ping":78},{"user_id":319,"name":"Lilmaggedon","steam_id":76561198072393166,"connected_time":3455000000000,"state":"active","ping":100},{"user_id":232,"name":"TeriyakiDynamite","steam_id":76561198050049346,"connected_time":9663000000000,"state":"active","ping":76},{"user_id":356,"name":"Artyom","steam_id":76561198152149679,"connected_time":86000000000,"state":"active","ping":60},{"user_id":335,"name":"ForAPessimistImPrettyOptimistic","steam_id":76561198170128009,"connected_time":2175000000000,"state":"active","ping":51},{"user_id":355,"name":"Superman123389","steam_id":76561198267472539,"connected_time":479000000000,"state":"active","ping":119},{"user_id":342,"name":"halfwaysdown","steam_id":76561199344558559,"connected_time":1769000000000,"state":"active","ping":51},{"user_id":349,"name":"DAS SCHNITZELSTIEN","steam_id":76561198051137159,"connected_time":1196000000000,"state":"active","ping":85},{"user_id":344,"name":"LovingKindnesz","steam_id":76561199064932372,"connected_time":1682000000000,"state":"active","ping":57},{"user_id":351,"name":"big fish","steam_id":76561198186479818,"connected_time":1069000000000,"state":"active","ping":67},{"user_id":331,"name":"H.","steam_id":76561198074951179,"connected_time":2901000000000,"state":"active","ping":71}]},{"server_id":18,"name":"Uncletopia | San Francisco | 2 | All Maps","name_short":"sfo-2","host":"sfo-1.us.uncletopia.com","port":27025,"enabled":true,"region":"us-west","cc":"us","latitude":37.77397,"longitude":-122.4313,"reserved":0,"last_update":"0001-01-01T00:00:00Z","name_a2s":"Uncletopia | San Francisco | 2 | All Maps","protocol":17,"map":"koth_highpass","folder":"tf","game":"Team Fortress","app_id":440,"player_count":0,"max_players":24,"Bots":0,"server_type":"Dedicated","server_os":"Linux","password":true,"vac":true,"version":"7757534","steam_id":85568392924470000,"keywords":["cp","nocrits","nodmgspread","uncletopia"],"game_id":440,"stv_port":27026,"stv_name":"Uncletopia | San Francisco | 2 | All Maps | STV","players":null},{"server_id":19,"name":"Uncletopia | San Francisco | 3 | Stopwatch Beta","name_short":"sfo-3","host":"sfo-1.us.uncletopia.com","port":27035,"enabled":true,"region":"us-west","cc":"us","latitude":37.77397,"longitude":-122.4313,"reserved":0,"last_update":"0001-01-01T00:00:00Z","name_a2s":"Uncletopia | San Francisco | 3 | Stopwatch Beta","protocol":17,"map":"pl_swiftwater_final1","folder":"tf","game":"Team Fortress","app_id":440,"player_count":0,"max_players":24,"Bots":0,"server_type":"Dedicated","server_os":"Linux","password":true,"vac":true,"version":"7757534","steam_id":85568392924742824,"keywords":["nocrits","nodmgspread","payload","uncletopia"],"game_id":440,"stv_port":27036,"stv_name":"Uncletopia | San Francisco | 3 | Stopwatch Beta | STV","players":null},{"server_id":20,"name":"Uncletopia | San Francisco | 4 | Community","name_short":"sfo-4","host":"sfo-1.us.uncletopia.com","port":27045,"enabled":true,"region":"us-west","cc":"us","latitude":37.77397,"longitude":-122.4313,"reserved":0,"last_update":"0001-01-01T00:00:00Z","name_a2s":"Uncletopia | San Francisco | 4 | Community","protocol":17,"map":"workshop/pl_highwood_b13.ugc1769496557","folder":"tf","game":"Team Fortress","app_id":440,"player_count":0,"max_players":24,"Bots":0,"server_type":"Dedicated","server_os":"Linux","password":true,"vac":true,"version":"7757534","steam_id":85568392924742826,"keywords":["nocrits","nodmgspread","payload","uncletopia"],"game_id":440,"stv_port":27046,"stv_name":"Uncletopia | San Francisco | 4 | Community | STV","players":null},{"server_id":141,"name":"Uncletopia | Sydney | 1 | All Maps","name_short":"syd-1","host":"syd-1.au.uncletopia.com","port":27015,"enabled":true,"region":"au","cc":"au","latitude":-33.865143,"longitude":151.2099,"reserved":0,"last_update":"0001-01-01T00:00:00Z","name_a2s":"Uncletopia | Sydney | 1 | All Maps","protocol":17,"map":"pl_snowycoast","folder":"tf","game":"Team Fortress","app_id":440,"player_count":24,"max_players":24,"Bots":0,"server_type":"Dedicated","server_os":"Linux","password":true,"vac":true,"version":"7757534","steam_id":85568392924470001,"keywords":["nocrits","nodmgspread","payload","uncletopia"],"game_id":440,"stv_port":27016,"stv_name":"Uncletopia | Sydney | 1 | All Maps | STV","players":[{"user_id":149,"name":"you have been deemed, Gilbert","steam_id":76561198301282416,"connected_time":3549000000000,"state":"active","ping":56},{"user_id":150,"name":"Hyak","steam_id":76561198175700625,"connected_time":3530000000000,"state":"active","ping":90},{"user_id":160,"name":"BruceWillis235","steam_id":76561198884324029,"connected_time":2780000000000,"state":"active","ping":86},{"user_id":188,"name":"Piss Man","steam_id":76561198167905410,"connected_time":118000000000,"state":"active","ping":56},{"user_id":182,"name":"krandlez` (Any/All)","steam_id":76561198044839726,"connected_time":169000000000,"state":"active","ping":63},{"user_id":151,"name":"Phobia¬≤","steam_id":76561198038833524,"connected_time":3383000000000,"state":"active","ping":57},{"user_id":180,"name":"Tees","steam_id":76561199174602317,"connected_time":972000000000,"state":"active","ping":51},{"user_id":184,"name":"Matt","steam_id":76561198006791420,"connected_time":162000000000,"state":"active","ping":95},{"user_id":147,"name":"EpicGuy4227","steam_id":76561198094132328,"connected_time":3652000000000,"state":"active","ping":53},{"user_id":158,"name":"Rizeo","steam_id":76561198147901488,"connected_time":2960000000000,"state":"active","ping":68},{"user_id":189,"name":"silV","steam_id":76561198186769550,"connected_time":117000000000,"state":"active","ping":58},{"user_id":95,"name":"oggorf","steam_id":76561198300661780,"connected_time":6807000000000,"state":"active","ping":39},{"user_id":159,"name":"TheDoctor30","steam_id":76561198433686866,"connected_time":2892000000000,"state":"active","ping":103},{"user_id":181,"name":"Distilledrain41","steam_id":76561198272717119,"connected_time":921000000000,"state":"active","ping":38},{"user_id":185,"name":"electro599","steam_id":76561198058148858,"connected_time":158000000000,"state":"active","ping":59},{"user_id":175,"name":"dreamydoggy","steam_id":76561198448243169,"connected_time":1930000000000,"state":"active","ping":55},{"user_id":187,"name":"Ganome Chilled","steam_id":76561198064898965,"connected_time":133000000000,"state":"active","ping":80},{"user_id":186,"name":"Pew pew pew!","steam_id":76561198004120277,"connected_time":158000000000,"state":"active","ping":29},{"user_id":164,"name":"Bing Soy","steam_id":76561198057093383,"connected_time":2679000000000,"state":"active","ping":52},{"user_id":183,"name":"Raypest","steam_id":76561197980678745,"connected_time":166000000000,"state":"active","ping":44},{"user_id":178,"name":"alqwnq","steam_id":76561198133867907,"connected_time":1089000000000,"state":"active","ping":62},{"user_id":176,"name":"whiteshaq","steam_id":76561198131988811,"connected_time":1911000000000,"state":"active","ping":49},{"user_id":170,"name":"Tsolis","steam_id":76561198013950614,"connected_time":2395000000000,"state":"active","ping":69},{"user_id":168,"name":"¬øeTheRealMe?","steam_id":76561198033297147,"connected_time":2601000000000,"state":"active","ping":95}]},{"server_id":123,"name":"Uncletopia | Sydney | 2 | All Maps","name_short":"syd-2","host":"syd-1.au.uncletopia.com","port":27025,"enabled":true,"region":"au","cc":"au","latitude":-33.865143,"longitude":151.2099,"reserved":0,"last_update":"0001-01-01T00:00:00Z","name_a2s":"Uncletopia | Sydney | 2 | All Maps","protocol":17,"map":"koth_suijin","folder":"tf","game":"Team Fortress","app_id":440,"player_count":0,"max_players":24,"Bots":0,"server_type":"Dedicated","server_os":"Linux","password":true,"vac":true,"version":"7757534","steam_id":85568392924470002,"keywords":["cp","nocrits","nodmgspread","uncletopia"],"game_id":440,"stv_port":27026,"stv_name":"Uncletopia | Sydney | 2 | All Maps | STV","players":null},{"server_id":395,"name":"Uncletopia | Sydney | 3 | All Maps","name_short":"syd-3","host":"syd-1.au.uncletopia.com","port":27035,"enabled":true,"region":"au","cc":"au","latitude":-33.865143,"longitude":151.2099,"reserved":0,"last_update":"0001-01-01T00:00:00Z","name_a2s":"Uncletopia | Sydney | 3 | All Maps","protocol":17,"map":"pl_swiftwater_final1","folder":"tf","game":"Team Fortress","app_id":440,"player_count":0,"max_players":24,"Bots":0,"server_type":"Dedicated","server_os":"Linux","password":true,"vac":true,"version":"7757534","steam_id":85568392925194467,"keywords":["nocrits","nodmgspread","payload","uncletopia"],"game_id":440,"stv_port":27036,"stv_name":"Uncletopia | Sydney | 3 | All Maps | STV","players":null},{"server_id":396,"name":"Uncletopia | Sydney | 4 | All Maps","name_short":"syd-4","host":"syd-1.au.uncletopia.com","port":27045,"enabled":true,"region":"au","cc":"au","latitude":-33.865143,"longitude":151.2099,"reserved":0,"last_update":"0001-01-01T00:00:00Z","name_a2s":"Uncletopia | Sydney | 4 | All Maps","protocol":17,"map":"koth_highpass","folder":"tf","game":"Team Fortress","app_id":440,"player_count":0,"max_players":24,"Bots":0,"server_type":"Dedicated","server_os":"Linux","password":true,"vac":true,"version":"7757534","steam_id":85568392925397958,"keywords":["cp","nocrits","nodmgspread","uncletopia"],"game_id":440,"stv_port":27046,"stv_name":"Uncletopia | Sydney | 4 | All Maps | STV","players":null},{"server_id":58,"name":"Uncletopia | Sydney | 5 | Stopwatch Beta","name_short":"syd-5","host":"syd-1.au.uncletopia.com","port":27055,"enabled":true,"region":"au","cc":"au","latitude":-33.865143,"longitude":151.2099,"reserved":0,"last_update":"0001-01-01T00:00:00Z","name_a2s":"Uncletopia | Sydney | 5 | Stopwatch Beta","protocol":17,"map":"workshop/koth_ashville_final.ugc2130459942","folder":"tf","game":"Team Fortress","app_id":440,"player_count":0,"max_players":24,"Bots":0,"server_type":"Dedicated","server_os":"Linux","password":true,"vac":true,"version":"7757534","steam_id":85568392925397959,"keywords":["cp","nocrits","nodmgspread","uncletopia"],"game_id":440,"stv_port":27056,"stv_name":"Uncletopia | Sydney | 5 | Stopwatch Beta | STV","players":null},{"server_id":59,"name":"Uncletopia | Sydney | 6 | Community","name_short":"syd-6","host":"syd-1.au.uncletopia.com","port":27065,"enabled":true,"region":"au","cc":"au","latitude":-33.865143,"longitude":151.2099,"reserved":0,"last_update":"0001-01-01T00:00:00Z","name_a2s":"Uncletopia | Sydney | 6 | Community","protocol":17,"map":"cp_snakewater_final1","folder":"tf","game":"Team Fortress","app_id":440,"player_count":0,"max_players":24,"Bots":0,"server_type":"Dedicated","server_os":"Linux","password":true,"vac":true,"version":"7757534","steam_id":85568392925397960,"keywords":["cp","nocrits","nodmgspread","uncletopia"],"game_id":440,"stv_port":27066,"stv_name":"Uncletopia | Sydney | 6 | Community | STV","players":null},{"server_id":49,"name":"Uncletopia | Warsaw | 1 | All Maps","name_short":"waw-1","host":"waw-1.pl.uncletopia.com","port":27015,"enabled":true,"region":"eu","cc":"pl","latitude":52.2297,"longitude":21.017532,"reserved":0,"last_update":"0001-01-01T00:00:00Z","name_a2s":"","protocol":0,"map":"","folder":"","game":"","app_id":0,"player_count":0,"max_players":0,"Bots":0,"server_type":"","server_os":"","password":false,"vac":false,"version":"","steam_id":0,"keywords":null,"game_id":0,"stv_port":0,"stv_name":"","players":null},{"server_id":50,"name":"Uncletopia | Warsaw | 2 | All Maps","name_short":"waw-2","host":"waw-1.pl.uncletopia.com","port":27025,"enabled":true,"region":"eu","cc":"pl","latitude":52.2297,"longitude":21.017532,"reserved":0,"last_update":"0001-01-01T00:00:00Z","name_a2s":"Uncletopia | Warsaw | 2 | All Maps","protocol":17,"map":"cp_snakewater_final1","folder":"tf","game":"Team Fortress","app_id":440,"player_count":0,"max_players":24,"Bots":0,"server_type":"Dedicated","server_os":"Linux","password":true,"vac":true,"version":"7757534","steam_id":85568392925397851,"keywords":["cp","nocrits","nodmgspread","uncletopia"],"game_id":440,"stv_port":27026,"stv_name":"Uncletopia | Warsaw | 2 | All Maps | STV","players":null},{"server_id":51,"name":"Uncletopia | Warsaw | 3 | All Maps","name_short":"waw-3","host":"waw-1.pl.uncletopia.com","port":27035,"enabled":true,"region":"eu","cc":"pl","latitude":52.2297,"longitude":21.017532,"reserved":0,"last_update":"0001-01-01T00:00:00Z","name_a2s":"Uncletopia | Warsaw | 3 | All Maps","protocol":17,"map":"cp_sunshine","folder":"tf","game":"Team Fortress","app_id":440,"player_count":0,"max_players":24,"Bots":0,"server_type":"Dedicated","server_os":"Linux","password":true,"vac":true,"version":"7757534","steam_id":85568392925397852,"keywords":["cp","nocrits","nodmgspread","uncletopia"],"game_id":440,"stv_port":27036,"stv_name":"Uncletopia | Warsaw | 3 | All Maps | STV","players":null},{"server_id":52,"name":"Uncletopia | Warsaw | 4 | All Maps","name_short":"waw-4","host":"waw-1.pl.uncletopia.com","port":27045,"enabled":true,"region":"eu","cc":"pl","latitude":52.2297,"longitude":21.017532,"reserved":0,"last_update":"0001-01-01T00:00:00Z","name_a2s":"Uncletopia | Warsaw | 4 | All Maps","protocol":17,"map":"koth_lakeside_final","folder":"tf","game":"Team Fortress","app_id":440,"player_count":0,"max_players":24,"Bots":0,"server_type":"Dedicated","server_os":"Linux","password":true,"vac":true,"version":"7757534","steam_id":85568392925397853,"keywords":["cp","nocrits","nodmgspread","uncletopia"],"game_id":440,"stv_port":27046,"stv_name":"Uncletopia | Warsaw | 4 | All Maps | STV","players":null},{"server_id":53,"name":"Uncletopia | Warsaw | 5 | Stopwatch Beta","name_short":"waw-5","host":"waw-1.pl.uncletopia.com","port":27055,"enabled":true,"region":"eu","cc":"pl","latitude":52.2297,"longitude":21.017532,"reserved":0,"last_update":"0001-01-01T00:00:00Z","name_a2s":"Uncletopia | Warsaw | 5 | Stopwatch Beta","protocol":17,"map":"pl_borneo","folder":"tf","game":"Team Fortress","app_id":440,"player_count":0,"max_players":24,"Bots":0,"server_type":"Dedicated","server_os":"Linux","password":true,"vac":true,"version":"7757534","steam_id":85568392925397854,"keywords":["nocrits","nodmgspread","payload","uncletopia"],"game_id":440,"stv_port":27056,"stv_name":"Uncletopia | Warsaw | 5 | Stopwatch Beta | STV","players":null},{"server_id":54,"name":"Uncletopia | Warsaw | 6 | Community","name_short":"waw-6","host":"waw-1.pl.uncletopia.com","port":27065,"enabled":true,"region":"eu","cc":"pl","latitude":52.2297,"longitude":21.017532,"reserved":0,"last_update":"0001-01-01T00:00:00Z","name_a2s":"Uncletopia | Warsaw | 6 | Community","protocol":17,"map":"workshop/cp_fulgur_rc2a.ugc2068252300","folder":"tf","game":"Team Fortress","app_id":440,"player_count":0,"max_players":24,"Bots":0,"server_type":"Dedicated","server_os":"Linux","password":true,"vac":true,"version":"7757534","steam_id":85568392925397856,"keywords":["cp","nocrits","nodmgspread","uncletopia"],"game_id":440,"stv_port":27066,"stv_name":"Uncletopia | Warsaw | 6 | Community | STV","players":null}]}