{"status":true,"message":"","result":[{"server_id":9,"name":"Uncletopia | Atlanta | 1 | All Maps","name_short":"atl-1","host":"atl-1.us.uncletopia.com","port":27015,"enabled":true,"region":"us-east","cc":"us","latitude":33.753746,"longitude":-84.38633,"reserved":0,"last_update":"0001-01-01T00:00:00Z","name_a2s":"Uncletopia | Atlanta | 1 | All Maps","protocol":17,"map":"koth_cascade","folder":"tf","game":"Team Fortress","app_id":440,"player_count":24,"max_players":24,"Bots":0,"server_type":"Dedicated","server_os":"Linux","password":true,"vac":true,"version":"7708610","steam_id":85568392924469982,"keywords":["cp","nocrits","nodmgspread","uncletopia"],"game_id":440,"stv_port":27016,"stv_name":"Uncletopia | Atlanta | 1 | All Maps | STV","players":[{"user_id":274,"name":"Danipp","steam_id":76561198027147377,"connected_time":4605000000000,"state":"active","ping":171},{"user_id":310,"name":"ATL1 | a very merry ma0re","steam_id":76561199231971506,"connected_time":1239000000000,"state":"active","ping":64},{"user_id":318,"name":"Min Seniour","steam_id":76561198370193847,"connected_time":897000000000,"state":"active","ping":149},{"user_id":307,"name":"Dr. Game and Watch","steam_id":76561197999615565,"connected_time":1437000000000,"state":"active","ping":74},{"user_id":302,"name":"noelle","steam_id":76561198386344068,"connected_time":1968000000000,"state":"active","ping":71},{"user_id":293,"name":"Urbanzpinapple","steam_id":76561198115426938,"connected_time":2599000000000,"state":"active","ping":103},{"user_id":287,"name":"Towns","steam_id":76561198984662863,"connected_time":3064000000000,"state":"active","ping":105},{"user_id":236,"name":"Shuual","steam_id":76561198004395256,"connected_time":8516000000000,"state":"active","ping":60},{"user_id":297,"name":"gretchling","steam_id":76561198046111695,"connected_time":2271000000000,"state":"active","ping":60},{"user_id":324,"name":"ChickenManPhil","steam_id":76561199139508332,"connected_time":3000000000,"state":"spawning","ping":160},{"user_id":279,"name":"Tpoyo","steam_id":76561198049951724,"connected_time":3943000000000,"state":"active","ping":82},{"user_id":304,"name":"Krissy Krampus","steam_id":76561197960848174,"connected_time":1740000000000,"state":"active","ping":75},{"user_id":288,"name":"Solomon Grundy","steam_id":76561198956823243,"connected_time":3043000000000,"state":"active","ping":71},{"user_id":321,"name":"klevin","steam_id":76561198799106535,"connected_time":640000000000,"state":"active","ping":121},{"user_id":284,"name":"santa deniers anonymous","steam_id":76561199113715081,"connected_time":3126000000000,"state":"active","ping":71},{"user_id":317,"name":"hood.com/jockstrap","steam_id":76561198073269122,"connected_time":964000000000,"state":"active","ping":73},{"user_id":266,"name":"timestew","steam_id":76561198367583372,"connected_time":5382000000000,"state":"active","ping":82},{"user_id":305,"name":"coffee bagel","steam_id":76561198141198352,"connected_time":1663000000000,"state":"active","ping":64},{"user_id":243,"name":"a baby","steam_id":76561198008662184,"connected_time":8251000000000,"state":"active","ping":91},{"user_id":313,"name":"french press of bel-air","steam_id":76561198024315203,"connected_time":1185000000000,"state":"active","ping":53},{"user_id":309,"name":"cee","steam_id":76561198420893458,"connected_time":1425000000000,"state":"active","ping":85},{"user_id":207,"name":"ATL1 | Lancer Fan Club","steam_id":76561198355495948,"connected_time":11920000000000,"state":"active","ping":86},{"user_id":315,"name":"Hertz","steam_id":76561198245322982,"connected_time":1052000000000,"state":"active","ping":43},{"user_id":296,"name":"ATL1 | p4ka","steam_id":76561198315291317,"connected_time":2296000000000,"state":"active","ping":79}]},{"server_id":400,"name":"Uncletopia | Atlanta | 3 | All Maps","name_short":"atl-3","host":"atl-1.us.uncletopia.com","port":27035,"enabled":true,"region":"us-east","cc":"us","latitude":33.753746,"longitude":-84.38633,"reserved":0,"last_update":"0001-01-01T00:00:00Z","name_a2s":"Uncletopia | Atlanta | 3 | All Maps","protocol":17,"map":"pl_snowycoast","folder":"tf","game":"Team Fortress","app_id":440,"player_count":24,"max_players":24,"Bots":0,"server_type":"Dedicated","server_os":"Linux","password":true,"vac":true,"version":"7708610","steam_id":85568392924515187,"keywords":["nocrits","nodmgspread","payload","uncletopia"],"game_id":440,"stv_port":27036,"stv_name":"Uncletopia | Atlanta | 3 | All Maps | STV","players":[{"user_id":246,"name":"themankeys","steam_id":76561198149339536,"connected_time":160000000000,"state":"active","ping":87},{"user_id":203,"name":"Macko","steam_id":76561198452005461,"connected_time":3722000000000,"state":"active","ping":78},{"user_id":236,"name":"Jeff Pesos","steam_id":76561198086379892,"connected_time":960000000000,"state":"active","ping":98},{"user_id":237,"name":"slurp","steam_id":76561198323497535,"connected_time":953000000000,"state":"active","ping":69},{"user_id":238,"name":"Baron","steam_id":76561198006739734,"connected_time":942000000000,"state":"active","ping":68},{"user_id":242,"name":"mylomalopi","steam_id":76561198354990729,"connected_time":633000000000,"state":"active","ping":75},{"user_id":204,"name":"Young-OG","steam_id":76561198058800479,"connected_time":3722000000000,"state":"active","ping":65},{"user_id":208,"name":"Mr.Oxiclean","steam_id":76561198144729009,"connected_time":3614000000000,"state":"active","ping":51},{"user_id":240,"name":"mechiimi ★","steam_id":76561198321627268,"connected_time":924000000000,"state":"active","ping":138},{"user_id":228,"name":"Monke Gaming","steam_id":76561199122133427,"connected_time":1797000000000,"state":"active","ping":79},{"user_id":191,"name":"willpstackhouse","steam_id":76561199429341254,"connected_time":4935000000000,"state":"active","ping":75},{"user_id":245,"name":"Spoonastic","steam_id":76561198343838009,"connected_time":350000000000,"state":"active","ping":115},{"user_id":197,"name":"oopsboom24","steam_id":76561199105248648,"connected_time":4393000000000,"state":"active","ping":51},{"user_id":186,"name":"Medic","steam_id":76561198067869016,"connected_time":5006000000000,"state":"active","ping":60},{"user_id":217,"name":"ShadowDudeMocha15k (muted)","steam_id":76561198825658971,"connected_time":2919000000000,"state":"active","ping":105},{"user_id":241,"name":"the inventor of sex","steam_id":76561198074624639,"connected_time":915000000000,"state":"active","ping":74},{"user_id":244,"name":"NoBoreGaming","steam_id":76561198044244547,"connected_time":435000000000,"state":"active","ping":75},{"user_id":198,"name":"ChilliBean Avenger","steam_id":76561197986896464,"connected_time":4372000000000,"state":"active","ping":52},{"user_id":221,"name":"Pixel","steam_id":76561198076564393,"connected_time":2534000000000,"state":"active","ping":72},{"user_id":247,"name":"A_Malebolgia","steam_id":76561198097722818,"connected_time":15000000000,"state":"spawning","ping":91},{"user_id":233,"name":"fluffy brain stab #deleteC++","steam_id":76561198055867856,"connected_time":1608000000000,"state":"active","ping":60},{"user_id":194,"name":"kt","steam_id":76561198946374858,"connected_time":4627000000000,"state":"active","ping":79},{"user_id":225,"name":"slimjim557","steam_id":76561199094710853,"connected_time":2001000000000,"state":"active","ping":83},{"user_id":234,"name":"Juanelo","steam_id":76561199096390505,"connected_time":1607000000000,"state":"active","ping":77}]},{"server_id":401,"name":"Uncletopia | Atlanta | 4 | No Payload","name_short":"atl-4","host":"atl-1.us.uncletopia.com","port":27045,"enabled":true,"region":"us-east","cc":"us","latitude":33.753746,"longitude":-84.38633,"reserved":0,"last_update":"0001-01-01T00:00:00Z","name_a2s":"Uncletopia | Atlanta | 4 | No Payload","protocol":17,"map":"cp_sunshine","folder":"tf","game":"Team Fortress","app_id":440,"player_count":0,"max_players":24,"Bots":0,"server_type":"Dedicated","server_os":"Linux","password":true,"vac":true,"version":"7708610","steam_id":85568392924515188,"keywords":["cp","nocrits","nodmgspread","uncletopia"],"game_id":440,"stv_port":27046,"stv_name":"Uncletopia | Atlanta | 4 | No Payload | STV","players":null},{"server_id":2,"name":"Uncletopia | Chicago | 1 | All Maps","name_short":"chi-1","host":"chi-1.us.uncletopia.com","port":27015,"enabled":true,"region":"us-central","cc":"us","latitude":41.881832,"longitude":-87.62318,"reserved":0,"last_update":"0001-01-01T00:00:00Z","name_a2s":"Uncletopia | Chicago | 1 | All Maps","protocol":17,"map":"cp_sunshine","folder":"tf","game":"Team Fortress","app_id":440,"player_count":24,"max_players":24,"Bots":0,"server_type":"Dedicated","server_os":"Linux","password":true,"vac":true,"version":"7708610","steam_id":85568392924469984,"keywords":["cp","nocrits","nodmgspread","uncletopia"],"game_id":440,"stv_port":27016,"stv_name":"Uncletopia | Chicago | 1 | All Maps | STV","players":[{"user_id":152,"name":"KOOSTIFF","steam_id":76561198053727976,"connected_time":270000000000,"state":"active","ping":63},{"user_id":128,"name":"really hot pocket","steam_id":76561198239297686,"connected_time":1455000000000,"state":"active","ping":57},{"user_id":153,"name":"Fraglin","steam_id":76561198124964000,"connected_time":266000000000,"state":"active","ping":79},{"user_id":147,"name":"Stapler","steam_id":76561198099295077,"connected_time":314000000000,"state":"active","ping":90},{"user_id":136,"name":"GnafS","steam_id":76561199101583864,"connected_time":889000000000,"state":"active","ping":96},{"user_id":62,"name":"Dude Named Bob","steam_id":76561198310448093,"connected_time":6861000000000,"state":"active","ping":50},{"user_id":119,"name":"Sigiferd","steam_id":76561198148788110,"connected_time":2129000000000,"state":"active","ping":130},{"user_id":156,"name":"Squatchamo","steam_id":76561198012968239,"connected_time":107000000000,"state":"active","ping":76},{"user_id":157,"name":"Knox#","steam_id":76561198998636709,"connected_time":86000000000,"state":"active","ping":65},{"user_id":158,"name":"Soap","steam_id":76561198257117630,"connected_time":75000000000,"state":"active","ping":111},{"user_id":149,"name":"Meatwad","steam_id":76561198803721236,"connected_time":292000000000,"state":"active","ping":61},{"user_id":155,"name":"Average Reagan Youth Fan","steam_id":76561198355754259,"connected_time":227000000000,"state":"active","ping":61},{"user_id":114,"name":"Killroy NQP ❤","steam_id":76561198006983771,"connected_time":2561000000000,"state":"active","ping":72},{"user_id":144,"name":"sketchesgallore","steam_id":76561198331254794,"connected_time":476000000000,"state":"active","ping":98},{"user_id":111,"name":"{[F.H]} Hydroida","steam_id":76561197999797274,"connected_time":2802000000000,"state":"active","ping":53},{"user_id":159,"name":"user","steam_id":76561198077272494,"connected_time":57000000000,"state":"active","ping":48},{"user_id":135,"name":"Ras","steam_id":76561198123546775,"connected_time":1233000000000,"state":"active","ping":63},{"user_id":143,"name":"-π- BakaD","steam_id":76561197960559169,"connected_time":641000000000,"state":"active","ping":51},{"user_id":145,"name":"silly","steam_id":76561199009200975,"connected_time":401000000000,"state":"active","ping":83},{"user_id":139,"name":"altra","steam_id":76561198117148323,"connected_time":830000000000,"state":"active","ping":58},{"user_id":113,"name":"Amy Roxwell","steam_id":76561198303391830,"connected_time":2685000000000,"state":"active","ping":122},{"user_id":151,"name":"Mike","steam_id":76561198408747483,"connected_time":290000000000,"state":"active","ping":75},{"user_id":146,"name":"M1C4A3L","steam_id":76561198009980085,"connected_time":319000000000,"state":"active","ping":85},{"user_id":140,"name":"scarybroccoli","steam_id":76561198296440084,"connected_time":798000000000,"state":"active","ping":75}]},{"server_id":106,"name":"Uncletopia | Chicago | 2 | All Maps","name_short":"chi-2","host":"chi-1.us.uncletopia.com","port":27025,"enabled":true,"region":"us-central","cc":"us","latitude":41.881832,"longitude":-87.62318,"reserved":0,"last_update":"0001-01-01T00:00:00Z","name_a2s":"Uncletopia | Chicago | 2 | All Maps","protocol":17,"map":"pl_badwater","folder":"tf","game":"Team Fortress","app_id":440,"player_count":19,"max_players":24,"Bots":0,"server_type":"Dedicated","server_os":"Linux","password":true,"vac":true,"version":"7708610","steam_id":85568392924469985,"keywords":["nocrits","nodmgspread","payload","uncletopia"],"game_id":440,"stv_port":27026,"stv_name":"Uncletopia | Chicago | 2 | All Maps | STV","players":[{"user_id":11,"name":"Rornir","steam_id":76561198081829615,"connected_time":6424000000000,"state":"active","ping":37},{"user_id":66,"name":"Reindeer Poacher","steam_id":76561198867626964,"connected_time":1086000000000,"state":"active","ping":103},{"user_id":61,"name":"Miramar","steam_id":76561198022057653,"connected_time":2070000000000,"state":"active","ping":62},{"user_id":62,"name":"Evil clown","steam_id":76561199229169396,"connected_time":1646000000000,"state":"active","ping":56},{"user_id":16,"name":"Skeedie","steam_id":76561198268591634,"connected_time":5425000000000,"state":"active","ping":71},{"user_id":17,"name":"the ape","steam_id":76561198097847998,"connected_time":5394000000000,"state":"active","ping":61},{"user_id":18,"name":"Malleo777","steam_id":76561198097995505,"connected_time":5171000000000,"state":"active","ping":77},{"user_id":53,"name":"savagedachshund","steam_id":76561199208468955,"connected_time":3531000000000,"state":"active","ping":86},{"user_id":57,"name":"veewon","steam_id":76561198276513608,"connected_time":3322000000000,"state":"active","ping":169},{"user_id":69,"name":"Satori Komeiji","steam_id":76561198158211423,"connected_time":805000000000,"state":"active","ping":94},{"user_id":23,"name":"Hashmere","steam_id":76561198002797253,"connected_time":4993000000000,"state":"active","ping":77},{"user_id":79,"name":"AdmiralSharpie","steam_id":76561198066394239,"connected_time":38000000000,"state":"spawning","ping":74},{"user_id":28,"name":"sylerrr","steam_id":76561198191198866,"connected_time":4850000000000,"state":"active","ping":58},{"user_id":68,"name":"asfd","steam_id":76561198012566405,"connected_time":862000000000,"state":"active","ping":61},{"user_id":48,"name":"Encryptik","steam_id":76561198287754476,"connected_time":3749000000000,"state":"active","ping":64},{"user_id":74,"name":"peedrinker","steam_id":76561198876275070,"connected_time":678000000000,"state":"active","ping":61},{"user_id":78,"name":"Dingoid","steam_id":76561198065665995,"connected_time":145000000000,"state":"active","ping":74},{"user_id":67,"name":"Sir Tea","steam_id":76561198353912752,"connected_time":893000000000,"state":"active","ping":51},{"user_id":76,"name":"Le","steam_id":76561198817754233,"connected_time":189000000000,"state":"active","ping":45}]},{"server_id":402,"name":"Uncletopia | Chicago | 3 | All Maps","name_short":"chi-3","host":"chi-1.us.uncletopia.com","port":27035,"enabled":true,"region":"us-central","cc":"us","latitude":41.881832,"longitude":-87.62318,"reserved":0,"last_update":"0001-01-01T00:00:00Z","name_a2s":"Uncletopia | Chicago | 3 | All Maps","protocol":17,"map":"koth_viaduct","folder":"tf","game":"Team Fortress","app_id":440,"player_count":0,"max_players":24,"Bots":0,"server_type":"Dedicated","server_os":"Linux","password":true,"vac":true,"version":"7708610","steam_id":85568392924515191,"keywords":["cp","nocrits","nodmgspread","uncletopia"],"game_id":440,"stv_port":27036,"stv_name":"Uncletopia | Chicago | 3 | All Maps | STV","players":null},{"server_id":403,"name":"Uncletopia | Chicago | 4 | All Maps","name_short":"chi-4","host":"chi-1.us.uncletopia.com","port":27045,"enabled":true,"region":"us-central","cc":"us","latitude":41.881832,"longitude":-87.62318,"reserved":0,"last_update":"0001-01-01T00:00:00Z","name_a2s":"Uncletopia | Chicago | 4 | All Maps","protocol":17,"map":"koth_highpass","folder":"tf","game":"Team Fortress","app_id":440,"player_count":24,"max_players":24,"Bots":0,"server_type":"Dedicated","server_os":"Linux","password":true,"vac":true,"version":"7708610","steam_id":85568392924515193,"keywords":["cp","nocrits","nodmgspread","uncletopia"],"game_id":440,"stv_port":27046,"stv_name":"Uncletopia | Chicago | 4 | All Maps | STV","players":[{"user_id":16,"name":"Highway Gothic","steam_id":76561198118102935,"connected_time":2625000000000,"state":"active","ping":71},{"user_id":59,"name":"Brooks","steam_id":76561199079002400,"connected_time":411000000000,"state":"active","ping":75},{"user_id":51,"name":"America","steam_id":76561198044679911,"connected_time":1119000000000,"state":"active","ping":65},{"user_id":38,"name":"Fresh Lychee","steam_id":76561198045399559,"connected_time":1705000000000,"state":"active","ping":55},{"user_id":14,"name":"The World's Softest Sandwich","steam_id":76561198015577707,"connected_time":3073000000000,"state":"active","ping":76},{"user_id":52,"name":"SortOfABigDeal","steam_id":76561198323397375,"connected_time":1072000000000,"state":"active","ping":78},{"user_id":19,"name":"Lohskyl","steam_id":76561199193237621,"connected_time":2401000000000,"state":"active","ping":53},{"user_id":35,"name":"SmissmasGamer","steam_id":76561198144049265,"connected_time":1795000000000,"state":"active","ping":53},{"user_id":60,"name":"Lv4 Gnoll Magus","steam_id":76561198042068995,"connected_time":375000000000,"state":"active","ping":90},{"user_id":23,"name":"Samus","steam_id":76561198121933439,"connected_time":2139000000000,"state":"active","ping":69},{"user_id":30,"name":"workin for snapple","steam_id":76561198013732450,"connected_time":1979000000000,"state":"active","ping":50},{"user_id":33,"name":"jolo","steam_id":76561198042831480,"connected_time":1891000000000,"state":"active","ping":70},{"user_id":55,"name":"neeko","steam_id":76561198354256072,"connected_time":1007000000000,"state":"active","ping":36},{"user_id":27,"name":"_DrunkenGibberish_","steam_id":76561199123070071,"connected_time":2004000000000,"state":"active","ping":100},{"user_id":63,"name":"Willy","steam_id":76561199240618325,"connected_time":296000000000,"state":"active","ping":62},{"user_id":64,"name":"gonk","steam_id":76561198061206732,"connected_time":199000000000,"state":"active","ping":76},{"user_id":50,"name":"Cables","steam_id":76561198119612027,"connected_time":1246000000000,"state":"active","ping":88},{"user_id":57,"name":"UncleRusty","steam_id":76561198857804782,"connected_time":904000000000,"state":"active","ping":66},{"user_id":41,"name":"mm","steam_id":76561198841559088,"connected_time":1639000000000,"state":"active","ping":72},{"user_id":42,"name":"Nobody","steam_id":76561198286486517,"connected_time":1576000000000,"state":"active","ping":60},{"user_id":43,"name":"Antreuse","steam_id":76561198219721132,"connected_time":1503000000000,"state":"active","ping":108},{"user_id":44,"name":"GreatColorGreen","steam_id":76561198284546954,"connected_time":1499000000000,"state":"active","ping":49},{"user_id":65,"name":"OneTrueCorvid","steam_id":76561199012953221,"connected_time":181000000000,"state":"active","ping":88},{"user_id":48,"name":"masterjioncooperyah","steam_id":76561198119090832,"connected_time":1435000000000,"state":"active","ping":61}]},{"server_id":36,"name":"Uncletopia | Chicago | 5 | All Maps","name_short":"chi-5","host":"chi-2.us.uncletopia.com","port":27015,"enabled":true,"region":"us-central","cc":"us","latitude":41.881832,"longitude":-87.62318,"reserved":0,"last_update":"0001-01-01T00:00:00Z","name_a2s":"Uncletopia | Chicago | 5 | All Maps","protocol":17,"map":"cp_snakewater_final1","folder":"tf","game":"Team Fortress","app_id":440,"player_count":0,"max_players":24,"Bots":0,"server_type":"Dedicated","server_os":"Linux","password":true,"vac":true,"version":"7708610","steam_id":85568392924866362,"keywords":["cp","nocrits","nodmgspread","uncletopia"],"game_id":440,"stv_port":0,"stv_name":"","players":null},{"server_id":37,"name":"Uncletopia | Chicago | 6 | All Maps","name_short":"chi-6","host":"chi-2.us.uncletopia.com","port":27025,"enabled":true,"region":"us-central","cc":"us","latitude":41.881832,"longitude":-87.62318,"reserved":0,"last_update":"0001-01-01T00:00:00Z","name_a2s":"Uncletopia | Chicago | 6 | All Maps","protocol":17,"map":"koth_cascade","folder":"tf","game":"Team Fortress","app_id":440,"player_count":0,"max_players":24,"Bots":0,"server_type":"Dedicated","server_os":"Linux","password":true,"vac":true,"version":"7708610","steam_id":85568392924866363,"keywords":["cp","nocrits","nodmgspread","uncletopia"],"game_id":440,"stv_port":0,"stv_name":"","players":null},{"server_id":38,"name":"Uncletopia | Chicago | 7 | No Payload","name_short":"chi-7","host":"chi-2.us.uncletopia.com","port":27035,"enabled":true,"region":"us-central","cc":"us","latitude":41.881832,"longitude":-87.62318,"reserved":0,"last_update":"0001-01-01T00:00:00Z","name_a2s":"Uncletopia | Chicago | 7 | No Payload","protocol":17,"map":"koth_viaduct","folder":"tf","game":"Team Fortress","app_id":440,"player_count":0,"max_players":24,"Bots":0,"server_type":"Dedicated","server_os":"Linux","password":true,"vac":true,"version":"7708610","steam_id":85568392924866364,"keywords":["cp","nocrits","nodmgspread","uncletopia"],"game_id":440,"stv_port":0,"stv_name":"","players":null},{"server_id":39,"name":"Uncletopia | Chicago | 8 | Community","name_short":"chi-8","host":"chi-2.us.uncletopia.com","port":27045,"enabled":true,"region":"us-central","cc":"us","latitude":41.881832,"longitude":-87.62318,"reserved":0,"last_update":"0001-01-01T00:00:00Z","name_a2s":"Uncletopia | Chicago | 8 | Community","protocol":17,"map":"workshop/koth_bagel_rc5.ugc2514036946","folder":"tf","game":"Team Fortress","app_id":440,"player_count":0,"max_players":24,"Bots":0,"server_type":"Dedicated","server_os":"Linux","password":true,"vac":true,"version":"7708610","steam_id":85568392924866365,"keywords":["cp","nocrits","nodmgspread","uncletopia"],"game_id":440,"stv_port":27046,"stv_name":"Uncletopia | Chicago | 8 | Community | STV","players":null},{"server_id":8,"name":"Uncletopia | Dallas | 1 | All Maps","name_short":"dal-1","host":"dal-1.us.uncletopia.com","port":27015,"enabled":true,"region":"us-central","cc":"us","latitude":32.779167,"longitude":-96.80889,"reserved":0,"last_update":"0001-01-01T00:00:00Z","name_a2s":"Uncletopia | Dallas | 1 | All Maps","protocol":17,"map":"cp_process_final","folder":"tf","game":"Team Fortress","app_id":440,"player_count":24,"max_players":24,"Bots":0,"server_type":"Dedicated","server_os":"Linux","password":true,"vac":true,"version":"7708610","steam_id":85568392924469986,"keywords":["cp","nocrits","nodmgspread","uncletopia"],"game_id":440,"stv_port":27016,"stv_name":"Uncletopia | Dallas | 1 | All Maps | STV","players":[{"user_id":232,"name":"CHIEF","steam_id":76561198011209422,"connected_time":1519000000000,"state":"active","ping":44},{"user_id":150,"name":"Mellou","steam_id":76561198212048740,"connected_time":7159000000000,"state":"active","ping":51},{"user_id":209,"name":"lag","steam_id":76561197963872739,"connected_time":3502000000000,"state":"active","ping":71},{"user_id":215,"name":"groda_spel","steam_id":76561198121349387,"connected_time":3292000000000,"state":"active","ping":48},{"user_id":207,"name":"moe","steam_id":76561198929586245,"connected_time":3730000000000,"state":"active","ping":74},{"user_id":187,"name":"oct9ber f9rever","steam_id":76561198036283992,"connected_time":5203000000000,"state":"active","ping":80},{"user_id":195,"name":"Festliche Ätzend","steam_id":76561198033384990,"connected_time":4260000000000,"state":"active","ping":75},{"user_id":148,"name":"Pixler544","steam_id":76561198240575132,"connected_time":7254000000000,"state":"active","ping":72},{"user_id":240,"name":"Coffeemelon","steam_id":76561198285891257,"connected_time":106000000000,"state":"active","ping":94},{"user_id":239,"name":"A Random Guy","steam_id":76561198282519457,"connected_time":189000000000,"state":"active","ping":61},{"user_id":229,"name":"Among Us?","steam_id":76561199089907740,"connected_time":1992000000000,"state":"active","ping":64},{"user_id":237,"name":"Passive-Aggressive Land Whale","steam_id":76561198058057999,"connected_time":1296000000000,"state":"active","ping":63},{"user_id":212,"name":"Castar","steam_id":76561198090558038,"connected_time":3439000000000,"state":"active","ping":59},{"user_id":235,"name":"KoolBucky","steam_id":76561198147927648,"connected_time":1417000000000,"state":"active","ping":81},{"user_id":218,"name":"Luna","steam_id":76561198075944196,"connected_time":2813000000000,"state":"active","ping":67},{"user_id":238,"name":"The Krinkler","steam_id":76561198020308956,"connected_time":290000000000,"state":"active","ping":60},{"user_id":219,"name":"Spazz","steam_id":76561198036167494,"connected_time":2792000000000,"state":"active","ping":60},{"user_id":236,"name":"Hanselpup","steam_id":76561198165480226,"connected_time":1370000000000,"state":"active","ping":56},{"user_id":227,"name":"manbearswineflu","steam_id":76561198083945137,"connected_time":2031000000000,"state":"active","ping":81},{"user_id":216,"name":"The Animated Gamer","steam_id":76561198120639995,"connected_time":3050000000000,"state":"active","ping":67},{"user_id":230,"name":"Branos","steam_id":76561198396414319,"connected_time":1545000000000,"state":"active","ping":79},{"user_id":188,"name":"the engineer","steam_id":76561198101203842,"connected_time":4818000000000,"state":"active","ping":63},{"user_id":206,"name":"Big Yoshi","steam_id":76561199160576376,"connected_time":3872000000000,"state":"active","ping":104},{"user_id":191,"name":"Drakon","steam_id":76561198078210822,"connected_time":4487000000000,"state":"active","ping":90}]},{"server_id":108,"name":"Uncletopia | Dallas | 2 | All Maps","name_short":"dal-2","host":"dal-1.us.uncletopia.com","port":27025,"enabled":true,"region":"us-central","cc":"us","latitude":32.779167,"longitude":-96.80889,"reserved":0,"last_update":"0001-01-01T00:00:00Z","name_a2s":"Uncletopia | Dallas | 2 | All Maps","protocol":17,"map":"pl_swiftwater_final1","folder":"tf","game":"Team Fortress","app_id":440,"player_count":24,"max_players":24,"Bots":0,"server_type":"Dedicated","server_os":"Linux","password":true,"vac":true,"version":"7708610","steam_id":85568392924469988,"keywords":["nocrits","nodmgspread","payload","uncletopia"],"game_id":440,"stv_port":27026,"stv_name":"Uncletopia | Dallas | 2 | All Maps | STV","players":[{"user_id":20,"name":"Mason The Weirdo","steam_id":76561198947654861,"connected_time":4059000000000,"state":"active","ping":52},{"user_id":21,"name":"thelazydog","steam_id":76561198947215423,"connected_time":4049000000000,"state":"active","ping":49},{"user_id":79,"name":"TeriyakiDynamite","steam_id":76561198050049346,"connected_time":748000000000,"state":"active","ping":92},{"user_id":69,"name":"themadlad67","steam_id":76561199309554436,"connected_time":1399000000000,"state":"active","ping":89},{"user_id":31,"name":"pancake","steam_id":76561199085012370,"connected_time":3165000000000,"state":"active","ping":61},{"user_id":26,"name":"Ownniceguy","steam_id":76561199216772555,"connected_time":3290000000000,"state":"active","ping":196},{"user_id":27,"name":"Pixeled","steam_id":76561198088917077,"connected_time":3279000000000,"state":"active","ping":83},{"user_id":71,"name":"Umbreon","steam_id":76561198043569710,"connected_time":1003000000000,"state":"active","ping":59},{"user_id":72,"name":"czarchasm","steam_id":76561198055712749,"connected_time":985000000000,"state":"active","ping":54},{"user_id":81,"name":"Samrizo el Chorizo","steam_id":76561198009838162,"connected_time":390000000000,"state":"active","ping":82},{"user_id":34,"name":"Owl Pacino","steam_id":76561197979970666,"connected_time":3094000000000,"state":"active","ping":75},{"user_id":73,"name":"feelthestretch","steam_id":76561199226718704,"connected_time":934000000000,"state":"active","ping":74},{"user_id":78,"name":"Power With Flower","steam_id":76561198798123834,"connected_time":767000000000,"state":"active","ping":80},{"user_id":39,"name":"Abbreviated","steam_id":76561198088423054,"connected_time":3047000000000,"state":"active","ping":74},{"user_id":45,"name":"dan","steam_id":76561198061589465,"connected_time":2897000000000,"state":"active","ping":86},{"user_id":40,"name":"crippling fumo addiction","steam_id":76561198115874625,"connected_time":3035000000000,"state":"active","ping":87},{"user_id":80,"name":"Agent Bowtie","steam_id":76561198175839279,"connected_time":686000000000,"state":"active","ping":55},{"user_id":43,"name":"i \u003c3 poptarts #saveTF2","steam_id":76561199057354397,"connected_time":2946000000000,"state":"active","ping":92},{"user_id":84,"name":"soft G","steam_id":76561198109876007,"connected_time":123000000000,"state":"active","ping":112},{"user_id":59,"name":"tingle shitmouth","steam_id":76561198055109192,"connected_time":2282000000000,"state":"active","ping":95},{"user_id":82,"name":"Shalom","steam_id":76561198410005222,"connected_time":379000000000,"state":"active","ping":63},{"user_id":76,"name":"A Bic Lighter","steam_id":76561198070606068,"connected_time":852000000000,"state":"active","ping":80},{"user_id":83,"name":"KabOOm","steam_id":76561198844235450,"connected_time":179000000000,"state":"active","ping":245},{"user_id":56,"name":"Delta","steam_id":76561198021957971,"connected_time":2745000000000,"state":"active","ping":83}]},{"server_id":5,"name":"Uncletopia | Frankfurt | 1 | All Maps","name_short":"frk-1","host":"frk-1.de.uncletopia.com","port":27015,"enabled":true,"region":"eu","cc":"de","latitude":50.110924,"longitude":8.682127,"reserved":0,"last_update":"0001-01-01T00:00:00Z","name_a2s":"Uncletopia | Frankfurt | 1 | All Maps","protocol":17,"map":"pl_frontier_final","folder":"tf","game":"Team Fortress","app_id":440,"player_count":24,"max_players":24,"Bots":0,"server_type":"Dedicated","server_os":"Linux","password":true,"vac":true,"version":"7708610","steam_id":85568392924469989,"keywords":["nocrits","nodmgspread","payload","uncletopia"],"game_id":440,"stv_port":27016,"stv_name":"Uncletopia | Frankfurt | 1 | All Maps | STV","players":[{"user_id":425,"name":"murderwow","steam_id":76561198024566944,"connected_time":3762000000000,"state":"active","ping":110},{"user_id":429,"name":"MFWeasel","steam_id":76561198078098237,"connected_time":3329000000000,"state":"active","ping":75},{"user_id":324,"name":"Rudebwoyyy","steam_id":76561199387956486,"connected_time":12447000000000,"state":"active","ping":52},{"user_id":447,"name":"Bastard'Nick","steam_id":76561198044044651,"connected_time":2022000000000,"state":"active","ping":70},{"user_id":418,"name":"ALARM","steam_id":76561198120686521,"connected_time":4084000000000,"state":"active","ping":58},{"user_id":467,"name":"Sgt. Doge Rottweiler","steam_id":76561198061195061,"connected_time":318000000000,"state":"active","ping":59},{"user_id":459,"name":"Kiki","steam_id":76561198031218855,"connected_time":1109000000000,"state":"active","ping":116},{"user_id":462,"name":"Rigby","steam_id":76561198021552128,"connected_time":826000000000,"state":"active","ping":98},{"user_id":409,"name":"ghost","steam_id":76561198189940229,"connected_time":4494000000000,"state":"active","ping":63},{"user_id":318,"name":"LarsInABox","steam_id":76561198028329262,"connected_time":13146000000000,"state":"active","ping":73},{"user_id":453,"name":"Инспектор Атас","steam_id":76561199175688390,"connected_time":1490000000000,"state":"active","ping":76},{"user_id":440,"name":"Mklavzovc","steam_id":76561198305794970,"connected_time":2275000000000,"state":"active","ping":68},{"user_id":441,"name":"Flint","steam_id":76561197995920776,"connected_time":2242000000000,"state":"active","ping":48},{"user_id":465,"name":"VIN WEASEL","steam_id":76561198014387066,"connected_time":521000000000,"state":"active","ping":42},{"user_id":468,"name":"Devil hater","steam_id":76561198110470565,"connected_time":158000000000,"state":"active","ping":107},{"user_id":451,"name":"テイルス","steam_id":76561198022403271,"connected_time":1697000000000,"state":"active","ping":46},{"user_id":428,"name":"Kuna ☩","steam_id":76561199012155377,"connected_time":3337000000000,"state":"active","ping":44},{"user_id":444,"name":"Solymr ibn Wali Barad","steam_id":76561198044008976,"connected_time":2161000000000,"state":"active","ping":74},{"user_id":433,"name":"tekszi","steam_id":76561198107220903,"connected_time":2777000000000,"state":"active","ping":48},{"user_id":435,"name":"7blak ♿","steam_id":76561198078928120,"connected_time":2441000000000,"state":"active","ping":79},{"user_id":466,"name":"bass","steam_id":76561198415564349,"connected_time":399000000000,"state":"active","ping":66},{"user_id":343,"name":"Serton♝","steam_id":76561198011061126,"connected_time":9903000000000,"state":"active","ping":94},{"user_id":448,"name":"gagalak","steam_id":76561198089979108,"connected_time":1846000000000,"state":"active","ping":98},{"user_id":415,"name":"Birne","steam_id":76561198001335120,"connected_time":4220000000000,"state":"active","ping":61}]},{"server_id":110,"name":"Uncletopia | Frankfurt | 2 | All Maps","name_short":"frk-2","host":"frk-1.de.uncletopia.com","port":27025,"enabled":true,"region":"eu","cc":"de","latitude":50.110924,"longitude":8.682127,"reserved":0,"last_update":"0001-01-01T00:00:00Z","name_a2s":"Uncletopia | Frankfurt | 2 | All Maps","protocol":17,"map":"cp_altitude","folder":"tf","game":"Team Fortress","app_id":440,"player_count":23,"max_players":24,"Bots":0,"server_type":"Dedicated","server_os":"Linux","password":true,"vac":true,"version":"7708610","steam_id":85568392924469990,"keywords":["cp","nocrits","nodmgspread","uncletopia"],"game_id":440,"stv_port":27026,"stv_name":"Uncletopia | Frankfurt | 2 | All Maps | STV","players":[{"user_id":354,"name":"Mister Sam","steam_id":76561198791782220,"connected_time":318000000000,"state":"active","ping":136},{"user_id":355,"name":"lolimsogreat21","steam_id":76561199052033788,"connected_time":306000000000,"state":"active","ping":64},{"user_id":328,"name":"fantasticphoenix","steam_id":76561199018265854,"connected_time":2228000000000,"state":"active","ping":58},{"user_id":353,"name":"Skulldow","steam_id":76561198431433977,"connected_time":409000000000,"state":"active","ping":57},{"user_id":306,"name":"Efmixos","steam_id":76561198393929835,"connected_time":3122000000000,"state":"active","ping":106},{"user_id":357,"name":"Waffles","steam_id":76561199086942763,"connected_time":198000000000,"state":"active","ping":81},{"user_id":337,"name":"Clitorina","steam_id":76561198077570815,"connected_time":1847000000000,"state":"active","ping":43},{"user_id":358,"name":"Novitia","steam_id":76561198236422680,"connected_time":182000000000,"state":"active","ping":71},{"user_id":347,"name":"spy among us","steam_id":76561198392537090,"connected_time":1036000000000,"state":"active","ping":73},{"user_id":366,"name":"Animatic","steam_id":76561198186421601,"connected_time":81000000000,"state":"active","ping":167},{"user_id":360,"name":"amberkleurig","steam_id":76561198394582460,"connected_time":134000000000,"state":"active","ping":60},{"user_id":263,"name":"0xDEADBEEF","steam_id":76561199075416111,"connected_time":6342000000000,"state":"active","ping":80},{"user_id":361,"name":"Martin","steam_id":76561198350826913,"connected_time":116000000000,"state":"active","ping":66},{"user_id":344,"name":"freemantel30","steam_id":76561198065669800,"connected_time":1116000000000,"state":"active","ping":49},{"user_id":322,"name":"Shynii","steam_id":76561198194682105,"connected_time":2410000000000,"state":"active","ping":73},{"user_id":362,"name":"Bancsli (Help me pls)","steam_id":76561198144783422,"connected_time":115000000000,"state":"active","ping":87},{"user_id":363,"name":"The 4th Doctor","steam_id":76561198191516706,"connected_time":111000000000,"state":"active","ping":55},{"user_id":284,"name":":)","steam_id":76561198039964082,"connected_time":4986000000000,"state":"active","ping":64},{"user_id":364,"name":"Marko Rutto","steam_id":76561198124226614,"connected_time":96000000000,"state":"active","ping":63},{"user_id":349,"name":"RingSound","steam_id":76561198078341462,"connected_time":939000000000,"state":"active","ping":101},{"user_id":365,"name":"Evelyn","steam_id":76561199168560115,"connected_time":87000000000,"state":"active","ping":62},{"user_id":367,"name":"Extraordinary Absence of Pootis","steam_id":76561198020270981,"connected_time":78000000000,"state":"active","ping":139},{"user_id":242,"name":"The Wolf Leader","steam_id":76561198038007462,"connected_time":8267000000000,"state":"active","ping":59}]},{"server_id":308,"name":"Uncletopia | Frankfurt | 3 | All Maps","name_short":"frk-3","host":"frk-1.de.uncletopia.com","port":27035,"enabled":true,"region":"eu","cc":"de","latitude":50.110924,"longitude":8.682127,"reserved":0,"last_update":"0001-01-01T00:00:00Z","name_a2s":"Uncletopia | Frankfurt | 3 | All Maps","protocol":17,"map":"koth_cascade","folder":"tf","game":"Team Fortress","app_id":440,"player_count":20,"max_players":24,"Bots":0,"server_type":"Dedicated","server_os":"Linux","password":true,"vac":true,"version":"7708610","steam_id":85568392924504274,"keywords":["cp","nocrits","nodmgspread","uncletopia"],"game_id":440,"stv_port":27036,"stv_name":"Uncletopia | Frankfurt | 3 | All Maps | STV","players":[{"user_id":456,"name":"deri100","steam_id":76561198397588574,"connected_time":2434000000000,"state":"active","ping":78},{"user_id":479,"name":"Cobb Salads","steam_id":76561197971140507,"connected_time":955000000000,"state":"active","ping":77},{"user_id":497,"name":"JohkupohkuXD","steam_id":76561198391108762,"connected_time":53000000000,"state":"spawning","ping":86},{"user_id":480,"name":"ℋℇἂṼഴ","steam_id":76561199062259389,"connected_time":933000000000,"state":"active","ping":145},{"user_id":475,"name":"Pain","steam_id":76561198106997949,"connected_time":1115000000000,"state":"active","ping":77},{"user_id":493,"name":"Baklava Enjoyer","steam_id":76561198990679631,"connected_time":398000000000,"state":"active","ping":133},{"user_id":478,"name":"kyzzie-O","steam_id":76561198099021004,"connected_time":1037000000000,"state":"active","ping":105},{"user_id":448,"name":"Welder","steam_id":76561198355300561,"connected_time":2861000000000,"state":"active","ping":72},{"user_id":491,"name":"Musicano","steam_id":76561198114541088,"connected_time":517000000000,"state":"active","ping":87},{"user_id":487,"name":"bull.","steam_id":76561197965462062,"connected_time":698000000000,"state":"active","ping":63},{"user_id":494,"name":"Pachakamakk","steam_id":76561197989010401,"connected_time":338000000000,"state":"active","ping":50},{"user_id":450,"name":"Dark Lord","steam_id":76561198047359132,"connected_time":2823000000000,"state":"active","ping":72},{"user_id":495,"name":"Raeews","steam_id":76561198254646517,"connected_time":268000000000,"state":"active","ping":45},{"user_id":455,"name":"stun","steam_id":76561198276681691,"connected_time":2632000000000,"state":"active","ping":60},{"user_id":472,"name":"Dzerkys","steam_id":76561199022604955,"connected_time":1387000000000,"state":"active","ping":68},{"user_id":463,"name":"Le Unabomber","steam_id":76561198869003596,"connected_time":2142000000000,"state":"active","ping":83},{"user_id":483,"name":"Luke SpyWalker","steam_id":76561198008643276,"connected_time":857000000000,"state":"active","ping":60},{"user_id":489,"name":"DiDi","steam_id":76561198125563537,"connected_time":588000000000,"state":"active","ping":105},{"user_id":496,"name":"104.3 kg/m² gaming","steam_id":76561198267411149,"connected_time":258000000000,"state":"active","ping":55},{"user_id":371,"name":"Pan W","steam_id":76561198384111099,"connected_time":6064000000000,"state":"active","ping":70}]},{"server_id":309,"name":"Uncletopia | Frankfurt | 4 | All Maps","name_short":"frk-4","host":"frk-1.de.uncletopia.com","port":27045,"enabled":true,"region":"eu","cc":"de","latitude":50.110924,"longitude":8.682127,"reserved":0,"last_update":"0001-01-01T00:00:00Z","name_a2s":"Uncletopia | Frankfurt | 4 | All Maps","protocol":17,"map":"pl_barnblitz","folder":"tf","game":"Team Fortress","app_id":440,"player_count":23,"max_players":24,"Bots":0,"server_type":"Dedicated","server_os":"Linux","password":true,"vac":true,"version":"7708610","steam_id":85568392924504275,"keywords":["nocrits","nodmgspread","payload","uncletopia"],"game_id":440,"stv_port":27046,"stv_name":"Uncletopia | Frankfurt | 4 | All Maps | STV","players":[{"user_id":516,"name":"Suomenjuusto","steam_id":76561198991491758,"connected_time":1794000000000,"state":"active","ping":72},{"user_id":535,"name":"Taska","steam_id":76561198807325888,"connected_time":1076000000000,"state":"active","ping":93},{"user_id":543,"name":"After8","steam_id":76561198090750865,"connected_time":136000000000,"state":"active","ping":63},{"user_id":504,"name":"Henk_de_Patatman","steam_id":76561198070103191,"connected_time":2476000000000,"state":"active","ping":43},{"user_id":495,"name":"The Ilusive Man","steam_id":76561198332917045,"connected_time":3476000000000,"state":"active","ping":105},{"user_id":541,"name":"Shlyk","steam_id":76561198333387103,"connected_time":645000000000,"state":"active","ping":98},{"user_id":514,"name":"Nyreen Nebula","steam_id":76561199437842841,"connected_time":1823000000000,"state":"active","ping":145},{"user_id":544,"name":"adriankurek","steam_id":76561199349026873,"connected_time":89000000000,"state":"active","ping":61},{"user_id":507,"name":"Nummi","steam_id":76561198980901935,"connected_time":2266000000000,"state":"active","ping":85},{"user_id":509,"name":"Chef Magpie","steam_id":76561198043926401,"connected_time":2129000000000,"state":"active","ping":104},{"user_id":534,"name":"Gety0","steam_id":76561198044387185,"connected_time":1125000000000,"state":"active","ping":79},{"user_id":453,"name":"Spectre","steam_id":76561199111353794,"connected_time":7456000000000,"state":"active","ping":89},{"user_id":407,"name":"Заднепроходец","steam_id":76561198059741978,"connected_time":9456000000000,"state":"active","ping":76},{"user_id":517,"name":"Rohlc","steam_id":76561199056443047,"connected_time":1746000000000,"state":"active","ping":54},{"user_id":524,"name":"T1 (ted1)","steam_id":76561199229022826,"connected_time":1531000000000,"state":"active","ping":91},{"user_id":519,"name":"Bob Salami","steam_id":76561198150681340,"connected_time":1683000000000,"state":"active","ping":91},{"user_id":520,"name":"fröga","steam_id":76561198412559828,"connected_time":1647000000000,"state":"active","ping":108},{"user_id":521,"name":"Festive Samanth","steam_id":76561198880505482,"connected_time":1645000000000,"state":"active","ping":55},{"user_id":538,"name":"тукку ирма","steam_id":76561197998715016,"connected_time":919000000000,"state":"active","ping":58},{"user_id":523,"name":"Wildfap","steam_id":76561198075816743,"connected_time":1574000000000,"state":"active","ping":74},{"user_id":537,"name":"Pabs :D","steam_id":76561198000016962,"connected_time":976000000000,"state":"active","ping":60},{"user_id":526,"name":"regen","steam_id":76561198037550223,"connected_time":1484000000000,"state":"active","ping":110},{"user_id":529,"name":"DocTwoEight","steam_id":76561198153488940,"connected_time":1352000000000,"state":"active","ping":69}]},{"server_id":310,"name":"Uncletopia | Frankfurt | 5 | All Maps","name_short":"frk-5","host":"frk-1.de.uncletopia.com","port":27055,"enabled":true,"region":"eu","cc":"de","latitude":50.110924,"longitude":8.682127,"reserved":0,"last_update":"0001-01-01T00:00:00Z","name_a2s":"Uncletopia | Frankfurt | 5 | All Maps","protocol":17,"map":"koth_cascade","folder":"tf","game":"Team Fortress","app_id":440,"player_count":24,"max_players":24,"Bots":0,"server_type":"Dedicated","server_os":"Linux","password":true,"vac":true,"version":"7708610","steam_id":85568392924504277,"keywords":["cp","nocrits","nodmgspread","uncletopia"],"game_id":440,"stv_port":27056,"stv_name":"Uncletopia | Frankfurt | 5 | All Maps | STV","players":[{"user_id":466,"name":"DeCypher","steam_id":76561198171992619,"connected_time":3204000000000,"state":"active","ping":65},{"user_id":499,"name":"thekoolest88","steam_id":76561199022415672,"connected_time":1525000000000,"state":"active","ping":140},{"user_id":509,"name":"Clint Eastwood (real)","steam_id":76561198364423851,"connected_time":664000000000,"state":"active","ping":55},{"user_id":451,"name":"dongus","steam_id":76561198042774930,"connected_time":3850000000000,"state":"active","ping":79},{"user_id":418,"name":"Nick (Mute banned on Uncletopia","steam_id":76561198036109469,"connected_time":5418000000000,"state":"active","ping":94},{"user_id":517,"name":"Человек яйца","steam_id":76561198277599844,"connected_time":191000000000,"state":"active","ping":90},{"user_id":511,"name":"Denialman (Muted)","steam_id":76561198309182092,"connected_time":640000000000,"state":"active","ping":55},{"user_id":508,"name":"|SoW| IgI","steam_id":76561198001541383,"connected_time":1095000000000,"state":"active","ping":65},{"user_id":370,"name":"PlebCord","steam_id":76561198120685803,"connected_time":8199000000000,"state":"active","ping":79},{"user_id":500,"name":"hamude.alsarhan2011","steam_id":76561199259727736,"connected_time":1513000000000,"state":"active","ping":58},{"user_id":488,"name":"Feelin' Supersonic","steam_id":76561198005738407,"connected_time":1827000000000,"state":"active","ping":75},{"user_id":491,"name":"DayRocketZero","steam_id":76561198331999006,"connected_time":1774000000000,"state":"active","ping":72},{"user_id":432,"name":"...","steam_id":76561198969234594,"connected_time":4772000000000,"state":"active","ping":65},{"user_id":485,"name":"linkinparkfan123","steam_id":76561199033782005,"connected_time":1948000000000,"state":"active","ping":85},{"user_id":504,"name":"Salih","steam_id":76561198287934839,"connected_time":1266000000000,"state":"active","ping":50},{"user_id":492,"name":"bAdmon","steam_id":76561197961785793,"connected_time":1752000000000,"state":"active","ping":55},{"user_id":516,"name":"SoupeurConscient","steam_id":76561199404717904,"connected_time":242000000000,"state":"active","ping":78},{"user_id":464,"name":"Bones","steam_id":76561198091494675,"connected_time":3294000000000,"state":"active","ping":90},{"user_id":497,"name":"Vanes #savetf2","steam_id":76561198070099171,"connected_time":1594000000000,"state":"active","ping":79},{"user_id":513,"name":"Unusual Pseudo","steam_id":76561198001209810,"connected_time":604000000000,"state":"active","ping":65},{"user_id":518,"name":"Der Herr Doktor","steam_id":76561198119476089,"connected_time":120000000000,"state":"active","ping":60},{"user_id":514,"name":"cinar","steam_id":76561199015776420,"connected_time":581000000000,"state":"active","ping":60},{"user_id":502,"name":"dum bass","steam_id":76561199387157569,"connected_time":1410000000000,"state":"active","ping":81},{"user_id":515,"name":"hollowmaster","steam_id":76561199041263525,"connected_time":447000000000,"state":"active","ping":65}]},{"server_id":311,"name":"Uncletopia | Frankfurt | 6 | All Maps","name_short":"frk-6","host":"frk-1.de.uncletopia.com","port":27065,"enabled":true,"region":"eu","cc":"de","latitude":50.110924,"longitude":8.682127,"reserved":0,"last_update":"0001-01-01T00:00:00Z","name_a2s":"Uncletopia | Frankfurt | 6 | All Maps","protocol":17,"map":"pl_badwater","folder":"tf","game":"Team Fortress","app_id":440,"player_count":24,"max_players":24,"Bots":0,"server_type":"Dedicated","server_os":"Linux","password":true,"vac":true,"version":"7708610","steam_id":85568392924504278,"keywords":["nocrits","nodmgspread","payload","uncletopia"],"game_id":440,"stv_port":27066,"stv_name":"Uncletopia | Frankfurt | 6 | All Maps | STV","players":[{"user_id":115,"name":"Hamilton","steam_id":76561198077218755,"connected_time":1810000000000,"state":"active","ping":68},{"user_id":138,"name":"mt","steam_id":76561197961319303,"connected_time":913000000000,"state":"active","ping":45},{"user_id":107,"name":"Yoyo12","steam_id":76561198931770279,"connected_time":2110000000000,"state":"active","ping":60},{"user_id":72,"name":"galaxy","steam_id":76561198164819022,"connected_time":4470000000000,"state":"active","ping":59},{"user_id":145,"name":"TheBeardedM1G","steam_id":76561198040208946,"connected_time":548000000000,"state":"active","ping":57},{"user_id":149,"name":"☂ JuuuJь ☂","steam_id":76561198001603395,"connected_time":236000000000,"state":"active","ping":122},{"user_id":148,"name":"Fat Pigeon","steam_id":76561198817940142,"connected_time":441000000000,"state":"active","ping":54},{"user_id":147,"name":"Guru","steam_id":76561198093853069,"connected_time":485000000000,"state":"active","ping":62},{"user_id":150,"name":"Mogwai","steam_id":76561198078832314,"connected_time":194000000000,"state":"active","ping":83},{"user_id":112,"name":"The One","steam_id":76561198827193499,"connected_time":1986000000000,"state":"active","ping":63},{"user_id":87,"name":"MagicTITIKAKA","steam_id":76561198129509548,"connected_time":3733000000000,"state":"active","ping":88},{"user_id":73,"name":"Dokter Hoo","steam_id":76561198390551963,"connected_time":4462000000000,"state":"active","ping":98},{"user_id":151,"name":"swallowed 10 pennies please hel","steam_id":76561198055816412,"connected_time":171000000000,"state":"active","ping":71},{"user_id":120,"name":"TheJustTeaPlayer","steam_id":76561198980203796,"connected_time":1675000000000,"state":"active","ping":186},{"user_id":143,"name":"yoursbzt","steam_id":76561198201866574,"connected_time":662000000000,"state":"active","ping":83},{"user_id":144,"name":"Purps","steam_id":76561198053886680,"connected_time":612000000000,"state":"active","ping":50},{"user_id":135,"name":"Muffin Mcswagot ඞ","steam_id":76561198055394835,"connected_time":1077000000000,"state":"active","ping":75},{"user_id":153,"name":"TNT 8412","steam_id":76561198847492398,"connected_time":2000000000,"state":"spawning","ping":63},{"user_id":130,"name":"Joemamasaur","steam_id":76561198094430039,"connected_time":1256000000000,"state":"active","ping":75},{"user_id":152,"name":"Swedde","steam_id":76561198297296440,"connected_time":157000000000,"state":"active","ping":70},{"user_id":132,"name":"Numbe","steam_id":76561198269614930,"connected_time":1225000000000,"state":"active","ping":77},{"user_id":133,"name":"Delab Le Fou","steam_id":76561198846356572,"connected_time":1139000000000,"state":"active","ping":98},{"user_id":134,"name":"greirat","steam_id":76561198073956801,"connected_time":1124000000000,"state":"active","ping":82},{"user_id":140,"name":"Doriian","steam_id":76561198071438810,"connected_time":818000000000,"state":"active","ping":78}]},{"server_id":23,"name":"Uncletopia | Frankfurt | 7 | No Payload","name_short":"frk-7","host":"frk-1.de.uncletopia.com","port":27075,"enabled":true,"region":"eu","cc":"de","latitude":50.110924,"longitude":8.682127,"reserved":0,"last_update":"0001-01-01T00:00:00Z","name_a2s":"Uncletopia | Frankfurt | 7 | No Payload","protocol":17,"map":"cp_fastlane","folder":"tf","game":"Team Fortress","app_id":440,"player_count":6,"max_players":24,"Bots":0,"server_type":"Dedicated","server_os":"Linux","password":true,"vac":true,"version":"7708610","steam_id":85568392924742827,"keywords":["cp","nocrits","nodmgspread","uncletopia"],"game_id":440,"stv_port":27076,"stv_name":"Uncletopia | Frankfurt | 7 | No Payload | STV","players":[{"user_id":32,"name":"Daan77","steam_id":76561198129940468,"connected_time":756000000000,"state":"active","ping":63},{"user_id":33,"name":"Frank","steam_id":76561198086672774,"connected_time":687000000000,"state":"active","ping":57},{"user_id":30,"name":"CleanupClamp360","steam_id":76561199124536958,"connected_time":1407000000000,"state":"active","ping":42},{"user_id":31,"name":"Salad's Warband","steam_id":76561198214089583,"connected_time":1395000000000,"state":"active","ping":61},{"user_id":34,"name":"Yobopan","steam_id":76561198088064860,"connected_time":587000000000,"state":"active","ping":54},{"user_id":35,"name":"clems17","steam_id":76561199420685482,"connected_time":100000000000,"state":"active","ping":58}]},{"server_id":24,"name":"Uncletopia | Frankfurt | 8 | Community","name_short":"frk-8","host":"frk-1.de.uncletopia.com","port":27085,"enabled":true,"region":"eu","cc":"de","latitude":50.110924,"longitude":8.682127,"reserved":0,"last_update":"0001-01-01T00:00:00Z","name_a2s":"Uncletopia | Frankfurt | 8 | Community","protocol":17,"map":"workshop/koth_ashville_final.ugc2130459942","folder":"tf","game":"Team Fortress","app_id":440,"player_count":0,"max_players":24,"Bots":0,"server_type":"Dedicated","server_os":"Linux","password":true,"vac":true,"version":"7708610","steam_id":85568392924742828,"keywords":["cp","nocrits","nodmgspread","uncletopia"],"game_id":440,"stv_port":27086,"stv_name":"Uncletopia | Frankfurt | 8 | Community | STV","players":null},{"server_id":202,"name":"Uncletopia | Hong Kong | 1 | All Maps","name_short":"hgk-1","host":"hgk-1.hk.uncletopia.com","port":27015,"enabled":true,"region":"asia","cc":"hk","latitude":22.302711,"longitude":114.177216,"reserved":0,"last_update":"0001-01-01T00:00:00Z","name_a2s":"Uncletopia | Hong Kong | 1 | All Maps","protocol":17,"map":"plr_bananabay","folder":"tf","game":"Team Fortress","app_id":440,"player_count":0,"max_players":24,"Bots":0,"server_type":"Dedicated","server_os":"Linux","password":true,"vac":true,"version":"7708610","steam_id":85568392924494504,"keywords":["nocrits","nodmgspread","payload","uncletopia"],"game_id":440,"stv_port":27016,"stv_name":"Uncletopia | Hong Kong | 1 | All Maps | STV","players":null},{"server_id":1,"name":"Uncletopia | Los Angeles | 1 | All Maps","name_short":"lax-1","host":"lax-1.us.uncletopia.com","port":27015,"enabled":true,"region":"us-west","cc":"us","latitude":33.94279,"longitude":-118.41004,"reserved":0,"last_update":"0001-01-01T00:00:00Z","name_a2s":"Uncletopia | Los Angeles | 1 | All Maps","protocol":17,"map":"pl_frontier_final","folder":"tf","game":"Team Fortress","app_id":440,"player_count":0,"max_players":24,"Bots":0,"server_type":"Dedicated","server_os":"Linux","password":true,"vac":true,"version":"7708610","steam_id":85568392924469991,"keywords":["nocrits","nodmgspread","payload","uncletopia"],"game_id":440,"stv_port":27016,"stv_name":"Uncletopia | Los Angeles | 1 | All Maps | STV","players":null},{"server_id":112,"name":"Uncletopia | Los Angeles | 2 | All Maps","name_short":"lax-2","host":"lax-1.us.uncletopia.com","port":27025,"enabled":true,"region":"us-west","cc":"us","latitude":33.94279,"longitude":-118.41004,"reserved":0,"last_update":"0001-01-01T00:00:00Z","name_a2s":"Uncletopia | Los Angeles | 2 | All Maps","protocol":17,"map":"cp_altitude","folder":"tf","game":"Team Fortress","app_id":440,"player_count":0,"max_players":24,"Bots":0,"server_type":"Dedicated","server_os":"Linux","password":true,"vac":true,"version":"7708610","steam_id":85568392924469992,"keywords":["cp","nocrits","nodmgspread","uncletopia"],"game_id":440,"stv_port":0,"stv_name":"","players":null},{"server_id":324,"name":"Uncletopia | Los Angeles | 3 | All Maps","name_short":"lax-3","host":"lax-1.us.uncletopia.com","port":27035,"enabled":true,"region":"us-west","cc":"us","latitude":33.94279,"longitude":-118.41004,"reserved":0,"last_update":"0001-01-01T00:00:00Z","name_a2s":"Uncletopia | Los Angeles | 3 | All Maps","protocol":17,"map":"cp_altitude","folder":"tf","game":"Team Fortress","app_id":440,"player_count":0,"max_players":24,"Bots":0,"server_type":"Dedicated","server_os":"Linux","password":true,"vac":true,"version":"7708610","steam_id":85568392924510198,"keywords":["cp","nocrits","nodmgspread","uncletopia"],"game_id":440,"stv_port":0,"stv_name":"","players":null},{"server_id":25,"name":"Uncletopia | Los Angeles | 4 | No Payload","name_short":"lax-4","host":"lax-1.us.uncletopia.com","port":27045,"enabled":true,"region":"us-west","cc":"us","latitude":33.94279,"longitude":-118.41004,"reserved":0,"last_update":"0001-01-01T00:00:00Z","name_a2s":"Uncletopia | Los Angeles | 4 | No Payload","protocol":17,"map":"pl_upward","folder":"tf","game":"Team Fortress","app_id":440,"player_count":0,"max_players":24,"Bots":0,"server_type":"Dedicated","server_os":"Linux","password":true,"vac":true,"version":"7708610","steam_id":85568392924510199,"keywords":["nocrits","nodmgspread","payload","uncletopia"],"game_id":440,"stv_port":0,"stv_name":"","players":null},{"server_id":11,"name":"Uncletopia | London | 1 | All Maps","name_short":"lon-1","host":"lon-1.uk.uncletopia.com","port":27015,"enabled":true,"region":"eu","cc":"gb","latitude":51.509865,"longitude":-0.118092,"reserved":0,"last_update":"0001-01-01T00:00:00Z","name_a2s":"Uncletopia | London | 1 | All Maps","protocol":17,"map":"pl_pier","folder":"tf","game":"Team Fortress","app_id":440,"player_count":24,"max_players":24,"Bots":0,"server_type":"Dedicated","server_os":"Linux","password":true,"vac":true,"version":"7708610","steam_id":85568392924367362,"keywords":["nocrits","nodmgspread","payload","uncletopia"],"game_id":440,"stv_port":27016,"stv_name":"Uncletopia | London | 1 | All Maps | STV","players":[{"user_id":375,"name":"venomew2","steam_id":76561198327081077,"connected_time":2632000000000,"state":"active","ping":166},{"user_id":318,"name":"festive jones","steam_id":76561198073975078,"connected_time":6502000000000,"state":"active","ping":45},{"user_id":400,"name":"JOHN GAMING (based)","steam_id":76561199085822219,"connected_time":270000000000,"state":"active","ping":77},{"user_id":402,"name":"SaltyCupcakes","steam_id":76561198256386417,"connected_time":172000000000,"state":"active","ping":45},{"user_id":377,"name":"stroyo","steam_id":76561198409592046,"connected_time":2532000000000,"state":"active","ping":48},{"user_id":382,"name":"MEDiUM","steam_id":76561198112328561,"connected_time":1860000000000,"state":"active","ping":79},{"user_id":371,"name":"G6 sherlock","steam_id":76561198802967796,"connected_time":3044000000000,"state":"active","ping":107},{"user_id":398,"name":"STANISLAV","steam_id":76561198007394937,"connected_time":660000000000,"state":"active","ping":91},{"user_id":379,"name":"FLOWER","steam_id":76561198043564060,"connected_time":2287000000000,"state":"active","ping":58},{"user_id":401,"name":"BreadBaubbles","steam_id":76561198174332826,"connected_time":208000000000,"state":"active","ping":55},{"user_id":383,"name":"Bonca","steam_id":76561198137503531,"connected_time":1859000000000,"state":"active","ping":67},{"user_id":335,"name":"Tasukeru","steam_id":76561198011909704,"connected_time":5367000000000,"state":"active","ping":53},{"user_id":385,"name":"Eleos","steam_id":76561198011040796,"connected_time":1823000000000,"state":"active","ping":75},{"user_id":381,"name":"chrissymas","steam_id":76561198096547662,"connected_time":1863000000000,"state":"active","ping":50},{"user_id":389,"name":"GAJtheSPY","steam_id":76561198256080023,"connected_time":1150000000000,"state":"active","ping":61},{"user_id":395,"name":"greatest legal mind i ever knew","steam_id":76561199234889615,"connected_time":750000000000,"state":"active","ping":61},{"user_id":384,"name":"eggslut","steam_id":76561198010752241,"connected_time":1848000000000,"state":"active","ping":64},{"user_id":390,"name":"Mama Freya","steam_id":76561198014573797,"connected_time":1149000000000,"state":"active","ping":74},{"user_id":365,"name":"Festive Maya","steam_id":76561198128616615,"connected_time":3458000000000,"state":"active","ping":69},{"user_id":364,"name":"Sorky","steam_id":76561198007502339,"connected_time":3520000000000,"state":"active","ping":76},{"user_id":394,"name":"SuperBob103","steam_id":76561199175360012,"connected_time":778000000000,"state":"active","ping":50},{"user_id":367,"name":"eba","steam_id":76561198309765812,"connected_time":3191000000000,"state":"active","ping":99},{"user_id":403,"name":"Zateske","steam_id":76561198047446276,"connected_time":46000000000,"state":"active","ping":67},{"user_id":373,"name":"peshay studio set 1996","steam_id":76561199026097466,"connected_time":2864000000000,"state":"active","ping":76}]},{"server_id":114,"name":"Uncletopia | London | 2 | All Maps","name_short":"lon-2","host":"lon-1.uk.uncletopia.com","port":27025,"enabled":true,"region":"eu","cc":"gb","latitude":51.509865,"longitude":-0.118092,"reserved":0,"last_update":"0001-01-01T00:00:00Z","name_a2s":"Uncletopia | London | 2 | All Maps","protocol":17,"map":"pl_frontier_final","folder":"tf","game":"Team Fortress","app_id":440,"player_count":24,"max_players":24,"Bots":0,"server_type":"Dedicated","server_os":"Linux","password":true,"vac":true,"version":"7708610","steam_id":85568392924470941,"keywords":["nocrits","nodmgspread","payload","uncletopia"],"game_id":440,"stv_port":27026,"stv_name":"Uncletopia | London | 2 | All Maps | STV","players":[{"user_id":187,"name":"deeply flawed human","steam_id":76561198072233046,"connected_time":441000000000,"state":"active","ping":77},{"user_id":115,"name":"Unit 2B","steam_id":76561198240853982,"connected_time":3944000000000,"state":"active","ping":48},{"user_id":179,"name":"Pizza/Cheese/Pepperoni","steam_id":76561198174510235,"connected_time":829000000000,"state":"active","ping":55},{"user_id":156,"name":"gorfxx","steam_id":76561198182926015,"connected_time":2084000000000,"state":"active","ping":103},{"user_id":149,"name":"sol badguy","steam_id":76561198318901730,"connected_time":2741000000000,"state":"active","ping":39},{"user_id":189,"name":"aaaaa aa aaa","steam_id":76561198377289568,"connected_time":268000000000,"state":"active","ping":64},{"user_id":177,"name":"Dr. Le Quack","steam_id":76561197995711176,"connected_time":924000000000,"state":"active","ping":93},{"user_id":182,"name":"When Life gives you Lemons","steam_id":76561198318290663,"connected_time":758000000000,"state":"active","ping":59},{"user_id":154,"name":"Ecton","steam_id":76561198025103720,"connected_time":2116000000000,"state":"active","ping":56},{"user_id":175,"name":"Bits\u0026Peices","steam_id":76561199225453607,"connected_time":1004000000000,"state":"active","ping":124},{"user_id":151,"name":"Ka","steam_id":76561198056465756,"connected_time":2153000000000,"state":"active","ping":98},{"user_id":163,"name":"gion","steam_id":76561199065121816,"connected_time":1953000000000,"state":"active","ping":89},{"user_id":183,"name":"Proofmean","steam_id":76561198878552103,"connected_time":732000000000,"state":"active","ping":57},{"user_id":188,"name":"Fan","steam_id":76561198210792815,"connected_time":339000000000,"state":"active","ping":80},{"user_id":165,"name":"daimao622","steam_id":76561198042082838,"connected_time":1479000000000,"state":"active","ping":64},{"user_id":167,"name":"hubbles","steam_id":76561197961142646,"connected_time":1454000000000,"state":"active","ping":62},{"user_id":192,"name":"miev","steam_id":76561198078278737,"connected_time":166000000000,"state":"active","ping":61},{"user_id":184,"name":"Uncle Lame","steam_id":76561198089003514,"connected_time":710000000000,"state":"active","ping":57},{"user_id":172,"name":"ducks","steam_id":76561198166148685,"connected_time":1166000000000,"state":"active","ping":30},{"user_id":145,"name":"Oddos","steam_id":76561198032029823,"connected_time":2915000000000,"state":"active","ping":81},{"user_id":176,"name":"JmGt","steam_id":76561198203764968,"connected_time":929000000000,"state":"active","ping":73},{"user_id":186,"name":"wertiop","steam_id":76561198260627072,"connected_time":643000000000,"state":"active","ping":78},{"user_id":98,"name":"boat","steam_id":76561198044915818,"connected_time":4701000000000,"state":"active","ping":84},{"user_id":168,"name":"BrownBreadMan","steam_id":76561199092834214,"connected_time":1453000000000,"state":"active","ping":48}]},{"server_id":320,"name":"Uncletopia | London | 3 | All Maps","name_short":"lon-3","host":"lon-1.uk.uncletopia.com","port":27035,"enabled":true,"region":"eu","cc":"gb","latitude":51.509865,"longitude":-0.118092,"reserved":0,"last_update":"0001-01-01T00:00:00Z","name_a2s":"Uncletopia | London | 3 | All Maps","protocol":17,"map":"pl_upward","folder":"tf","game":"Team Fortress","app_id":440,"player_count":23,"max_players":24,"Bots":0,"server_type":"Dedicated","server_os":"Linux","password":true,"vac":true,"version":"7708610","steam_id":85568392924510192,"keywords":["nocrits","nodmgspread","payload","uncletopia"],"game_id":440,"stv_port":27036,"stv_name":"Uncletopia | London | 3 | All Maps | STV","players":[{"user_id":235,"name":"thia","steam_id":76561198186366599,"connected_time":944000000000,"state":"active","ping":80},{"user_id":249,"name":"urvan","steam_id":76561198051928674,"connected_time":6000000000,"state":"spawning","ping":130},{"user_id":240,"name":"Agarwaen","steam_id":76561198110221637,"connected_time":711000000000,"state":"active","ping":88},{"user_id":236,"name":"man who smells like sand","steam_id":76561199012566222,"connected_time":783000000000,"state":"active","ping":55},{"user_id":222,"name":"Hasamnas","steam_id":76561199125038537,"connected_time":2949000000000,"state":"active","ping":54},{"user_id":210,"name":"justin_ (f2p)","steam_id":76561198839843428,"connected_time":3940000000000,"state":"active","ping":114},{"user_id":239,"name":"Bepperman","steam_id":76561198397517828,"connected_time":730000000000,"state":"active","ping":58},{"user_id":228,"name":"devan","steam_id":76561198145640129,"connected_time":2003000000000,"state":"active","ping":94},{"user_id":246,"name":"profeshional cactus","steam_id":76561198837919828,"connected_time":158000000000,"state":"active","ping":117},{"user_id":218,"name":"Grim the lemon","steam_id":76561199083433988,"connected_time":3438000000000,"state":"active","ping":49},{"user_id":243,"name":"Dr. Funkenstein","steam_id":76561197977816210,"connected_time":527000000000,"state":"active","ping":47},{"user_id":211,"name":"ran is running","steam_id":76561199443185667,"connected_time":3939000000000,"state":"active","ping":137},{"user_id":220,"name":"rotfish","steam_id":76561198169979330,"connected_time":3105000000000,"state":"active","ping":37},{"user_id":241,"name":"Mr.McNuggets","steam_id":76561199205631497,"connected_time":664000000000,"state":"active","ping":43},{"user_id":233,"name":"FrostyBob","steam_id":76561197997161148,"connected_time":1450000000000,"state":"active","ping":52},{"user_id":203,"name":"Just Navlis","steam_id":76561198090479609,"connected_time":4190000000000,"state":"active","ping":57},{"user_id":247,"name":"NonProphet","steam_id":76561198280149820,"connected_time":134000000000,"state":"active","ping":56},{"user_id":216,"name":"plazma","steam_id":76561198886594048,"connected_time":3803000000000,"state":"active","ping":97},{"user_id":225,"name":"Dr Sex","steam_id":76561198029044617,"connected_time":2854000000000,"state":"active","ping":50},{"user_id":234,"name":"99 spanking","steam_id":76561198044981124,"connected_time":1349000000000,"state":"active","ping":52},{"user_id":98,"name":"Blacksheep","steam_id":76561198019621063,"connected_time":12397000000000,"state":"active","ping":42},{"user_id":227,"name":"a bee","steam_id":76561198051828515,"connected_time":2616000000000,"state":"active","ping":41},{"user_id":238,"name":"meriones","steam_id":76561198034234373,"connected_time":745000000000,"state":"active","ping":35}]},{"server_id":321,"name":"Uncletopia | London | 4 | All Maps","name_short":"lon-4","host":"lon-1.uk.uncletopia.com","port":27045,"enabled":true,"region":"eu","cc":"gb","latitude":51.509865,"longitude":-0.118092,"reserved":0,"last_update":"0001-01-01T00:00:00Z","name_a2s":"Uncletopia | London | 4 | All Maps","protocol":17,"map":"pl_snowycoast","folder":"tf","game":"Team Fortress","app_id":440,"player_count":24,"max_players":24,"Bots":0,"server_type":"Dedicated","server_os":"Linux","password":true,"vac":true,"version":"7708610","steam_id":85568392924510193,"keywords":["nocrits","nodmgspread","payload","uncletopia"],"game_id":440,"stv_port":27046,"stv_name":"Uncletopia | London | 4 | All Maps | STV","players":[{"user_id":566,"name":"bocian2703","steam_id":76561198134203031,"connected_time":1627000000000,"state":"active","ping":64},{"user_id":583,"name":"player","steam_id":76561198054474684,"connected_time":773000000000,"state":"active","ping":83},{"user_id":590,"name":"twitch.tv/vision515","steam_id":76561198065293729,"connected_time":188000000000,"state":"active","ping":156},{"user_id":549,"name":"AHKrzych","steam_id":76561198012688555,"connected_time":2654000000000,"state":"active","ping":104},{"user_id":581,"name":"Dom.","steam_id":76561199065917088,"connected_time":862000000000,"state":"active","ping":57},{"user_id":573,"name":"Daerile","steam_id":76561198063603523,"connected_time":938000000000,"state":"active","ping":63},{"user_id":593,"name":"Enda","steam_id":76561198202980164,"connected_time":8000000000,"state":"spawning","ping":118},{"user_id":514,"name":"Goshujinsama 🌒","steam_id":76561198111706076,"connected_time":4135000000000,"state":"active","ping":46},{"user_id":539,"name":"lulu","steam_id":76561199147764133,"connected_time":3256000000000,"state":"active","ping":75},{"user_id":592,"name":"Muppburg","steam_id":76561198031070682,"connected_time":83000000000,"state":"active","ping":60},{"user_id":543,"name":"Prismoo","steam_id":76561198320524819,"connected_time":3076000000000,"state":"active","ping":54},{"user_id":553,"name":"Jeans Plus","steam_id":76561198052125103,"connected_time":2331000000000,"state":"active","ping":53},{"user_id":586,"name":"Kahvi","steam_id":76561198723244199,"connected_time":608000000000,"state":"active","ping":89},{"user_id":588,"name":"apicpatric","steam_id":76561198079191141,"connected_time":384000000000,"state":"active","ping":59},{"user_id":555,"name":"sayhellotome","steam_id":76561199105063476,"connected_time":2279000000000,"state":"active","ping":47},{"user_id":569,"name":"[Insert Oneshot refrence]","steam_id":76561198951206047,"connected_time":1195000000000,"state":"active","ping":90},{"user_id":546,"name":"Mimic","steam_id":76561198064890253,"connected_time":2902000000000,"state":"active","ping":124},{"user_id":561,"name":"dochris.2","steam_id":76561198026478625,"connected_time":2085000000000,"state":"active","ping":59},{"user_id":589,"name":"dw about it","steam_id":76561198043850884,"connected_time":365000000000,"state":"active","ping":56},{"user_id":565,"name":"Ivun","steam_id":76561198250199228,"connected_time":1786000000000,"state":"active","ping":148},{"user_id":587,"name":"Deacon Dracul","steam_id":76561198046880663,"connected_time":466000000000,"state":"active","ping":94},{"user_id":567,"name":"NatP","steam_id":76561198012083811,"connected_time":1552000000000,"state":"active","ping":73},{"user_id":571,"name":"effie♡","steam_id":76561198129649478,"connected_time":1169000000000,"state":"active","ping":57},{"user_id":562,"name":"sareena","steam_id":76561198810194062,"connected_time":2059000000000,"state":"active","ping":74}]},{"server_id":21,"name":"Uncletopia | London | 5 | All Maps","name_short":"lon-5","host":"lon-1.uk.uncletopia.com","port":27055,"enabled":true,"region":"eu","cc":"gb","latitude":51.509865,"longitude":-0.118092,"reserved":0,"last_update":"0001-01-01T00:00:00Z","name_a2s":"Uncletopia | London | 5 | All Maps","protocol":17,"map":"cp_process_final","folder":"tf","game":"Team Fortress","app_id":440,"player_count":1,"max_players":24,"Bots":0,"server_type":"Dedicated","server_os":"Linux","password":true,"vac":true,"version":"7708610","steam_id":85568392924742829,"keywords":["cp","nocrits","nodmgspread","uncletopia"],"game_id":440,"stv_port":27056,"stv_name":"Uncletopia | London | 5 | All Maps | STV","players":[{"user_id":22,"name":"L0g1c","steam_id":76561198134085329,"connected_time":467000000000,"state":"active","ping":83}]},{"server_id":22,"name":"Uncletopia | London | 6 | All Maps","name_short":"lon-6","host":"lon-1.uk.uncletopia.com","port":27065,"enabled":true,"region":"eu","cc":"gb","latitude":51.509865,"longitude":-0.118092,"reserved":0,"last_update":"0001-01-01T00:00:00Z","name_a2s":"Uncletopia | London | 6 | All Maps","protocol":17,"map":"cp_steel","folder":"tf","game":"Team Fortress","app_id":440,"player_count":0,"max_players":24,"Bots":0,"server_type":"Dedicated","server_os":"Linux","password":true,"vac":true,"version":"7708610","steam_id":85568392924742830,"keywords":["cp","nocrits","nodmgspread","uncletopia"],"game_id":440,"stv_port":27066,"stv_name":"Uncletopia | London | 6 | All Maps | STV","players":null},{"server_id":40,"name":"Uncletopia | London | 7 | No Payload","name_short":"lon-7","host":"lon-1.uk.uncletopia.com","port":27075,"enabled":true,"region":"eu","cc":"gb","latitude":51.509865,"longitude":-0.118092,"reserved":0,"last_update":"0001-01-01T00:00:00Z","name_a2s":"Uncletopia | London | 7 | No Payload","protocol":17,"map":"koth_king","folder":"tf","game":"Team Fortress","app_id":440,"player_count":0,"max_players":24,"Bots":0,"server_type":"Dedicated","server_os":"Linux","password":true,"vac":true,"version":"7708610","steam_id":85568392924964314,"keywords":["cp","nocrits","nodmgspread","uncletopia"],"game_id":440,"stv_port":27076,"stv_name":"Uncletopia | London | 7 | No Payload | STV","players":null},{"server_id":41,"name":"Uncletopia | London | 8 | Community","name_short":"lon-8","host":"lon-1.uk.uncletopia.com","port":27085,"enabled":true,"region":"eu","cc":"gb","latitude":51.509865,"longitude":-0.118092,"reserved":0,"last_update":"0001-01-01T00:00:00Z","name_a2s":"Uncletopia | London | 8 | Community","protocol":17,"map":"workshop/pl_vigil_rc9.ugc1266210012","folder":"tf","game":"Team Fortress","app_id":440,"player_count":0,"max_players":24,"Bots":0,"server_type":"Dedicated","server_os":"Linux","password":true,"vac":true,"version":"7708610","steam_id":85568392924964315,"keywords":["nocrits","nodmgspread","payload","uncletopia"],"game_id":440,"stv_port":27086,"stv_name":"Uncletopia | London | 8 | Community | STV","players":null},{"server_id":300,"name":"Uncletopia | Montréal | 1 | All Maps","name_short":"mtl-1","host":"mtl-1.ca.uncletopia.com","port":27015,"enabled":true,"region":"us-east","cc":"ca","latitude":45.50889,"longitude":-73.56167,"reserved":0,"last_update":"0001-01-01T00:00:00Z","name_a2s":"Uncletopia | Montréal | 1 | All Maps","protocol":17,"map":"pl_barnblitz","folder":"tf","game":"Team Fortress","app_id":440,"player_count":0,"max_players":24,"Bots":0,"server_type":"Dedicated","server_os":"Linux","password":true,"vac":true,"version":"7708610","steam_id":85568392924500087,"keywords":["nocrits","nodmgspread","payload","uncletopia"],"game_id":440,"stv_port":0,"stv_name":"","players":null},{"server_id":301,"name":"Uncletopia | Montréal | 2 | All Maps","name_short":"mtl-2","host":"mtl-1.ca.uncletopia.com","port":27025,"enabled":true,"region":"us-east","cc":"ca","latitude":45.50889,"longitude":-73.56167,"reserved":0,"last_update":"0001-01-01T00:00:00Z","name_a2s":"Uncletopia | Montréal | 2 | All Maps","protocol":17,"map":"pl_frontier_final","folder":"tf","game":"Team Fortress","app_id":440,"player_count":0,"max_players":24,"Bots":0,"server_type":"Dedicated","server_os":"Linux","password":true,"vac":true,"version":"7708610","steam_id":85568392924500088,"keywords":["nocrits","nodmgspread","payload","uncletopia"],"game_id":440,"stv_port":0,"stv_name":"","players":null},{"server_id":302,"name":"Uncletopia | Montréal | 3 | All Maps","name_short":"mtl-3","host":"mtl-1.ca.uncletopia.com","port":27035,"enabled":true,"region":"us-east","cc":"ca","latitude":45.50889,"longitude":-73.56167,"reserved":0,"last_update":"0001-01-01T00:00:00Z","name_a2s":"Uncletopia | Montréal | 3 | All Maps","protocol":17,"map":"cp_snakewater_final1","folder":"tf","game":"Team Fortress","app_id":440,"player_count":0,"max_players":24,"Bots":0,"server_type":"Dedicated","server_os":"Linux","password":true,"vac":true,"version":"7708610","steam_id":85568392924500089,"keywords":["cp","nocrits","nodmgspread","uncletopia"],"game_id":440,"stv_port":27036,"stv_name":"Uncletopia | Montréal | 3 | All Maps | STV","players":null},{"server_id":303,"name":"Uncletopia | Montréal | 4 | No Payload","name_short":"mtl-4","host":"mtl-1.ca.uncletopia.com","port":27045,"enabled":true,"region":"us-east","cc":"ca","latitude":45.50889,"longitude":-73.56167,"reserved":0,"last_update":"0001-01-01T00:00:00Z","name_a2s":"Uncletopia | Montréal | 4 | No Payload","protocol":17,"map":"pl_frontier_final","folder":"tf","game":"Team Fortress","app_id":440,"player_count":0,"max_players":24,"Bots":0,"server_type":"Dedicated","server_os":"Linux","password":true,"vac":true,"version":"7708610","steam_id":85568392924500090,"keywords":["nocrits","nodmgspread","payload","uncletopia"],"game_id":440,"stv_port":0,"stv_name":"","players":null},{"server_id":13,"name":"Uncletopia | New York City | 1 | All Maps","name_short":"nyc-1","host":"nyc-1.us.uncletopia.com","port":27015,"enabled":true,"region":"us-east","cc":"us","latitude":40.73061,"longitude":-73.93524,"reserved":0,"last_update":"0001-01-01T00:00:00Z","name_a2s":"Uncletopia | New York City | 1 | All Maps","protocol":17,"map":"pl_upward","folder":"tf","game":"Team Fortress","app_id":440,"player_count":24,"max_players":24,"Bots":0,"server_type":"Dedicated","server_os":"Linux","password":true,"vac":true,"version":"7708610","steam_id":85568392924469993,"keywords":["nocrits","nodmgspread","payload","uncletopia"],"game_id":440,"stv_port":27016,"stv_name":"Uncletopia | New York City | 1 | All Maps | STV","players":[{"user_id":151,"name":"Portizz","steam_id":76561198095732366,"connected_time":2229000000000,"state":"active","ping":62},{"user_id":177,"name":"dearender","steam_id":76561199427644498,"connected_time":368000000000,"state":"active","ping":114},{"user_id":163,"name":"NoonCity","steam_id":76561198010165479,"connected_time":1501000000000,"state":"active","ping":47},{"user_id":140,"name":"Amogus The Sussy Baka ඞ","steam_id":76561198008577961,"connected_time":4103000000000,"state":"active","ping":67},{"user_id":175,"name":"ShiddyKong","steam_id":76561198189742189,"connected_time":476000000000,"state":"active","ping":76},{"user_id":22,"name":"Jenkinsrichmond","steam_id":76561198174051530,"connected_time":8594000000000,"state":"active","ping":45},{"user_id":174,"name":"Alanolex","steam_id":76561198104500504,"connected_time":510000000000,"state":"active","ping":42},{"user_id":150,"name":"xenolith","steam_id":76561198041496496,"connected_time":2340000000000,"state":"active","ping":52},{"user_id":188,"name":"Þórr vígi","steam_id":76561198026281887,"connected_time":39000000000,"state":"active","ping":64},{"user_id":178,"name":"HarryjusttHarry","steam_id":76561198982810452,"connected_time":300000000000,"state":"active","ping":77},{"user_id":179,"name":"fal901","steam_id":76561198288491241,"connected_time":197000000000,"state":"active","ping":51},{"user_id":166,"name":"Jude","steam_id":76561198041832304,"connected_time":1381000000000,"state":"active","ping":66},{"user_id":169,"name":".:ckm:.","steam_id":76561197997611221,"connected_time":1147000000000,"state":"active","ping":63},{"user_id":180,"name":"็","steam_id":76561198039763676,"connected_time":194000000000,"state":"active","ping":75},{"user_id":185,"name":"Provocator","steam_id":76561197961830410,"connected_time":158000000000,"state":"active","ping":87},{"user_id":182,"name":"Joshy","steam_id":76561198061405421,"connected_time":175000000000,"state":"active","ping":66},{"user_id":85,"name":"rolt bagger","steam_id":76561198026664629,"connected_time":6739000000000,"state":"active","ping":53},{"user_id":154,"name":"E102 GAMMA","steam_id":76561199093844750,"connected_time":2077000000000,"state":"active","ping":57},{"user_id":170,"name":"Theo","steam_id":76561198132031026,"connected_time":1081000000000,"state":"active","ping":51},{"user_id":172,"name":"Probably_Luke","steam_id":76561198180891187,"connected_time":941000000000,"state":"active","ping":60},{"user_id":183,"name":"Spectre","steam_id":76561198020088922,"connected_time":173000000000,"state":"active","ping":74},{"user_id":184,"name":"Spike","steam_id":76561198987878236,"connected_time":164000000000,"state":"active","ping":47},{"user_id":187,"name":"Raid (lavender scent)","steam_id":76561199205213473,"connected_time":93000000000,"state":"active","ping":55},{"user_id":149,"name":"firetamer2","steam_id":76561198040886980,"connected_time":2851000000000,"state":"active","ping":46}]},{"server_id":14,"name":"Uncletopia | New York City | 2 | All Maps","name_short":"nyc-2","host":"nyc-1.us.uncletopia.com","port":27025,"enabled":true,"region":"us-east","cc":"us","latitude":40.73061,"longitude":-73.93524,"reserved":0,"last_update":"0001-01-01T00:00:00Z","name_a2s":"Uncletopia | New York City | 2 | All Maps","protocol":17,"map":"pl_borneo","folder":"tf","game":"Team Fortress","app_id":440,"player_count":24,"max_players":24,"Bots":0,"server_type":"Dedicated","server_os":"Linux","password":true,"vac":true,"version":"7708610","steam_id":85568392924469994,"keywords":["nocrits","nodmgspread","payload","uncletopia"],"game_id":440,"stv_port":27026,"stv_name":"Uncletopia | New York City | 2 | All Maps | STV","players":[{"user_id":105,"name":"The Fortress From Team Fortress","steam_id":76561198081422503,"connected_time":1064000000000,"state":"active","ping":91},{"user_id":97,"name":"Radical Centrist","steam_id":76561198071883643,"connected_time":1906000000000,"state":"active","ping":74},{"user_id":98,"name":"Moe the lawn \u003c3","steam_id":76561198195620945,"connected_time":1818000000000,"state":"active","ping":65},{"user_id":74,"name":"RyanDCB [Real]","steam_id":76561198040138739,"connected_time":3677000000000,"state":"active","ping":56},{"user_id":41,"name":"ToeSniffer1992","steam_id":76561199134895220,"connected_time":5045000000000,"state":"active","ping":49},{"user_id":31,"name":"Polygunner","steam_id":76561199165741650,"connected_time":5838000000000,"state":"active","ping":65},{"user_id":99,"name":"Nibelsnarf","steam_id":76561198137642054,"connected_time":1748000000000,"state":"active","ping":59},{"user_id":104,"name":"Frosty The Swoleman","steam_id":76561198066433404,"connected_time":1659000000000,"state":"active","ping":91},{"user_id":107,"name":"shadow6","steam_id":76561197979807910,"connected_time":1046000000000,"state":"active","ping":122},{"user_id":84,"name":"Mackola","steam_id":76561198125958792,"connected_time":2852000000000,"state":"active","ping":62},{"user_id":42,"name":"AshSux","steam_id":76561198065697849,"connected_time":5020000000000,"state":"active","ping":48},{"user_id":91,"name":"japanese cowboy","steam_id":76561198072105269,"connected_time":2201000000000,"state":"active","ping":43},{"user_id":89,"name":"chef","steam_id":76561198883310035,"connected_time":2424000000000,"state":"active","ping":70},{"user_id":44,"name":"Sir Jangle","steam_id":76561198038142389,"connected_time":4997000000000,"state":"active","ping":89},{"user_id":45,"name":"You Don't Nomi.","steam_id":76561197969137836,"connected_time":4964000000000,"state":"active","ping":52},{"user_id":106,"name":"Phroliax","steam_id":76561198207075529,"connected_time":1063000000000,"state":"active","ping":81},{"user_id":83,"name":"Phocae \u003c3","steam_id":76561199317584594,"connected_time":2906000000000,"state":"active","ping":64},{"user_id":108,"name":"Rudy","steam_id":76561198013456828,"connected_time":1014000000000,"state":"active","ping":53},{"user_id":101,"name":"KORF","steam_id":76561197981904410,"connected_time":1727000000000,"state":"active","ping":78},{"user_id":102,"name":"drywall puncher","steam_id":76561198050340736,"connected_time":1691000000000,"state":"active","ping":75},{"user_id":52,"name":"reis","steam_id":76561199232952016,"connected_time":4827000000000,"state":"active","ping":181},{"user_id":103,"name":"Amar Adi the IV","steam_id":76561199030160932,"connected_time":1684000000000,"state":"active","ping":86},{"user_id":90,"name":"igbygames","steam_id":76561199169224041,"connected_time":2256000000000,"state":"active","ping":88},{"user_id":87,"name":"crabapples","steam_id":76561198075818655,"connected_time":2754000000000,"state":"active","ping":62}]},{"server_id":15,"name":"Uncletopia | New York City | 3 | All Maps","name_short":"nyc-3","host":"nyc-1.us.uncletopia.com","port":27035,"enabled":true,"region":"us-east","cc":"us","latitude":40.73061,"longitude":-73.93524,"reserved":0,"last_update":"0001-01-01T00:00:00Z","name_a2s":"Uncletopia | New York City | 3 | All Maps","protocol":17,"map":"koth_viaduct","folder":"tf","game":"Team Fortress","app_id":440,"player_count":0,"max_players":24,"Bots":0,"server_type":"Dedicated","server_os":"Linux","password":true,"vac":true,"version":"7708610","steam_id":85568392924742820,"keywords":["cp","nocrits","nodmgspread","uncletopia"],"game_id":440,"stv_port":27036,"stv_name":"Uncletopia | New York City | 3 | All Maps | STV","players":null},{"server_id":16,"name":"Uncletopia | New York City | 4 | Community","name_short":"nyc-4","host":"nyc-1.us.uncletopia.com","port":27045,"enabled":true,"region":"us-east","cc":"us","latitude":40.73061,"longitude":-73.93524,"reserved":0,"last_update":"0001-01-01T00:00:00Z","name_a2s":"Uncletopia | New York City | 4 | Community","protocol":17,"map":"pl_badwater","folder":"tf","game":"Team Fortress","app_id":440,"player_count":0,"max_players":24,"Bots":0,"server_type":"Dedicated","server_os":"Linux","password":true,"vac":true,"version":"7708610","steam_id":85568392924742821,"keywords":["nocrits","nodmgspread","payload","uncletopia"],"game_id":440,"stv_port":0,"stv_name":"","players":null},{"server_id":142,"name":"Uncletopia | São Paulo | 1 | All Maps","name_short":"sao-1","host":"sao-1.br.uncletopia.com","port":27015,"enabled":true,"region":"sa","cc":"br","latitude":-23.533773,"longitude":-46.62529,"reserved":0,"last_update":"0001-01-01T00:00:00Z","name_a2s":"Uncletopia | São Paulo | 1 | All Maps","protocol":17,"map":"pl_pier","folder":"tf","game":"Team Fortress","app_id":440,"player_count":24,"max_players":24,"Bots":0,"server_type":"Dedicated","server_os":"Linux","password":true,"vac":true,"version":"7708610","steam_id":85568392924469996,"keywords":["nocrits","nodmgspread","payload","uncletopia"],"game_id":440,"stv_port":27016,"stv_name":"Uncletopia | São Paulo | 1 | All Maps | STV","players":[{"user_id":120,"name":"3fu23141wv6fn46y","steam_id":76561199383789041,"connected_time":2619000000000,"state":"active","ping":39},{"user_id":107,"name":"[-LC-] Sir Crusher","steam_id":76561198124065641,"connected_time":4044000000000,"state":"active","ping":56},{"user_id":98,"name":"yuki.pdf ***********","steam_id":76561198984672732,"connected_time":4237000000000,"state":"active","ping":63},{"user_id":144,"name":"Momo","steam_id":76561198143438576,"connected_time":1384000000000,"state":"active","ping":40},{"user_id":133,"name":"HeadShotGamerBR","steam_id":76561198116856702,"connected_time":1978000000000,"state":"active","ping":61},{"user_id":155,"name":"Marmo \u003e_","steam_id":76561198213744979,"connected_time":527000000000,"state":"active","ping":61},{"user_id":148,"name":"El Raoni","steam_id":76561199192922014,"connected_time":982000000000,"state":"active","ping":134},{"user_id":159,"name":"mathhzsav8","steam_id":76561199379989272,"connected_time":305000000000,"state":"spawning","ping":102},{"user_id":121,"name":"Rodiza","steam_id":76561198069029324,"connected_time":2574000000000,"state":"active","ping":41},{"user_id":134,"name":"delta","steam_id":76561198288966901,"connected_time":1914000000000,"state":"active","ping":50},{"user_id":152,"name":"chocolatehue","steam_id":76561198038394422,"connected_time":560000000000,"state":"active","ping":49},{"user_id":102,"name":"jao com um mousepad 15x20","steam_id":76561198408082822,"connected_time":4159000000000,"state":"active","ping":50},{"user_id":156,"name":"Billosky Time Lord","steam_id":76561199159626560,"connected_time":366000000000,"state":"active","ping":130},{"user_id":94,"name":"niruma","steam_id":76561198067799345,"connected_time":4423000000000,"state":"active","ping":45},{"user_id":140,"name":"ShinGojira[BR]","steam_id":76561199199037141,"connected_time":1630000000000,"state":"active","ping":97},{"user_id":108,"name":"Pathetic","steam_id":76561198051056987,"connected_time":3872000000000,"state":"active","ping":61},{"user_id":141,"name":"igor23194","steam_id":76561198206687968,"connected_time":1567000000000,"state":"active","ping":50},{"user_id":150,"name":"n1nja","steam_id":76561198070597880,"connected_time":771000000000,"state":"active","ping":45},{"user_id":142,"name":"FAN","steam_id":76561198044587130,"connected_time":1516000000000,"state":"active","ping":52},{"user_id":154,"name":"GabrielCB","steam_id":76561198060023858,"connected_time":539000000000,"state":"active","ping":60},{"user_id":143,"name":"Shady","steam_id":76561198986106223,"connected_time":1506000000000,"state":"active","ping":69},{"user_id":119,"name":"Thompy","steam_id":76561199409024712,"connected_time":2656000000000,"state":"active","ping":60},{"user_id":157,"name":"Zoom!","steam_id":76561198289562649,"connected_time":362000000000,"state":"active","ping":45},{"user_id":158,"name":"Jacks","steam_id":76561198063345641,"connected_time":349000000000,"state":"active","ping":59}]},{"server_id":143,"name":"Uncletopia | São Paulo | 2 | All Maps","name_short":"sao-2","host":"sao-2.br.uncletopia.com","port":27015,"enabled":true,"region":"sa","cc":"br","latitude":-23.533773,"longitude":-46.62529,"reserved":0,"last_update":"0001-01-01T00:00:00Z","name_a2s":"Uncletopia | São Paulo | 2 | All Maps","protocol":17,"map":"koth_brazil","folder":"tf","game":"Team Fortress","app_id":440,"player_count":5,"max_players":24,"Bots":0,"server_type":"Dedicated","server_os":"Linux","password":true,"vac":true,"version":"7708610","steam_id":85568392924485349,"keywords":["cp","nocrits","nodmgspread","uncletopia"],"game_id":440,"stv_port":27016,"stv_name":"Uncletopia | São Paulo | 2 | All Maps | STV","players":[{"user_id":11,"name":"guarda-chuva","steam_id":76561198078694330,"connected_time":1468000000000,"state":"connecting","ping":318},{"user_id":12,"name":"Tert_14","steam_id":76561198185952289,"connected_time":1456000000000,"state":"connecting","ping":74},{"user_id":13,"name":"funny","steam_id":76561198372020358,"connected_time":1403000000000,"state":"connecting","ping":43},{"user_id":15,"name":"siirtyaoliveira","steam_id":76561199176805537,"connected_time":519000000000,"state":"spawning","ping":58},{"user_id":16,"name":"jr_rusty","steam_id":76561198313937899,"connected_time":75000000000,"state":"spawning","ping":61}]},{"server_id":7,"name":"Uncletopia | Seattle | 1 | All Maps","name_short":"sea-1","host":"sea-1.us.uncletopia.com","port":27015,"enabled":true,"region":"us-west","cc":"us","latitude":47.608013,"longitude":-122.33517,"reserved":0,"last_update":"0001-01-01T00:00:00Z","name_a2s":"Uncletopia | Seattle | 1 | All Maps","protocol":17,"map":"pl_pier","folder":"tf","game":"Team Fortress","app_id":440,"player_count":24,"max_players":24,"Bots":0,"server_type":"Dedicated","server_os":"Linux","password":true,"vac":true,"version":"7708610","steam_id":85568392924469997,"keywords":["nocrits","nodmgspread","payload","uncletopia"],"game_id":440,"stv_port":27016,"stv_name":"Uncletopia | Seattle | 1 | All Maps | STV","players":[{"user_id":4,"name":"Knightmare Steel","steam_id":76561198091116020,"connected_time":4103000000000,"state":"active","ping":55},{"user_id":14,"name":"Mom","steam_id":76561198207936000,"connected_time":2399000000000,"state":"active","ping":75},{"user_id":55,"name":"cooperson","steam_id":76561198276866938,"connected_time":430000000000,"state":"active","ping":115},{"user_id":61,"name":"righty","steam_id":76561198045260412,"connected_time":69000000000,"state":"active","ping":71},{"user_id":50,"name":"Dedlock","steam_id":76561198046290002,"connected_time":586000000000,"state":"active","ping":53},{"user_id":15,"name":"im trying my best","steam_id":76561198919095185,"connected_time":2340000000000,"state":"active","ping":109},{"user_id":60,"name":"Diesel","steam_id":76561198448815852,"connected_time":162000000000,"state":"active","ping":56},{"user_id":29,"name":"El Chunko","steam_id":76561198839459309,"connected_time":1693000000000,"state":"active","ping":104},{"user_id":22,"name":"nfseskimo","steam_id":76561198078745666,"connected_time":2135000000000,"state":"active","ping":41},{"user_id":33,"name":"scrinkle","steam_id":76561199350870177,"connected_time":1513000000000,"state":"active","ping":110},{"user_id":51,"name":"sniffy","steam_id":76561198184933255,"connected_time":570000000000,"state":"active","ping":80},{"user_id":52,"name":"SesataPomang","steam_id":76561198145133059,"connected_time":559000000000,"state":"active","ping":95},{"user_id":59,"name":"boo","steam_id":76561198046073848,"connected_time":246000000000,"state":"active","ping":45},{"user_id":56,"name":"joebot","steam_id":76561197975606100,"connected_time":410000000000,"state":"active","ping":117},{"user_id":57,"name":"ZEKKER","steam_id":76561197967968980,"connected_time":331000000000,"state":"active","ping":47},{"user_id":36,"name":"dust","steam_id":76561198045218909,"connected_time":1349000000000,"state":"active","ping":40},{"user_id":63,"name":"Loogie","steam_id":76561198858732642,"connected_time":11000000000,"state":"spawning","ping":64},{"user_id":40,"name":"max","steam_id":76561198044219884,"connected_time":1161000000000,"state":"active","ping":38},{"user_id":48,"name":"Brison","steam_id":76561197993377761,"connected_time":715000000000,"state":"active","ping":56},{"user_id":42,"name":"FizeePop","steam_id":76561199088679205,"connected_time":1118000000000,"state":"active","ping":75},{"user_id":43,"name":"Rix FPV","steam_id":76561198299320893,"connected_time":1013000000000,"state":"active","ping":113},{"user_id":45,"name":"Jface1221","steam_id":76561198188082091,"connected_time":965000000000,"state":"active","ping":79},{"user_id":46,"name":"Aux","steam_id":76561199091651065,"connected_time":929000000000,"state":"active","ping":69},{"user_id":49,"name":"The Horny","steam_id":76561198863639459,"connected_time":715000000000,"state":"active","ping":66}]},{"server_id":119,"name":"Uncletopia | Seattle | 2 | All Maps","name_short":"sea-2","host":"sea-1.us.uncletopia.com","port":27025,"enabled":true,"region":"us-west","cc":"us","latitude":47.608013,"longitude":-122.33517,"reserved":0,"last_update":"0001-01-01T00:00:00Z","name_a2s":"Uncletopia | Seattle | 2 | All Maps","protocol":17,"map":"cp_mountainlab","folder":"tf","game":"Team Fortress","app_id":440,"player_count":0,"max_players":24,"Bots":0,"server_type":"Dedicated","server_os":"Linux","password":true,"vac":true,"version":"7708610","steam_id":85568392924469998,"keywords":["cp","nocrits","nodmgspread","uncletopia"],"game_id":440,"stv_port":27026,"stv_name":"Uncletopia | Seattle | 2 | All Maps | STV","players":null},{"server_id":17,"name":"Uncletopia | San Francisco | 1 | All Maps","name_short":"sfo-1","host":"sfo-1.us.uncletopia.com","port":27015,"enabled":true,"region":"us-west","cc":"us","latitude":37.77397,"longitude":-122.4313,"reserved":0,"last_update":"0001-01-01T00:00:00Z","name_a2s":"Uncletopia | San Francisco | 1 | All Maps","protocol":17,"map":"cp_sunshine","folder":"tf","game":"Team Fortress","app_id":440,"player_count":0,"max_players":24,"Bots":0,"server_type":"Dedicated","server_os":"Linux","password":true,"vac":true,"version":"7708610","steam_id":85568392924469999,"keywords":["cp","nocrits","nodmgspread","uncletopia"],"game_id":440,"stv_port":0,"stv_name":"","players":null},{"server_id":18,"name":"Uncletopia | San Francisco | 2 | All Maps","name_short":"sfo-2","host":"sfo-1.us.uncletopia.com","port":27025,"enabled":true,"region":"us-west","cc":"us","latitude":37.77397,"longitude":-122.4313,"reserved":0,"last_update":"0001-01-01T00:00:00Z","name_a2s":"Uncletopia | San Francisco | 2 | All Maps","protocol":17,"map":"koth_cascade","folder":"tf","game":"Team Fortress","app_id":440,"player_count":0,"max_players":24,"Bots":0,"server_type":"Dedicated","server_os":"Linux","password":true,"vac":true,"version":"7708610","steam_id":85568392924470000,"keywords":["cp","nocrits","nodmgspread","uncletopia"],"game_id":440,"stv_port":0,"stv_name":"","players":null},{"server_id":19,"name":"Uncletopia | San Francisco | 3 | No Payload","name_short":"sfo-3","host":"sfo-1.us.uncletopia.com","port":27035,"enabled":true,"region":"us-west","cc":"us","latitude":37.77397,"longitude":-122.4313,"reserved":0,"last_update":"0001-01-01T00:00:00Z","name_a2s":"Uncletopia | San Francisco | 3 | No Payload","protocol":17,"map":"cp_snakewater_final1","folder":"tf","game":"Team Fortress","app_id":440,"player_count":0,"max_players":24,"Bots":0,"server_type":"Dedicated","server_os":"Linux","password":true,"vac":true,"version":"7708610","steam_id":85568392924742824,"keywords":["cp","nocrits","nodmgspread","uncletopia"],"game_id":440,"stv_port":0,"stv_name":"","players":null},{"server_id":20,"name":"Uncletopia | San Francisco | 4 | Community","name_short":"sfo-4","host":"sfo-1.us.uncletopia.com","port":27045,"enabled":true,"region":"us-west","cc":"us","latitude":37.77397,"longitude":-122.4313,"reserved":0,"last_update":"0001-01-01T00:00:00Z","name_a2s":"Uncletopia | San Francisco | 4 | Community","protocol":17,"map":"pl_barnblitz","folder":"tf","game":"Team Fortress","app_id":440,"player_count":0,"max_players":24,"Bots":0,"server_type":"Dedicated","server_os":"Linux","password":true,"vac":true,"version":"7708610","steam_id":85568392924742826,"keywords":["nocrits","nodmgspread","payload","uncletopia"],"game_id":440,"stv_port":0,"stv_name":"","players":null},{"server_id":141,"name":"Uncletopia | Sydney | 1 | All Maps","name_short":"syd-1","host":"syd-1.au.uncletopia.com","port":27015,"enabled":true,"region":"au","cc":"au","latitude":-33.865143,"longitude":151.2099,"reserved":0,"last_update":"0001-01-01T00:00:00Z","name_a2s":"Uncletopia | Sydney | 1 | All Maps","protocol":17,"map":"koth_cascade","folder":"tf","game":"Team Fortress","app_id":440,"player_count":0,"max_players":24,"Bots":0,"server_type":"Dedicated","server_os":"Linux","password":true,"vac":true,"version":"7708610","steam_id":85568392924470001,"keywords":["cp","nocrits","nodmgspread","uncletopia"],"game_id":440,"stv_port":27016,"stv_name":"Uncletopia | Sydney | 1 | All Maps | STV","players":null},{"server_id":123,"name":"Uncletopia | Sydney | 2 | All Maps","name_short":"syd-2","host":"syd-1.au.uncletopia.com","port":27025,"enabled":true,"region":"au","cc":"au","latitude":-33.865143,"longitude":151.2099,"reserved":0,"last_update":"0001-01-01T00:00:00Z","name_a2s":"Uncletopia | Sydney | 2 | All Maps","protocol":17,"map":"koth_cascade","folder":"tf","game":"Team Fortress","app_id":440,"player_count":0,"max_players":24,"Bots":0,"server_type":"Dedicated","server_os":"Linux","password":true,"vac":true,"version":"7708610","steam_id":85568392924470002,"keywords":["cp","nocrits","nodmgspread","uncletopia"],"game_id":440,"stv_port":27026,"stv_name":"Uncletopia | Sydney | 2 | All Maps | STV","players":null},{"server_id":395,"name":"Uncletopia | Sydney | 3 | All Maps","name_short":"syd-3","host":"syd-1.au.uncletopia.com","port":27035,"enabled":true,"region":"au","cc":"au","latitude":-33.865143,"longitude":151.2099,"reserved":0,"last_update":"0001-01-01T00:00:00Z","name_a2s":"Uncletopia | Sydney | 3 | All Maps","protocol":17,"map":"koth_viaduct","folder":"tf","game":"Team Fortress","app_id":440,"player_count":0,"max_players":24,"Bots":0,"server_type":"Dedicated","server_os":"Linux","password":true,"vac":true,"version":"7708610","steam_id":85568392925194467,"keywords":["cp","nocrits","nodmgspread","uncletopia"],"game_id":440,"stv_port":27036,"stv_name":"Uncletopia | Sydney | 3 | All Maps | STV","players":null},{"server_id":396,"name":"Uncletopia | Sydney | 4 | All Maps","name_short":"syd-4","host":"syd-1.au.uncletopia.com","port":27045,"enabled":true,"region":"au","cc":"au","latitude":-33.865143,"longitude":151.2099,"reserved":0,"last_update":"0001-01-01T00:00:00Z","name_a2s":"Uncletopia | Sydney | 4 | All Maps","protocol":17,"map":"pl_barnblitz","folder":"tf","game":"Team Fortress","app_id":440,"player_count":0,"max_players":24,"Bots":0,"server_type":"Dedicated","server_os":"Linux","password":true,"vac":true,"version":"7708610","steam_id":85568392925397958,"keywords":["nocrits","nodmgspread","payload","uncletopia"],"game_id":440,"stv_port":27046,"stv_name":"Uncletopia | Sydney | 4 | All Maps | STV","players":null},{"server_id":58,"name":"Uncletopia | Sydney | 5 | No Payload","name_short":"syd-5","host":"syd-1.au.uncletopia.com","port":27055,"enabled":true,"region":"au","cc":"au","latitude":-33.865143,"longitude":151.2099,"reserved":0,"last_update":"0001-01-01T00:00:00Z","name_a2s":"Uncletopia | Sydney | 5 | No Payload","protocol":17,"map":"koth_cascade","folder":"tf","game":"Team Fortress","app_id":440,"player_count":0,"max_players":24,"Bots":0,"server_type":"Dedicated","server_os":"Linux","password":true,"vac":true,"version":"7708610","steam_id":85568392925397959,"keywords":["cp","nocrits","nodmgspread","uncletopia"],"game_id":440,"stv_port":0,"stv_name":"","players":null},{"server_id":59,"name":"Uncletopia | Sydney | 6 | Community","name_short":"syd-6","host":"syd-1.au.uncletopia.com","port":27065,"enabled":true,"region":"au","cc":"au","latitude":-33.865143,"longitude":151.2099,"reserved":0,"last_update":"0001-01-01T00:00:00Z","name_a2s":"Uncletopia | Sydney | 6 | Community","protocol":17,"map":"workshop/koth_synthetic_rc6a.ugc1549817316","folder":"tf","game":"Team Fortress","app_id":440,"player_count":0,"max_players":24,"Bots":0,"server_type":"Dedicated","server_os":"Linux","password":true,"vac":true,"version":"7708610","steam_id":85568392925397960,"keywords":["cp","nocrits","nodmgspread","uncletopia"],"game_id":440,"stv_port":27066,"stv_name":"Uncletopia | Sydney | 6 | Community | STV","players":null},{"server_id":49,"name":"Uncletopia | Warsaw | 1 | All Maps","name_short":"waw-1","host":"waw-1.pl.uncletopia.com","port":27015,"enabled":true,"region":"eu","cc":"pl","latitude":52.2297,"longitude":21.017532,"reserved":0,"last_update":"0001-01-01T00:00:00Z","name_a2s":"Uncletopia | Warsaw | 1 | All Maps","protocol":17,"map":"pl_barnblitz","folder":"tf","game":"Team Fortress","app_id":440,"player_count":0,"max_players":24,"Bots":0,"server_type":"Dedicated","server_os":"Linux","password":true,"vac":true,"version":"7708610","steam_id":85568392925397850,"keywords":["nocrits","nodmgspread","payload","uncletopia"],"game_id":440,"stv_port":27016,"stv_name":"Uncletopia | Warsaw | 1 | All Maps | STV","players":null},{"server_id":50,"name":"Uncletopia | Warsaw | 2 | All Maps","name_short":"waw-2","host":"waw-1.pl.uncletopia.com","port":27025,"enabled":true,"region":"eu","cc":"pl","latitude":52.2297,"longitude":21.017532,"reserved":0,"last_update":"0001-01-01T00:00:00Z","name_a2s":"Uncletopia | Warsaw | 2 | All Maps","protocol":17,"map":"koth_highpass","folder":"tf","game":"Team Fortress","app_id":440,"player_count":0,"max_players":24,"Bots":0,"server_type":"Dedicated","server_os":"Linux","password":true,"vac":true,"version":"7708610","steam_id":85568392925397851,"keywords":["cp","nocrits","nodmgspread","uncletopia"],"game_id":440,"stv_port":27026,"stv_name":"Uncletopia | Warsaw | 2 | All Maps | STV","players":null},{"server_id":51,"name":"Uncletopia | Warsaw | 3 | All Maps","name_short":"waw-3","host":"waw-1.pl.uncletopia.com","port":27035,"enabled":true,"region":"eu","cc":"pl","latitude":52.2297,"longitude":21.017532,"reserved":0,"last_update":"0001-01-01T00:00:00Z","name_a2s":"Uncletopia | Warsaw | 3 | All Maps","protocol":17,"map":"koth_cascade","folder":"tf","game":"Team Fortress","app_id":440,"player_count":0,"max_players":24,"Bots":0,"server_type":"Dedicated","server_os":"Linux","password":true,"vac":true,"version":"7708610","steam_id":85568392925397852,"keywords":["cp","nocrits","nodmgspread","uncletopia"],"game_id":440,"stv_port":0,"stv_name":"","players":null},{"server_id":52,"name":"Uncletopia | Warsaw | 4 | All Maps","name_short":"waw-4","host":"waw-1.pl.uncletopia.com","port":27045,"enabled":true,"region":"eu","cc":"pl","latitude":52.2297,"longitude":21.017532,"reserved":0,"last_update":"0001-01-01T00:00:00Z","name_a2s":"Uncletopia | Warsaw | 4 | All Maps","protocol":17,"map":"pl_badwater","folder":"tf","game":"Team Fortress","app_id":440,"player_count":0,"max_players":24,"Bots":0,"server_type":"Dedicated","server_os":"Linux","password":true,"vac":true,"version":"7708610","steam_id":85568392925397853,"keywords":["nocrits","nodmgspread","payload","uncletopia"],"game_id":440,"stv_port":27046,"stv_name":"Uncletopia | Warsaw | 4 | All Maps | STV","players":null},{"server_id":53,"name":"Uncletopia | Warsaw | 5 | No Payload","name_short":"waw-5","host":"waw-1.pl.uncletopia.com","port":27055,"enabled":true,"region":"eu","cc":"pl","latitude":52.2297,"longitude":21.017532,"reserved":0,"last_update":"0001-01-01T00:00:00Z","name_a2s":"Uncletopia | Warsaw | 5 | No Payload","protocol":17,"map":"cp_steel","folder":"tf","game":"Team Fortress","app_id":440,"player_count":0,"max_players":24,"Bots":0,"server_type":"Dedicated","server_os":"Linux","password":true,"vac":true,"version":"7708610","steam_id":85568392925397854,"keywords":["cp","nocrits","nodmgspread","uncletopia"],"game_id":440,"stv_port":27056,"stv_name":"Uncletopia | Warsaw | 5 | No Payload | STV","players":null},{"server_id":54,"name":"Uncletopia | Warsaw | 6 | Community","name_short":"waw-6","host":"waw-1.pl.uncletopia.com","port":27065,"enabled":true,"region":"eu","cc":"pl","latitude":52.2297,"longitude":21.017532,"reserved":0,"last_update":"0001-01-01T00:00:00Z","name_a2s":"Uncletopia | Warsaw | 6 | Community","protocol":17,"map":"koth_highpass","folder":"tf","game":"Team Fortress","app_id":440,"player_count":0,"max_players":24,"Bots":0,"server_type":"Dedicated","server_os":"Linux","password":true,"vac":true,"version":"7708610","steam_id":85568392925397856,"keywords":["cp","nocrits","nodmgspread","uncletopia"],"game_id":440,"stv_port":0,"stv_name":"","players":null}]}