{"status":true,"message":"","result":[{"server_id":2,"name":"Uncletopia | Chicago | 1 | All Maps","name_short":"chi-1","host":"chi-1.us.uncletopia.com","port":27015,"enabled":true,"region":"us-central","cc":"us","latitude":41.881832,"longitude":-87.62318,"reserved":0,"last_update":"0001-01-01T00:00:00Z","name_a2s":"Uncletopia | Chicago | 1 | All Maps","protocol":17,"map":"pl_frontier_final","folder":"tf","game":"Team Fortress","app_id":440,"player_count":22,"max_players":24,"Bots":0,"server_type":"Dedicated","server_os":"Linux","password":true,"vac":true,"version":"7961495","steam_id":85568392924469984,"keywords":["nocrits","nodmgspread","payload","uncletopia"],"game_id":440,"stv_port":27016,"stv_name":"Uncletopia | Chicago | 1 | All Maps | STV","players":[{"user_id":67,"name":"Missing Minus","steam_id":76561198120822928,"connected_time":1078000000000,"state":"active","ping":58},{"user_id":21,"name":"the headphones you lost","steam_id":76561199201098634,"connected_time":3765000000000,"state":"active","ping":60},{"user_id":57,"name":"crabapples","steam_id":76561198075818655,"connected_time":1545000000000,"state":"active","ping":58},{"user_id":23,"name":"SaaxoM","steam_id":76561198208256603,"connected_time":3624000000000,"state":"active","ping":91},{"user_id":41,"name":"Yam Jazzy Jim","steam_id":76561198000788950,"connected_time":2043000000000,"state":"active","ping":60},{"user_id":61,"name":"blob","steam_id":76561198122375328,"connected_time":1385000000000,"state":"active","ping":58},{"user_id":33,"name":"joe","steam_id":76561198045781320,"connected_time":2657000000000,"state":"active","ping":64},{"user_id":37,"name":"Kobicha","steam_id":76561198144970720,"connected_time":2394000000000,"state":"active","ping":71},{"user_id":68,"name":"crayonnipple","steam_id":76561198070253331,"connected_time":1063000000000,"state":"active","ping":66},{"user_id":42,"name":"‚ô•Bunny‚ô•Slut‚ô•","steam_id":76561198206376851,"connected_time":2015000000000,"state":"active","ping":105},{"user_id":65,"name":"fresco","steam_id":76561199101199477,"connected_time":1142000000000,"state":"active","ping":70},{"user_id":74,"name":"kibsta","steam_id":76561198991982630,"connected_time":19000000000,"state":"active","ping":56},{"user_id":71,"name":"Ockulus","steam_id":76561199069638460,"connected_time":291000000000,"state":"active","ping":106},{"user_id":45,"name":"igotswag.com","steam_id":76561198083851689,"connected_time":1758000000000,"state":"active","ping":63},{"user_id":72,"name":"Grunkie_Chubs","steam_id":76561198272017187,"connected_time":109000000000,"state":"active","ping":66},{"user_id":60,"name":"retaW","steam_id":76561198308097092,"connected_time":1426000000000,"state":"active","ping":58},{"user_id":73,"name":"·ìÄ‚Ä∏·ìÇ","steam_id":76561198046055673,"connected_time":87000000000,"state":"active","ping":75},{"user_id":51,"name":"Sqilliam Afton","steam_id":76561198326052355,"connected_time":1697000000000,"state":"active","ping":126},{"user_id":52,"name":"William Wallace","steam_id":76561199343316814,"connected_time":1695000000000,"state":"active","ping":73},{"user_id":70,"name":"Mr. Fluffy Penguins","steam_id":76561198172538149,"connected_time":1052000000000,"state":"active","ping":93},{"user_id":63,"name":"Joker","steam_id":76561198341537452,"connected_time":1209000000000,"state":"active","ping":78},{"user_id":56,"name":"Monsieur Peque√±o","steam_id":76561198327271041,"connected_time":1650000000000,"state":"active","ping":94}]},{"server_id":106,"name":"Uncletopia | Chicago | 2 | All Maps","name_short":"chi-2","host":"chi-1.us.uncletopia.com","port":27025,"enabled":true,"region":"us-central","cc":"us","latitude":41.881832,"longitude":-87.62318,"reserved":0,"last_update":"0001-01-01T00:00:00Z","name_a2s":"Uncletopia | Chicago | 2 | All Maps","protocol":17,"map":"pl_snowycoast","folder":"tf","game":"Team Fortress","app_id":440,"player_count":24,"max_players":24,"Bots":0,"server_type":"Dedicated","server_os":"Linux","password":true,"vac":true,"version":"7961495","steam_id":85568392924469985,"keywords":["nocrits","nodmgspread","payload","uncletopia"],"game_id":440,"stv_port":27026,"stv_name":"Uncletopia | Chicago | 2 | All Maps | STV","players":[{"user_id":161,"name":"Bush.exe","steam_id":76561198124385307,"connected_time":71000000000,"state":"spawning","ping":61},{"user_id":125,"name":"tlm","steam_id":76561198178457461,"connected_time":2485000000000,"state":"active","ping":59},{"user_id":150,"name":"Gibs Degrossi","steam_id":76561198066152609,"connected_time":619000000000,"state":"active","ping":50},{"user_id":7,"name":"SexySpectacles","steam_id":76561198211449103,"connected_time":9257000000000,"state":"active","ping":61},{"user_id":143,"name":"Npcutz64","steam_id":76561198320867336,"connected_time":930000000000,"state":"active","ping":71},{"user_id":108,"name":"Rornir","steam_id":76561198081829615,"connected_time":3790000000000,"state":"active","ping":38},{"user_id":142,"name":"no","steam_id":76561198248853140,"connected_time":953000000000,"state":"active","ping":46},{"user_id":156,"name":"exuberantBandit","steam_id":76561198411324823,"connected_time":250000000000,"state":"active","ping":82},{"user_id":144,"name":":]","steam_id":76561198119826352,"connected_time":792000000000,"state":"active","ping":74},{"user_id":157,"name":"taksss","steam_id":76561198995422051,"connected_time":247000000000,"state":"active","ping":77},{"user_id":76,"name":"x3 ‚ô°","steam_id":76561198132011077,"connected_time":4976000000000,"state":"active","ping":60},{"user_id":141,"name":"Rogurts","steam_id":76561198087665145,"connected_time":1138000000000,"state":"active","ping":53},{"user_id":162,"name":"az_noob","steam_id":76561199382983284,"connected_time":15000000000,"state":"active","ping":80},{"user_id":136,"name":"Lemon","steam_id":76561198119362095,"connected_time":1836000000000,"state":"active","ping":59},{"user_id":145,"name":"Miss. Goop","steam_id":76561198969344183,"connected_time":763000000000,"state":"active","ping":96},{"user_id":128,"name":"Capn. Wing Ding","steam_id":76561198076068424,"connected_time":2408000000000,"state":"active","ping":80},{"user_id":152,"name":"room temp IQ","steam_id":76561198018724712,"connected_time":411000000000,"state":"active","ping":56},{"user_id":160,"name":"Gaming Gaming","steam_id":76561198989717627,"connected_time":137000000000,"state":"active","ping":61},{"user_id":61,"name":"some tree","steam_id":76561198166093346,"connected_time":6281000000000,"state":"active","ping":58},{"user_id":158,"name":"Shia Surprise","steam_id":76561198081945804,"connected_time":245000000000,"state":"active","ping":83},{"user_id":123,"name":"twix","steam_id":76561198040912048,"connected_time":2547000000000,"state":"active","ping":60},{"user_id":149,"name":"Flabio","steam_id":76561197992803183,"connected_time":684000000000,"state":"active","ping":99},{"user_id":119,"name":"gamerlegend47","steam_id":76561198122776598,"connected_time":2858000000000,"state":"active","ping":64},{"user_id":155,"name":"mOoOoOoO","steam_id":76561198145615363,"connected_time":309000000000,"state":"active","ping":84}]},{"server_id":402,"name":"Uncletopia | Chicago | 3 | All Maps","name_short":"chi-3","host":"chi-1.us.uncletopia.com","port":27035,"enabled":true,"region":"us-central","cc":"us","latitude":41.881832,"longitude":-87.62318,"reserved":0,"last_update":"0001-01-01T00:00:00Z","name_a2s":"Uncletopia | Chicago | 3 | All Maps","protocol":17,"map":"koth_cascade","folder":"tf","game":"Team Fortress","app_id":440,"player_count":0,"max_players":24,"Bots":0,"server_type":"Dedicated","server_os":"Linux","password":true,"vac":true,"version":"7961495","steam_id":85568392924515191,"keywords":["cp","nocrits","nodmgspread","uncletopia"],"game_id":440,"stv_port":27036,"stv_name":"Uncletopia | Chicago | 3 | All Maps | STV","players":null},{"server_id":403,"name":"Uncletopia | Chicago | 4 | All Maps","name_short":"chi-4","host":"chi-1.us.uncletopia.com","port":27045,"enabled":true,"region":"us-central","cc":"us","latitude":41.881832,"longitude":-87.62318,"reserved":0,"last_update":"0001-01-01T00:00:00Z","name_a2s":"Uncletopia | Chicago | 4 | All Maps","protocol":17,"map":"pl_barnblitz","folder":"tf","game":"Team Fortress","app_id":440,"player_count":24,"max_players":24,"Bots":0,"server_type":"Dedicated","server_os":"Linux","password":true,"vac":true,"version":"7961495","steam_id":85568392924515193,"keywords":["nocrits","nodmgspread","payload","uncletopia"],"game_id":440,"stv_port":27046,"stv_name":"Uncletopia | Chicago | 4 | All Maps | STV","players":[{"user_id":240,"name":"Emily50AE","steam_id":76561198088619665,"connected_time":1934000000000,"state":"active","ping":83},{"user_id":264,"name":"Your Local Moron","steam_id":76561198810637224,"connected_time":432000000000,"state":"active","ping":74},{"user_id":269,"name":"Pengi","steam_id":76561198333097000,"connected_time":195000000000,"state":"active","ping":39},{"user_id":265,"name":"P.C. Baby","steam_id":76561198067011379,"connected_time":431000000000,"state":"active","ping":116},{"user_id":231,"name":"_(:–∑)‚à†)_","steam_id":76561198007464245,"connected_time":2477000000000,"state":"active","ping":76},{"user_id":260,"name":"Fred II (2011)","steam_id":76561199240694966,"connected_time":1400000000000,"state":"active","ping":76},{"user_id":262,"name":"Provocator","steam_id":76561197961830410,"connected_time":1253000000000,"state":"active","ping":73},{"user_id":229,"name":"lpk","steam_id":76561198025478698,"connected_time":2598000000000,"state":"active","ping":40},{"user_id":242,"name":"Tosh","steam_id":76561198026948976,"connected_time":1928000000000,"state":"active","ping":97},{"user_id":266,"name":"Marie","steam_id":76561198056104899,"connected_time":264000000000,"state":"active","ping":86},{"user_id":223,"name":"A Can of AriZona Green Tea","steam_id":76561198062481133,"connected_time":2991000000000,"state":"active","ping":81},{"user_id":230,"name":"jooby","steam_id":76561198131065492,"connected_time":2558000000000,"state":"active","ping":52},{"user_id":257,"name":"Elevator","steam_id":76561198974286387,"connected_time":1425000000000,"state":"active","ping":69},{"user_id":256,"name":"The new day","steam_id":76561198855144603,"connected_time":1426000000000,"state":"active","ping":61},{"user_id":244,"name":"hum","steam_id":76561198085457599,"connected_time":1889000000000,"state":"active","ping":74},{"user_id":270,"name":"Bandersnatch #killtf2","steam_id":76561198120407984,"connected_time":140000000000,"state":"active","ping":74},{"user_id":261,"name":"Reckless Klondike","steam_id":76561198060904416,"connected_time":1352000000000,"state":"active","ping":67},{"user_id":228,"name":"get scrongled, idiot","steam_id":76561198115874625,"connected_time":2838000000000,"state":"active","ping":110},{"user_id":245,"name":"Servius","steam_id":76561198300549278,"connected_time":1886000000000,"state":"active","ping":110},{"user_id":267,"name":"Goat","steam_id":76561197960432083,"connected_time":264000000000,"state":"active","ping":60},{"user_id":258,"name":"DRAGON_WARRIOR","steam_id":76561198155720118,"connected_time":1412000000000,"state":"active","ping":60},{"user_id":268,"name":"_SCOOBER_","steam_id":76561199239122502,"connected_time":263000000000,"state":"active","ping":118},{"user_id":252,"name":"travastila anister","steam_id":76561198300151954,"connected_time":1752000000000,"state":"active","ping":184},{"user_id":259,"name":"Fernando","steam_id":76561198443038047,"connected_time":1410000000000,"state":"active","ping":96}]},{"server_id":36,"name":"Uncletopia | Chicago | 5 | All Maps","name_short":"chi-5","host":"chi-2.us.uncletopia.com","port":27015,"enabled":true,"region":"us-central","cc":"us","latitude":41.881832,"longitude":-87.62318,"reserved":0,"last_update":"0001-01-01T00:00:00Z","name_a2s":"Uncletopia | Chicago | 5 | All Maps","protocol":17,"map":"pl_pier","folder":"tf","game":"Team Fortress","app_id":440,"player_count":0,"max_players":24,"Bots":0,"server_type":"Dedicated","server_os":"Linux","password":true,"vac":true,"version":"7961495","steam_id":85568392924866362,"keywords":["nocrits","nodmgspread","payload","uncletopia"],"game_id":440,"stv_port":27016,"stv_name":"Uncletopia | Chicago | 5 | All Maps | STV","players":null},{"server_id":37,"name":"Uncletopia | Chicago | 6 | All Maps","name_short":"chi-6","host":"chi-2.us.uncletopia.com","port":27025,"enabled":true,"region":"us-central","cc":"us","latitude":41.881832,"longitude":-87.62318,"reserved":0,"last_update":"0001-01-01T00:00:00Z","name_a2s":"Uncletopia | Chicago | 6 | All Maps","protocol":17,"map":"cp_sunshine","folder":"tf","game":"Team Fortress","app_id":440,"player_count":12,"max_players":24,"Bots":0,"server_type":"Dedicated","server_os":"Linux","password":true,"vac":true,"version":"7961495","steam_id":85568392924866363,"keywords":["cp","nocrits","nodmgspread","uncletopia"],"game_id":440,"stv_port":27026,"stv_name":"Uncletopia | Chicago | 6 | All Maps | STV","players":[{"user_id":15,"name":"Thequirka","steam_id":76561198968058652,"connected_time":1356000000000,"state":"active","ping":95},{"user_id":13,"name":"Asik-Asik_J0ss","steam_id":76561199180030841,"connected_time":2071000000000,"state":"active","ping":264},{"user_id":30,"name":"Ceolric","steam_id":76561198003955789,"connected_time":327000000000,"state":"active","ping":49},{"user_id":17,"name":"wafflehamster2000","steam_id":76561198849161820,"connected_time":1091000000000,"state":"active","ping":56},{"user_id":35,"name":"UnReLinked","steam_id":76561199366044663,"connected_time":17000000000,"state":"active","ping":103},{"user_id":9,"name":"Mal","steam_id":76561198066074151,"connected_time":2732000000000,"state":"active","ping":81},{"user_id":10,"name":"Evaporated_373k","steam_id":76561199435266743,"connected_time":2366000000000,"state":"active","ping":91},{"user_id":21,"name":"crashymicsplody","steam_id":76561198213916765,"connected_time":848000000000,"state":"active","ping":66},{"user_id":33,"name":"Mr.Kevin120","steam_id":76561199186919096,"connected_time":118000000000,"state":"active","ping":110},{"user_id":24,"name":"ultralisk52","steam_id":76561198051666604,"connected_time":728000000000,"state":"active","ping":55},{"user_id":27,"name":"Murder Enthusiast","steam_id":76561199038370433,"connected_time":576000000000,"state":"active","ping":171},{"user_id":34,"name":"binka bonk","steam_id":76561198174751517,"connected_time":108000000000,"state":"active","ping":109}]},{"server_id":38,"name":"Uncletopia | Chicago | 7 | Stopwatch Beta","name_short":"chi-7","host":"chi-2.us.uncletopia.com","port":27035,"enabled":true,"region":"us-central","cc":"us","latitude":41.881832,"longitude":-87.62318,"reserved":0,"last_update":"0001-01-01T00:00:00Z","name_a2s":"Uncletopia | Chicago | 7 | Stopwatch Beta","protocol":17,"map":"workshop/cp_reckoner_rc6.ugc674719999","folder":"tf","game":"Team Fortress","app_id":440,"player_count":0,"max_players":24,"Bots":0,"server_type":"Dedicated","server_os":"Linux","password":true,"vac":true,"version":"7961495","steam_id":85568392924866364,"keywords":["cp","nocrits","nodmgspread","uncletopia"],"game_id":440,"stv_port":27036,"stv_name":"Uncletopia | Chicago | 7 | Stopwatch Beta | STV","players":null},{"server_id":39,"name":"Uncletopia | Chicago | 8 | Community","name_short":"chi-8","host":"chi-2.us.uncletopia.com","port":27045,"enabled":true,"region":"us-central","cc":"us","latitude":41.881832,"longitude":-87.62318,"reserved":0,"last_update":"0001-01-01T00:00:00Z","name_a2s":"Uncletopia | Chicago | 8 | Community","protocol":17,"map":"workshop/koth_ashville_final.ugc2130459942","folder":"tf","game":"Team Fortress","app_id":440,"player_count":7,"max_players":24,"Bots":0,"server_type":"Dedicated","server_os":"Linux","password":true,"vac":true,"version":"7961495","steam_id":85568392924866365,"keywords":["cp","nocrits","nodmgspread","uncletopia"],"game_id":440,"stv_port":27046,"stv_name":"Uncletopia | Chicago | 8 | Community | STV","players":[{"user_id":21,"name":"legopirate10","steam_id":76561198178827241,"connected_time":2239000000000,"state":"active","ping":44},{"user_id":22,"name":"Dragoon","steam_id":76561198211973253,"connected_time":2238000000000,"state":"active","ping":78},{"user_id":23,"name":"Target","steam_id":76561199095175789,"connected_time":2236000000000,"state":"active","ping":62},{"user_id":25,"name":"Beef Jerky32","steam_id":76561198192526325,"connected_time":1292000000000,"state":"active","ping":80},{"user_id":26,"name":"Poberl","steam_id":76561198823051158,"connected_time":1198000000000,"state":"active","ping":54},{"user_id":27,"name":"Xrath","steam_id":76561198220741860,"connected_time":913000000000,"state":"active","ping":69},{"user_id":31,"name":"gideon nav my beloved","steam_id":76561198259092181,"connected_time":62000000000,"state":"active","ping":59}]},{"server_id":8,"name":"Uncletopia | Dallas | 1 | All Maps","name_short":"dal-1","host":"dal-1.us.uncletopia.com","port":27015,"enabled":true,"region":"us-central","cc":"us","latitude":32.779167,"longitude":-96.80889,"reserved":0,"last_update":"0001-01-01T00:00:00Z","name_a2s":"Uncletopia | Dallas | 1 | All Maps","protocol":17,"map":"pl_barnblitz","folder":"tf","game":"Team Fortress","app_id":440,"player_count":24,"max_players":24,"Bots":0,"server_type":"Dedicated","server_os":"Linux","password":true,"vac":true,"version":"7961495","steam_id":85568392924469986,"keywords":["nocrits","nodmgspread","payload","uncletopia"],"game_id":440,"stv_port":27016,"stv_name":"Uncletopia | Dallas | 1 | All Maps | STV","players":[{"user_id":173,"name":"Suburban Wolf Dad","steam_id":76561198069234954,"connected_time":96000000000,"state":"active","ping":70},{"user_id":156,"name":"Faefanger","steam_id":76561198201871002,"connected_time":3016000000000,"state":"active","ping":113},{"user_id":175,"name":"The Dreamer","steam_id":76561198047638312,"connected_time":62000000000,"state":"active","ping":78},{"user_id":158,"name":"Gooter","steam_id":76561198185268445,"connected_time":1892000000000,"state":"active","ping":60},{"user_id":160,"name":"ThatGamingKiwi","steam_id":76561199170522237,"connected_time":1636000000000,"state":"active","ping":107},{"user_id":161,"name":"Mythical Lag","steam_id":76561198347031281,"connected_time":1606000000000,"state":"active","ping":51},{"user_id":172,"name":"Yes","steam_id":76561198175329038,"connected_time":147000000000,"state":"active","ping":71},{"user_id":164,"name":"im high asf","steam_id":76561198198781598,"connected_time":1129000000000,"state":"active","ping":83},{"user_id":174,"name":"TQman","steam_id":76561199031963925,"connected_time":77000000000,"state":"active","ping":106},{"user_id":171,"name":"Green Mighty Morbin Power Range","steam_id":76561198141827042,"connected_time":467000000000,"state":"active","ping":71},{"user_id":150,"name":"Epifiny","steam_id":76561198027958086,"connected_time":3151000000000,"state":"active","ping":94},{"user_id":118,"name":"Purchase","steam_id":76561198821991700,"connected_time":5766000000000,"state":"active","ping":44},{"user_id":125,"name":"airballer","steam_id":76561198165899125,"connected_time":5552000000000,"state":"active","ping":89},{"user_id":114,"name":"Pixler544","steam_id":76561198240575132,"connected_time":6594000000000,"state":"active","ping":76},{"user_id":95,"name":"T4T488","steam_id":76561198242633220,"connected_time":8822000000000,"state":"active","ping":72},{"user_id":169,"name":"Sprit ‚ô•","steam_id":76561198268780781,"connected_time":543000000000,"state":"active","ping":64},{"user_id":151,"name":"Dr_Riddler","steam_id":76561198139493285,"connected_time":3147000000000,"state":"active","ping":95},{"user_id":119,"name":"Ôº£Ôº®Ôº°Ôº≠Ôº∞Ôº©ÔºØÔºÆ","steam_id":76561198883157736,"connected_time":5759000000000,"state":"active","ping":104},{"user_id":163,"name":"Queen Frau the Round","steam_id":76561197999942134,"connected_time":1326000000000,"state":"active","ping":73},{"user_id":167,"name":"Goldensliv","steam_id":76561198161673891,"connected_time":1062000000000,"state":"active","ping":146},{"user_id":138,"name":"sjpete61","steam_id":76561199103543529,"connected_time":4506000000000,"state":"active","ping":94},{"user_id":113,"name":"B.","steam_id":76561198040445907,"connected_time":6672000000000,"state":"active","ping":77},{"user_id":153,"name":"NoRoundEarthers","steam_id":76561198081617990,"connected_time":3132000000000,"state":"active","ping":94},{"user_id":155,"name":"lynt","steam_id":76561198988333976,"connected_time":3127000000000,"state":"active","ping":60}]},{"server_id":108,"name":"Uncletopia | Dallas | 2 | All Maps","name_short":"dal-2","host":"dal-1.us.uncletopia.com","port":27025,"enabled":true,"region":"us-central","cc":"us","latitude":32.779167,"longitude":-96.80889,"reserved":0,"last_update":"0001-01-01T00:00:00Z","name_a2s":"Uncletopia | Dallas | 2 | All Maps","protocol":17,"map":"pl_goldrush","folder":"tf","game":"Team Fortress","app_id":440,"player_count":23,"max_players":24,"Bots":0,"server_type":"Dedicated","server_os":"Linux","password":true,"vac":true,"version":"7961495","steam_id":85568392924469988,"keywords":["nocrits","nodmgspread","payload","uncletopia"],"game_id":440,"stv_port":27026,"stv_name":"Uncletopia | Dallas | 2 | All Maps | STV","players":[{"user_id":206,"name":"C++yberbug 2077","steam_id":76561199068102571,"connected_time":586000000000,"state":"active","ping":191},{"user_id":165,"name":"TwoBit","steam_id":76561198062437559,"connected_time":3515000000000,"state":"active","ping":104},{"user_id":202,"name":"Engideer","steam_id":76561198145733164,"connected_time":732000000000,"state":"active","ping":35},{"user_id":178,"name":"tsz","steam_id":76561199246231090,"connected_time":2915000000000,"state":"active","ping":77},{"user_id":186,"name":"jer","steam_id":76561198148235230,"connected_time":2360000000000,"state":"active","ping":77},{"user_id":214,"name":"Giant","steam_id":76561198851536991,"connected_time":279000000000,"state":"active","ping":82},{"user_id":197,"name":"ìàí‡≥É`Ôπînotandum","steam_id":76561198418784448,"connected_time":889000000000,"state":"active","ping":79},{"user_id":198,"name":"Grand Piano Tuna","steam_id":76561198135137213,"connected_time":889000000000,"state":"active","ping":49},{"user_id":184,"name":"Woman Prime","steam_id":76561198152596102,"connected_time":2583000000000,"state":"active","ping":90},{"user_id":208,"name":"SlimeGamer2006","steam_id":76561199211905017,"connected_time":522000000000,"state":"active","ping":80},{"user_id":215,"name":"Boot Mcstink","steam_id":76561199226873917,"connected_time":269000000000,"state":"active","ping":86},{"user_id":185,"name":"guppy","steam_id":76561198041380190,"connected_time":2497000000000,"state":"active","ping":119},{"user_id":211,"name":"Fujiwara no Mokou","steam_id":76561198063315650,"connected_time":448000000000,"state":"active","ping":72},{"user_id":189,"name":"‰Ω†Â•Ω","steam_id":76561198873043242,"connected_time":1735000000000,"state":"active","ping":142},{"user_id":216,"name":"Piggy","steam_id":76561198000399862,"connected_time":148000000000,"state":"active","ping":76},{"user_id":138,"name":"Boomer Gaming","steam_id":76561198037803087,"connected_time":4034000000000,"state":"active","ping":66},{"user_id":200,"name":"Ena found a Gun !","steam_id":76561199030644557,"connected_time":846000000000,"state":"active","ping":89},{"user_id":201,"name":"Malix","steam_id":76561199086794162,"connected_time":816000000000,"state":"active","ping":61},{"user_id":217,"name":"Dagoth Ur  LFT","steam_id":76561198115714484,"connected_time":26000000000,"state":"active","ping":135},{"user_id":188,"name":";^)","steam_id":76561198269497358,"connected_time":1952000000000,"state":"active","ping":94},{"user_id":212,"name":"PanCAKEEE","steam_id":76561198237489544,"connected_time":403000000000,"state":"active","ping":106},{"user_id":192,"name":"CheeseCake488","steam_id":76561199407617942,"connected_time":1121000000000,"state":"active","ping":127},{"user_id":133,"name":"Kirby.exe","steam_id":76561198242714582,"connected_time":4223000000000,"state":"active","ping":46}]},{"server_id":5,"name":"Uncletopia | Frankfurt | 1 | All Maps","name_short":"frk-1","host":"frk-1.de.uncletopia.com","port":27015,"enabled":true,"region":"eu","cc":"de","latitude":50.110924,"longitude":8.682127,"reserved":0,"last_update":"0001-01-01T00:00:00Z","name_a2s":"Uncletopia | Frankfurt | 1 | All Maps","protocol":17,"map":"cp_dustbowl","folder":"tf","game":"Team Fortress","app_id":440,"player_count":23,"max_players":24,"Bots":0,"server_type":"Dedicated","server_os":"Linux","password":true,"vac":true,"version":"7961495","steam_id":85568392924469989,"keywords":["cp","nocrits","nodmgspread","uncletopia"],"game_id":440,"stv_port":27016,"stv_name":"Uncletopia | Frankfurt | 1 | All Maps | STV","players":[{"user_id":311,"name":"bonutdodega71","steam_id":76561198049312442,"connected_time":3056000000000,"state":"active","ping":59},{"user_id":345,"name":"puck","steam_id":76561198121260981,"connected_time":699000000000,"state":"active","ping":56},{"user_id":340,"name":"Spinya","steam_id":76561198086653667,"connected_time":1287000000000,"state":"active","ping":65},{"user_id":355,"name":"Bobo","steam_id":76561198052308399,"connected_time":319000000000,"state":"active","ping":59},{"user_id":354,"name":"Artificial.Ignorance","steam_id":76561198453090180,"connected_time":406000000000,"state":"active","ping":158},{"user_id":304,"name":"Master Of Noob","steam_id":76561198217926783,"connected_time":3422000000000,"state":"active","ping":69},{"user_id":168,"name":"one silly guy","steam_id":76561198219901556,"connected_time":12513000000000,"state":"active","ping":96},{"user_id":352,"name":"Brinier","steam_id":76561199012604288,"connected_time":421000000000,"state":"active","ping":64},{"user_id":341,"name":"Danku","steam_id":76561198043802421,"connected_time":1236000000000,"state":"active","ping":83},{"user_id":353,"name":"mohemmedmokhter2005","steam_id":76561199197650506,"connected_time":419000000000,"state":"active","ping":105},{"user_id":364,"name":"Fƒ±ndƒ±k yaƒüƒ±","steam_id":76561199141180822,"connected_time":55000000000,"state":"active","ping":91},{"user_id":330,"name":"Veir≈´ Viseris","steam_id":76561197989857176,"connected_time":1708000000000,"state":"active","ping":71},{"user_id":357,"name":"Cornmac","steam_id":76561198104780569,"connected_time":221000000000,"state":"active","ping":78},{"user_id":358,"name":"breeeh","steam_id":76561198263260743,"connected_time":193000000000,"state":"active","ping":101},{"user_id":359,"name":"Puppy","steam_id":76561198284766141,"connected_time":187000000000,"state":"active","ping":48},{"user_id":360,"name":"Bayoyo","steam_id":76561199069591774,"connected_time":157000000000,"state":"active","ping":74},{"user_id":333,"name":"Aph's MOKUJIN store","steam_id":76561198118034973,"connected_time":1436000000000,"state":"active","ping":59},{"user_id":327,"name":"iyed","steam_id":76561198982141827,"connected_time":2225000000000,"state":"active","ping":146},{"user_id":350,"name":"rusai megsta smegma","steam_id":76561198332529555,"connected_time":490000000000,"state":"active","ping":83},{"user_id":362,"name":"RocketBoy08","steam_id":76561198833978944,"connected_time":123000000000,"state":"active","ping":97},{"user_id":346,"name":"Michael","steam_id":76561198003146906,"connected_time":698000000000,"state":"active","ping":57},{"user_id":363,"name":"Raulca25","steam_id":76561199068256964,"connected_time":121000000000,"state":"active","ping":84},{"user_id":365,"name":"pies.","steam_id":76561197963099504,"connected_time":10000000000,"state":"active","ping":69}]},{"server_id":110,"name":"Uncletopia | Frankfurt | 2 | All Maps","name_short":"frk-2","host":"frk-1.de.uncletopia.com","port":27025,"enabled":true,"region":"eu","cc":"de","latitude":50.110924,"longitude":8.682127,"reserved":0,"last_update":"0001-01-01T00:00:00Z","name_a2s":"Uncletopia | Frankfurt | 2 | All Maps","protocol":17,"map":"cp_dustbowl","folder":"tf","game":"Team Fortress","app_id":440,"player_count":24,"max_players":24,"Bots":0,"server_type":"Dedicated","server_os":"Linux","password":true,"vac":true,"version":"7961495","steam_id":85568392924469990,"keywords":["cp","nocrits","nodmgspread","uncletopia"],"game_id":440,"stv_port":27026,"stv_name":"Uncletopia | Frankfurt | 2 | All Maps | STV","players":[{"user_id":414,"name":"caramelldancin'","steam_id":76561198193357946,"connected_time":4710000000000,"state":"active","ping":103},{"user_id":479,"name":"BUREK od Sira","steam_id":76561198092589818,"connected_time":1040000000000,"state":"active","ping":88},{"user_id":483,"name":"hisham","steam_id":76561198414437290,"connected_time":897000000000,"state":"active","ping":111},{"user_id":437,"name":"Jan009","steam_id":76561198410047633,"connected_time":3331000000000,"state":"active","ping":69},{"user_id":475,"name":"Nekramite","steam_id":76561198166617261,"connected_time":1624000000000,"state":"active","ping":59},{"user_id":496,"name":"cat","steam_id":76561198832231975,"connected_time":503000000000,"state":"active","ping":88},{"user_id":500,"name":"JareJare","steam_id":76561199040893751,"connected_time":309000000000,"state":"active","ping":78},{"user_id":441,"name":"Xx_EpicGaymer_xX","steam_id":76561198846784757,"connected_time":3066000000000,"state":"active","ping":84},{"user_id":463,"name":"Eri","steam_id":76561198016688382,"connected_time":1969000000000,"state":"active","ping":80},{"user_id":497,"name":"Yunas balosnya","steam_id":76561198010609232,"connected_time":425000000000,"state":"active","ping":59},{"user_id":501,"name":"He's Back and He's Black","steam_id":76561198105443986,"connected_time":303000000000,"state":"active","ping":75},{"user_id":461,"name":"CalThePal","steam_id":76561198084842126,"connected_time":2017000000000,"state":"active","ping":54},{"user_id":498,"name":"MemeLord","steam_id":76561198135115524,"connected_time":419000000000,"state":"active","ping":55},{"user_id":491,"name":"Kekeke","steam_id":76561198063672270,"connected_time":756000000000,"state":"active","ping":91},{"user_id":488,"name":"bruh","steam_id":76561197993922244,"connected_time":846000000000,"state":"active","ping":49},{"user_id":465,"name":"Lexios","steam_id":76561198178458509,"connected_time":1939000000000,"state":"active","ping":60},{"user_id":434,"name":"s a i","steam_id":76561197970379754,"connected_time":3545000000000,"state":"active","ping":54},{"user_id":447,"name":"dmEngineer_tf2 #SaveTF2","steam_id":76561199388956338,"connected_time":2854000000000,"state":"active","ping":83},{"user_id":489,"name":"„É†GeRmAn |√óUA√ó„É†","steam_id":76561199044754898,"connected_time":841000000000,"state":"active","ping":74},{"user_id":492,"name":"Marcos","steam_id":76561198798925721,"connected_time":748000000000,"state":"active","ping":75},{"user_id":448,"name":"‚ù§Speedbump‚ù§","steam_id":76561198388690313,"connected_time":2845000000000,"state":"active","ping":69},{"user_id":476,"name":"nevim","steam_id":76561199120843402,"connected_time":1540000000000,"state":"active","ping":53},{"user_id":495,"name":"RiX","steam_id":76561197969053733,"connected_time":709000000000,"state":"active","ping":70},{"user_id":470,"name":"kallerannar","steam_id":76561199095701143,"connected_time":1840000000000,"state":"active","ping":78}]},{"server_id":308,"name":"Uncletopia | Frankfurt | 3 | All Maps","name_short":"frk-3","host":"frk-1.de.uncletopia.com","port":27035,"enabled":true,"region":"eu","cc":"de","latitude":50.110924,"longitude":8.682127,"reserved":0,"last_update":"0001-01-01T00:00:00Z","name_a2s":"Uncletopia | Frankfurt | 3 | All Maps","protocol":17,"map":"pl_swiftwater_final1","folder":"tf","game":"Team Fortress","app_id":440,"player_count":24,"max_players":24,"Bots":0,"server_type":"Dedicated","server_os":"Linux","password":true,"vac":true,"version":"7961495","steam_id":85568392924504274,"keywords":["nocrits","nodmgspread","payload","uncletopia"],"game_id":440,"stv_port":27036,"stv_name":"Uncletopia | Frankfurt | 3 | All Maps | STV","players":[{"user_id":194,"name":"Tengen","steam_id":76561199356990346,"connected_time":1328000000000,"state":"active","ping":104},{"user_id":135,"name":"Lichowsky","steam_id":76561198139802454,"connected_time":4689000000000,"state":"active","ping":62},{"user_id":145,"name":"john fortress","steam_id":76561198013237629,"connected_time":4128000000000,"state":"active","ping":105},{"user_id":180,"name":"jill sandwich","steam_id":76561198075068529,"connected_time":2165000000000,"state":"active","ping":55},{"user_id":208,"name":"milton milk","steam_id":76561198013502376,"connected_time":552000000000,"state":"active","ping":60},{"user_id":197,"name":"WanderStorm","steam_id":76561198369227367,"connected_time":1259000000000,"state":"active","ping":90},{"user_id":209,"name":"swueuws","steam_id":76561198020716743,"connected_time":335000000000,"state":"active","ping":53},{"user_id":169,"name":"neJ","steam_id":76561198003397488,"connected_time":2950000000000,"state":"active","ping":72},{"user_id":207,"name":"FWDTRKR","steam_id":76561198060369427,"connected_time":611000000000,"state":"active","ping":142},{"user_id":157,"name":"Baiterz","steam_id":76561198030815786,"connected_time":3269000000000,"state":"active","ping":68},{"user_id":210,"name":"JELLYBITCH","steam_id":76561198282011087,"connected_time":221000000000,"state":"active","ping":72},{"user_id":165,"name":"SynthBox3","steam_id":76561199094075745,"connected_time":3196000000000,"state":"active","ping":86},{"user_id":133,"name":"DaLuigi","steam_id":76561198054486188,"connected_time":4993000000000,"state":"active","ping":47},{"user_id":212,"name":"Nag","steam_id":76561197970488206,"connected_time":132000000000,"state":"active","ping":80},{"user_id":213,"name":"fregaropa","steam_id":76561198150806166,"connected_time":117000000000,"state":"active","ping":77},{"user_id":186,"name":"SnowShot","steam_id":76561198004766638,"connected_time":1826000000000,"state":"active","ping":57},{"user_id":199,"name":"Spich","steam_id":76561199017245962,"connected_time":1217000000000,"state":"active","ping":86},{"user_id":189,"name":"glorbus","steam_id":76561198969544894,"connected_time":1754000000000,"state":"active","ping":58},{"user_id":200,"name":"Niko","steam_id":76561198436817109,"connected_time":1214000000000,"state":"active","ping":62},{"user_id":141,"name":"GMsU | Rebikas","steam_id":76561198077053764,"connected_time":4520000000000,"state":"active","ping":46},{"user_id":185,"name":"Cunning","steam_id":76561198009685052,"connected_time":1936000000000,"state":"active","ping":54},{"user_id":211,"name":"mald","steam_id":76561198111134021,"connected_time":215000000000,"state":"active","ping":107},{"user_id":125,"name":"Ë™∞„Åã„ÅåË¶ã„Å¶„ÅÑ„Çã","steam_id":76561198834913692,"connected_time":5425000000000,"state":"active","ping":75},{"user_id":201,"name":"fwench fwy","steam_id":76561198058432834,"connected_time":1211000000000,"state":"active","ping":55}]},{"server_id":309,"name":"Uncletopia | Frankfurt | 4 | All Maps","name_short":"frk-4","host":"frk-1.de.uncletopia.com","port":27045,"enabled":true,"region":"eu","cc":"de","latitude":50.110924,"longitude":8.682127,"reserved":0,"last_update":"0001-01-01T00:00:00Z","name_a2s":"Uncletopia | Frankfurt | 4 | All Maps","protocol":17,"map":"cp_snakewater_final1","folder":"tf","game":"Team Fortress","app_id":440,"player_count":3,"max_players":24,"Bots":0,"server_type":"Dedicated","server_os":"Linux","password":true,"vac":true,"version":"7961495","steam_id":85568392924504275,"keywords":["cp","nocrits","nodmgspread","uncletopia"],"game_id":440,"stv_port":27046,"stv_name":"Uncletopia | Frankfurt | 4 | All Maps | STV","players":[{"user_id":13,"name":"sofa king","steam_id":76561198175456289,"connected_time":1571000000000,"state":"active","ping":105},{"user_id":11,"name":"MGE Zver","steam_id":76561198243207562,"connected_time":2059000000000,"state":"active","ping":120},{"user_id":14,"name":"Decaying Chpok","steam_id":76561198112855332,"connected_time":1566000000000,"state":"active","ping":138}]},{"server_id":310,"name":"Uncletopia | Frankfurt | 5 | All Maps","name_short":"frk-5","host":"frk-1.de.uncletopia.com","port":27055,"enabled":true,"region":"eu","cc":"de","latitude":50.110924,"longitude":8.682127,"reserved":0,"last_update":"0001-01-01T00:00:00Z","name_a2s":"Uncletopia | Frankfurt | 5 | All Maps","protocol":17,"map":"koth_cascade","folder":"tf","game":"Team Fortress","app_id":440,"player_count":24,"max_players":24,"Bots":0,"server_type":"Dedicated","server_os":"Linux","password":true,"vac":true,"version":"7961495","steam_id":85568392924504277,"keywords":["cp","nocrits","nodmgspread","uncletopia"],"game_id":440,"stv_port":27056,"stv_name":"Uncletopia | Frankfurt | 5 | All Maps | STV","players":[{"user_id":226,"name":"Ruth(-less bitch)","steam_id":76561198150006573,"connected_time":140000000000,"state":"active","ping":87},{"user_id":209,"name":"Braquemart le Barbare","steam_id":76561198799097492,"connected_time":690000000000,"state":"active","ping":46},{"user_id":160,"name":"Cognitionis","steam_id":76561198236287734,"connected_time":2447000000000,"state":"active","ping":64},{"user_id":158,"name":"NANI?!?!?!","steam_id":76561198172078559,"connected_time":2572000000000,"state":"active","ping":84},{"user_id":161,"name":"meatsoupcube","steam_id":76561198276802249,"connected_time":2444000000000,"state":"active","ping":102},{"user_id":227,"name":"L0g1c","steam_id":76561198134085329,"connected_time":136000000000,"state":"active","ping":75},{"user_id":218,"name":"mogwaihudson","steam_id":76561199486770715,"connected_time":408000000000,"state":"active","ping":59},{"user_id":224,"name":"‚ôÇ Dungeon Master ‚ôÇ","steam_id":76561198106441033,"connected_time":186000000000,"state":"active","ping":91},{"user_id":208,"name":"asko","steam_id":76561198081966620,"connected_time":769000000000,"state":"active","ping":86},{"user_id":228,"name":"V4ren","steam_id":76561198063138371,"connected_time":104000000000,"state":"active","ping":65},{"user_id":199,"name":"Xariklhs Kolimpithras","steam_id":76561198165584544,"connected_time":1173000000000,"state":"active","ping":93},{"user_id":219,"name":"N.","steam_id":76561198017274851,"connected_time":402000000000,"state":"active","ping":51},{"user_id":211,"name":"DrExplosive","steam_id":76561198063678579,"connected_time":651000000000,"state":"active","ping":53},{"user_id":212,"name":"Wardruna96","steam_id":76561199057083828,"connected_time":638000000000,"state":"active","ping":85},{"user_id":213,"name":"Karvinen","steam_id":76561198031490602,"connected_time":606000000000,"state":"active","ping":99},{"user_id":214,"name":"yatsuta","steam_id":76561198130968941,"connected_time":594000000000,"state":"active","ping":80},{"user_id":205,"name":"CAR DOOR","steam_id":76561198055283295,"connected_time":906000000000,"state":"active","ping":47},{"user_id":181,"name":"jik_98","steam_id":76561198436927961,"connected_time":1561000000000,"state":"active","ping":69},{"user_id":216,"name":"HADID_sex_god","steam_id":76561198302623594,"connected_time":532000000000,"state":"active","ping":91},{"user_id":223,"name":"Minimi","steam_id":76561198873850443,"connected_time":234000000000,"state":"active","ping":63},{"user_id":185,"name":"tzlil","steam_id":76561198399916290,"connected_time":1488000000000,"state":"active","ping":104},{"user_id":220,"name":"Estyle","steam_id":76561198157804700,"connected_time":353000000000,"state":"active","ping":80},{"user_id":221,"name":"Templario20982","steam_id":76561199026494523,"connected_time":349000000000,"state":"active","ping":94},{"user_id":222,"name":"poopoocum","steam_id":76561198180641206,"connected_time":339000000000,"state":"active","ping":65}]},{"server_id":311,"name":"Uncletopia | Frankfurt | 6 | All Maps","name_short":"frk-6","host":"frk-1.de.uncletopia.com","port":27065,"enabled":true,"region":"eu","cc":"de","latitude":50.110924,"longitude":8.682127,"reserved":0,"last_update":"0001-01-01T00:00:00Z","name_a2s":"Uncletopia | Frankfurt | 6 | All Maps","protocol":17,"map":"pl_badwater","folder":"tf","game":"Team Fortress","app_id":440,"player_count":26,"max_players":24,"Bots":0,"server_type":"Dedicated","server_os":"Linux","password":true,"vac":true,"version":"7961495","steam_id":85568392924504278,"keywords":["nocrits","nodmgspread","payload","uncletopia"],"game_id":440,"stv_port":27066,"stv_name":"Uncletopia | Frankfurt | 6 | All Maps | STV","players":[{"user_id":191,"name":"dreamz....?,","steam_id":76561198121434692,"connected_time":2918000000000,"state":"active","ping":140},{"user_id":154,"name":"Mike","steam_id":76561198228455736,"connected_time":4856000000000,"state":"active","ping":63},{"user_id":200,"name":"spy among us","steam_id":76561198392537090,"connected_time":2010000000000,"state":"active","ping":58},{"user_id":216,"name":"BRICK TOP","steam_id":76561198014366715,"connected_time":704000000000,"state":"active","ping":57},{"user_id":226,"name":"cinny","steam_id":76561198832112629,"connected_time":500000000000,"state":"active","ping":79},{"user_id":234,"name":"Doriian","steam_id":76561198071438810,"connected_time":432000000000,"state":"active","ping":82},{"user_id":189,"name":"pica","steam_id":76561199012155377,"connected_time":3062000000000,"state":"active","ping":46},{"user_id":244,"name":"LurkingPancake","steam_id":76561199488567082,"connected_time":337000000000,"state":"active","ping":80},{"user_id":122,"name":"Ch4bby","steam_id":76561198058792875,"connected_time":6357000000000,"state":"active","ping":60},{"user_id":212,"name":"Day 13","steam_id":76561198024438352,"connected_time":935000000000,"state":"active","ping":45},{"user_id":201,"name":"scott steiners strongest warrio","steam_id":76561198148888622,"connected_time":1980000000000,"state":"active","ping":73},{"user_id":198,"name":"HikiPelaaja","steam_id":76561198146333046,"connected_time":2131000000000,"state":"active","ping":88},{"user_id":164,"name":"Quartzy","steam_id":76561198313301520,"connected_time":4371000000000,"state":"active","ping":57},{"user_id":251,"name":"Plow cheese","steam_id":76561198142478067,"connected_time":184000000000,"state":"active","ping":85},{"user_id":186,"name":"aww yeah","steam_id":76561197992978878,"connected_time":3156000000000,"state":"active","ping":73},{"user_id":196,"name":"tea girl","steam_id":76561198068054530,"connected_time":2764000000000,"state":"active","ping":79},{"user_id":248,"name":"Oddkast BT","steam_id":76561198374028900,"connected_time":266000000000,"state":"connecting","ping":0},{"user_id":207,"name":"MR.CRAB","steam_id":76561198329833659,"connected_time":1280000000000,"state":"active","ping":72},{"user_id":243,"name":"XL54M15Y","steam_id":76561198048250715,"connected_time":351000000000,"state":"active","ping":58},{"user_id":206,"name":"[SQ UA] MartianDill","steam_id":76561198405382822,"connected_time":1310000000000,"state":"active","ping":77},{"user_id":210,"name":"I jazzed myself","steam_id":76561198203016603,"connected_time":1060000000000,"state":"active","ping":94},{"user_id":188,"name":"Espa√±aa","steam_id":76561198879587832,"connected_time":3143000000000,"state":"active","ping":84},{"user_id":257,"name":"Cosmetic brain","steam_id":76561198055936410,"connected_time":47000000000,"state":"active","ping":85},{"user_id":258,"name":"HUGO","steam_id":76561198317134996,"connected_time":41000000000,"state":"active","ping":75},{"user_id":215,"name":"jge","steam_id":76561198123186387,"connected_time":782000000000,"state":"active","ping":53},{"user_id":259,"name":"SoupER","steam_id":76561198063056668,"connected_time":22000000000,"state":"spawning","ping":48}]},{"server_id":23,"name":"Uncletopia | Frankfurt | 7 | Stopwatch Beta","name_short":"frk-7","host":"frk-1.de.uncletopia.com","port":27075,"enabled":true,"region":"eu","cc":"de","latitude":50.110924,"longitude":8.682127,"reserved":0,"last_update":"0001-01-01T00:00:00Z","name_a2s":"Uncletopia | Frankfurt | 7 | Stopwatch Beta","protocol":17,"map":"koth_cascade","folder":"tf","game":"Team Fortress","app_id":440,"player_count":0,"max_players":24,"Bots":0,"server_type":"Dedicated","server_os":"Linux","password":true,"vac":true,"version":"7961495","steam_id":85568392924742827,"keywords":["cp","nocrits","nodmgspread","uncletopia"],"game_id":440,"stv_port":27076,"stv_name":"Uncletopia | Frankfurt | 7 | Stopwatch Beta | STV","players":null},{"server_id":24,"name":"Uncletopia | Frankfurt | 8 | Community","name_short":"frk-8","host":"frk-1.de.uncletopia.com","port":27085,"enabled":true,"region":"eu","cc":"de","latitude":50.110924,"longitude":8.682127,"reserved":0,"last_update":"0001-01-01T00:00:00Z","name_a2s":"Uncletopia | Frankfurt | 8 | Community","protocol":17,"map":"workshop/koth_bagel_rc6.ugc2514036946","folder":"tf","game":"Team Fortress","app_id":440,"player_count":0,"max_players":24,"Bots":0,"server_type":"Dedicated","server_os":"Linux","password":true,"vac":true,"version":"7961495","steam_id":85568392924742828,"keywords":["cp","nocrits","nodmgspread","uncletopia"],"game_id":440,"stv_port":27086,"stv_name":"Uncletopia | Frankfurt | 8 | Community | STV","players":null},{"server_id":202,"name":"Uncletopia | Hong Kong | 1 | All Maps","name_short":"hgk-1","host":"hgk-1.hk.uncletopia.com","port":27015,"enabled":true,"region":"asia","cc":"hk","latitude":22.302711,"longitude":114.177216,"reserved":0,"last_update":"0001-01-01T00:00:00Z","name_a2s":"Uncletopia | Hong Kong | 1 | All Maps","protocol":17,"map":"pl_frontier_final","folder":"tf","game":"Team Fortress","app_id":440,"player_count":0,"max_players":24,"Bots":0,"server_type":"Dedicated","server_os":"Linux","password":true,"vac":true,"version":"7961495","steam_id":85568392924494504,"keywords":["nocrits","nodmgspread","payload","uncletopia"],"game_id":440,"stv_port":27016,"stv_name":"Uncletopia | Hong Kong | 1 | All Maps | STV","players":null},{"server_id":1,"name":"Uncletopia | Los Angeles | 1 | All Maps","name_short":"lax-1","host":"lax-1.us.uncletopia.com","port":27015,"enabled":true,"region":"us-west","cc":"us","latitude":33.94279,"longitude":-118.41004,"reserved":0,"last_update":"0001-01-01T00:00:00Z","name_a2s":"Uncletopia | Los Angeles | 1 | All Maps","protocol":17,"map":"pl_upward","folder":"tf","game":"Team Fortress","app_id":440,"player_count":3,"max_players":24,"Bots":0,"server_type":"Dedicated","server_os":"Linux","password":true,"vac":true,"version":"7961495","steam_id":85568392924469991,"keywords":["nocrits","nodmgspread","payload","uncletopia"],"game_id":440,"stv_port":27016,"stv_name":"Uncletopia | Los Angeles | 1 | All Maps | STV","players":[{"user_id":6,"name":"Nibotshooter","steam_id":76561199284825579,"connected_time":835000000000,"state":"active","ping":59},{"user_id":5,"name":"Manx","steam_id":76561197977134062,"connected_time":871000000000,"state":"active","ping":69},{"user_id":8,"name":"Leaf","steam_id":76561198880728513,"connected_time":346000000000,"state":"active","ping":96}]},{"server_id":112,"name":"Uncletopia | Los Angeles | 2 | All Maps","name_short":"lax-2","host":"lax-1.us.uncletopia.com","port":27025,"enabled":true,"region":"us-west","cc":"us","latitude":33.94279,"longitude":-118.41004,"reserved":0,"last_update":"0001-01-01T00:00:00Z","name_a2s":"Uncletopia | Los Angeles | 2 | All Maps","protocol":17,"map":"pl_swiftwater_final1","folder":"tf","game":"Team Fortress","app_id":440,"player_count":0,"max_players":24,"Bots":0,"server_type":"Dedicated","server_os":"Linux","password":true,"vac":true,"version":"7961495","steam_id":85568392924469992,"keywords":["nocrits","nodmgspread","payload","uncletopia"],"game_id":440,"stv_port":27026,"stv_name":"Uncletopia | Los Angeles | 2 | All Maps | STV","players":null},{"server_id":324,"name":"Uncletopia | Los Angeles | 3 | All Maps","name_short":"lax-3","host":"lax-1.us.uncletopia.com","port":27035,"enabled":true,"region":"us-west","cc":"us","latitude":33.94279,"longitude":-118.41004,"reserved":0,"last_update":"0001-01-01T00:00:00Z","name_a2s":"Uncletopia | Los Angeles | 3 | All Maps","protocol":17,"map":"koth_lakeside_final","folder":"tf","game":"Team Fortress","app_id":440,"player_count":0,"max_players":24,"Bots":0,"server_type":"Dedicated","server_os":"Linux","password":true,"vac":true,"version":"7961495","steam_id":85568392924510198,"keywords":["cp","nocrits","nodmgspread","uncletopia"],"game_id":440,"stv_port":27036,"stv_name":"Uncletopia | Los Angeles | 3 | All Maps | STV","players":null},{"server_id":25,"name":"Uncletopia | Los Angeles | 4 | Stopwatch Beta","name_short":"lax-4","host":"lax-1.us.uncletopia.com","port":27045,"enabled":true,"region":"us-west","cc":"us","latitude":33.94279,"longitude":-118.41004,"reserved":0,"last_update":"0001-01-01T00:00:00Z","name_a2s":"Uncletopia | Los Angeles | 4 | Stopwatch Beta","protocol":17,"map":"pl_frontier_final","folder":"tf","game":"Team Fortress","app_id":440,"player_count":0,"max_players":24,"Bots":0,"server_type":"Dedicated","server_os":"Linux","password":true,"vac":true,"version":"7961495","steam_id":85568392924510199,"keywords":["nocrits","nodmgspread","payload","uncletopia"],"game_id":440,"stv_port":27046,"stv_name":"Uncletopia | Los Angeles | 4 | Stopwatch Beta | STV","players":null},{"server_id":11,"name":"Uncletopia | London | 1 | All Maps","name_short":"lon-1","host":"lon-1.uk.uncletopia.com","port":27015,"enabled":true,"region":"eu","cc":"gb","latitude":51.509865,"longitude":-0.118092,"reserved":0,"last_update":"0001-01-01T00:00:00Z","name_a2s":"Uncletopia | London | 1 | All Maps","protocol":17,"map":"cp_mercenarypark","folder":"tf","game":"Team Fortress","app_id":440,"player_count":18,"max_players":24,"Bots":0,"server_type":"Dedicated","server_os":"Linux","password":true,"vac":true,"version":"7961495","steam_id":85568392924367362,"keywords":["cp","nocrits","nodmgspread","uncletopia"],"game_id":440,"stv_port":27016,"stv_name":"Uncletopia | London | 1 | All Maps | STV","players":[{"user_id":571,"name":"rajAs | Aoeitalia.com","steam_id":76561198035928111,"connected_time":231000000000,"state":"active","ping":85},{"user_id":576,"name":"chocolate flavoured femboy","steam_id":76561198819353867,"connected_time":72000000000,"state":"active","ping":42},{"user_id":553,"name":"quickfast","steam_id":76561199438900919,"connected_time":1743000000000,"state":"active","ping":43},{"user_id":494,"name":"lidl","steam_id":76561198895235231,"connected_time":6558000000000,"state":"active","ping":47},{"user_id":516,"name":"sushii","steam_id":76561198297987372,"connected_time":4673000000000,"state":"active","ping":57},{"user_id":563,"name":"DryIce","steam_id":76561198134289248,"connected_time":453000000000,"state":"active","ping":83},{"user_id":577,"name":"someone","steam_id":76561199471582243,"connected_time":18000000000,"state":"active","ping":145},{"user_id":557,"name":"Sixie","steam_id":76561198251675360,"connected_time":959000000000,"state":"active","ping":42},{"user_id":573,"name":"sunny","steam_id":76561198194849578,"connected_time":168000000000,"state":"active","ping":65},{"user_id":550,"name":"LivEssense","steam_id":76561198052476979,"connected_time":1969000000000,"state":"active","ping":90},{"user_id":556,"name":"Stunner (John Gaming)","steam_id":76561199085822219,"connected_time":1019000000000,"state":"active","ping":85},{"user_id":574,"name":"GrammyGrammyGram","steam_id":76561199158347565,"connected_time":154000000000,"state":"active","ping":44},{"user_id":562,"name":"Wonder Of Me","steam_id":76561198379620277,"connected_time":604000000000,"state":"active","ping":82},{"user_id":470,"name":"Wikk","steam_id":76561199006349076,"connected_time":8039000000000,"state":"active","ping":55},{"user_id":545,"name":"Dogfighter","steam_id":76561198798793898,"connected_time":2182000000000,"state":"active","ping":65},{"user_id":559,"name":"Ark-e","steam_id":76561198261870909,"connected_time":798000000000,"state":"active","ping":54},{"user_id":546,"name":"Optimist 50","steam_id":76561198039631442,"connected_time":2165000000000,"state":"active","ping":77},{"user_id":568,"name":"Glitch","steam_id":76561198801335846,"connected_time":260000000000,"state":"active","ping":31}]},{"server_id":114,"name":"Uncletopia | London | 2 | All Maps","name_short":"lon-2","host":"lon-1.uk.uncletopia.com","port":27025,"enabled":true,"region":"eu","cc":"gb","latitude":51.509865,"longitude":-0.118092,"reserved":0,"last_update":"0001-01-01T00:00:00Z","name_a2s":"Uncletopia | London | 2 | All Maps","protocol":17,"map":"cp_mountainlab","folder":"tf","game":"Team Fortress","app_id":440,"player_count":24,"max_players":24,"Bots":0,"server_type":"Dedicated","server_os":"Linux","password":true,"vac":true,"version":"7961495","steam_id":85568392924470941,"keywords":["cp","nocrits","nodmgspread","uncletopia"],"game_id":440,"stv_port":27026,"stv_name":"Uncletopia | London | 2 | All Maps | STV","players":[{"user_id":102,"name":"loki","steam_id":76561198198968921,"connected_time":1648000000000,"state":"active","ping":153},{"user_id":98,"name":"ACur","steam_id":76561198880488491,"connected_time":1683000000000,"state":"active","ping":56},{"user_id":97,"name":"Skinny101","steam_id":76561197985599360,"connected_time":2290000000000,"state":"active","ping":57},{"user_id":103,"name":"finbar","steam_id":76561198056812396,"connected_time":1619000000000,"state":"active","ping":81},{"user_id":108,"name":"Demoknight tf3","steam_id":76561198853567961,"connected_time":1437000000000,"state":"active","ping":72},{"user_id":118,"name":"FLYING DWARF","steam_id":76561199048614286,"connected_time":1126000000000,"state":"active","ping":100},{"user_id":109,"name":"blonde furry femboy","steam_id":76561198273361428,"connected_time":1435000000000,"state":"active","ping":79},{"user_id":111,"name":"Omyskull","steam_id":76561198131711758,"connected_time":1412000000000,"state":"active","ping":71},{"user_id":99,"name":"Nuketown","steam_id":76561198448050535,"connected_time":1683000000000,"state":"active","ping":72},{"user_id":112,"name":"m909","steam_id":76561198279621400,"connected_time":1412000000000,"state":"active","ping":96},{"user_id":65,"name":"bebeda blacked out","steam_id":76561198277943630,"connected_time":5307000000000,"state":"active","ping":74},{"user_id":127,"name":"collin","steam_id":76561198067030681,"connected_time":336000000000,"state":"active","ping":45},{"user_id":122,"name":"Lukas","steam_id":76561198009118452,"connected_time":882000000000,"state":"active","ping":64},{"user_id":93,"name":"Schloompa","steam_id":76561198286725629,"connected_time":2670000000000,"state":"active","ping":55},{"user_id":119,"name":"Revettah","steam_id":76561198040442214,"connected_time":1108000000000,"state":"active","ping":42},{"user_id":123,"name":"Vel0city","steam_id":76561198049687798,"connected_time":867000000000,"state":"active","ping":45},{"user_id":124,"name":"19raic","steam_id":76561199093514786,"connected_time":850000000000,"state":"active","ping":82},{"user_id":117,"name":"Elix","steam_id":76561199072306920,"connected_time":1190000000000,"state":"active","ping":99},{"user_id":120,"name":"DroidRanger","steam_id":76561198158858171,"connected_time":1098000000000,"state":"active","ping":57},{"user_id":128,"name":"Na'vi Misato (by popular demand","steam_id":76561198130860698,"connected_time":18000000000,"state":"spawning","ping":81},{"user_id":114,"name":"CharVarPiracy","steam_id":76561198841600694,"connected_time":1403000000000,"state":"active","ping":54},{"user_id":115,"name":"bAdmon","steam_id":76561197961785793,"connected_time":1400000000000,"state":"active","ping":57},{"user_id":116,"name":"Owie!!!","steam_id":76561198215391429,"connected_time":1379000000000,"state":"active","ping":44},{"user_id":125,"name":"MargoulGetron","steam_id":76561198020551698,"connected_time":679000000000,"state":"active","ping":58}]},{"server_id":320,"name":"Uncletopia | London | 3 | All Maps","name_short":"lon-3","host":"lon-1.uk.uncletopia.com","port":27035,"enabled":true,"region":"eu","cc":"gb","latitude":51.509865,"longitude":-0.118092,"reserved":0,"last_update":"0001-01-01T00:00:00Z","name_a2s":"Uncletopia | London | 3 | All Maps","protocol":17,"map":"cp_snakewater_final1","folder":"tf","game":"Team Fortress","app_id":440,"player_count":0,"max_players":24,"Bots":0,"server_type":"Dedicated","server_os":"Linux","password":true,"vac":true,"version":"7961495","steam_id":85568392924510192,"keywords":["cp","nocrits","nodmgspread","uncletopia"],"game_id":440,"stv_port":27036,"stv_name":"Uncletopia | London | 3 | All Maps | STV","players":null},{"server_id":321,"name":"Uncletopia | London | 4 | All Maps","name_short":"lon-4","host":"lon-1.uk.uncletopia.com","port":27045,"enabled":true,"region":"eu","cc":"gb","latitude":51.509865,"longitude":-0.118092,"reserved":0,"last_update":"0001-01-01T00:00:00Z","name_a2s":"Uncletopia | London | 4 | All Maps","protocol":17,"map":"cp_snakewater_final1","folder":"tf","game":"Team Fortress","app_id":440,"player_count":24,"max_players":24,"Bots":0,"server_type":"Dedicated","server_os":"Linux","password":true,"vac":true,"version":"7961495","steam_id":85568392924510193,"keywords":["cp","nocrits","nodmgspread","uncletopia"],"game_id":440,"stv_port":27046,"stv_name":"Uncletopia | London | 4 | All Maps | STV","players":[{"user_id":276,"name":"Fr1Zer","steam_id":76561198357086270,"connected_time":96000000000,"state":"active","ping":91},{"user_id":274,"name":"joachym","steam_id":76561198428579761,"connected_time":321000000000,"state":"active","ping":69},{"user_id":203,"name":"Hexagon","steam_id":76561198151205758,"connected_time":5356000000000,"state":"active","ping":59},{"user_id":268,"name":"austrian basement holidays","steam_id":76561197998352095,"connected_time":590000000000,"state":"active","ping":43},{"user_id":272,"name":"Ank Kebab","steam_id":76561198380860878,"connected_time":453000000000,"state":"active","ping":75},{"user_id":275,"name":"peng","steam_id":76561198313672607,"connected_time":308000000000,"state":"active","ping":100},{"user_id":206,"name":"maakgis","steam_id":76561198851703804,"connected_time":5233000000000,"state":"active","ping":129},{"user_id":240,"name":"Gimli","steam_id":76561198004149706,"connected_time":2636000000000,"state":"active","ping":59},{"user_id":254,"name":"Miss Bari","steam_id":76561198365286092,"connected_time":1376000000000,"state":"active","ping":43},{"user_id":263,"name":"Space","steam_id":76561198021572167,"connected_time":627000000000,"state":"active","ping":44},{"user_id":261,"name":"Goldenapple710","steam_id":76561198338239453,"connected_time":676000000000,"state":"active","ping":74},{"user_id":207,"name":"generic alias","steam_id":76561198271607226,"connected_time":4766000000000,"state":"active","ping":83},{"user_id":264,"name":"PepeVonRekt","steam_id":76561198016378387,"connected_time":611000000000,"state":"active","ping":79},{"user_id":212,"name":"Kitfist","steam_id":76561198048559338,"connected_time":4425000000000,"state":"active","ping":45},{"user_id":273,"name":"ztrs6","steam_id":76561198314853803,"connected_time":396000000000,"state":"active","ping":96},{"user_id":253,"name":"nyanezt","steam_id":76561198253734265,"connected_time":1475000000000,"state":"active","ping":101},{"user_id":265,"name":"nobodyy","steam_id":76561198027735766,"connected_time":611000000000,"state":"active","ping":60},{"user_id":71,"name":"guac","steam_id":76561198070305720,"connected_time":13560000000000,"state":"active","ping":163},{"user_id":271,"name":"mook","steam_id":76561198175543442,"connected_time":471000000000,"state":"active","ping":72},{"user_id":266,"name":"bnandy","steam_id":76561198023640924,"connected_time":598000000000,"state":"active","ping":76},{"user_id":247,"name":"Pineappleman","steam_id":76561199074651648,"connected_time":2146000000000,"state":"active","ping":51},{"user_id":248,"name":"Wonkglorg","steam_id":76561198302060474,"connected_time":2143000000000,"state":"active","ping":76},{"user_id":239,"name":"Son Goku","steam_id":76561199383437138,"connected_time":2675000000000,"state":"active","ping":125},{"user_id":267,"name":"Remyie","steam_id":76561198131031404,"connected_time":597000000000,"state":"active","ping":91}]},{"server_id":21,"name":"Uncletopia | London | 5 | All Maps","name_short":"lon-5","host":"lon-1.uk.uncletopia.com","port":27055,"enabled":true,"region":"eu","cc":"gb","latitude":51.509865,"longitude":-0.118092,"reserved":0,"last_update":"0001-01-01T00:00:00Z","name_a2s":"Uncletopia | London | 5 | All Maps","protocol":17,"map":"koth_nucleus","folder":"tf","game":"Team Fortress","app_id":440,"player_count":0,"max_players":24,"Bots":0,"server_type":"Dedicated","server_os":"Linux","password":true,"vac":true,"version":"7961495","steam_id":85568392924742829,"keywords":["cp","nocrits","nodmgspread","uncletopia"],"game_id":440,"stv_port":27056,"stv_name":"Uncletopia | London | 5 | All Maps | STV","players":null},{"server_id":22,"name":"Uncletopia | London | 6 | All Maps","name_short":"lon-6","host":"lon-1.uk.uncletopia.com","port":27065,"enabled":true,"region":"eu","cc":"gb","latitude":51.509865,"longitude":-0.118092,"reserved":0,"last_update":"0001-01-01T00:00:00Z","name_a2s":"Uncletopia | London | 6 | All Maps","protocol":17,"map":"koth_harvest_final","folder":"tf","game":"Team Fortress","app_id":440,"player_count":0,"max_players":24,"Bots":0,"server_type":"Dedicated","server_os":"Linux","password":true,"vac":true,"version":"7961495","steam_id":85568392924742830,"keywords":["cp","nocrits","nodmgspread","uncletopia"],"game_id":440,"stv_port":27066,"stv_name":"Uncletopia | London | 6 | All Maps | STV","players":null},{"server_id":40,"name":"Uncletopia | London | 7 | No Payload","name_short":"lon-7","host":"lon-1.uk.uncletopia.com","port":27075,"enabled":true,"region":"eu","cc":"gb","latitude":51.509865,"longitude":-0.118092,"reserved":0,"last_update":"0001-01-01T00:00:00Z","name_a2s":"Uncletopia | London | 7 | No Payload","protocol":17,"map":"cp_standin_final","folder":"tf","game":"Team Fortress","app_id":440,"player_count":0,"max_players":24,"Bots":0,"server_type":"Dedicated","server_os":"Linux","password":true,"vac":true,"version":"7961495","steam_id":85568392924964314,"keywords":["cp","nocrits","nodmgspread","uncletopia"],"game_id":440,"stv_port":27076,"stv_name":"Uncletopia | London | 7 | No Payload | STV","players":null},{"server_id":41,"name":"Uncletopia | London | 8 | Community","name_short":"lon-8","host":"lon-1.uk.uncletopia.com","port":27085,"enabled":true,"region":"eu","cc":"gb","latitude":51.509865,"longitude":-0.118092,"reserved":0,"last_update":"0001-01-01T00:00:00Z","name_a2s":"Uncletopia | London | 8 | Community","protocol":17,"map":"workshop/koth_kemptown_rc1.ugc767410655","folder":"tf","game":"Team Fortress","app_id":440,"player_count":8,"max_players":24,"Bots":0,"server_type":"Dedicated","server_os":"Linux","password":true,"vac":true,"version":"7961495","steam_id":85568392924964315,"keywords":["cp","nocrits","nodmgspread","uncletopia"],"game_id":440,"stv_port":27086,"stv_name":"Uncletopia | London | 8 | Community | STV","players":[{"user_id":152,"name":"ultra lox","steam_id":76561199427318825,"connected_time":588000000000,"state":"active","ping":172},{"user_id":153,"name":"Shrub gaming","steam_id":76561198383996370,"connected_time":88000000000,"state":"spawning","ping":329},{"user_id":144,"name":"germinator","steam_id":76561199387893648,"connected_time":1347000000000,"state":"active","ping":104},{"user_id":21,"name":"painting4","steam_id":76561198067554256,"connected_time":9552000000000,"state":"active","ping":44},{"user_id":67,"name":"Setiago","steam_id":76561198060770498,"connected_time":5685000000000,"state":"active","ping":70},{"user_id":84,"name":"veto vuyisio","steam_id":76561199101145470,"connected_time":5097000000000,"state":"active","ping":74},{"user_id":127,"name":"Bonzothegreat24","steam_id":76561198031220372,"connected_time":1866000000000,"state":"active","ping":51},{"user_id":128,"name":"Hamlord101","steam_id":76561198360264140,"connected_time":1853000000000,"state":"active","ping":55}]},{"server_id":300,"name":"Uncletopia | Montr√©al | 1 | All Maps","name_short":"mtl-1","host":"mtl-1.ca.uncletopia.com","port":27015,"enabled":true,"region":"us-east","cc":"ca","latitude":45.50889,"longitude":-73.56167,"reserved":0,"last_update":"0001-01-01T00:00:00Z","name_a2s":"Uncletopia | Montr√©al | 1 | All Maps","protocol":17,"map":"koth_cascade","folder":"tf","game":"Team Fortress","app_id":440,"player_count":0,"max_players":24,"Bots":0,"server_type":"Dedicated","server_os":"Linux","password":true,"vac":true,"version":"7961495","steam_id":85568392924500087,"keywords":["cp","nocrits","nodmgspread","uncletopia"],"game_id":440,"stv_port":27016,"stv_name":"Uncletopia | Montr√©al | 1 | All Maps | STV","players":null},{"server_id":301,"name":"Uncletopia | Montr√©al | 2 | All Maps","name_short":"mtl-2","host":"mtl-1.ca.uncletopia.com","port":27025,"enabled":true,"region":"us-east","cc":"ca","latitude":45.50889,"longitude":-73.56167,"reserved":0,"last_update":"0001-01-01T00:00:00Z","name_a2s":"Uncletopia | Montr√©al | 2 | All Maps","protocol":17,"map":"pl_frontier_final","folder":"tf","game":"Team Fortress","app_id":440,"player_count":0,"max_players":24,"Bots":0,"server_type":"Dedicated","server_os":"Linux","password":true,"vac":true,"version":"7961495","steam_id":85568392924500088,"keywords":["nocrits","nodmgspread","payload","uncletopia"],"game_id":440,"stv_port":27026,"stv_name":"Uncletopia | Montr√©al | 2 | All Maps | STV","players":null},{"server_id":302,"name":"Uncletopia | Montr√©al | 3 | All Maps","name_short":"mtl-3","host":"mtl-1.ca.uncletopia.com","port":27035,"enabled":true,"region":"us-east","cc":"ca","latitude":45.50889,"longitude":-73.56167,"reserved":0,"last_update":"0001-01-01T00:00:00Z","name_a2s":"Uncletopia | Montr√©al | 3 | All Maps","protocol":17,"map":"pl_upward","folder":"tf","game":"Team Fortress","app_id":440,"player_count":0,"max_players":24,"Bots":0,"server_type":"Dedicated","server_os":"Linux","password":true,"vac":true,"version":"7961495","steam_id":85568392924500089,"keywords":["nocrits","nodmgspread","payload","uncletopia"],"game_id":440,"stv_port":27036,"stv_name":"Uncletopia | Montr√©al | 3 | All Maps | STV","players":null},{"server_id":303,"name":"Uncletopia | Montr√©al | 4 | No Payload","name_short":"mtl-4","host":"mtl-1.ca.uncletopia.com","port":27045,"enabled":true,"region":"us-east","cc":"ca","latitude":45.50889,"longitude":-73.56167,"reserved":0,"last_update":"0001-01-01T00:00:00Z","name_a2s":"Uncletopia | Montr√©al | 4 | No Payload","protocol":17,"map":"cp_mountainlab","folder":"tf","game":"Team Fortress","app_id":440,"player_count":0,"max_players":24,"Bots":0,"server_type":"Dedicated","server_os":"Linux","password":true,"vac":true,"version":"7961495","steam_id":85568392924500090,"keywords":["cp","nocrits","nodmgspread","uncletopia"],"game_id":440,"stv_port":27046,"stv_name":"Uncletopia | Montr√©al | 4 | No Payload | STV","players":null},{"server_id":13,"name":"Uncletopia | New York City | 1 | All Maps","name_short":"nyc-1","host":"nyc-1.us.uncletopia.com","port":27015,"enabled":true,"region":"us-east","cc":"us","latitude":40.73061,"longitude":-73.93524,"reserved":0,"last_update":"0001-01-01T00:00:00Z","name_a2s":"Uncletopia | New York City | 1 | All Maps","protocol":17,"map":"koth_lakeside_final","folder":"tf","game":"Team Fortress","app_id":440,"player_count":0,"max_players":24,"Bots":0,"server_type":"Dedicated","server_os":"Linux","password":true,"vac":true,"version":"7961495","steam_id":85568392924469993,"keywords":["cp","nocrits","nodmgspread","uncletopia"],"game_id":440,"stv_port":27016,"stv_name":"Uncletopia | New York City | 1 | All Maps | STV","players":null},{"server_id":14,"name":"Uncletopia | New York City | 2 | All Maps","name_short":"nyc-2","host":"nyc-1.us.uncletopia.com","port":27025,"enabled":true,"region":"us-east","cc":"us","latitude":40.73061,"longitude":-73.93524,"reserved":0,"last_update":"0001-01-01T00:00:00Z","name_a2s":"Uncletopia | New York City | 2 | All Maps","protocol":17,"map":"cp_gorge","folder":"tf","game":"Team Fortress","app_id":440,"player_count":24,"max_players":24,"Bots":0,"server_type":"Dedicated","server_os":"Linux","password":true,"vac":true,"version":"7961495","steam_id":85568392924469994,"keywords":["cp","nocrits","nodmgspread","uncletopia"],"game_id":440,"stv_port":27026,"stv_name":"Uncletopia | New York City | 2 | All Maps | STV","players":[{"user_id":162,"name":"Feces","steam_id":76561198380219187,"connected_time":1298000000000,"state":"active","ping":64},{"user_id":161,"name":"Norman","steam_id":76561198154715990,"connected_time":1304000000000,"state":"active","ping":91},{"user_id":152,"name":"Denzel McFlurry","steam_id":76561199231296521,"connected_time":2302000000000,"state":"active","ping":53},{"user_id":106,"name":"ADRIEN BRODY","steam_id":76561198009299473,"connected_time":5319000000000,"state":"active","ping":48},{"user_id":183,"name":"Huntpk","steam_id":76561198340591674,"connected_time":61000000000,"state":"active","ping":70},{"user_id":168,"name":"Ozwald","steam_id":76561198125241562,"connected_time":1033000000000,"state":"active","ping":70},{"user_id":179,"name":"Ghost Lord","steam_id":76561198088956723,"connected_time":235000000000,"state":"active","ping":101},{"user_id":178,"name":"B","steam_id":76561198015740144,"connected_time":277000000000,"state":"active","ping":77},{"user_id":181,"name":"30 fps gaming","steam_id":76561199216756079,"connected_time":126000000000,"state":"active","ping":80},{"user_id":145,"name":"Chiki","steam_id":76561198063590320,"connected_time":2509000000000,"state":"active","ping":69},{"user_id":115,"name":"Cleaningproduct","steam_id":76561197995620232,"connected_time":3575000000000,"state":"active","ping":32},{"user_id":119,"name":"Al Cabone","steam_id":76561198956823243,"connected_time":3185000000000,"state":"active","ping":60},{"user_id":182,"name":"just jazz","steam_id":76561198010637797,"connected_time":83000000000,"state":"active","ping":80},{"user_id":177,"name":"glitch","steam_id":76561197979495589,"connected_time":322000000000,"state":"active","ping":46},{"user_id":173,"name":"dr peppah chug!","steam_id":76561198068835693,"connected_time":592000000000,"state":"active","ping":79},{"user_id":153,"name":"Booty Bang Jr's","steam_id":76561198977575910,"connected_time":2291000000000,"state":"active","ping":41},{"user_id":116,"name":"Ninja Steave","steam_id":76561197985884951,"connected_time":3509000000000,"state":"active","ping":50},{"user_id":104,"name":"Iris","steam_id":76561198388271181,"connected_time":5356000000000,"state":"active","ping":79},{"user_id":174,"name":"Wengatang","steam_id":76561198021747059,"connected_time":589000000000,"state":"active","ping":60},{"user_id":175,"name":"juanjoesc","steam_id":76561198186368430,"connected_time":584000000000,"state":"active","ping":133},{"user_id":176,"name":"cowboy","steam_id":76561199079124758,"connected_time":537000000000,"state":"active","ping":65},{"user_id":166,"name":"HeavyMettleDick","steam_id":76561198001925087,"connected_time":1095000000000,"state":"active","ping":81},{"user_id":154,"name":"amazingzeal","steam_id":76561198135955352,"connected_time":2289000000000,"state":"active","ping":50},{"user_id":167,"name":"Artgrendadier","steam_id":76561198063305359,"connected_time":1095000000000,"state":"active","ping":57}]},{"server_id":15,"name":"Uncletopia | New York City | 3 | Stopwatch Beta","name_short":"nyc-3","host":"nyc-1.us.uncletopia.com","port":27035,"enabled":true,"region":"us-east","cc":"us","latitude":40.73061,"longitude":-73.93524,"reserved":0,"last_update":"0001-01-01T00:00:00Z","name_a2s":"Uncletopia | New York City | 3 | Stopwatch Beta","protocol":17,"map":"koth_lakeside_final","folder":"tf","game":"Team Fortress","app_id":440,"player_count":0,"max_players":24,"Bots":0,"server_type":"Dedicated","server_os":"Linux","password":true,"vac":true,"version":"7961495","steam_id":85568392924742820,"keywords":["cp","nocrits","nodmgspread","uncletopia"],"game_id":440,"stv_port":27036,"stv_name":"Uncletopia | New York City | 3 | Stopwatch Beta | STV","players":null},{"server_id":16,"name":"Uncletopia | New York City | 4 | Community","name_short":"nyc-4","host":"nyc-1.us.uncletopia.com","port":27045,"enabled":true,"region":"us-east","cc":"us","latitude":40.73061,"longitude":-73.93524,"reserved":0,"last_update":"0001-01-01T00:00:00Z","name_a2s":"Uncletopia | New York City | 4 | Community","protocol":17,"map":"pl_frontier_final","folder":"tf","game":"Team Fortress","app_id":440,"player_count":0,"max_players":24,"Bots":0,"server_type":"Dedicated","server_os":"Linux","password":true,"vac":true,"version":"7961495","steam_id":85568392924742821,"keywords":["nocrits","nodmgspread","payload","uncletopia"],"game_id":440,"stv_port":27046,"stv_name":"Uncletopia | New York City | 4 | Community | STV","players":null},{"server_id":142,"name":"Uncletopia | S√£o Paulo | 1 | All Maps","name_short":"sao-1","host":"sao-1.br.uncletopia.com","port":27015,"enabled":true,"region":"sa","cc":"br","latitude":-23.533773,"longitude":-46.62529,"reserved":0,"last_update":"0001-01-01T00:00:00Z","name_a2s":"Uncletopia | S√£o Paulo | 1 | All Maps","protocol":17,"map":"koth_highpass","folder":"tf","game":"Team Fortress","app_id":440,"player_count":0,"max_players":24,"Bots":0,"server_type":"Dedicated","server_os":"Linux","password":true,"vac":true,"version":"7961495","steam_id":85568392924469996,"keywords":["cp","nocrits","nodmgspread","uncletopia"],"game_id":440,"stv_port":27016,"stv_name":"Uncletopia | S√£o Paulo | 1 | All Maps | STV","players":null},{"server_id":143,"name":"Uncletopia | S√£o Paulo | 2 | All Maps","name_short":"sao-2","host":"sao-2.br.uncletopia.com","port":27015,"enabled":true,"region":"sa","cc":"br","latitude":-23.533773,"longitude":-46.62529,"reserved":0,"last_update":"0001-01-01T00:00:00Z","name_a2s":"Uncletopia | S√£o Paulo | 2 | All Maps","protocol":17,"map":"koth_cascade","folder":"tf","game":"Team Fortress","app_id":440,"player_count":0,"max_players":24,"Bots":0,"server_type":"Dedicated","server_os":"Linux","password":true,"vac":true,"version":"7961495","steam_id":85568392924485349,"keywords":["cp","nocrits","nodmgspread","uncletopia"],"game_id":440,"stv_port":27016,"stv_name":"Uncletopia | S√£o Paulo | 2 | All Maps | STV","players":null},{"server_id":7,"name":"Uncletopia | Seattle | 1 | All Maps","name_short":"sea-1","host":"sea-1.us.uncletopia.com","port":27015,"enabled":true,"region":"us-west","cc":"us","latitude":47.608013,"longitude":-122.33517,"reserved":0,"last_update":"0001-01-01T00:00:00Z","name_a2s":"Uncletopia | Seattle | 1 | All Maps","protocol":17,"map":"pl_upward","folder":"tf","game":"Team Fortress","app_id":440,"player_count":0,"max_players":24,"Bots":0,"server_type":"Dedicated","server_os":"Linux","password":true,"vac":true,"version":"7961495","steam_id":85568392924469997,"keywords":["nocrits","nodmgspread","payload","uncletopia"],"game_id":440,"stv_port":27016,"stv_name":"Uncletopia | Seattle | 1 | All Maps | STV","players":null},{"server_id":119,"name":"Uncletopia | Seattle | 2 | All Maps","name_short":"sea-2","host":"sea-1.us.uncletopia.com","port":27025,"enabled":true,"region":"us-west","cc":"us","latitude":47.608013,"longitude":-122.33517,"reserved":0,"last_update":"0001-01-01T00:00:00Z","name_a2s":"Uncletopia | Seattle | 2 | All Maps","protocol":17,"map":"koth_highpass","folder":"tf","game":"Team Fortress","app_id":440,"player_count":0,"max_players":24,"Bots":0,"server_type":"Dedicated","server_os":"Linux","password":true,"vac":true,"version":"7961495","steam_id":85568392924469998,"keywords":["cp","nocrits","nodmgspread","uncletopia"],"game_id":440,"stv_port":27026,"stv_name":"Uncletopia | Seattle | 2 | All Maps | STV","players":null},{"server_id":406,"name":"Uncletopia | Seattle | 3 | Stopwatch Beta","name_short":"sea-3","host":"sea-1.us.uncletopia.com","port":27035,"enabled":true,"region":"us-west","cc":"us","latitude":47.608013,"longitude":-122.33517,"reserved":0,"last_update":"0001-01-01T00:00:00Z","name_a2s":"Uncletopia | Seattle | 3 | Stopwatch Beta","protocol":17,"map":"cp_mountainlab","folder":"tf","game":"Team Fortress","app_id":440,"player_count":0,"max_players":24,"Bots":0,"server_type":"Dedicated","server_os":"Linux","password":true,"vac":true,"version":"7961495","steam_id":85568392924515217,"keywords":["cp","nocrits","nodmgspread","uncletopia"],"game_id":440,"stv_port":27036,"stv_name":"Uncletopia | Seattle | 3 | Stopwatch Beta | STV","players":null},{"server_id":17,"name":"Uncletopia | San Francisco | 1 | All Maps","name_short":"sfo-1","host":"sfo-1.us.uncletopia.com","port":27015,"enabled":true,"region":"us-west","cc":"us","latitude":37.77397,"longitude":-122.4313,"reserved":0,"last_update":"0001-01-01T00:00:00Z","name_a2s":"Uncletopia | San Francisco | 1 | All Maps","protocol":17,"map":"pl_frontier_final","folder":"tf","game":"Team Fortress","app_id":440,"player_count":0,"max_players":24,"Bots":0,"server_type":"Dedicated","server_os":"Linux","password":true,"vac":true,"version":"7932396","steam_id":85568392924469999,"keywords":["nocrits","nodmgspread","payload","uncletopia"],"game_id":440,"stv_port":27016,"stv_name":"Uncletopia | San Francisco | 1 | All Maps | STV","players":null},{"server_id":18,"name":"Uncletopia | San Francisco | 2 | All Maps","name_short":"sfo-2","host":"sfo-1.us.uncletopia.com","port":27025,"enabled":true,"region":"us-west","cc":"us","latitude":37.77397,"longitude":-122.4313,"reserved":0,"last_update":"0001-01-01T00:00:00Z","name_a2s":"Uncletopia | San Francisco | 2 | All Maps","protocol":17,"map":"cp_snakewater_final1","folder":"tf","game":"Team Fortress","app_id":440,"player_count":0,"max_players":24,"Bots":0,"server_type":"Dedicated","server_os":"Linux","password":true,"vac":true,"version":"7932396","steam_id":85568392924470000,"keywords":["cp","nocrits","nodmgspread","uncletopia"],"game_id":440,"stv_port":27026,"stv_name":"Uncletopia | San Francisco | 2 | All Maps | STV","players":null},{"server_id":19,"name":"Uncletopia | San Francisco | 3 | Stopwatch Beta","name_short":"sfo-3","host":"sfo-1.us.uncletopia.com","port":27035,"enabled":true,"region":"us-west","cc":"us","latitude":37.77397,"longitude":-122.4313,"reserved":0,"last_update":"0001-01-01T00:00:00Z","name_a2s":"Uncletopia | San Francisco | 3 | Stopwatch Beta","protocol":17,"map":"koth_lakeside_final","folder":"tf","game":"Team Fortress","app_id":440,"player_count":0,"max_players":24,"Bots":0,"server_type":"Dedicated","server_os":"Linux","password":true,"vac":true,"version":"7932396","steam_id":85568392924742824,"keywords":["cp","nocrits","nodmgspread","uncletopia"],"game_id":440,"stv_port":27036,"stv_name":"Uncletopia | San Francisco | 3 | Stopwatch Beta | STV","players":null},{"server_id":20,"name":"Uncletopia | San Francisco | 4 | Community","name_short":"sfo-4","host":"sfo-1.us.uncletopia.com","port":27045,"enabled":true,"region":"us-west","cc":"us","latitude":37.77397,"longitude":-122.4313,"reserved":0,"last_update":"0001-01-01T00:00:00Z","name_a2s":"Uncletopia | San Francisco | 4 | Community","protocol":17,"map":"pl_borneo","folder":"tf","game":"Team Fortress","app_id":440,"player_count":0,"max_players":24,"Bots":0,"server_type":"Dedicated","server_os":"Linux","password":true,"vac":true,"version":"7932396","steam_id":85568392924742826,"keywords":["nocrits","nodmgspread","payload","uncletopia"],"game_id":440,"stv_port":27046,"stv_name":"Uncletopia | San Francisco | 4 | Community | STV","players":null},{"server_id":141,"name":"Uncletopia | Sydney | 1 | All Maps","name_short":"syd-1","host":"syd-1.au.uncletopia.com","port":27015,"enabled":true,"region":"au","cc":"au","latitude":-33.865143,"longitude":151.2099,"reserved":0,"last_update":"0001-01-01T00:00:00Z","name_a2s":"Uncletopia | Sydney | 1 | All Maps","protocol":17,"map":"cp_dustbowl","folder":"tf","game":"Team Fortress","app_id":440,"player_count":0,"max_players":24,"Bots":0,"server_type":"Dedicated","server_os":"Linux","password":true,"vac":true,"version":"7961495","steam_id":85568392924470001,"keywords":["cp","nocrits","nodmgspread","uncletopia"],"game_id":440,"stv_port":27016,"stv_name":"Uncletopia | Sydney | 1 | All Maps | STV","players":null},{"server_id":123,"name":"Uncletopia | Sydney | 2 | All Maps","name_short":"syd-2","host":"syd-1.au.uncletopia.com","port":27025,"enabled":true,"region":"au","cc":"au","latitude":-33.865143,"longitude":151.2099,"reserved":0,"last_update":"0001-01-01T00:00:00Z","name_a2s":"Uncletopia | Sydney | 2 | All Maps","protocol":17,"map":"koth_highpass","folder":"tf","game":"Team Fortress","app_id":440,"player_count":0,"max_players":24,"Bots":0,"server_type":"Dedicated","server_os":"Linux","password":true,"vac":true,"version":"7961495","steam_id":85568392924470002,"keywords":["cp","nocrits","nodmgspread","uncletopia"],"game_id":440,"stv_port":27026,"stv_name":"Uncletopia | Sydney | 2 | All Maps | STV","players":null},{"server_id":395,"name":"Uncletopia | Sydney | 3 | All Maps","name_short":"syd-3","host":"syd-1.au.uncletopia.com","port":27035,"enabled":true,"region":"au","cc":"au","latitude":-33.865143,"longitude":151.2099,"reserved":0,"last_update":"0001-01-01T00:00:00Z","name_a2s":"Uncletopia | Sydney | 3 | All Maps","protocol":17,"map":"cp_mountainlab","folder":"tf","game":"Team Fortress","app_id":440,"player_count":0,"max_players":24,"Bots":0,"server_type":"Dedicated","server_os":"Linux","password":true,"vac":true,"version":"7961495","steam_id":85568392925194467,"keywords":["cp","nocrits","nodmgspread","uncletopia"],"game_id":440,"stv_port":27036,"stv_name":"Uncletopia | Sydney | 3 | All Maps | STV","players":null},{"server_id":396,"name":"Uncletopia | Sydney | 4 | All Maps","name_short":"syd-4","host":"syd-1.au.uncletopia.com","port":27045,"enabled":true,"region":"au","cc":"au","latitude":-33.865143,"longitude":151.2099,"reserved":0,"last_update":"0001-01-01T00:00:00Z","name_a2s":"Uncletopia | Sydney | 4 | All Maps","protocol":17,"map":"koth_cascade","folder":"tf","game":"Team Fortress","app_id":440,"player_count":0,"max_players":24,"Bots":0,"server_type":"Dedicated","server_os":"Linux","password":true,"vac":true,"version":"7961495","steam_id":85568392925397958,"keywords":["cp","nocrits","nodmgspread","uncletopia"],"game_id":440,"stv_port":27046,"stv_name":"Uncletopia | Sydney | 4 | All Maps | STV","players":null},{"server_id":58,"name":"Uncletopia | Sydney | 5 | Stopwatch Beta","name_short":"syd-5","host":"syd-1.au.uncletopia.com","port":27055,"enabled":true,"region":"au","cc":"au","latitude":-33.865143,"longitude":151.2099,"reserved":0,"last_update":"0001-01-01T00:00:00Z","name_a2s":"Uncletopia | Sydney | 5 | Stopwatch Beta","protocol":17,"map":"koth_viaduct","folder":"tf","game":"Team Fortress","app_id":440,"player_count":0,"max_players":24,"Bots":0,"server_type":"Dedicated","server_os":"Linux","password":true,"vac":true,"version":"7961495","steam_id":85568392925397959,"keywords":["cp","nocrits","nodmgspread","uncletopia"],"game_id":440,"stv_port":27056,"stv_name":"Uncletopia | Sydney | 5 | Stopwatch Beta | STV","players":null},{"server_id":59,"name":"Uncletopia | Sydney | 6 | Community","name_short":"syd-6","host":"syd-1.au.uncletopia.com","port":27065,"enabled":true,"region":"au","cc":"au","latitude":-33.865143,"longitude":151.2099,"reserved":0,"last_update":"0001-01-01T00:00:00Z","name_a2s":"Uncletopia | Sydney | 6 | Community","protocol":17,"map":"workshop/cp_indulge.ugc528106646","folder":"tf","game":"Team Fortress","app_id":440,"player_count":0,"max_players":24,"Bots":0,"server_type":"Dedicated","server_os":"Linux","password":true,"vac":true,"version":"7961495","steam_id":85568392925397960,"keywords":["cp","nocrits","nodmgspread","uncletopia"],"game_id":440,"stv_port":27066,"stv_name":"Uncletopia | Sydney | 6 | Community | STV","players":null},{"server_id":49,"name":"Uncletopia | Warsaw | 1 | All Maps","name_short":"waw-1","host":"waw-1.pl.uncletopia.com","port":27015,"enabled":true,"region":"eu","cc":"pl","latitude":52.2297,"longitude":21.017532,"reserved":0,"last_update":"0001-01-01T00:00:00Z","name_a2s":"","protocol":0,"map":"","folder":"","game":"","app_id":0,"player_count":0,"max_players":0,"Bots":0,"server_type":"","server_os":"","password":false,"vac":false,"version":"","steam_id":0,"keywords":null,"game_id":0,"stv_port":0,"stv_name":"","players":null},{"server_id":50,"name":"Uncletopia | Warsaw | 2 | All Maps","name_short":"waw-2","host":"waw-1.pl.uncletopia.com","port":27025,"enabled":true,"region":"eu","cc":"pl","latitude":52.2297,"longitude":21.017532,"reserved":0,"last_update":"0001-01-01T00:00:00Z","name_a2s":"Uncletopia | Warsaw | 2 | All Maps","protocol":17,"map":"pl_swiftwater_final1","folder":"tf","game":"Team Fortress","app_id":440,"player_count":2,"max_players":24,"Bots":0,"server_type":"Dedicated","server_os":"Linux","password":true,"vac":true,"version":"7961495","steam_id":85568392925397851,"keywords":["nocrits","nodmgspread","payload","uncletopia"],"game_id":440,"stv_port":27026,"stv_name":"Uncletopia | Warsaw | 2 | All Maps | STV","players":[{"user_id":36,"name":"Dispenser","steam_id":76561198929260723,"connected_time":770000000000,"state":"active","ping":49},{"user_id":37,"name":"GLITCHTRAP","steam_id":76561199066370550,"connected_time":750000000000,"state":"active","ping":68}]},{"server_id":51,"name":"Uncletopia | Warsaw | 3 | All Maps","name_short":"waw-3","host":"waw-1.pl.uncletopia.com","port":27035,"enabled":true,"region":"eu","cc":"pl","latitude":52.2297,"longitude":21.017532,"reserved":0,"last_update":"0001-01-01T00:00:00Z","name_a2s":"Uncletopia | Warsaw | 3 | All Maps","protocol":17,"map":"cp_mountainlab","folder":"tf","game":"Team Fortress","app_id":440,"player_count":0,"max_players":24,"Bots":0,"server_type":"Dedicated","server_os":"Linux","password":true,"vac":true,"version":"7961495","steam_id":85568392925397852,"keywords":["cp","nocrits","nodmgspread","uncletopia"],"game_id":440,"stv_port":27036,"stv_name":"Uncletopia | Warsaw | 3 | All Maps | STV","players":null},{"server_id":52,"name":"Uncletopia | Warsaw | 4 | All Maps","name_short":"waw-4","host":"waw-1.pl.uncletopia.com","port":27045,"enabled":true,"region":"eu","cc":"pl","latitude":52.2297,"longitude":21.017532,"reserved":0,"last_update":"0001-01-01T00:00:00Z","name_a2s":"Uncletopia | Warsaw | 4 | All Maps","protocol":17,"map":"cp_altitude","folder":"tf","game":"Team Fortress","app_id":440,"player_count":0,"max_players":24,"Bots":0,"server_type":"Dedicated","server_os":"Linux","password":true,"vac":true,"version":"7961495","steam_id":85568392925397853,"keywords":["cp","nocrits","nodmgspread","uncletopia"],"game_id":440,"stv_port":27046,"stv_name":"Uncletopia | Warsaw | 4 | All Maps | STV","players":null},{"server_id":53,"name":"Uncletopia | Warsaw | 5 | Stopwatch Beta","name_short":"waw-5","host":"waw-1.pl.uncletopia.com","port":27055,"enabled":true,"region":"eu","cc":"pl","latitude":52.2297,"longitude":21.017532,"reserved":0,"last_update":"0001-01-01T00:00:00Z","name_a2s":"Uncletopia | Warsaw | 5 | Stopwatch Beta","protocol":17,"map":"pl_snowycoast","folder":"tf","game":"Team Fortress","app_id":440,"player_count":0,"max_players":24,"Bots":0,"server_type":"Dedicated","server_os":"Linux","password":true,"vac":true,"version":"7961495","steam_id":85568392925397854,"keywords":["nocrits","nodmgspread","payload","uncletopia"],"game_id":440,"stv_port":27056,"stv_name":"Uncletopia | Warsaw | 5 | Stopwatch Beta | STV","players":null},{"server_id":54,"name":"Uncletopia | Warsaw | 6 | Community","name_short":"waw-6","host":"waw-1.pl.uncletopia.com","port":27065,"enabled":true,"region":"eu","cc":"pl","latitude":52.2297,"longitude":21.017532,"reserved":0,"last_update":"0001-01-01T00:00:00Z","name_a2s":"Uncletopia | Warsaw | 6 | Community","protocol":17,"map":"workshop/pl_boundary_final1.ugc456799153","folder":"tf","game":"Team Fortress","app_id":440,"player_count":0,"max_players":24,"Bots":0,"server_type":"Dedicated","server_os":"Linux","password":true,"vac":true,"version":"7961495","steam_id":85568392925397856,"keywords":["nocrits","nodmgspread","payload","uncletopia"],"game_id":440,"stv_port":27066,"stv_name":"Uncletopia | Warsaw | 6 | Community | STV","players":null}]}