{"status":true,"message":"","result":[{"server_id":9,"name":"Uncletopia | Atlanta | 1 | All Maps","name_short":"atl-1","host":"atl-1.us.uncletopia.com","port":27015,"enabled":true,"region":"us-east","cc":"us","latitude":33.753746,"longitude":-84.38633,"reserved":0,"last_update":"0001-01-01T00:00:00Z","name_a2s":"Uncletopia | Atlanta | 1 | All Maps","protocol":17,"map":"cp_altitude","folder":"tf","game":"Team Fortress","app_id":440,"player_count":24,"max_players":24,"Bots":0,"server_type":"Dedicated","server_os":"Linux","password":true,"vac":true,"version":"7757534","steam_id":85568392924469982,"keywords":["cp","nocrits","nodmgspread","uncletopia"],"game_id":440,"stv_port":27016,"stv_name":"Uncletopia | Atlanta | 1 | All Maps | STV","players":[{"user_id":686,"name":"namisimp102","steam_id":76561198166710027,"connected_time":148000000000,"state":"active","ping":44},{"user_id":677,"name":"Sojuounr (overwatch 2)","steam_id":76561198968337022,"connected_time":912000000000,"state":"active","ping":55},{"user_id":662,"name":"guac","steam_id":76561198025481672,"connected_time":2625000000000,"state":"active","ping":79},{"user_id":653,"name":"ishaboi","steam_id":76561198014353701,"connected_time":3373000000000,"state":"active","ping":62},{"user_id":660,"name":"O'Keearns","steam_id":76561198042213797,"connected_time":2845000000000,"state":"active","ping":45},{"user_id":670,"name":"STEVE","steam_id":76561198063475894,"connected_time":1599000000000,"state":"active","ping":54},{"user_id":688,"name":"the follower","steam_id":76561198921045691,"connected_time":136000000000,"state":"active","ping":70},{"user_id":651,"name":"OddSlaush","steam_id":76561198043898488,"connected_time":3395000000000,"state":"active","ping":89},{"user_id":689,"name":"Applesauce","steam_id":76561198049642811,"connected_time":134000000000,"state":"active","ping":45},{"user_id":685,"name":"DIYspaceship17","steam_id":76561199042640810,"connected_time":197000000000,"state":"active","ping":89},{"user_id":668,"name":"Bobbn","steam_id":76561198876124683,"connected_time":2272000000000,"state":"active","ping":77},{"user_id":638,"name":"Elflocky","steam_id":76561199096852639,"connected_time":4394000000000,"state":"active","ping":64},{"user_id":657,"name":"worldspawn","steam_id":76561198020271760,"connected_time":3266000000000,"state":"active","ping":83},{"user_id":690,"name":"Bullwinkle J. Moose","steam_id":76561198075977196,"connected_time":114000000000,"state":"active","ping":82},{"user_id":682,"name":"Nighthawk","steam_id":76561198125875536,"connected_time":525000000000,"state":"active","ping":44},{"user_id":614,"name":"ATL1 | Pango","steam_id":76561198069811545,"connected_time":7069000000000,"state":"active","ping":47},{"user_id":681,"name":"LuckyZero-_-","steam_id":76561198139891051,"connected_time":610000000000,"state":"active","ping":71},{"user_id":687,"name":"wife","steam_id":76561198141795632,"connected_time":146000000000,"state":"active","ping":54},{"user_id":684,"name":"SamFec","steam_id":76561198414538682,"connected_time":508000000000,"state":"active","ping":109},{"user_id":673,"name":"Mage","steam_id":76561198285026879,"connected_time":1375000000000,"state":"active","ping":82},{"user_id":659,"name":"TheSnaggedSoul","steam_id":76561198198846371,"connected_time":2909000000000,"state":"active","ping":81},{"user_id":663,"name":"atl1 Quality","steam_id":76561198361132101,"connected_time":2539000000000,"state":"active","ping":90},{"user_id":664,"name":"Mug","steam_id":76561199282207802,"connected_time":2538000000000,"state":"active","ping":80},{"user_id":676,"name":"Alt1 l Epifiny","steam_id":76561198027958086,"connected_time":1007000000000,"state":"active","ping":91}]},{"server_id":400,"name":"Uncletopia | Atlanta | 3 | Community","name_short":"atl-3","host":"atl-1.us.uncletopia.com","port":27035,"enabled":true,"region":"us-east","cc":"us","latitude":33.753746,"longitude":-84.38633,"reserved":0,"last_update":"0001-01-01T00:00:00Z","name_a2s":"Uncletopia | Atlanta | 3 | Community","protocol":17,"map":"workshop/koth_ramjam_rc1.ugc459778887","folder":"tf","game":"Team Fortress","app_id":440,"player_count":0,"max_players":24,"Bots":0,"server_type":"Dedicated","server_os":"Linux","password":true,"vac":true,"version":"7757534","steam_id":85568392924515187,"keywords":["cp","nocrits","nodmgspread","uncletopia"],"game_id":440,"stv_port":27036,"stv_name":"Uncletopia | Atlanta | 3 | Community | STV","players":null},{"server_id":401,"name":"Uncletopia | Atlanta | 4 | No Payload","name_short":"atl-4","host":"atl-1.us.uncletopia.com","port":27045,"enabled":true,"region":"us-east","cc":"us","latitude":33.753746,"longitude":-84.38633,"reserved":0,"last_update":"0001-01-01T00:00:00Z","name_a2s":"","protocol":0,"map":"","folder":"","game":"","app_id":0,"player_count":0,"max_players":0,"Bots":0,"server_type":"","server_os":"","password":false,"vac":false,"version":"","steam_id":0,"keywords":null,"game_id":0,"stv_port":0,"stv_name":"","players":null},{"server_id":2,"name":"Uncletopia | Chicago | 1 | All Maps","name_short":"chi-1","host":"chi-1.us.uncletopia.com","port":27015,"enabled":true,"region":"us-central","cc":"us","latitude":41.881832,"longitude":-87.62318,"reserved":0,"last_update":"0001-01-01T00:00:00Z","name_a2s":"Uncletopia | Chicago | 1 | All Maps","protocol":17,"map":"pl_goldrush","folder":"tf","game":"Team Fortress","app_id":440,"player_count":24,"max_players":24,"Bots":0,"server_type":"Dedicated","server_os":"Linux","password":true,"vac":true,"version":"7757534","steam_id":85568392924469984,"keywords":["nocrits","nodmgspread","payload","uncletopia"],"game_id":440,"stv_port":27016,"stv_name":"Uncletopia | Chicago | 1 | All Maps | STV","players":[{"user_id":483,"name":"Shame","steam_id":76561198100490994,"connected_time":495000000000,"state":"active","ping":76},{"user_id":485,"name":"JerlBays","steam_id":76561198096773292,"connected_time":487000000000,"state":"active","ping":59},{"user_id":484,"name":"Bungalow Bill","steam_id":76561198033536404,"connected_time":489000000000,"state":"active","ping":85},{"user_id":482,"name":"Crab Rangoon","steam_id":76561198059310510,"connected_time":585000000000,"state":"active","ping":71},{"user_id":463,"name":"moistwalnut1967","steam_id":76561198044489449,"connected_time":1734000000000,"state":"active","ping":54},{"user_id":488,"name":"BannedMist","steam_id":76561198905992575,"connected_time":461000000000,"state":"active","ping":56},{"user_id":412,"name":"boob","steam_id":76561198117256239,"connected_time":5720000000000,"state":"active","ping":53},{"user_id":479,"name":"Romo","steam_id":76561198243101572,"connected_time":871000000000,"state":"active","ping":87},{"user_id":477,"name":"StompOnYourFace!!!!","steam_id":76561198065581117,"connected_time":916000000000,"state":"active","ping":69},{"user_id":475,"name":"scarecrow (evil)","steam_id":76561198082979347,"connected_time":1290000000000,"state":"active","ping":57},{"user_id":410,"name":"richard clock","steam_id":76561198048455671,"connected_time":5865000000000,"state":"active","ping":60},{"user_id":454,"name":"Dr_Spek","steam_id":76561198128667701,"connected_time":2680000000000,"state":"active","ping":63},{"user_id":445,"name":"Albino Jellyfish","steam_id":76561198208561097,"connected_time":3053000000000,"state":"active","ping":72},{"user_id":427,"name":"Wallem","steam_id":76561198052361822,"connected_time":4576000000000,"state":"active","ping":77},{"user_id":447,"name":"xX_HimboSwallower_Xx","steam_id":76561198016029965,"connected_time":2966000000000,"state":"active","ping":55},{"user_id":487,"name":"Vensita","steam_id":76561198372434928,"connected_time":476000000000,"state":"active","ping":59},{"user_id":486,"name":"DJ Sheeve","steam_id":76561198095910139,"connected_time":481000000000,"state":"active","ping":58},{"user_id":472,"name":"Undertime Slopper","steam_id":76561198396789061,"connected_time":1344000000000,"state":"active","ping":81},{"user_id":476,"name":"Im High","steam_id":76561198049954886,"connected_time":935000000000,"state":"active","ping":69},{"user_id":470,"name":"donatello ツ","steam_id":76561198091157081,"connected_time":1615000000000,"state":"active","ping":56},{"user_id":489,"name":"Big Phony","steam_id":76561199092395311,"connected_time":255000000000,"state":"active","ping":61},{"user_id":430,"name":"wiiblob","steam_id":76561198109106242,"connected_time":4232000000000,"state":"active","ping":150},{"user_id":462,"name":"blob","steam_id":76561198122375328,"connected_time":1741000000000,"state":"active","ping":69},{"user_id":481,"name":"Lia_Rein","steam_id":76561198151569597,"connected_time":847000000000,"state":"active","ping":139}]},{"server_id":106,"name":"Uncletopia | Chicago | 2 | All Maps","name_short":"chi-2","host":"chi-1.us.uncletopia.com","port":27025,"enabled":true,"region":"us-central","cc":"us","latitude":41.881832,"longitude":-87.62318,"reserved":0,"last_update":"0001-01-01T00:00:00Z","name_a2s":"Uncletopia | Chicago | 2 | All Maps","protocol":17,"map":"pl_swiftwater_final1","folder":"tf","game":"Team Fortress","app_id":440,"player_count":23,"max_players":24,"Bots":0,"server_type":"Dedicated","server_os":"Linux","password":true,"vac":true,"version":"7757534","steam_id":85568392924469985,"keywords":["nocrits","nodmgspread","payload","uncletopia"],"game_id":440,"stv_port":27026,"stv_name":"Uncletopia | Chicago | 2 | All Maps | STV","players":[{"user_id":436,"name":"The Notorious P.U.E.R.","steam_id":76561198046715542,"connected_time":341000000000,"state":"active","ping":65},{"user_id":420,"name":"momb","steam_id":76561198142234038,"connected_time":990000000000,"state":"active","ping":88},{"user_id":440,"name":"WitchesBwew","steam_id":76561198871652065,"connected_time":230000000000,"state":"active","ping":112},{"user_id":426,"name":"Medic Gaming","steam_id":76561199275406250,"connected_time":879000000000,"state":"active","ping":77},{"user_id":437,"name":"Ryan","steam_id":76561198397037834,"connected_time":307000000000,"state":"active","ping":70},{"user_id":375,"name":"popfulmail","steam_id":76561198865971290,"connected_time":3825000000000,"state":"active","ping":93},{"user_id":379,"name":"MatchMatch","steam_id":76561198048925904,"connected_time":3782000000000,"state":"active","ping":111},{"user_id":402,"name":"t.tv/FamilyGuyFunnyMoments277","steam_id":76561198416047580,"connected_time":2130000000000,"state":"active","ping":85},{"user_id":433,"name":"小さなソーセージ","steam_id":76561198166824254,"connected_time":695000000000,"state":"active","ping":91},{"user_id":415,"name":"Pester","steam_id":76561198322672725,"connected_time":1778000000000,"state":"active","ping":85},{"user_id":423,"name":"[يهودي] Bill Clinton [אל","steam_id":76561198163291190,"connected_time":917000000000,"state":"active","ping":87},{"user_id":425,"name":"SSBM Pelican","steam_id":76561198040697907,"connected_time":905000000000,"state":"active","ping":74},{"user_id":395,"name":"Old Mann Overgrowth","steam_id":76561198020397139,"connected_time":2691000000000,"state":"active","ping":87},{"user_id":431,"name":"Ham Mann","steam_id":76561199104461744,"connected_time":778000000000,"state":"active","ping":83},{"user_id":439,"name":"Pink","steam_id":76561198042140694,"connected_time":236000000000,"state":"active","ping":92},{"user_id":376,"name":"touca","steam_id":76561198986534519,"connected_time":3825000000000,"state":"active","ping":90},{"user_id":383,"name":"KingAC","steam_id":76561198196813686,"connected_time":3737000000000,"state":"active","ping":55},{"user_id":403,"name":"cooltool21","steam_id":76561197996817585,"connected_time":2024000000000,"state":"active","ping":82},{"user_id":394,"name":"NUt","steam_id":76561198031007966,"connected_time":2697000000000,"state":"active","ping":60},{"user_id":435,"name":"goldenninja76","steam_id":76561198123341944,"connected_time":588000000000,"state":"active","ping":87},{"user_id":424,"name":"lili.winters","steam_id":76561199391478575,"connected_time":915000000000,"state":"active","ping":117},{"user_id":441,"name":"Poppet","steam_id":76561198012301951,"connected_time":225000000000,"state":"active","ping":59},{"user_id":416,"name":"AngelRuneEyes","steam_id":76561198243290084,"connected_time":1763000000000,"state":"active","ping":141}]},{"server_id":402,"name":"Uncletopia | Chicago | 3 | All Maps","name_short":"chi-3","host":"chi-1.us.uncletopia.com","port":27035,"enabled":true,"region":"us-central","cc":"us","latitude":41.881832,"longitude":-87.62318,"reserved":0,"last_update":"0001-01-01T00:00:00Z","name_a2s":"Uncletopia | Chicago | 3 | All Maps","protocol":17,"map":"pl_upward","folder":"tf","game":"Team Fortress","app_id":440,"player_count":24,"max_players":24,"Bots":0,"server_type":"Dedicated","server_os":"Linux","password":true,"vac":true,"version":"7757534","steam_id":85568392924515191,"keywords":["nocrits","nodmgspread","payload","uncletopia"],"game_id":440,"stv_port":27036,"stv_name":"Uncletopia | Chicago | 3 | All Maps | STV","players":[{"user_id":252,"name":"Mercury","steam_id":76561198072263852,"connected_time":1795000000000,"state":"active","ping":70},{"user_id":254,"name":"Boogie","steam_id":76561198043626626,"connected_time":1411000000000,"state":"active","ping":56},{"user_id":266,"name":"Iron","steam_id":76561198247918478,"connected_time":792000000000,"state":"active","ping":67},{"user_id":230,"name":"threethree","steam_id":76561198177354155,"connected_time":3323000000000,"state":"active","ping":45},{"user_id":269,"name":"The Bray","steam_id":76561198330843049,"connected_time":777000000000,"state":"active","ping":92},{"user_id":274,"name":"Phae","steam_id":76561198024763351,"connected_time":231000000000,"state":"active","ping":78},{"user_id":265,"name":"Demoman With One Joke","steam_id":76561197993467034,"connected_time":796000000000,"state":"active","ping":46},{"user_id":267,"name":"MDD","steam_id":76561197998850659,"connected_time":791000000000,"state":"active","ping":86},{"user_id":279,"name":"Furrio","steam_id":76561198174104607,"connected_time":69000000000,"state":"active","ping":70},{"user_id":235,"name":"Gurgles","steam_id":76561198326693796,"connected_time":2415000000000,"state":"active","ping":86},{"user_id":257,"name":"Dieu-Sama","steam_id":76561198002075862,"connected_time":1221000000000,"state":"active","ping":83},{"user_id":278,"name":"Tomoscones","steam_id":76561198813586588,"connected_time":124000000000,"state":"active","ping":103},{"user_id":250,"name":"Jim Adler The Texas Hammer","steam_id":76561198086437876,"connected_time":1950000000000,"state":"active","ping":158},{"user_id":212,"name":"kickitlikedonavon","steam_id":76561198083149538,"connected_time":5407000000000,"state":"active","ping":112},{"user_id":262,"name":"Mickmissión","steam_id":76561199133527421,"connected_time":941000000000,"state":"active","ping":116},{"user_id":233,"name":"Pancreas Enjoyer","steam_id":76561199438598904,"connected_time":2904000000000,"state":"active","ping":105},{"user_id":268,"name":"Flat Eric","steam_id":76561198114922735,"connected_time":789000000000,"state":"active","ping":55},{"user_id":263,"name":"Marisad","steam_id":76561198843890616,"connected_time":921000000000,"state":"active","ping":93},{"user_id":258,"name":"Legit_Jaxer","steam_id":76561198172234053,"connected_time":1204000000000,"state":"active","ping":108},{"user_id":177,"name":"LunarMallow","steam_id":76561198211930151,"connected_time":8538000000000,"state":"active","ping":88},{"user_id":277,"name":"igotmail","steam_id":76561198070631899,"connected_time":149000000000,"state":"active","ping":66},{"user_id":276,"name":"Strangelove","steam_id":76561198353773611,"connected_time":162000000000,"state":"active","ping":95},{"user_id":273,"name":"Spyfall","steam_id":76561198081729993,"connected_time":537000000000,"state":"active","ping":68},{"user_id":275,"name":"Dr. Dick","steam_id":76561198138011922,"connected_time":188000000000,"state":"active","ping":86}]},{"server_id":403,"name":"Uncletopia | Chicago | 4 | All Maps","name_short":"chi-4","host":"chi-1.us.uncletopia.com","port":27045,"enabled":true,"region":"us-central","cc":"us","latitude":41.881832,"longitude":-87.62318,"reserved":0,"last_update":"0001-01-01T00:00:00Z","name_a2s":"Uncletopia | Chicago | 4 | All Maps","protocol":17,"map":"pl_borneo","folder":"tf","game":"Team Fortress","app_id":440,"player_count":24,"max_players":24,"Bots":0,"server_type":"Dedicated","server_os":"Linux","password":true,"vac":true,"version":"7757534","steam_id":85568392924515193,"keywords":["nocrits","nodmgspread","payload","uncletopia"],"game_id":440,"stv_port":27046,"stv_name":"Uncletopia | Chicago | 4 | All Maps | STV","players":[{"user_id":147,"name":"super","steam_id":76561198800358844,"connected_time":712000000000,"state":"active","ping":81},{"user_id":109,"name":"abomination","steam_id":76561198167974713,"connected_time":3381000000000,"state":"active","ping":74},{"user_id":150,"name":"I'D LIKE TO SOLVE THE PUZZLE","steam_id":76561199161322235,"connected_time":480000000000,"state":"active","ping":62},{"user_id":145,"name":"elite enemy gamer","steam_id":76561198395437335,"connected_time":836000000000,"state":"active","ping":120},{"user_id":139,"name":"Florp","steam_id":76561198076240365,"connected_time":907000000000,"state":"active","ping":62},{"user_id":141,"name":"WX-78","steam_id":76561199117263527,"connected_time":881000000000,"state":"active","ping":52},{"user_id":32,"name":"Raptorria","steam_id":76561198105613110,"connected_time":9132000000000,"state":"active","ping":58},{"user_id":113,"name":"deech","steam_id":76561198066429444,"connected_time":3343000000000,"state":"active","ping":99},{"user_id":149,"name":"phäm","steam_id":76561198087631965,"connected_time":663000000000,"state":"active","ping":179},{"user_id":148,"name":"Vapeinhand","steam_id":76561198134439943,"connected_time":707000000000,"state":"active","ping":60},{"user_id":146,"name":"BREAD MANN","steam_id":76561198949379945,"connected_time":784000000000,"state":"active","ping":65},{"user_id":118,"name":"Lognes","steam_id":76561198076569769,"connected_time":2975000000000,"state":"active","ping":161},{"user_id":125,"name":"Ch1nese B4nny","steam_id":76561198295713840,"connected_time":2605000000000,"state":"active","ping":74},{"user_id":138,"name":"Strange Festive Femboy","steam_id":76561198050385093,"connected_time":1140000000000,"state":"active","ping":78},{"user_id":127,"name":"Copter_Boy","steam_id":76561198322921312,"connected_time":2326000000000,"state":"active","ping":73},{"user_id":144,"name":"asinine escapades","steam_id":76561198025681784,"connected_time":851000000000,"state":"active","ping":69},{"user_id":70,"name":"the doo doo man","steam_id":76561198057076267,"connected_time":7147000000000,"state":"active","ping":77},{"user_id":71,"name":"Jeugh","steam_id":76561198073498865,"connected_time":6960000000000,"state":"active","ping":84},{"user_id":126,"name":"Taser? I Hardly Know Her!","steam_id":76561198180935161,"connected_time":2584000000000,"state":"active","ping":81},{"user_id":140,"name":"Sosa","steam_id":76561198149636111,"connected_time":903000000000,"state":"active","ping":85},{"user_id":47,"name":"Bird","steam_id":76561198247484514,"connected_time":8618000000000,"state":"active","ping":81},{"user_id":112,"name":"--_Cook_--","steam_id":76561198080855748,"connected_time":3355000000000,"state":"active","ping":51},{"user_id":116,"name":"munch_2000","steam_id":76561198084422657,"connected_time":3293000000000,"state":"active","ping":85},{"user_id":135,"name":"Kitt(eh) ∑:3","steam_id":76561198110858518,"connected_time":1880000000000,"state":"active","ping":53}]},{"server_id":36,"name":"Uncletopia | Chicago | 5 | All Maps","name_short":"chi-5","host":"chi-2.us.uncletopia.com","port":27015,"enabled":true,"region":"us-central","cc":"us","latitude":41.881832,"longitude":-87.62318,"reserved":0,"last_update":"0001-01-01T00:00:00Z","name_a2s":"Uncletopia | Chicago | 5 | All Maps","protocol":17,"map":"pl_barnblitz","folder":"tf","game":"Team Fortress","app_id":440,"player_count":24,"max_players":24,"Bots":0,"server_type":"Dedicated","server_os":"Linux","password":true,"vac":true,"version":"7757534","steam_id":85568392924866362,"keywords":["nocrits","nodmgspread","payload","uncletopia"],"game_id":440,"stv_port":27016,"stv_name":"Uncletopia | Chicago | 5 | All Maps | STV","players":[{"user_id":111,"name":"LeBowlinFan","steam_id":76561198449635112,"connected_time":3989000000000,"state":"active","ping":55},{"user_id":143,"name":"Mikael_01","steam_id":76561199080253129,"connected_time":901000000000,"state":"active","ping":181},{"user_id":141,"name":"Candy Quill","steam_id":76561198044092009,"connected_time":934000000000,"state":"active","ping":100},{"user_id":120,"name":"diolex","steam_id":76561198050830647,"connected_time":3007000000000,"state":"active","ping":150},{"user_id":135,"name":"Piyono","steam_id":76561197962188504,"connected_time":1793000000000,"state":"active","ping":142},{"user_id":109,"name":"gertrude","steam_id":76561198059116283,"connected_time":4729000000000,"state":"active","ping":72},{"user_id":70,"name":"Kyro","steam_id":76561198068737365,"connected_time":6940000000000,"state":"active","ping":70},{"user_id":149,"name":":3","steam_id":76561198977633937,"connected_time":42000000000,"state":"active","ping":61},{"user_id":147,"name":"Finchy22","steam_id":76561198063355600,"connected_time":154000000000,"state":"active","ping":60},{"user_id":119,"name":"jose.gonzales2007","steam_id":76561198066167261,"connected_time":3733000000000,"state":"active","ping":72},{"user_id":139,"name":"Salixiola","steam_id":76561198042177809,"connected_time":1252000000000,"state":"active","ping":73},{"user_id":122,"name":"Sprucelass","steam_id":76561197998391724,"connected_time":2876000000000,"state":"active","ping":48},{"user_id":72,"name":"luca","steam_id":76561198069235730,"connected_time":6925000000000,"state":"active","ping":59},{"user_id":123,"name":"gamer girl looking for a bf","steam_id":76561198279901162,"connected_time":2865000000000,"state":"active","ping":60},{"user_id":91,"name":"Wilker","steam_id":76561198122559969,"connected_time":6355000000000,"state":"active","ping":182},{"user_id":128,"name":"Torei","steam_id":76561198799229190,"connected_time":2490000000000,"state":"active","ping":58},{"user_id":144,"name":"athletesfoot","steam_id":76561197997331867,"connected_time":898000000000,"state":"active","ping":62},{"user_id":79,"name":"Marce","steam_id":76561198073245553,"connected_time":6858000000000,"state":"active","ping":87},{"user_id":125,"name":"ming","steam_id":76561198129653872,"connected_time":2551000000000,"state":"active","ping":95},{"user_id":126,"name":"Fredrick","steam_id":76561197981419964,"connected_time":2528000000000,"state":"active","ping":70},{"user_id":110,"name":"drywall enjoyer","steam_id":76561198099249286,"connected_time":4551000000000,"state":"active","ping":79},{"user_id":146,"name":"Malt","steam_id":76561199404733103,"connected_time":869000000000,"state":"active","ping":78},{"user_id":145,"name":"VidzCMC","steam_id":76561198848142973,"connected_time":890000000000,"state":"active","ping":59},{"user_id":85,"name":"Ritzee","steam_id":76561199017841377,"connected_time":6774000000000,"state":"active","ping":75}]},{"server_id":37,"name":"Uncletopia | Chicago | 6 | All Maps","name_short":"chi-6","host":"chi-2.us.uncletopia.com","port":27025,"enabled":true,"region":"us-central","cc":"us","latitude":41.881832,"longitude":-87.62318,"reserved":0,"last_update":"0001-01-01T00:00:00Z","name_a2s":"Uncletopia | Chicago | 6 | All Maps","protocol":17,"map":"pl_snowycoast","folder":"tf","game":"Team Fortress","app_id":440,"player_count":24,"max_players":24,"Bots":0,"server_type":"Dedicated","server_os":"Linux","password":true,"vac":true,"version":"7757534","steam_id":85568392924866363,"keywords":["nocrits","nodmgspread","payload","uncletopia"],"game_id":440,"stv_port":27026,"stv_name":"Uncletopia | Chicago | 6 | All Maps | STV","players":[{"user_id":289,"name":"SuperFresh","steam_id":76561198200723198,"connected_time":1370000000000,"state":"spawning","ping":47},{"user_id":281,"name":"Stupid Monkey =3","steam_id":76561198024580166,"connected_time":1933000000000,"state":"active","ping":97},{"user_id":276,"name":"Pennis the Menace","steam_id":76561198254878037,"connected_time":2423000000000,"state":"active","ping":89},{"user_id":282,"name":"Eurocyon","steam_id":76561199465863937,"connected_time":1869000000000,"state":"active","ping":89},{"user_id":250,"name":"HumFreY","steam_id":76561198076639682,"connected_time":4247000000000,"state":"active","ping":75},{"user_id":287,"name":"WhoIsFrosty","steam_id":76561198880588117,"connected_time":1595000000000,"state":"active","ping":49},{"user_id":273,"name":"_map","steam_id":76561198083283153,"connected_time":2551000000000,"state":"active","ping":107},{"user_id":251,"name":"ATL1 | Lylith!!!","steam_id":76561198386687546,"connected_time":4202000000000,"state":"active","ping":69},{"user_id":294,"name":"the","steam_id":76561198311446636,"connected_time":33000000000,"state":"spawning","ping":58},{"user_id":219,"name":"Enderman_of_D00M","steam_id":76561198170195285,"connected_time":5381000000000,"state":"active","ping":115},{"user_id":258,"name":"AN Box","steam_id":76561198329455575,"connected_time":3788000000000,"state":"active","ping":97},{"user_id":295,"name":"Father of the year","steam_id":76561198208743000,"connected_time":13000000000,"state":"spawning","ping":76},{"user_id":296,"name":"Boy_Blue","steam_id":76561198142150093,"connected_time":6000000000,"state":"spawning","ping":106},{"user_id":257,"name":"RockMan","steam_id":76561199228684720,"connected_time":3884000000000,"state":"active","ping":82},{"user_id":248,"name":"Jeromius","steam_id":76561198051865275,"connected_time":4425000000000,"state":"active","ping":69},{"user_id":210,"name":"Edgy Allan Poe","steam_id":76561198045994078,"connected_time":5729000000000,"state":"active","ping":56},{"user_id":236,"name":"BreadQuest","steam_id":76561198082425960,"connected_time":5089000000000,"state":"active","ping":85},{"user_id":274,"name":"Twinbear","steam_id":76561198122414857,"connected_time":2540000000000,"state":"active","ping":84},{"user_id":293,"name":"BUNGACOWA","steam_id":76561198979176018,"connected_time":66000000000,"state":"active","ping":86},{"user_id":288,"name":"Adam West","steam_id":76561198021733930,"connected_time":1427000000000,"state":"active","ping":61},{"user_id":292,"name":"JAke","steam_id":76561198141382684,"connected_time":904000000000,"state":"active","ping":83},{"user_id":184,"name":"faxxy","steam_id":76561198079621240,"connected_time":7520000000000,"state":"active","ping":80},{"user_id":286,"name":"30 fps gaming","steam_id":76561199216756079,"connected_time":1729000000000,"state":"active","ping":99},{"user_id":297,"name":"conscripted monk","steam_id":76561199029246232,"connected_time":4000000000,"state":"spawning","ping":70}]},{"server_id":38,"name":"Uncletopia | Chicago | 7 | Stopwatch Beta","name_short":"chi-7","host":"chi-2.us.uncletopia.com","port":27035,"enabled":true,"region":"us-central","cc":"us","latitude":41.881832,"longitude":-87.62318,"reserved":0,"last_update":"0001-01-01T00:00:00Z","name_a2s":"Uncletopia | Chicago | 7 | Stopwatch Beta","protocol":17,"map":"pl_upward","folder":"tf","game":"Team Fortress","app_id":440,"player_count":0,"max_players":24,"Bots":0,"server_type":"Dedicated","server_os":"Linux","password":true,"vac":true,"version":"7757534","steam_id":85568392924866364,"keywords":["nocrits","nodmgspread","payload","uncletopia"],"game_id":440,"stv_port":27036,"stv_name":"Uncletopia | Chicago | 7 | Stopwatch Beta | STV","players":null},{"server_id":39,"name":"Uncletopia | Chicago | 8 | Community","name_short":"chi-8","host":"chi-2.us.uncletopia.com","port":27045,"enabled":true,"region":"us-central","cc":"us","latitude":41.881832,"longitude":-87.62318,"reserved":0,"last_update":"0001-01-01T00:00:00Z","name_a2s":"Uncletopia | Chicago | 8 | Community","protocol":17,"map":"koth_lakeside_final","folder":"tf","game":"Team Fortress","app_id":440,"player_count":0,"max_players":24,"Bots":0,"server_type":"Dedicated","server_os":"Linux","password":true,"vac":true,"version":"7757534","steam_id":85568392924866365,"keywords":["cp","nocrits","nodmgspread","uncletopia"],"game_id":440,"stv_port":27046,"stv_name":"Uncletopia | Chicago | 8 | Community | STV","players":null},{"server_id":8,"name":"Uncletopia | Dallas | 1 | All Maps","name_short":"dal-1","host":"dal-1.us.uncletopia.com","port":27015,"enabled":true,"region":"us-central","cc":"us","latitude":32.779167,"longitude":-96.80889,"reserved":0,"last_update":"0001-01-01T00:00:00Z","name_a2s":"Uncletopia | Dallas | 1 | All Maps","protocol":17,"map":"pl_upward","folder":"tf","game":"Team Fortress","app_id":440,"player_count":24,"max_players":24,"Bots":0,"server_type":"Dedicated","server_os":"Linux","password":true,"vac":true,"version":"7757534","steam_id":85568392924469986,"keywords":["nocrits","nodmgspread","payload","uncletopia"],"game_id":440,"stv_port":27016,"stv_name":"Uncletopia | Dallas | 1 | All Maps | STV","players":[{"user_id":589,"name":"Psych03","steam_id":76561198061753667,"connected_time":351000000000,"state":"active","ping":74},{"user_id":582,"name":"Moonflower ✦","steam_id":76561198191782483,"connected_time":728000000000,"state":"active","ping":49},{"user_id":580,"name":"banana man","steam_id":76561199385170644,"connected_time":894000000000,"state":"active","ping":71},{"user_id":568,"name":"Herba","steam_id":76561198117879846,"connected_time":1872000000000,"state":"active","ping":82},{"user_id":583,"name":"❤ Ashley ❤","steam_id":76561198056428303,"connected_time":725000000000,"state":"active","ping":76},{"user_id":539,"name":"Dragons\u003eEverything","steam_id":76561199140784635,"connected_time":3668000000000,"state":"active","ping":62},{"user_id":524,"name":"Ghaeril","steam_id":76561198047880019,"connected_time":4676000000000,"state":"active","ping":59},{"user_id":544,"name":"CGamer6155","steam_id":76561199440141596,"connected_time":3252000000000,"state":"active","ping":85},{"user_id":590,"name":"Derply","steam_id":76561198871211642,"connected_time":260000000000,"state":"active","ping":79},{"user_id":581,"name":"tj3002rocks","steam_id":76561199017921546,"connected_time":795000000000,"state":"active","ping":58},{"user_id":547,"name":"jim","steam_id":76561198091829950,"connected_time":3234000000000,"state":"active","ping":98},{"user_id":554,"name":"wolf_71","steam_id":76561198963570945,"connected_time":3064000000000,"state":"active","ping":44},{"user_id":573,"name":"A Fucking Degenerate","steam_id":76561198093261788,"connected_time":1499000000000,"state":"active","ping":100},{"user_id":572,"name":"Sewer Goblin","steam_id":76561199230423122,"connected_time":1556000000000,"state":"active","ping":117},{"user_id":479,"name":"dad vibes","steam_id":76561197990714447,"connected_time":7820000000000,"state":"active","ping":49},{"user_id":585,"name":"EvilPigglet","steam_id":76561197987243470,"connected_time":678000000000,"state":"active","ping":75},{"user_id":575,"name":"Mossad psyops","steam_id":76561198263791968,"connected_time":1481000000000,"state":"active","ping":75},{"user_id":537,"name":"Pitch Stick","steam_id":76561198800287853,"connected_time":3701000000000,"state":"active","ping":119},{"user_id":584,"name":"LightBulbGlue #SaveTF2","steam_id":76561198329573529,"connected_time":699000000000,"state":"active","ping":95},{"user_id":567,"name":"Quiet","steam_id":76561198119175817,"connected_time":1945000000000,"state":"active","ping":74},{"user_id":551,"name":"Toad :)","steam_id":76561198163008022,"connected_time":3168000000000,"state":"active","ping":95},{"user_id":587,"name":"defcon","steam_id":76561198100656328,"connected_time":546000000000,"state":"active","ping":86},{"user_id":586,"name":"overwatch refugee","steam_id":76561199003985688,"connected_time":645000000000,"state":"active","ping":114},{"user_id":588,"name":"iiamiizzyy","steam_id":76561198355030751,"connected_time":546000000000,"state":"active","ping":99}]},{"server_id":108,"name":"Uncletopia | Dallas | 2 | All Maps","name_short":"dal-2","host":"dal-1.us.uncletopia.com","port":27025,"enabled":true,"region":"us-central","cc":"us","latitude":32.779167,"longitude":-96.80889,"reserved":0,"last_update":"0001-01-01T00:00:00Z","name_a2s":"Uncletopia | Dallas | 2 | All Maps","protocol":17,"map":"pl_borneo","folder":"tf","game":"Team Fortress","app_id":440,"player_count":24,"max_players":24,"Bots":0,"server_type":"Dedicated","server_os":"Linux","password":true,"vac":true,"version":"7757534","steam_id":85568392924469988,"keywords":["nocrits","nodmgspread","payload","uncletopia"],"game_id":440,"stv_port":27026,"stv_name":"Uncletopia | Dallas | 2 | All Maps | STV","players":[{"user_id":99,"name":"Dreysidel","steam_id":76561198056496183,"connected_time":3696000000000,"state":"active","ping":100},{"user_id":145,"name":"GerbertSherbert","steam_id":76561199121975921,"connected_time":1127000000000,"state":"active","ping":74},{"user_id":131,"name":"NBA Youngboy","steam_id":76561199118797200,"connected_time":2129000000000,"state":"active","ping":53},{"user_id":144,"name":"DiabetesMan","steam_id":76561198075668940,"connected_time":1185000000000,"state":"active","ping":87},{"user_id":127,"name":"Miner2495","steam_id":76561198445904523,"connected_time":2369000000000,"state":"active","ping":85},{"user_id":155,"name":"mama?","steam_id":76561198102681457,"connected_time":632000000000,"state":"active","ping":76},{"user_id":156,"name":"vncnt","steam_id":76561198046113319,"connected_time":621000000000,"state":"active","ping":42},{"user_id":146,"name":"derdds","steam_id":76561198034339940,"connected_time":1122000000000,"state":"active","ping":76},{"user_id":147,"name":"trash beast","steam_id":76561198015792736,"connected_time":1094000000000,"state":"active","ping":78},{"user_id":113,"name":"X-7","steam_id":76561198127217378,"connected_time":2805000000000,"state":"active","ping":134},{"user_id":154,"name":"Geight","steam_id":76561197991645292,"connected_time":746000000000,"state":"active","ping":105},{"user_id":162,"name":"corrupted spy","steam_id":76561198018689620,"connected_time":271000000000,"state":"active","ping":89},{"user_id":137,"name":"zogs (she/her)","steam_id":76561198323491654,"connected_time":1618000000000,"state":"active","ping":42},{"user_id":157,"name":"rude boi","steam_id":76561198006783260,"connected_time":560000000000,"state":"active","ping":67},{"user_id":151,"name":"The Gods","steam_id":76561198061667845,"connected_time":851000000000,"state":"active","ping":68},{"user_id":148,"name":"neet","steam_id":76561197968115168,"connected_time":1093000000000,"state":"active","ping":75},{"user_id":149,"name":"ven","steam_id":76561198017539604,"connected_time":1088000000000,"state":"active","ping":76},{"user_id":143,"name":"[LINUX] Purple Penguin Pybro","steam_id":76561198093538786,"connected_time":1205000000000,"state":"active","ping":54},{"user_id":150,"name":"[DATS➡] Sugar Meowth","steam_id":76561197995251793,"connected_time":1012000000000,"state":"active","ping":90},{"user_id":160,"name":"kid named finger","steam_id":76561198882986104,"connected_time":317000000000,"state":"active","ping":110},{"user_id":136,"name":"thanksgiving turkey","steam_id":76561198976876859,"connected_time":1642000000000,"state":"active","ping":86},{"user_id":161,"name":"Dat Dere Kirby","steam_id":76561198084054568,"connected_time":285000000000,"state":"active","ping":98},{"user_id":141,"name":"Eggman Fan 235 | Youtube","steam_id":76561198978586066,"connected_time":1329000000000,"state":"active","ping":75},{"user_id":158,"name":"Dimension","steam_id":76561198132803810,"connected_time":559000000000,"state":"active","ping":60}]},{"server_id":5,"name":"Uncletopia | Frankfurt | 1 | All Maps","name_short":"frk-1","host":"frk-1.de.uncletopia.com","port":27015,"enabled":true,"region":"eu","cc":"de","latitude":50.110924,"longitude":8.682127,"reserved":0,"last_update":"0001-01-01T00:00:00Z","name_a2s":"Uncletopia | Frankfurt | 1 | All Maps","protocol":17,"map":"koth_lakeside_final","folder":"tf","game":"Team Fortress","app_id":440,"player_count":0,"max_players":24,"Bots":0,"server_type":"Dedicated","server_os":"Linux","password":true,"vac":true,"version":"7757534","steam_id":85568392924469989,"keywords":["cp","nocrits","nodmgspread","uncletopia"],"game_id":440,"stv_port":27016,"stv_name":"Uncletopia | Frankfurt | 1 | All Maps | STV","players":null},{"server_id":110,"name":"Uncletopia | Frankfurt | 2 | All Maps","name_short":"frk-2","host":"frk-1.de.uncletopia.com","port":27025,"enabled":true,"region":"eu","cc":"de","latitude":50.110924,"longitude":8.682127,"reserved":0,"last_update":"0001-01-01T00:00:00Z","name_a2s":"Uncletopia | Frankfurt | 2 | All Maps","protocol":17,"map":"cp_altitude","folder":"tf","game":"Team Fortress","app_id":440,"player_count":0,"max_players":24,"Bots":0,"server_type":"Dedicated","server_os":"Linux","password":true,"vac":true,"version":"7757534","steam_id":85568392924469990,"keywords":["cp","nocrits","nodmgspread","uncletopia"],"game_id":440,"stv_port":27026,"stv_name":"Uncletopia | Frankfurt | 2 | All Maps | STV","players":null},{"server_id":308,"name":"Uncletopia | Frankfurt | 3 | All Maps","name_short":"frk-3","host":"frk-1.de.uncletopia.com","port":27035,"enabled":true,"region":"eu","cc":"de","latitude":50.110924,"longitude":8.682127,"reserved":0,"last_update":"0001-01-01T00:00:00Z","name_a2s":"Uncletopia | Frankfurt | 3 | All Maps","protocol":17,"map":"cp_mountainlab","folder":"tf","game":"Team Fortress","app_id":440,"player_count":0,"max_players":24,"Bots":0,"server_type":"Dedicated","server_os":"Linux","password":true,"vac":true,"version":"7757534","steam_id":85568392924504274,"keywords":["cp","nocrits","nodmgspread","uncletopia"],"game_id":440,"stv_port":27036,"stv_name":"Uncletopia | Frankfurt | 3 | All Maps | STV","players":null},{"server_id":309,"name":"Uncletopia | Frankfurt | 4 | All Maps","name_short":"frk-4","host":"frk-1.de.uncletopia.com","port":27045,"enabled":true,"region":"eu","cc":"de","latitude":50.110924,"longitude":8.682127,"reserved":0,"last_update":"0001-01-01T00:00:00Z","name_a2s":"Uncletopia | Frankfurt | 4 | All Maps","protocol":17,"map":"koth_highpass","folder":"tf","game":"Team Fortress","app_id":440,"player_count":0,"max_players":24,"Bots":0,"server_type":"Dedicated","server_os":"Linux","password":true,"vac":true,"version":"7757534","steam_id":85568392924504275,"keywords":["cp","nocrits","nodmgspread","uncletopia"],"game_id":440,"stv_port":27046,"stv_name":"Uncletopia | Frankfurt | 4 | All Maps | STV","players":null},{"server_id":310,"name":"Uncletopia | Frankfurt | 5 | All Maps","name_short":"frk-5","host":"frk-1.de.uncletopia.com","port":27055,"enabled":true,"region":"eu","cc":"de","latitude":50.110924,"longitude":8.682127,"reserved":0,"last_update":"0001-01-01T00:00:00Z","name_a2s":"Uncletopia | Frankfurt | 5 | All Maps","protocol":17,"map":"cp_mountainlab","folder":"tf","game":"Team Fortress","app_id":440,"player_count":0,"max_players":24,"Bots":0,"server_type":"Dedicated","server_os":"Linux","password":true,"vac":true,"version":"7757534","steam_id":85568392924504277,"keywords":["cp","nocrits","nodmgspread","uncletopia"],"game_id":440,"stv_port":27056,"stv_name":"Uncletopia | Frankfurt | 5 | All Maps | STV","players":null},{"server_id":311,"name":"Uncletopia | Frankfurt | 6 | All Maps","name_short":"frk-6","host":"frk-1.de.uncletopia.com","port":27065,"enabled":true,"region":"eu","cc":"de","latitude":50.110924,"longitude":8.682127,"reserved":0,"last_update":"0001-01-01T00:00:00Z","name_a2s":"Uncletopia | Frankfurt | 6 | All Maps","protocol":17,"map":"pl_snowycoast","folder":"tf","game":"Team Fortress","app_id":440,"player_count":0,"max_players":24,"Bots":0,"server_type":"Dedicated","server_os":"Linux","password":true,"vac":true,"version":"7757534","steam_id":85568392924504278,"keywords":["nocrits","nodmgspread","payload","uncletopia"],"game_id":440,"stv_port":27066,"stv_name":"Uncletopia | Frankfurt | 6 | All Maps | STV","players":null},{"server_id":23,"name":"Uncletopia | Frankfurt | 7 | Stopwatch Beta","name_short":"frk-7","host":"frk-1.de.uncletopia.com","port":27075,"enabled":true,"region":"eu","cc":"de","latitude":50.110924,"longitude":8.682127,"reserved":0,"last_update":"0001-01-01T00:00:00Z","name_a2s":"Uncletopia | Frankfurt | 7 | Stopwatch Beta","protocol":17,"map":"pl_borneo","folder":"tf","game":"Team Fortress","app_id":440,"player_count":0,"max_players":24,"Bots":0,"server_type":"Dedicated","server_os":"Linux","password":true,"vac":true,"version":"7757534","steam_id":85568392924742827,"keywords":["nocrits","nodmgspread","payload","uncletopia"],"game_id":440,"stv_port":27076,"stv_name":"Uncletopia | Frankfurt | 7 | Stopwatch Beta | STV","players":null},{"server_id":24,"name":"Uncletopia | Frankfurt | 8 | Community","name_short":"frk-8","host":"frk-1.de.uncletopia.com","port":27085,"enabled":true,"region":"eu","cc":"de","latitude":50.110924,"longitude":8.682127,"reserved":0,"last_update":"0001-01-01T00:00:00Z","name_a2s":"Uncletopia | Frankfurt | 8 | Community","protocol":17,"map":"workshop/koth_synthetic_rc6a.ugc1549817316","folder":"tf","game":"Team Fortress","app_id":440,"player_count":0,"max_players":24,"Bots":0,"server_type":"Dedicated","server_os":"Linux","password":true,"vac":true,"version":"7757534","steam_id":85568392924742828,"keywords":["cp","nocrits","nodmgspread","uncletopia"],"game_id":440,"stv_port":27086,"stv_name":"Uncletopia | Frankfurt | 8 | Community | STV","players":null},{"server_id":202,"name":"Uncletopia | Hong Kong | 1 | All Maps","name_short":"hgk-1","host":"hgk-1.hk.uncletopia.com","port":27015,"enabled":true,"region":"asia","cc":"hk","latitude":22.302711,"longitude":114.177216,"reserved":0,"last_update":"0001-01-01T00:00:00Z","name_a2s":"Uncletopia | Hong Kong | 1 | All Maps","protocol":17,"map":"koth_lakeside_final","folder":"tf","game":"Team Fortress","app_id":440,"player_count":0,"max_players":24,"Bots":0,"server_type":"Dedicated","server_os":"Linux","password":true,"vac":true,"version":"7757534","steam_id":85568392924494504,"keywords":["cp","nocrits","nodmgspread","uncletopia"],"game_id":440,"stv_port":27016,"stv_name":"Uncletopia | Hong Kong | 1 | All Maps | STV","players":null},{"server_id":1,"name":"Uncletopia | Los Angeles | 1 | All Maps","name_short":"lax-1","host":"lax-1.us.uncletopia.com","port":27015,"enabled":true,"region":"us-west","cc":"us","latitude":33.94279,"longitude":-118.41004,"reserved":0,"last_update":"0001-01-01T00:00:00Z","name_a2s":"Uncletopia | Los Angeles | 1 | All Maps","protocol":17,"map":"pl_upward","folder":"tf","game":"Team Fortress","app_id":440,"player_count":0,"max_players":24,"Bots":0,"server_type":"Dedicated","server_os":"Linux","password":true,"vac":true,"version":"7757534","steam_id":85568392924469991,"keywords":["nocrits","nodmgspread","payload","uncletopia"],"game_id":440,"stv_port":27016,"stv_name":"Uncletopia | Los Angeles | 1 | All Maps | STV","players":null},{"server_id":112,"name":"Uncletopia | Los Angeles | 2 | All Maps","name_short":"lax-2","host":"lax-1.us.uncletopia.com","port":27025,"enabled":true,"region":"us-west","cc":"us","latitude":33.94279,"longitude":-118.41004,"reserved":0,"last_update":"0001-01-01T00:00:00Z","name_a2s":"Uncletopia | Los Angeles | 2 | All Maps","protocol":17,"map":"koth_viaduct","folder":"tf","game":"Team Fortress","app_id":440,"player_count":0,"max_players":24,"Bots":0,"server_type":"Dedicated","server_os":"Linux","password":true,"vac":true,"version":"7757534","steam_id":85568392924469992,"keywords":["cp","nocrits","nodmgspread","uncletopia"],"game_id":440,"stv_port":27026,"stv_name":"Uncletopia | Los Angeles | 2 | All Maps | STV","players":null},{"server_id":324,"name":"Uncletopia | Los Angeles | 3 | All Maps","name_short":"lax-3","host":"lax-1.us.uncletopia.com","port":27035,"enabled":true,"region":"us-west","cc":"us","latitude":33.94279,"longitude":-118.41004,"reserved":0,"last_update":"0001-01-01T00:00:00Z","name_a2s":"Uncletopia | Los Angeles | 3 | All Maps","protocol":17,"map":"pl_snowycoast","folder":"tf","game":"Team Fortress","app_id":440,"player_count":24,"max_players":24,"Bots":0,"server_type":"Dedicated","server_os":"Linux","password":true,"vac":true,"version":"7757534","steam_id":85568392924510198,"keywords":["nocrits","nodmgspread","payload","uncletopia"],"game_id":440,"stv_port":27036,"stv_name":"Uncletopia | Los Angeles | 3 | All Maps | STV","players":[{"user_id":108,"name":"tony","steam_id":76561198060710496,"connected_time":731000000000,"state":"active","ping":51},{"user_id":104,"name":"self sufficient kitten","steam_id":76561197960592612,"connected_time":802000000000,"state":"active","ping":77},{"user_id":88,"name":"plz talk about dogs","steam_id":76561198062924973,"connected_time":2409000000000,"state":"active","ping":64},{"user_id":86,"name":"Bob Margarine","steam_id":76561197974107198,"connected_time":2617000000000,"state":"active","ping":125},{"user_id":106,"name":"Wicki","steam_id":76561198122590990,"connected_time":777000000000,"state":"active","ping":96},{"user_id":117,"name":"Apple55","steam_id":76561198802427881,"connected_time":162000000000,"state":"active","ping":58},{"user_id":78,"name":"While I Pass Out From Erections","steam_id":76561198068672882,"connected_time":3010000000000,"state":"active","ping":60},{"user_id":118,"name":".9 lg","steam_id":76561198092238353,"connected_time":97000000000,"state":"active","ping":84},{"user_id":93,"name":"PoptartBarbarian","steam_id":76561198173324597,"connected_time":1870000000000,"state":"active","ping":58},{"user_id":80,"name":"H4V0C","steam_id":76561199129350925,"connected_time":2793000000000,"state":"active","ping":85},{"user_id":96,"name":"Ashified21","steam_id":76561199357672686,"connected_time":1702000000000,"state":"active","ping":71},{"user_id":109,"name":"The FitnessGram Pacer Test","steam_id":76561199366094976,"connected_time":679000000000,"state":"active","ping":109},{"user_id":101,"name":"BBL Sponsor","steam_id":76561199093733603,"connected_time":1198000000000,"state":"active","ping":55},{"user_id":97,"name":"white obama","steam_id":76561199465040669,"connected_time":1701000000000,"state":"active","ping":76},{"user_id":119,"name":"MuffinRat","steam_id":76561197993404964,"connected_time":32000000000,"state":"active","ping":64},{"user_id":114,"name":"Sad Sapling","steam_id":76561198075612150,"connected_time":367000000000,"state":"active","ping":55},{"user_id":116,"name":"Rendoas","steam_id":76561198002105259,"connected_time":208000000000,"state":"active","ping":78},{"user_id":76,"name":"all of brasil","steam_id":76561197979056451,"connected_time":3091000000000,"state":"active","ping":81},{"user_id":84,"name":"Constipated Barry","steam_id":76561198004482269,"connected_time":2710000000000,"state":"active","ping":59},{"user_id":115,"name":"PoorPython40047","steam_id":76561198271486265,"connected_time":361000000000,"state":"active","ping":74},{"user_id":103,"name":"groovetomanny","steam_id":76561198371660675,"connected_time":814000000000,"state":"active","ping":65},{"user_id":82,"name":"mao zedong","steam_id":76561199060687332,"connected_time":2772000000000,"state":"active","ping":55},{"user_id":99,"name":"DubiousDodo","steam_id":76561198828172686,"connected_time":1591000000000,"state":"active","ping":81},{"user_id":111,"name":"BackToSchoolAds","steam_id":76561198870281128,"connected_time":595000000000,"state":"active","ping":90}]},{"server_id":25,"name":"Uncletopia | Los Angeles | 4 | Stopwatch Beta","name_short":"lax-4","host":"lax-1.us.uncletopia.com","port":27045,"enabled":true,"region":"us-west","cc":"us","latitude":33.94279,"longitude":-118.41004,"reserved":0,"last_update":"0001-01-01T00:00:00Z","name_a2s":"Uncletopia | Los Angeles | 4 | Stopwatch Beta","protocol":17,"map":"cp_dustbowl","folder":"tf","game":"Team Fortress","app_id":440,"player_count":0,"max_players":24,"Bots":0,"server_type":"Dedicated","server_os":"Linux","password":true,"vac":true,"version":"7757534","steam_id":85568392924510199,"keywords":["cp","nocrits","nodmgspread","uncletopia"],"game_id":440,"stv_port":27046,"stv_name":"Uncletopia | Los Angeles | 4 | Stopwatch Beta | STV","players":null},{"server_id":11,"name":"Uncletopia | London | 1 | All Maps","name_short":"lon-1","host":"lon-1.uk.uncletopia.com","port":27015,"enabled":true,"region":"eu","cc":"gb","latitude":51.509865,"longitude":-0.118092,"reserved":0,"last_update":"0001-01-01T00:00:00Z","name_a2s":"Uncletopia | London | 1 | All Maps","protocol":17,"map":"cp_process_final","folder":"tf","game":"Team Fortress","app_id":440,"player_count":24,"max_players":24,"Bots":0,"server_type":"Dedicated","server_os":"Linux","password":true,"vac":true,"version":"7757534","steam_id":85568392924367362,"keywords":["cp","nocrits","nodmgspread","uncletopia"],"game_id":440,"stv_port":27016,"stv_name":"Uncletopia | London | 1 | All Maps | STV","players":[{"user_id":849,"name":"QueenPinharam","steam_id":76561199015626409,"connected_time":2773000000000,"state":"active","ping":160},{"user_id":821,"name":"SuperBob103","steam_id":76561199175360012,"connected_time":5103000000000,"state":"active","ping":47},{"user_id":810,"name":"Kohaku","steam_id":76561198358814557,"connected_time":7141000000000,"state":"active","ping":135},{"user_id":835,"name":"im pretty glonky","steam_id":76561198256811438,"connected_time":3207000000000,"state":"active","ping":97},{"user_id":859,"name":"Resounding","steam_id":76561198051011034,"connected_time":1627000000000,"state":"active","ping":54},{"user_id":863,"name":"Julez #pizdaaim","steam_id":76561198045505082,"connected_time":986000000000,"state":"active","ping":89},{"user_id":868,"name":"r2d2.(/ˌɑːr.tuːˈdiːtuː/)","steam_id":76561198201235703,"connected_time":517000000000,"state":"active","ping":75},{"user_id":813,"name":"teddy","steam_id":76561198007436837,"connected_time":6428000000000,"state":"active","ping":44},{"user_id":843,"name":"Arcader","steam_id":76561198109860110,"connected_time":3018000000000,"state":"active","ping":70},{"user_id":855,"name":"marcus","steam_id":76561198127738021,"connected_time":1967000000000,"state":"active","ping":74},{"user_id":743,"name":"gibb (official)","steam_id":76561198074097655,"connected_time":10838000000000,"state":"active","ping":31},{"user_id":869,"name":"get up dust off","steam_id":76561198054870921,"connected_time":106000000000,"state":"active","ping":45},{"user_id":846,"name":"мало тебя","steam_id":76561198129153029,"connected_time":2949000000000,"state":"active","ping":68},{"user_id":838,"name":"akciq ⁧⁧respect","steam_id":76561198390963456,"connected_time":3186000000000,"state":"active","ping":87},{"user_id":832,"name":"SuntanPikachu","steam_id":76561198121242476,"connected_time":3219000000000,"state":"active","ping":67},{"user_id":839,"name":"Guztavo Fring / Open DPM","steam_id":76561198384689388,"connected_time":3113000000000,"state":"active","ping":32},{"user_id":840,"name":"winr","steam_id":76561199080164707,"connected_time":3094000000000,"state":"active","ping":87},{"user_id":851,"name":"Hatonfire","steam_id":76561198287372060,"connected_time":2730000000000,"state":"active","ping":44},{"user_id":867,"name":"Littleyoshifan","steam_id":76561198445491045,"connected_time":527000000000,"state":"active","ping":38},{"user_id":852,"name":"✪ qua ✪","steam_id":76561198066408333,"connected_time":2694000000000,"state":"active","ping":84},{"user_id":834,"name":"Thalgorock","steam_id":76561198195315022,"connected_time":3218000000000,"state":"active","ping":75},{"user_id":853,"name":"Yggdrasill","steam_id":76561198304162236,"connected_time":2681000000000,"state":"active","ping":98},{"user_id":854,"name":"f0x","steam_id":76561198072921704,"connected_time":2647000000000,"state":"active","ping":45},{"user_id":866,"name":"New","steam_id":76561198402195911,"connected_time":541000000000,"state":"active","ping":113}]},{"server_id":114,"name":"Uncletopia | London | 2 | All Maps","name_short":"lon-2","host":"lon-1.uk.uncletopia.com","port":27025,"enabled":true,"region":"eu","cc":"gb","latitude":51.509865,"longitude":-0.118092,"reserved":0,"last_update":"0001-01-01T00:00:00Z","name_a2s":"Uncletopia | London | 2 | All Maps","protocol":17,"map":"koth_lakeside_final","folder":"tf","game":"Team Fortress","app_id":440,"player_count":0,"max_players":24,"Bots":0,"server_type":"Dedicated","server_os":"Linux","password":true,"vac":true,"version":"7757534","steam_id":85568392924470941,"keywords":["cp","nocrits","nodmgspread","uncletopia"],"game_id":440,"stv_port":27026,"stv_name":"Uncletopia | London | 2 | All Maps | STV","players":null},{"server_id":320,"name":"Uncletopia | London | 3 | All Maps","name_short":"lon-3","host":"lon-1.uk.uncletopia.com","port":27035,"enabled":true,"region":"eu","cc":"gb","latitude":51.509865,"longitude":-0.118092,"reserved":0,"last_update":"0001-01-01T00:00:00Z","name_a2s":"Uncletopia | London | 3 | All Maps","protocol":17,"map":"cp_snakewater_final1","folder":"tf","game":"Team Fortress","app_id":440,"player_count":22,"max_players":24,"Bots":0,"server_type":"Dedicated","server_os":"Linux","password":true,"vac":true,"version":"7757534","steam_id":85568392924510192,"keywords":["cp","nocrits","nodmgspread","uncletopia"],"game_id":440,"stv_port":27036,"stv_name":"Uncletopia | London | 3 | All Maps | STV","players":[{"user_id":570,"name":"engie?","steam_id":76561198331852832,"connected_time":2549000000000,"state":"active","ping":98},{"user_id":605,"name":"FREE FANG YUAN","steam_id":76561198266727323,"connected_time":157000000000,"state":"active","ping":93},{"user_id":569,"name":"Seail_M","steam_id":76561198002405605,"connected_time":2625000000000,"state":"active","ping":58},{"user_id":577,"name":"ikeaworst","steam_id":76561198936990378,"connected_time":2314000000000,"state":"active","ping":57},{"user_id":603,"name":"dust","steam_id":76561198293557665,"connected_time":597000000000,"state":"active","ping":111},{"user_id":595,"name":"COME HERE CUM-SLUT","steam_id":76561197977122134,"connected_time":994000000000,"state":"active","ping":64},{"user_id":586,"name":"steakman10","steam_id":76561198152584691,"connected_time":1940000000000,"state":"active","ping":62},{"user_id":602,"name":"BlueBlueFox","steam_id":76561198053817230,"connected_time":832000000000,"state":"active","ping":65},{"user_id":594,"name":"frosty","steam_id":76561198094560834,"connected_time":1004000000000,"state":"active","ping":45},{"user_id":606,"name":"Dinos","steam_id":76561198843145092,"connected_time":76000000000,"state":"active","ping":85},{"user_id":578,"name":"Economic crisis","steam_id":76561198063562843,"connected_time":2295000000000,"state":"active","ping":63},{"user_id":589,"name":"Bobirulez","steam_id":76561198009125458,"connected_time":1649000000000,"state":"active","ping":74},{"user_id":607,"name":"KittyKate ❤","steam_id":76561198116340817,"connected_time":48000000000,"state":"active","ping":73},{"user_id":563,"name":"Taste","steam_id":76561197994506978,"connected_time":3242000000000,"state":"active","ping":53},{"user_id":565,"name":"[ZfG] BlueBerry607","steam_id":76561198021908309,"connected_time":3012000000000,"state":"active","ping":62},{"user_id":587,"name":"brainrot","steam_id":76561199414716848,"connected_time":1922000000000,"state":"active","ping":71},{"user_id":549,"name":"Cosmetic brain","steam_id":76561198055936410,"connected_time":4225000000000,"state":"active","ping":84},{"user_id":592,"name":"Your Unwashed Dishes","steam_id":76561198846784757,"connected_time":1456000000000,"state":"active","ping":55},{"user_id":604,"name":"S4mura!","steam_id":76561198374412262,"connected_time":533000000000,"state":"active","ping":89},{"user_id":596,"name":"Sputnik","steam_id":76561198138660241,"connected_time":991000000000,"state":"active","ping":57},{"user_id":506,"name":"Penis Contortionist","steam_id":76561198073663784,"connected_time":7247000000000,"state":"active","ping":38},{"user_id":601,"name":"Zero","steam_id":76561199383267408,"connected_time":918000000000,"state":"active","ping":137}]},{"server_id":321,"name":"Uncletopia | London | 4 | All Maps","name_short":"lon-4","host":"lon-1.uk.uncletopia.com","port":27045,"enabled":true,"region":"eu","cc":"gb","latitude":51.509865,"longitude":-0.118092,"reserved":0,"last_update":"0001-01-01T00:00:00Z","name_a2s":"Uncletopia | London | 4 | All Maps","protocol":17,"map":"cp_dustbowl","folder":"tf","game":"Team Fortress","app_id":440,"player_count":0,"max_players":24,"Bots":0,"server_type":"Dedicated","server_os":"Linux","password":true,"vac":true,"version":"7757534","steam_id":85568392924510193,"keywords":["cp","nocrits","nodmgspread","uncletopia"],"game_id":440,"stv_port":27046,"stv_name":"Uncletopia | London | 4 | All Maps | STV","players":null},{"server_id":21,"name":"Uncletopia | London | 5 | All Maps","name_short":"lon-5","host":"lon-1.uk.uncletopia.com","port":27055,"enabled":true,"region":"eu","cc":"gb","latitude":51.509865,"longitude":-0.118092,"reserved":0,"last_update":"0001-01-01T00:00:00Z","name_a2s":"Uncletopia | London | 5 | All Maps","protocol":17,"map":"koth_highpass","folder":"tf","game":"Team Fortress","app_id":440,"player_count":0,"max_players":24,"Bots":0,"server_type":"Dedicated","server_os":"Linux","password":true,"vac":true,"version":"7757534","steam_id":85568392924742829,"keywords":["cp","nocrits","nodmgspread","uncletopia"],"game_id":440,"stv_port":27056,"stv_name":"Uncletopia | London | 5 | All Maps | STV","players":null},{"server_id":22,"name":"Uncletopia | London | 6 | All Maps","name_short":"lon-6","host":"lon-1.uk.uncletopia.com","port":27065,"enabled":true,"region":"eu","cc":"gb","latitude":51.509865,"longitude":-0.118092,"reserved":0,"last_update":"0001-01-01T00:00:00Z","name_a2s":"Uncletopia | London | 6 | All Maps","protocol":17,"map":"cp_sunshine","folder":"tf","game":"Team Fortress","app_id":440,"player_count":0,"max_players":24,"Bots":0,"server_type":"Dedicated","server_os":"Linux","password":true,"vac":true,"version":"7757534","steam_id":85568392924742830,"keywords":["cp","nocrits","nodmgspread","uncletopia"],"game_id":440,"stv_port":27066,"stv_name":"Uncletopia | London | 6 | All Maps | STV","players":null},{"server_id":40,"name":"Uncletopia | London | 7 | No Payload","name_short":"lon-7","host":"lon-1.uk.uncletopia.com","port":27075,"enabled":true,"region":"eu","cc":"gb","latitude":51.509865,"longitude":-0.118092,"reserved":0,"last_update":"0001-01-01T00:00:00Z","name_a2s":"Uncletopia | London | 7 | No Payload","protocol":17,"map":"koth_highpass","folder":"tf","game":"Team Fortress","app_id":440,"player_count":0,"max_players":24,"Bots":0,"server_type":"Dedicated","server_os":"Linux","password":true,"vac":true,"version":"7757534","steam_id":85568392924964314,"keywords":["cp","nocrits","nodmgspread","uncletopia"],"game_id":440,"stv_port":27076,"stv_name":"Uncletopia | London | 7 | No Payload | STV","players":null},{"server_id":41,"name":"Uncletopia | London | 8 | Community","name_short":"lon-8","host":"lon-1.uk.uncletopia.com","port":27085,"enabled":true,"region":"eu","cc":"gb","latitude":51.509865,"longitude":-0.118092,"reserved":0,"last_update":"0001-01-01T00:00:00Z","name_a2s":"Uncletopia | London | 8 | Community","protocol":17,"map":"workshop/koth_product_final.ugc454272353","folder":"tf","game":"Team Fortress","app_id":440,"player_count":0,"max_players":24,"Bots":0,"server_type":"Dedicated","server_os":"Linux","password":true,"vac":true,"version":"7757534","steam_id":85568392924964315,"keywords":["cp","nocrits","nodmgspread","uncletopia"],"game_id":440,"stv_port":27086,"stv_name":"Uncletopia | London | 8 | Community | STV","players":null},{"server_id":300,"name":"Uncletopia | Montréal | 1 | All Maps","name_short":"mtl-1","host":"mtl-1.ca.uncletopia.com","port":27015,"enabled":true,"region":"us-east","cc":"ca","latitude":45.50889,"longitude":-73.56167,"reserved":0,"last_update":"0001-01-01T00:00:00Z","name_a2s":"Uncletopia | Montréal | 1 | All Maps","protocol":17,"map":"cp_mountainlab","folder":"tf","game":"Team Fortress","app_id":440,"player_count":0,"max_players":24,"Bots":0,"server_type":"Dedicated","server_os":"Linux","password":true,"vac":true,"version":"7757534","steam_id":85568392924500087,"keywords":["cp","nocrits","nodmgspread","uncletopia"],"game_id":440,"stv_port":27016,"stv_name":"Uncletopia | Montréal | 1 | All Maps | STV","players":null},{"server_id":301,"name":"Uncletopia | Montréal | 2 | All Maps","name_short":"mtl-2","host":"mtl-1.ca.uncletopia.com","port":27025,"enabled":true,"region":"us-east","cc":"ca","latitude":45.50889,"longitude":-73.56167,"reserved":0,"last_update":"0001-01-01T00:00:00Z","name_a2s":"Uncletopia | Montréal | 2 | All Maps","protocol":17,"map":"cp_snakewater_final1","folder":"tf","game":"Team Fortress","app_id":440,"player_count":0,"max_players":24,"Bots":0,"server_type":"Dedicated","server_os":"Linux","password":true,"vac":true,"version":"7757534","steam_id":85568392924500088,"keywords":["cp","nocrits","nodmgspread","uncletopia"],"game_id":440,"stv_port":27026,"stv_name":"Uncletopia | Montréal | 2 | All Maps | STV","players":null},{"server_id":302,"name":"Uncletopia | Montréal | 3 | All Maps","name_short":"mtl-3","host":"mtl-1.ca.uncletopia.com","port":27035,"enabled":true,"region":"us-east","cc":"ca","latitude":45.50889,"longitude":-73.56167,"reserved":0,"last_update":"0001-01-01T00:00:00Z","name_a2s":"Uncletopia | Montréal | 3 | All Maps","protocol":17,"map":"pl_frontier_final","folder":"tf","game":"Team Fortress","app_id":440,"player_count":0,"max_players":24,"Bots":0,"server_type":"Dedicated","server_os":"Linux","password":true,"vac":true,"version":"7757534","steam_id":85568392924500089,"keywords":["nocrits","nodmgspread","payload","uncletopia"],"game_id":440,"stv_port":27036,"stv_name":"Uncletopia | Montréal | 3 | All Maps | STV","players":null},{"server_id":303,"name":"Uncletopia | Montréal | 4 | No Payload","name_short":"mtl-4","host":"mtl-1.ca.uncletopia.com","port":27045,"enabled":true,"region":"us-east","cc":"ca","latitude":45.50889,"longitude":-73.56167,"reserved":0,"last_update":"0001-01-01T00:00:00Z","name_a2s":"Uncletopia | Montréal | 4 | No Payload","protocol":17,"map":"cp_coldfront","folder":"tf","game":"Team Fortress","app_id":440,"player_count":0,"max_players":24,"Bots":0,"server_type":"Dedicated","server_os":"Linux","password":true,"vac":true,"version":"7757534","steam_id":85568392924500090,"keywords":["cp","nocrits","nodmgspread","uncletopia"],"game_id":440,"stv_port":27046,"stv_name":"Uncletopia | Montréal | 4 | No Payload | STV","players":null},{"server_id":13,"name":"Uncletopia | New York City | 1 | All Maps","name_short":"nyc-1","host":"nyc-1.us.uncletopia.com","port":27015,"enabled":true,"region":"us-east","cc":"us","latitude":40.73061,"longitude":-73.93524,"reserved":0,"last_update":"0001-01-01T00:00:00Z","name_a2s":"Uncletopia | New York City | 1 | All Maps","protocol":17,"map":"cp_mossrock","folder":"tf","game":"Team Fortress","app_id":440,"player_count":24,"max_players":24,"Bots":0,"server_type":"Dedicated","server_os":"Linux","password":true,"vac":true,"version":"7757534","steam_id":85568392924469993,"keywords":["cp","nocrits","nodmgspread","uncletopia"],"game_id":440,"stv_port":27016,"stv_name":"Uncletopia | New York City | 1 | All Maps | STV","players":[{"user_id":550,"name":"blademiss","steam_id":76561198062083019,"connected_time":1556000000000,"state":"active","ping":112},{"user_id":553,"name":"Chewbacca","steam_id":76561198041927925,"connected_time":1490000000000,"state":"active","ping":55},{"user_id":560,"name":"Geloman","steam_id":76561198005501322,"connected_time":674000000000,"state":"active","ping":59},{"user_id":554,"name":"lavbubl","steam_id":76561199468150742,"connected_time":1471000000000,"state":"active","ping":130},{"user_id":455,"name":"Xavibite","steam_id":76561198209380493,"connected_time":8546000000000,"state":"active","ping":41},{"user_id":527,"name":"J.R Prime","steam_id":76561198967753173,"connected_time":3551000000000,"state":"active","ping":77},{"user_id":555,"name":"BIG STENCH","steam_id":76561197978894661,"connected_time":1450000000000,"state":"active","ping":67},{"user_id":519,"name":"ZodiacThundaga","steam_id":76561199025117814,"connected_time":4061000000000,"state":"active","ping":81},{"user_id":543,"name":"KingNeptune","steam_id":76561198965549228,"connected_time":2625000000000,"state":"active","ping":67},{"user_id":564,"name":"Sensitive Shooter","steam_id":76561198041439581,"connected_time":189000000000,"state":"active","ping":59},{"user_id":563,"name":"rad","steam_id":76561198413125750,"connected_time":407000000000,"state":"active","ping":45},{"user_id":509,"name":"Patch","steam_id":76561198144241582,"connected_time":4774000000000,"state":"active","ping":71},{"user_id":557,"name":"Lane","steam_id":76561197965828506,"connected_time":1150000000000,"state":"active","ping":57},{"user_id":559,"name":"fatcat","steam_id":76561197993786013,"connected_time":777000000000,"state":"active","ping":53},{"user_id":539,"name":"META.exe","steam_id":76561199067098696,"connected_time":2996000000000,"state":"active","ping":112},{"user_id":558,"name":"Sonara","steam_id":76561198148877698,"connected_time":970000000000,"state":"active","ping":47},{"user_id":536,"name":"Judy Nails","steam_id":76561198027722143,"connected_time":3237000000000,"state":"active","ping":39},{"user_id":502,"name":"PinkLemonade","steam_id":76561198799286228,"connected_time":5439000000000,"state":"active","ping":54},{"user_id":548,"name":"floral green","steam_id":76561198332519926,"connected_time":2099000000000,"state":"active","ping":140},{"user_id":538,"name":"Lesbian Jim Davis","steam_id":76561198008579249,"connected_time":3050000000000,"state":"active","ping":54},{"user_id":561,"name":"Lanky Kong","steam_id":76561198142455488,"connected_time":640000000000,"state":"active","ping":45},{"user_id":533,"name":"Huggernaut","steam_id":76561198043998084,"connected_time":3362000000000,"state":"active","ping":89},{"user_id":542,"name":"Average Engineer Main","steam_id":76561197999657118,"connected_time":2840000000000,"state":"active","ping":68},{"user_id":481,"name":"CRAZY engineer","steam_id":76561198887937902,"connected_time":6987000000000,"state":"active","ping":50}]},{"server_id":14,"name":"Uncletopia | New York City | 2 | All Maps","name_short":"nyc-2","host":"nyc-1.us.uncletopia.com","port":27025,"enabled":true,"region":"us-east","cc":"us","latitude":40.73061,"longitude":-73.93524,"reserved":0,"last_update":"0001-01-01T00:00:00Z","name_a2s":"Uncletopia | New York City | 2 | All Maps","protocol":17,"map":"pl_frontier_final","folder":"tf","game":"Team Fortress","app_id":440,"player_count":24,"max_players":24,"Bots":0,"server_type":"Dedicated","server_os":"Linux","password":true,"vac":true,"version":"7757534","steam_id":85568392924469994,"keywords":["nocrits","nodmgspread","payload","uncletopia"],"game_id":440,"stv_port":27026,"stv_name":"Uncletopia | New York City | 2 | All Maps | STV","players":[{"user_id":261,"name":"Eden","steam_id":76561198075587475,"connected_time":353000000000,"state":"active","ping":69},{"user_id":260,"name":"jade","steam_id":76561198055611029,"connected_time":399000000000,"state":"active","ping":102},{"user_id":259,"name":"Bert Beetroot","steam_id":76561199218240053,"connected_time":415000000000,"state":"active","ping":62},{"user_id":169,"name":"Forklift Certified Cat Girl","steam_id":76561198072555204,"connected_time":6446000000000,"state":"active","ping":67},{"user_id":263,"name":"Jushaan","steam_id":76561198088968854,"connected_time":335000000000,"state":"active","ping":99},{"user_id":249,"name":"TacticalGlizzy","steam_id":76561198144786171,"connected_time":1878000000000,"state":"active","ping":55},{"user_id":272,"name":"Braamklauw","steam_id":76561198283287697,"connected_time":105000000000,"state":"active","ping":153},{"user_id":233,"name":"Rockguy21","steam_id":76561198121303359,"connected_time":3679000000000,"state":"active","ping":56},{"user_id":231,"name":"spimtmot733","steam_id":76561199029189825,"connected_time":3821000000000,"state":"active","ping":62},{"user_id":229,"name":"yer_nerd","steam_id":76561199435454093,"connected_time":3902000000000,"state":"active","ping":55},{"user_id":258,"name":"Daddys Home","steam_id":76561198034702011,"connected_time":610000000000,"state":"active","ping":64},{"user_id":264,"name":"Bzamo","steam_id":76561198039883392,"connected_time":330000000000,"state":"active","ping":43},{"user_id":36,"name":"Mxple.","steam_id":76561199165140868,"connected_time":15624000000000,"state":"active","ping":156},{"user_id":265,"name":"Korra \u003c3","steam_id":76561198044991497,"connected_time":314000000000,"state":"active","ping":47},{"user_id":188,"name":"Ranger Plague","steam_id":76561198174647666,"connected_time":4898000000000,"state":"active","ping":90},{"user_id":245,"name":"Smörhålan","steam_id":76561198026512755,"connected_time":2323000000000,"state":"active","ping":133},{"user_id":266,"name":"soup","steam_id":76561198116596429,"connected_time":313000000000,"state":"active","ping":56},{"user_id":267,"name":"Neo Kabuto","steam_id":76561197998339185,"connected_time":308000000000,"state":"active","ping":110},{"user_id":253,"name":"45 Cent","steam_id":76561198048690188,"connected_time":1740000000000,"state":"active","ping":59},{"user_id":271,"name":"AroundlyLily","steam_id":76561198061752754,"connected_time":140000000000,"state":"active","ping":145},{"user_id":240,"name":"TGPupps","steam_id":76561198281201914,"connected_time":3091000000000,"state":"active","ping":151},{"user_id":269,"name":"ƐՌѴƳ","steam_id":76561198099470277,"connected_time":292000000000,"state":"active","ping":82},{"user_id":270,"name":"MidSobbes08","steam_id":76561199013101925,"connected_time":281000000000,"state":"active","ping":103},{"user_id":257,"name":"guyinatophat51","steam_id":76561198180230694,"connected_time":838000000000,"state":"active","ping":55}]},{"server_id":15,"name":"Uncletopia | New York City | 3 | Stopwatch Beta","name_short":"nyc-3","host":"nyc-1.us.uncletopia.com","port":27035,"enabled":true,"region":"us-east","cc":"us","latitude":40.73061,"longitude":-73.93524,"reserved":0,"last_update":"0001-01-01T00:00:00Z","name_a2s":"Uncletopia | New York City | 3 | Stopwatch Beta","protocol":17,"map":"koth_lakeside_final","folder":"tf","game":"Team Fortress","app_id":440,"player_count":0,"max_players":24,"Bots":0,"server_type":"Dedicated","server_os":"Linux","password":true,"vac":true,"version":"7757534","steam_id":85568392924742820,"keywords":["cp","nocrits","nodmgspread","uncletopia"],"game_id":440,"stv_port":27036,"stv_name":"Uncletopia | New York City | 3 | Stopwatch Beta | STV","players":null},{"server_id":16,"name":"Uncletopia | New York City | 4 | Community","name_short":"nyc-4","host":"nyc-1.us.uncletopia.com","port":27045,"enabled":true,"region":"us-east","cc":"us","latitude":40.73061,"longitude":-73.93524,"reserved":0,"last_update":"0001-01-01T00:00:00Z","name_a2s":"Uncletopia | New York City | 4 | Community","protocol":17,"map":"workshop/pl_vigil_rc9.ugc1266210012","folder":"tf","game":"Team Fortress","app_id":440,"player_count":9,"max_players":24,"Bots":0,"server_type":"Dedicated","server_os":"Linux","password":true,"vac":true,"version":"7757534","steam_id":85568392924742821,"keywords":["nocrits","nodmgspread","payload","uncletopia"],"game_id":440,"stv_port":27046,"stv_name":"Uncletopia | New York City | 4 | Community | STV","players":[{"user_id":36,"name":"Dr. Nobotnik","steam_id":76561198357339092,"connected_time":140000000000,"state":"active","ping":93},{"user_id":22,"name":"Blankrq","steam_id":76561198261030763,"connected_time":1081000000000,"state":"active","ping":129},{"user_id":37,"name":"superpenguin999","steam_id":76561198816398742,"connected_time":79000000000,"state":"active","ping":107},{"user_id":25,"name":"AbsurdSiren","steam_id":76561199196666330,"connected_time":998000000000,"state":"active","ping":50},{"user_id":31,"name":"Loleo","steam_id":76561198348132374,"connected_time":812000000000,"state":"active","ping":73},{"user_id":30,"name":"ashley","steam_id":76561198448551449,"connected_time":870000000000,"state":"active","ping":119},{"user_id":32,"name":"BIGGEST MAC","steam_id":76561198847517098,"connected_time":628000000000,"state":"active","ping":87},{"user_id":38,"name":"Hard Soap","steam_id":76561198267905614,"connected_time":62000000000,"state":"active","ping":89},{"user_id":19,"name":"Cerebral Malfunction","steam_id":76561198885651598,"connected_time":1681000000000,"state":"active","ping":64}]},{"server_id":142,"name":"Uncletopia | São Paulo | 1 | All Maps","name_short":"sao-1","host":"sao-1.br.uncletopia.com","port":27015,"enabled":true,"region":"sa","cc":"br","latitude":-23.533773,"longitude":-46.62529,"reserved":0,"last_update":"0001-01-01T00:00:00Z","name_a2s":"Uncletopia | São Paulo | 1 | All Maps","protocol":17,"map":"pl_barnblitz","folder":"tf","game":"Team Fortress","app_id":440,"player_count":8,"max_players":24,"Bots":0,"server_type":"Dedicated","server_os":"Linux","password":true,"vac":true,"version":"7757534","steam_id":85568392924469996,"keywords":["nocrits","nodmgspread","payload","uncletopia"],"game_id":440,"stv_port":27016,"stv_name":"Uncletopia | São Paulo | 1 | All Maps | STV","players":[{"user_id":135,"name":"guy®","steam_id":76561199001759153,"connected_time":888000000000,"state":"active","ping":72},{"user_id":136,"name":"Heisenmatt","steam_id":76561198308358530,"connected_time":691000000000,"state":"active","ping":49},{"user_id":137,"name":"MarcV","steam_id":76561198329742255,"connected_time":631000000000,"state":"active","ping":46},{"user_id":146,"name":"xableu","steam_id":76561199229314481,"connected_time":231000000000,"state":"active","ping":56},{"user_id":147,"name":"Blu","steam_id":76561198111052236,"connected_time":101000000000,"state":"active","ping":30},{"user_id":133,"name":"Grinch","steam_id":76561198322765783,"connected_time":962000000000,"state":"active","ping":46},{"user_id":145,"name":"susi spah","steam_id":76561199095176649,"connected_time":321000000000,"state":"active","ping":42},{"user_id":126,"name":"Sr.Bilada","steam_id":76561198145392752,"connected_time":2178000000000,"state":"active","ping":44}]},{"server_id":143,"name":"Uncletopia | São Paulo | 2 | All Maps","name_short":"sao-2","host":"sao-2.br.uncletopia.com","port":27015,"enabled":true,"region":"sa","cc":"br","latitude":-23.533773,"longitude":-46.62529,"reserved":0,"last_update":"0001-01-01T00:00:00Z","name_a2s":"Uncletopia | São Paulo | 2 | All Maps","protocol":17,"map":"koth_cascade","folder":"tf","game":"Team Fortress","app_id":440,"player_count":0,"max_players":24,"Bots":0,"server_type":"Dedicated","server_os":"Linux","password":true,"vac":true,"version":"7757534","steam_id":85568392924485349,"keywords":["cp","nocrits","nodmgspread","uncletopia"],"game_id":440,"stv_port":27016,"stv_name":"Uncletopia | São Paulo | 2 | All Maps | STV","players":null},{"server_id":7,"name":"Uncletopia | Seattle | 1 | All Maps","name_short":"sea-1","host":"sea-1.us.uncletopia.com","port":27015,"enabled":true,"region":"us-west","cc":"us","latitude":47.608013,"longitude":-122.33517,"reserved":0,"last_update":"0001-01-01T00:00:00Z","name_a2s":"Uncletopia | Seattle | 1 | All Maps","protocol":17,"map":"pl_borneo","folder":"tf","game":"Team Fortress","app_id":440,"player_count":24,"max_players":24,"Bots":0,"server_type":"Dedicated","server_os":"Linux","password":true,"vac":true,"version":"7757534","steam_id":85568392924469997,"keywords":["nocrits","nodmgspread","payload","uncletopia"],"game_id":440,"stv_port":27016,"stv_name":"Uncletopia | Seattle | 1 | All Maps | STV","players":[{"user_id":628,"name":"Tromboner","steam_id":76561198101850500,"connected_time":1794000000000,"state":"spawning","ping":60},{"user_id":625,"name":"Skabbety","steam_id":76561198168044257,"connected_time":1846000000000,"state":"connecting","ping":52},{"user_id":614,"name":"Agent86","steam_id":76561198046794593,"connected_time":2891000000000,"state":"connecting","ping":157},{"user_id":636,"name":"Ugly Mick Mars (Plz Duel Me)","steam_id":76561198051504563,"connected_time":1717000000000,"state":"connecting","ping":61},{"user_id":631,"name":"lker","steam_id":76561197976975075,"connected_time":1770000000000,"state":"connecting","ping":133},{"user_id":637,"name":"Chris P. Wiener","steam_id":76561198168808551,"connected_time":1371000000000,"state":"connecting","ping":64},{"user_id":604,"name":"Five","steam_id":76561198026640473,"connected_time":4429000000000,"state":"connecting","ping":62},{"user_id":642,"name":"Hassium","steam_id":76561198162541373,"connected_time":29000000000,"state":"connecting","ping":69},{"user_id":587,"name":"dust | she/it","steam_id":76561198045218909,"connected_time":5647000000000,"state":"connecting","ping":43},{"user_id":623,"name":"medic who makes fun of your aim","steam_id":76561198062529055,"connected_time":2016000000000,"state":"connecting","ping":50},{"user_id":605,"name":"TrashMan","steam_id":76561198064860110,"connected_time":4420000000000,"state":"connecting","ping":120},{"user_id":641,"name":"kodynotcody","steam_id":76561198340685758,"connected_time":175000000000,"state":"connecting","ping":62},{"user_id":620,"name":"Robert E.T.","steam_id":76561197986439371,"connected_time":2347000000000,"state":"connecting","ping":99},{"user_id":632,"name":"Morse","steam_id":76561198039944542,"connected_time":1768000000000,"state":"connecting","ping":52},{"user_id":611,"name":"--)YawgMoss(-- \"The Salt\"","steam_id":76561198072971649,"connected_time":4025000000000,"state":"connecting","ping":74},{"user_id":603,"name":"ORANGE","steam_id":76561198000401769,"connected_time":4463000000000,"state":"connecting","ping":64},{"user_id":588,"name":"Fh","steam_id":76561198000903511,"connected_time":5646000000000,"state":"connecting","ping":78},{"user_id":644,"name":"Strikerbolt","steam_id":76561199095622897,"connected_time":25000000000,"state":"connecting","ping":85},{"user_id":634,"name":"tOwl","steam_id":76561198094005426,"connected_time":1733000000000,"state":"connecting","ping":115},{"user_id":615,"name":"shane","steam_id":76561198060491451,"connected_time":2825000000000,"state":"connecting","ping":123},{"user_id":619,"name":"SpinetinglingToast","steam_id":76561198099470670,"connected_time":2357000000000,"state":"connecting","ping":128},{"user_id":638,"name":"=Silver=","steam_id":76561198292307127,"connected_time":1128000000000,"state":"connecting","ping":88},{"user_id":639,"name":"shy guy","steam_id":76561198151246059,"connected_time":948000000000,"state":"connecting","ping":91},{"user_id":640,"name":"Greskrendtregk","steam_id":76561197969553142,"connected_time":948000000000,"state":"connecting","ping":71}]},{"server_id":119,"name":"Uncletopia | Seattle | 2 | All Maps","name_short":"sea-2","host":"sea-1.us.uncletopia.com","port":27025,"enabled":true,"region":"us-west","cc":"us","latitude":47.608013,"longitude":-122.33517,"reserved":0,"last_update":"0001-01-01T00:00:00Z","name_a2s":"Uncletopia | Seattle | 2 | All Maps","protocol":17,"map":"pl_barnblitz","folder":"tf","game":"Team Fortress","app_id":440,"player_count":25,"max_players":24,"Bots":0,"server_type":"Dedicated","server_os":"Linux","password":true,"vac":true,"version":"7757534","steam_id":85568392924469998,"keywords":["nocrits","nodmgspread","payload","uncletopia"],"game_id":440,"stv_port":27026,"stv_name":"Uncletopia | Seattle | 2 | All Maps | STV","players":[{"user_id":278,"name":"dirty30","steam_id":76561198021226566,"connected_time":4407000000000,"state":"active","ping":48},{"user_id":520,"name":"Flight","steam_id":76561198026878514,"connected_time":1020000000000,"state":"active","ping":103},{"user_id":301,"name":"MisterManne","steam_id":76561198106598600,"connected_time":3767000000000,"state":"active","ping":56},{"user_id":473,"name":"SHI ' THEAD","steam_id":76561198119697137,"connected_time":1581000000000,"state":"active","ping":90},{"user_id":287,"name":"vareh","steam_id":76561197993190926,"connected_time":4015000000000,"state":"active","ping":58},{"user_id":333,"name":"Deca20","steam_id":76561198281112311,"connected_time":3109000000000,"state":"active","ping":135},{"user_id":567,"name":"The Pepsi® Superbowl®!","steam_id":76561198080828981,"connected_time":15000000000,"state":"spawning","ping":59},{"user_id":480,"name":"John Wick's puppy","steam_id":76561198064662875,"connected_time":1463000000000,"state":"active","ping":66},{"user_id":227,"name":"George Washington","steam_id":76561198033828615,"connected_time":8795000000000,"state":"active","ping":69},{"user_id":422,"name":"Tenacity","steam_id":76561198219805169,"connected_time":2063000000000,"state":"active","ping":122},{"user_id":274,"name":"Hairy Pear","steam_id":76561198087397457,"connected_time":4777000000000,"state":"active","ping":94},{"user_id":290,"name":"Tibetan Pop Star","steam_id":76561198844903984,"connected_time":3917000000000,"state":"active","ping":133},{"user_id":517,"name":"off 18mg Ritalin℞ rn","steam_id":76561198229970660,"connected_time":1113000000000,"state":"active","ping":110},{"user_id":266,"name":"bergly","steam_id":76561198811650078,"connected_time":4945000000000,"state":"active","ping":134},{"user_id":471,"name":"Omnoman","steam_id":76561198006258213,"connected_time":1597000000000,"state":"active","ping":142},{"user_id":532,"name":"Donkitus","steam_id":76561198101336551,"connected_time":727000000000,"state":"active","ping":37},{"user_id":548,"name":"D0VE","steam_id":76561198151618566,"connected_time":331000000000,"state":"active","ping":55},{"user_id":509,"name":"Nibotshooter","steam_id":76561199284825579,"connected_time":1167000000000,"state":"active","ping":100},{"user_id":276,"name":"Butters495","steam_id":76561197998689042,"connected_time":4746000000000,"state":"active","ping":89},{"user_id":350,"name":"BlitzBrom","steam_id":76561197962231714,"connected_time":2783000000000,"state":"active","ping":60},{"user_id":460,"name":"Thexx","steam_id":76561198113823050,"connected_time":1707000000000,"state":"active","ping":47},{"user_id":506,"name":"λ","steam_id":76561198120426683,"connected_time":1187000000000,"state":"active","ping":60},{"user_id":286,"name":"Big Stick","steam_id":76561198853874790,"connected_time":4037000000000,"state":"active","ping":105},{"user_id":369,"name":"Jones","steam_id":76561198046037216,"connected_time":2666000000000,"state":"active","ping":71},{"user_id":515,"name":"Iron Argus","steam_id":76561198181088245,"connected_time":1127000000000,"state":"active","ping":125}]},{"server_id":406,"name":"Uncletopia | Seattle | 3 | Stopwatch Beta","name_short":"sea-3","host":"sea-1.us.uncletopia.com","port":27035,"enabled":true,"region":"us-west","cc":"us","latitude":47.608013,"longitude":-122.33517,"reserved":0,"last_update":"0001-01-01T00:00:00Z","name_a2s":"Uncletopia | Seattle | 3 | Stopwatch Beta","protocol":17,"map":"workshop/pl_barnblitz_pro7.ugc582280235","folder":"tf","game":"Team Fortress","app_id":440,"player_count":0,"max_players":24,"Bots":0,"server_type":"Dedicated","server_os":"Linux","password":true,"vac":true,"version":"7757534","steam_id":85568392924515217,"keywords":["nocrits","nodmgspread","payload","uncletopia"],"game_id":440,"stv_port":27036,"stv_name":"Uncletopia | Seattle | 3 | Stopwatch Beta | STV","players":null},{"server_id":17,"name":"Uncletopia | San Francisco | 1 | All Maps","name_short":"sfo-1","host":"sfo-1.us.uncletopia.com","port":27015,"enabled":true,"region":"us-west","cc":"us","latitude":37.77397,"longitude":-122.4313,"reserved":0,"last_update":"0001-01-01T00:00:00Z","name_a2s":"Uncletopia | San Francisco | 1 | All Maps","protocol":17,"map":"cp_dustbowl","folder":"tf","game":"Team Fortress","app_id":440,"player_count":0,"max_players":24,"Bots":0,"server_type":"Dedicated","server_os":"Linux","password":true,"vac":true,"version":"7757534","steam_id":85568392924469999,"keywords":["cp","nocrits","nodmgspread","uncletopia"],"game_id":440,"stv_port":27016,"stv_name":"Uncletopia | San Francisco | 1 | All Maps | STV","players":null},{"server_id":18,"name":"Uncletopia | San Francisco | 2 | All Maps","name_short":"sfo-2","host":"sfo-1.us.uncletopia.com","port":27025,"enabled":true,"region":"us-west","cc":"us","latitude":37.77397,"longitude":-122.4313,"reserved":0,"last_update":"0001-01-01T00:00:00Z","name_a2s":"Uncletopia | San Francisco | 2 | All Maps","protocol":17,"map":"koth_lakeside_final","folder":"tf","game":"Team Fortress","app_id":440,"player_count":24,"max_players":24,"Bots":0,"server_type":"Dedicated","server_os":"Linux","password":true,"vac":true,"version":"7757534","steam_id":85568392924470000,"keywords":["cp","nocrits","nodmgspread","uncletopia"],"game_id":440,"stv_port":27026,"stv_name":"Uncletopia | San Francisco | 2 | All Maps | STV","players":[{"user_id":229,"name":"K2f","steam_id":76561198049600563,"connected_time":4821000000000,"state":"active","ping":51},{"user_id":310,"name":"今朝有酒今","steam_id":76561198170669082,"connected_time":524000000000,"state":"active","ping":134},{"user_id":240,"name":"Dosario","steam_id":76561198298095535,"connected_time":3476000000000,"state":"active","ping":71},{"user_id":322,"name":"p9 delight","steam_id":76561197980280272,"connected_time":66000000000,"state":"active","ping":60},{"user_id":307,"name":"THE STINK","steam_id":76561199226110975,"connected_time":596000000000,"state":"active","ping":100},{"user_id":308,"name":"toodles","steam_id":76561198025463883,"connected_time":589000000000,"state":"active","ping":72},{"user_id":275,"name":"jdrtuning","steam_id":76561198185400438,"connected_time":2060000000000,"state":"active","ping":64},{"user_id":320,"name":"Iskcal75","steam_id":76561199446407203,"connected_time":229000000000,"state":"active","ping":105},{"user_id":301,"name":"Entreezy","steam_id":76561198271093809,"connected_time":995000000000,"state":"active","ping":76},{"user_id":321,"name":"Diego Sandals","steam_id":76561198854221260,"connected_time":154000000000,"state":"active","ping":99},{"user_id":252,"name":"APOTATO","steam_id":76561198118199858,"connected_time":2475000000000,"state":"active","ping":60},{"user_id":253,"name":"Dietrich","steam_id":76561198028163840,"connected_time":2424000000000,"state":"active","ping":60},{"user_id":312,"name":"Communist Killing Candy Cactus\ufffd","steam_id":76561198074980635,"connected_time":514000000000,"state":"active","ping":80},{"user_id":304,"name":"monkey","steam_id":76561198080479697,"connected_time":723000000000,"state":"active","ping":114},{"user_id":300,"name":"boobies arc","steam_id":76561198316753540,"connected_time":1057000000000,"state":"active","ping":75},{"user_id":270,"name":"Schnitz","steam_id":76561198265484253,"connected_time":2125000000000,"state":"active","ping":60},{"user_id":291,"name":"chaos","steam_id":76561198055462404,"connected_time":1511000000000,"state":"active","ping":47},{"user_id":313,"name":"Loodler","steam_id":76561198426624664,"connected_time":502000000000,"state":"active","ping":60},{"user_id":274,"name":"Gull","steam_id":76561198161560332,"connected_time":2090000000000,"state":"active","ping":72},{"user_id":318,"name":"Kontray","steam_id":76561198294948653,"connected_time":332000000000,"state":"active","ping":56},{"user_id":278,"name":"monqueer","steam_id":76561199125615716,"connected_time":2004000000000,"state":"active","ping":134},{"user_id":323,"name":"Quansen","steam_id":76561198151594550,"connected_time":42000000000,"state":"active","ping":107},{"user_id":303,"name":"Gr8alex #KILLTF2","steam_id":76561198227675960,"connected_time":782000000000,"state":"active","ping":67},{"user_id":315,"name":"Sir_Cheddar","steam_id":76561198132354554,"connected_time":490000000000,"state":"active","ping":70}]},{"server_id":19,"name":"Uncletopia | San Francisco | 3 | Stopwatch Beta","name_short":"sfo-3","host":"sfo-1.us.uncletopia.com","port":27035,"enabled":true,"region":"us-west","cc":"us","latitude":37.77397,"longitude":-122.4313,"reserved":0,"last_update":"0001-01-01T00:00:00Z","name_a2s":"Uncletopia | San Francisco | 3 | Stopwatch Beta","protocol":17,"map":"cp_snakewater_final1","folder":"tf","game":"Team Fortress","app_id":440,"player_count":0,"max_players":24,"Bots":0,"server_type":"Dedicated","server_os":"Linux","password":true,"vac":true,"version":"7757534","steam_id":85568392924742824,"keywords":["cp","nocrits","nodmgspread","uncletopia"],"game_id":440,"stv_port":27036,"stv_name":"Uncletopia | San Francisco | 3 | Stopwatch Beta | STV","players":null},{"server_id":20,"name":"Uncletopia | San Francisco | 4 | Community","name_short":"sfo-4","host":"sfo-1.us.uncletopia.com","port":27045,"enabled":true,"region":"us-west","cc":"us","latitude":37.77397,"longitude":-122.4313,"reserved":0,"last_update":"0001-01-01T00:00:00Z","name_a2s":"Uncletopia | San Francisco | 4 | Community","protocol":17,"map":"workshop/koth_kemptown_rc1.ugc767410655","folder":"tf","game":"Team Fortress","app_id":440,"player_count":24,"max_players":24,"Bots":0,"server_type":"Dedicated","server_os":"Linux","password":true,"vac":true,"version":"7757534","steam_id":85568392924742826,"keywords":["cp","nocrits","nodmgspread","uncletopia"],"game_id":440,"stv_port":27046,"stv_name":"Uncletopia | San Francisco | 4 | Community | STV","players":[{"user_id":102,"name":"Wacks","steam_id":76561198079476100,"connected_time":1126000000000,"state":"spawning","ping":69},{"user_id":110,"name":"AssClappicus","steam_id":76561198917309036,"connected_time":262000000000,"state":"connecting","ping":111},{"user_id":48,"name":"GOLDWING","steam_id":76561198081864746,"connected_time":3702000000000,"state":"connecting","ping":143},{"user_id":113,"name":"just jazz","steam_id":76561198010637797,"connected_time":21000000000,"state":"connecting","ping":123},{"user_id":87,"name":"jayzak24","steam_id":76561198354267509,"connected_time":1870000000000,"state":"connecting","ping":82},{"user_id":115,"name":"THIRDPIERCE","steam_id":76561198405366314,"connected_time":8000000000,"state":"connecting","ping":288},{"user_id":49,"name":"5KY13R","steam_id":76561198027603266,"connected_time":3699000000000,"state":"connecting","ping":133},{"user_id":106,"name":"Honor","steam_id":76561198327166378,"connected_time":1001000000000,"state":"connecting","ping":103},{"user_id":42,"name":"Tort boi","steam_id":76561198125327110,"connected_time":4195000000000,"state":"connecting","ping":87},{"user_id":45,"name":"hersheybargame","steam_id":76561199162003623,"connected_time":4022000000000,"state":"connecting","ping":64},{"user_id":70,"name":"AcidBat3","steam_id":76561198169389335,"connected_time":3004000000000,"state":"connecting","ping":60},{"user_id":114,"name":"Isopentyl Ethanoate","steam_id":76561198116389072,"connected_time":21000000000,"state":"connecting","ping":105},{"user_id":104,"name":"Diesel","steam_id":76561198060177579,"connected_time":1043000000000,"state":"connecting","ping":60},{"user_id":105,"name":"SenBellum","steam_id":76561198300318906,"connected_time":1009000000000,"state":"connecting","ping":51},{"user_id":71,"name":"TheGreatDong","steam_id":76561198000634178,"connected_time":3002000000000,"state":"connecting","ping":70},{"user_id":98,"name":"Yeagle","steam_id":76561199086620299,"connected_time":1424000000000,"state":"connecting","ping":116},{"user_id":61,"name":"The_Pacific_gamer","steam_id":76561198089491446,"connected_time":3394000000000,"state":"connecting","ping":85},{"user_id":82,"name":"Cpt. Dingle","steam_id":76561198025720199,"connected_time":2639000000000,"state":"connecting","ping":107},{"user_id":111,"name":"Devilmonkross","steam_id":76561198178575231,"connected_time":244000000000,"state":"connecting","ping":51},{"user_id":107,"name":"Spek","steam_id":76561198051816190,"connected_time":800000000000,"state":"connecting","ping":75},{"user_id":112,"name":"zigeon12","steam_id":76561199370536274,"connected_time":223000000000,"state":"connecting","ping":118}]},{"server_id":141,"name":"Uncletopia | Sydney | 1 | All Maps","name_short":"syd-1","host":"syd-1.au.uncletopia.com","port":27015,"enabled":true,"region":"au","cc":"au","latitude":-33.865143,"longitude":151.2099,"reserved":0,"last_update":"0001-01-01T00:00:00Z","name_a2s":"Uncletopia | Sydney | 1 | All Maps","protocol":17,"map":"koth_viaduct","folder":"tf","game":"Team Fortress","app_id":440,"player_count":0,"max_players":24,"Bots":0,"server_type":"Dedicated","server_os":"Linux","password":true,"vac":true,"version":"7757534","steam_id":85568392924470001,"keywords":["cp","nocrits","nodmgspread","uncletopia"],"game_id":440,"stv_port":27016,"stv_name":"Uncletopia | Sydney | 1 | All Maps | STV","players":null},{"server_id":123,"name":"Uncletopia | Sydney | 2 | All Maps","name_short":"syd-2","host":"syd-1.au.uncletopia.com","port":27025,"enabled":true,"region":"au","cc":"au","latitude":-33.865143,"longitude":151.2099,"reserved":0,"last_update":"0001-01-01T00:00:00Z","name_a2s":"Uncletopia | Sydney | 2 | All Maps","protocol":17,"map":"koth_nucleus","folder":"tf","game":"Team Fortress","app_id":440,"player_count":23,"max_players":24,"Bots":0,"server_type":"Dedicated","server_os":"Linux","password":true,"vac":true,"version":"7757534","steam_id":85568392924470002,"keywords":["cp","nocrits","nodmgspread","uncletopia"],"game_id":440,"stv_port":27026,"stv_name":"Uncletopia | Sydney | 2 | All Maps | STV","players":[{"user_id":107,"name":"Traveller","steam_id":76561199161637215,"connected_time":1595000000000,"state":"active","ping":96},{"user_id":133,"name":"Pandemos","steam_id":76561198132242734,"connected_time":153000000000,"state":"active","ping":60},{"user_id":92,"name":"electro599","steam_id":76561198058148858,"connected_time":2574000000000,"state":"active","ping":59},{"user_id":114,"name":"Solo Fortress","steam_id":76561198061960926,"connected_time":1322000000000,"state":"active","ping":96},{"user_id":87,"name":"SkoKiE","steam_id":76561198283542986,"connected_time":3215000000000,"state":"active","ping":60},{"user_id":68,"name":"Enchanted Cat","steam_id":76561198866538028,"connected_time":4612000000000,"state":"active","ping":70},{"user_id":88,"name":"Rizeo","steam_id":76561198147901488,"connected_time":3178000000000,"state":"active","ping":67},{"user_id":104,"name":"DSCO","steam_id":76561198093271918,"connected_time":1676000000000,"state":"active","ping":38},{"user_id":127,"name":"SUCC MY DUCC","steam_id":76561198127068703,"connected_time":516000000000,"state":"active","ping":69},{"user_id":99,"name":"CryoDoctor","steam_id":76561198366865379,"connected_time":1834000000000,"state":"active","ping":54},{"user_id":134,"name":"Yetu","steam_id":76561198085135975,"connected_time":112000000000,"state":"active","ping":53},{"user_id":135,"name":"Boss can sometimes trolldier","steam_id":76561199011053800,"connected_time":89000000000,"state":"active","ping":45},{"user_id":105,"name":"Cofwee","steam_id":76561198072414195,"connected_time":1649000000000,"state":"active","ping":78},{"user_id":108,"name":".ki","steam_id":76561198241303512,"connected_time":1555000000000,"state":"active","ping":56},{"user_id":136,"name":"(ノಠ益ಠ)ノ","steam_id":76561198409853978,"connected_time":80000000000,"state":"active","ping":38},{"user_id":111,"name":"BruceWillis235","steam_id":76561198884324029,"connected_time":1514000000000,"state":"active","ping":233},{"user_id":129,"name":"trimpgod","steam_id":76561198310550094,"connected_time":390000000000,"state":"active","ping":54},{"user_id":130,"name":"Manic","steam_id":76561198429106085,"connected_time":383000000000,"state":"active","ping":70},{"user_id":137,"name":"Rev","steam_id":76561198076830267,"connected_time":69000000000,"state":"active","ping":49},{"user_id":132,"name":"Corgo","steam_id":76561198162174985,"connected_time":339000000000,"state":"active","ping":56},{"user_id":119,"name":"MR Martian","steam_id":76561198157854561,"connected_time":866000000000,"state":"active","ping":87},{"user_id":138,"name":"lutrii","steam_id":76561198841162620,"connected_time":26000000000,"state":"active","ping":61},{"user_id":139,"name":"Resident Thrussy Lender","steam_id":76561198071790583,"connected_time":9000000000,"state":"spawning","ping":312}]},{"server_id":395,"name":"Uncletopia | Sydney | 3 | All Maps","name_short":"syd-3","host":"syd-1.au.uncletopia.com","port":27035,"enabled":true,"region":"au","cc":"au","latitude":-33.865143,"longitude":151.2099,"reserved":0,"last_update":"0001-01-01T00:00:00Z","name_a2s":"Uncletopia | Sydney | 3 | All Maps","protocol":17,"map":"pl_badwater","folder":"tf","game":"Team Fortress","app_id":440,"player_count":0,"max_players":24,"Bots":0,"server_type":"Dedicated","server_os":"Linux","password":true,"vac":true,"version":"7757534","steam_id":85568392925194467,"keywords":["nocrits","nodmgspread","payload","uncletopia"],"game_id":440,"stv_port":27036,"stv_name":"Uncletopia | Sydney | 3 | All Maps | STV","players":null},{"server_id":396,"name":"Uncletopia | Sydney | 4 | All Maps","name_short":"syd-4","host":"syd-1.au.uncletopia.com","port":27045,"enabled":true,"region":"au","cc":"au","latitude":-33.865143,"longitude":151.2099,"reserved":0,"last_update":"0001-01-01T00:00:00Z","name_a2s":"Uncletopia | Sydney | 4 | All Maps","protocol":17,"map":"cp_dustbowl","folder":"tf","game":"Team Fortress","app_id":440,"player_count":0,"max_players":24,"Bots":0,"server_type":"Dedicated","server_os":"Linux","password":true,"vac":true,"version":"7757534","steam_id":85568392925397958,"keywords":["cp","nocrits","nodmgspread","uncletopia"],"game_id":440,"stv_port":27046,"stv_name":"Uncletopia | Sydney | 4 | All Maps | STV","players":null},{"server_id":58,"name":"Uncletopia | Sydney | 5 | Stopwatch Beta","name_short":"syd-5","host":"syd-1.au.uncletopia.com","port":27055,"enabled":true,"region":"au","cc":"au","latitude":-33.865143,"longitude":151.2099,"reserved":0,"last_update":"0001-01-01T00:00:00Z","name_a2s":"Uncletopia | Sydney | 5 | Stopwatch Beta","protocol":17,"map":"workshop/koth_clearcut_b15.ugc2107050255","folder":"tf","game":"Team Fortress","app_id":440,"player_count":0,"max_players":24,"Bots":0,"server_type":"Dedicated","server_os":"Linux","password":true,"vac":true,"version":"7757534","steam_id":85568392925397959,"keywords":["cp","nocrits","nodmgspread","uncletopia"],"game_id":440,"stv_port":27056,"stv_name":"Uncletopia | Sydney | 5 | Stopwatch Beta | STV","players":null},{"server_id":59,"name":"Uncletopia | Sydney | 6 | Community","name_short":"syd-6","host":"syd-1.au.uncletopia.com","port":27065,"enabled":true,"region":"au","cc":"au","latitude":-33.865143,"longitude":151.2099,"reserved":0,"last_update":"0001-01-01T00:00:00Z","name_a2s":"Uncletopia | Sydney | 6 | Community","protocol":17,"map":"pl_badwater","folder":"tf","game":"Team Fortress","app_id":440,"player_count":0,"max_players":24,"Bots":0,"server_type":"Dedicated","server_os":"Linux","password":true,"vac":true,"version":"7757534","steam_id":85568392925397960,"keywords":["nocrits","nodmgspread","payload","uncletopia"],"game_id":440,"stv_port":27066,"stv_name":"Uncletopia | Sydney | 6 | Community | STV","players":null},{"server_id":49,"name":"Uncletopia | Warsaw | 1 | All Maps","name_short":"waw-1","host":"waw-1.pl.uncletopia.com","port":27015,"enabled":true,"region":"eu","cc":"pl","latitude":52.2297,"longitude":21.017532,"reserved":0,"last_update":"0001-01-01T00:00:00Z","name_a2s":"","protocol":0,"map":"","folder":"","game":"","app_id":0,"player_count":0,"max_players":0,"Bots":0,"server_type":"","server_os":"","password":false,"vac":false,"version":"","steam_id":0,"keywords":null,"game_id":0,"stv_port":0,"stv_name":"","players":null},{"server_id":50,"name":"Uncletopia | Warsaw | 2 | All Maps","name_short":"waw-2","host":"waw-1.pl.uncletopia.com","port":27025,"enabled":true,"region":"eu","cc":"pl","latitude":52.2297,"longitude":21.017532,"reserved":0,"last_update":"0001-01-01T00:00:00Z","name_a2s":"Uncletopia | Warsaw | 2 | All Maps","protocol":17,"map":"koth_lakeside_final","folder":"tf","game":"Team Fortress","app_id":440,"player_count":0,"max_players":24,"Bots":0,"server_type":"Dedicated","server_os":"Linux","password":true,"vac":true,"version":"7757534","steam_id":85568392925397851,"keywords":["cp","nocrits","nodmgspread","uncletopia"],"game_id":440,"stv_port":27026,"stv_name":"Uncletopia | Warsaw | 2 | All Maps | STV","players":null},{"server_id":51,"name":"Uncletopia | Warsaw | 3 | All Maps","name_short":"waw-3","host":"waw-1.pl.uncletopia.com","port":27035,"enabled":true,"region":"eu","cc":"pl","latitude":52.2297,"longitude":21.017532,"reserved":0,"last_update":"0001-01-01T00:00:00Z","name_a2s":"Uncletopia | Warsaw | 3 | All Maps","protocol":17,"map":"cp_altitude","folder":"tf","game":"Team Fortress","app_id":440,"player_count":0,"max_players":24,"Bots":0,"server_type":"Dedicated","server_os":"Linux","password":true,"vac":true,"version":"7757534","steam_id":85568392925397852,"keywords":["cp","nocrits","nodmgspread","uncletopia"],"game_id":440,"stv_port":27036,"stv_name":"Uncletopia | Warsaw | 3 | All Maps | STV","players":null},{"server_id":52,"name":"Uncletopia | Warsaw | 4 | All Maps","name_short":"waw-4","host":"waw-1.pl.uncletopia.com","port":27045,"enabled":true,"region":"eu","cc":"pl","latitude":52.2297,"longitude":21.017532,"reserved":0,"last_update":"0001-01-01T00:00:00Z","name_a2s":"Uncletopia | Warsaw | 4 | All Maps","protocol":17,"map":"koth_cascade","folder":"tf","game":"Team Fortress","app_id":440,"player_count":0,"max_players":24,"Bots":0,"server_type":"Dedicated","server_os":"Linux","password":true,"vac":true,"version":"7757534","steam_id":85568392925397853,"keywords":["cp","nocrits","nodmgspread","uncletopia"],"game_id":440,"stv_port":27046,"stv_name":"Uncletopia | Warsaw | 4 | All Maps | STV","players":null},{"server_id":53,"name":"Uncletopia | Warsaw | 5 | Stopwatch Beta","name_short":"waw-5","host":"waw-1.pl.uncletopia.com","port":27055,"enabled":true,"region":"eu","cc":"pl","latitude":52.2297,"longitude":21.017532,"reserved":0,"last_update":"0001-01-01T00:00:00Z","name_a2s":"Uncletopia | Warsaw | 5 | Stopwatch Beta","protocol":17,"map":"pl_pier","folder":"tf","game":"Team Fortress","app_id":440,"player_count":0,"max_players":24,"Bots":0,"server_type":"Dedicated","server_os":"Linux","password":true,"vac":true,"version":"7757534","steam_id":85568392925397854,"keywords":["nocrits","nodmgspread","payload","uncletopia"],"game_id":440,"stv_port":27056,"stv_name":"Uncletopia | Warsaw | 5 | Stopwatch Beta | STV","players":null},{"server_id":54,"name":"Uncletopia | Warsaw | 6 | Community","name_short":"waw-6","host":"waw-1.pl.uncletopia.com","port":27065,"enabled":true,"region":"eu","cc":"pl","latitude":52.2297,"longitude":21.017532,"reserved":0,"last_update":"0001-01-01T00:00:00Z","name_a2s":"Uncletopia | Warsaw | 6 | Community","protocol":17,"map":"workshop/pl_badwater_pro_v12.ugc2142942074","folder":"tf","game":"Team Fortress","app_id":440,"player_count":0,"max_players":24,"Bots":0,"server_type":"Dedicated","server_os":"Linux","password":true,"vac":true,"version":"7757534","steam_id":85568392925397856,"keywords":["nocrits","nodmgspread","payload","uncletopia"],"game_id":440,"stv_port":27066,"stv_name":"Uncletopia | Warsaw | 6 | Community | STV","players":null}]}