{"status":true,"message":"","result":[{"server_id":9,"name":"Uncletopia | Atlanta | 1 | All Maps","name_short":"atl-1","host":"atl-1.us.uncletopia.com","port":27015,"enabled":true,"region":"us-east","cc":"us","latitude":33.753746,"longitude":-84.38633,"reserved":0,"last_update":"0001-01-01T00:00:00Z","name_a2s":"Uncletopia | Atlanta | 1 | All Maps","protocol":17,"map":"pl_barnblitz","folder":"tf","game":"Team Fortress","app_id":440,"player_count":17,"max_players":24,"Bots":0,"server_type":"Dedicated","server_os":"Linux","password":true,"vac":true,"version":"7757534","steam_id":85568392924469982,"keywords":["nocrits","nodmgspread","payload","uncletopia"],"game_id":440,"stv_port":27016,"stv_name":"Uncletopia | Atlanta | 1 | All Maps | STV","players":[{"user_id":790,"name":"Mush","steam_id":76561198393461065,"connected_time":2741000000000,"state":"active","ping":96},{"user_id":818,"name":"Numbers","steam_id":76561198178240575,"connected_time":340000000000,"state":"active","ping":85},{"user_id":819,"name":"ASCE","steam_id":76561198169768539,"connected_time":174000000000,"state":"active","ping":118},{"user_id":820,"name":"2006Microsoft Intellisense Mous","steam_id":76561198085401931,"connected_time":105000000000,"state":"active","ping":39},{"user_id":795,"name":"Anderred","steam_id":76561198149983847,"connected_time":1920000000000,"state":"active","ping":97},{"user_id":749,"name":"Moon the Boom","steam_id":76561198100625361,"connected_time":5366000000000,"state":"active","ping":71},{"user_id":766,"name":"Gamut","steam_id":76561199185822800,"connected_time":4275000000000,"state":"active","ping":95},{"user_id":764,"name":"fruitymario","steam_id":76561198047190430,"connected_time":4477000000000,"state":"active","ping":55},{"user_id":801,"name":"Gay Cake","steam_id":76561198004388831,"connected_time":1539000000000,"state":"active","ping":81},{"user_id":802,"name":"Lt. Dan's Legs","steam_id":76561198043851584,"connected_time":1505000000000,"state":"active","ping":111},{"user_id":769,"name":"ÈÇ™ÊÅ∂ÁöÑÂ∑´Â∏à","steam_id":76561198165212575,"connected_time":3996000000000,"state":"active","ping":75},{"user_id":814,"name":"Rusted Cake","steam_id":76561198209755931,"connected_time":1167000000000,"state":"active","ping":84},{"user_id":758,"name":"JiggleCakes","steam_id":76561199005649151,"connected_time":4857000000000,"state":"active","ping":102},{"user_id":759,"name":"Subtle_Calamity","steam_id":76561198170023315,"connected_time":4833000000000,"state":"active","ping":120},{"user_id":811,"name":"kametro4","steam_id":76561198835430429,"connected_time":1302000000000,"state":"active","ping":104},{"user_id":807,"name":"BlixyDragon","steam_id":76561198295422834,"connected_time":1447000000000,"state":"active","ping":99},{"user_id":817,"name":"Bony","steam_id":76561199001748822,"connected_time":919000000000,"state":"active","ping":118}]},{"server_id":400,"name":"Uncletopia | Atlanta | 3 | Community","name_short":"atl-3","host":"atl-1.us.uncletopia.com","port":27035,"enabled":true,"region":"us-east","cc":"us","latitude":33.753746,"longitude":-84.38633,"reserved":0,"last_update":"0001-01-01T00:00:00Z","name_a2s":"Uncletopia | Atlanta | 3 | Community","protocol":17,"map":"workshop/koth_slaughter_rc1.ugc1712845210","folder":"tf","game":"Team Fortress","app_id":440,"player_count":0,"max_players":24,"Bots":0,"server_type":"Dedicated","server_os":"Linux","password":true,"vac":true,"version":"7757534","steam_id":85568392924515187,"keywords":["cp","nocrits","nodmgspread","uncletopia"],"game_id":440,"stv_port":27036,"stv_name":"Uncletopia | Atlanta | 3 | Community | STV","players":null},{"server_id":401,"name":"Uncletopia | Atlanta | 4 | No Payload","name_short":"atl-4","host":"atl-1.us.uncletopia.com","port":27045,"enabled":true,"region":"us-east","cc":"us","latitude":33.753746,"longitude":-84.38633,"reserved":0,"last_update":"0001-01-01T00:00:00Z","name_a2s":"","protocol":0,"map":"","folder":"","game":"","app_id":0,"player_count":0,"max_players":0,"Bots":0,"server_type":"","server_os":"","password":false,"vac":false,"version":"","steam_id":0,"keywords":null,"game_id":0,"stv_port":0,"stv_name":"","players":null},{"server_id":2,"name":"Uncletopia | Chicago | 1 | All Maps","name_short":"chi-1","host":"chi-1.us.uncletopia.com","port":27015,"enabled":true,"region":"us-central","cc":"us","latitude":41.881832,"longitude":-87.62318,"reserved":0,"last_update":"0001-01-01T00:00:00Z","name_a2s":"Uncletopia | Chicago | 1 | All Maps","protocol":17,"map":"koth_nucleus","folder":"tf","game":"Team Fortress","app_id":440,"player_count":22,"max_players":24,"Bots":0,"server_type":"Dedicated","server_os":"Linux","password":true,"vac":true,"version":"7757534","steam_id":85568392924469984,"keywords":["cp","nocrits","nodmgspread","uncletopia"],"game_id":440,"stv_port":27016,"stv_name":"Uncletopia | Chicago | 1 | All Maps | STV","players":[{"user_id":644,"name":"2 a.m. taco bell run","steam_id":76561198073148340,"connected_time":1064000000000,"state":"active","ping":47},{"user_id":637,"name":"BingoBingus","steam_id":76561198113401215,"connected_time":1647000000000,"state":"active","ping":69},{"user_id":608,"name":"JazzMuted","steam_id":76561197974184265,"connected_time":4107000000000,"state":"active","ping":62},{"user_id":619,"name":"Octovaitor","steam_id":76561198004658451,"connected_time":3462000000000,"state":"active","ping":59},{"user_id":646,"name":"Soviet Toaster","steam_id":76561198207577240,"connected_time":941000000000,"state":"active","ping":56},{"user_id":638,"name":"^2Moving^1shadoW","steam_id":76561198078674411,"connected_time":1641000000000,"state":"active","ping":76},{"user_id":661,"name":"CashBin","steam_id":76561199382865598,"connected_time":67000000000,"state":"active","ping":65},{"user_id":640,"name":"Puskinti","steam_id":76561198032120688,"connected_time":1531000000000,"state":"active","ping":102},{"user_id":647,"name":"Tomoko2001","steam_id":76561198047117990,"connected_time":939000000000,"state":"active","ping":89},{"user_id":621,"name":"Fantastic","steam_id":76561198079088978,"connected_time":3451000000000,"state":"active","ping":42},{"user_id":630,"name":"zozo","steam_id":76561198031297359,"connected_time":2636000000000,"state":"active","ping":90},{"user_id":642,"name":"‰ªôÂ•≥Â§¥Â≠ê‰∫éË∞¶","steam_id":76561199031075505,"connected_time":1374000000000,"state":"active","ping":169},{"user_id":628,"name":"trans they gender she/her/they/","steam_id":76561198212470305,"connected_time":2801000000000,"state":"active","ping":70},{"user_id":659,"name":"MagicalBoyChan","steam_id":76561198024776873,"connected_time":125000000000,"state":"active","ping":101},{"user_id":650,"name":"Chris Babaganoosh","steam_id":76561197968961838,"connected_time":617000000000,"state":"active","ping":98},{"user_id":648,"name":"01","steam_id":76561198025437192,"connected_time":893000000000,"state":"active","ping":95},{"user_id":636,"name":"Admiral Angry","steam_id":76561198058199206,"connected_time":1714000000000,"state":"active","ping":55},{"user_id":651,"name":"guy","steam_id":76561198150982973,"connected_time":583000000000,"state":"active","ping":65},{"user_id":660,"name":"FakeAcidCake","steam_id":76561198194720225,"connected_time":112000000000,"state":"active","ping":90},{"user_id":656,"name":"noelle","steam_id":76561198842577534,"connected_time":460000000000,"state":"active","ping":109},{"user_id":654,"name":"Danku-chan","steam_id":76561198056345683,"connected_time":514000000000,"state":"active","ping":85},{"user_id":655,"name":"TTV/ArcticFlesh","steam_id":76561198099678868,"connected_time":489000000000,"state":"active","ping":52}]},{"server_id":106,"name":"Uncletopia | Chicago | 2 | All Maps","name_short":"chi-2","host":"chi-1.us.uncletopia.com","port":27025,"enabled":true,"region":"us-central","cc":"us","latitude":41.881832,"longitude":-87.62318,"reserved":0,"last_update":"0001-01-01T00:00:00Z","name_a2s":"Uncletopia | Chicago | 2 | All Maps","protocol":17,"map":"koth_highpass","folder":"tf","game":"Team Fortress","app_id":440,"player_count":0,"max_players":24,"Bots":0,"server_type":"Dedicated","server_os":"Linux","password":true,"vac":true,"version":"7757534","steam_id":85568392924469985,"keywords":["cp","nocrits","nodmgspread","uncletopia"],"game_id":440,"stv_port":27026,"stv_name":"Uncletopia | Chicago | 2 | All Maps | STV","players":null},{"server_id":402,"name":"Uncletopia | Chicago | 3 | All Maps","name_short":"chi-3","host":"chi-1.us.uncletopia.com","port":27035,"enabled":true,"region":"us-central","cc":"us","latitude":41.881832,"longitude":-87.62318,"reserved":0,"last_update":"0001-01-01T00:00:00Z","name_a2s":"Uncletopia | Chicago | 3 | All Maps","protocol":17,"map":"pl_swiftwater_final1","folder":"tf","game":"Team Fortress","app_id":440,"player_count":15,"max_players":24,"Bots":0,"server_type":"Dedicated","server_os":"Linux","password":true,"vac":true,"version":"7757534","steam_id":85568392924515191,"keywords":["nocrits","nodmgspread","payload","uncletopia"],"game_id":440,"stv_port":27036,"stv_name":"Uncletopia | Chicago | 3 | All Maps | STV","players":[{"user_id":577,"name":"doctor large","steam_id":76561199195836752,"connected_time":5146000000000,"state":"active","ping":51},{"user_id":591,"name":"fuckoff","steam_id":76561198078738531,"connected_time":4177000000000,"state":"active","ping":53},{"user_id":633,"name":"roo the observer","steam_id":76561198120684348,"connected_time":37000000000,"state":"spawning","ping":48},{"user_id":627,"name":"Sokky","steam_id":76561198001798544,"connected_time":1131000000000,"state":"active","ping":74},{"user_id":589,"name":"FruicyJuit","steam_id":76561198080704911,"connected_time":4186000000000,"state":"active","ping":55},{"user_id":611,"name":"Fond of Balls","steam_id":76561198137880777,"connected_time":2251000000000,"state":"active","ping":77},{"user_id":570,"name":"Spoilt Pudding","steam_id":76561198001195423,"connected_time":6045000000000,"state":"active","ping":76},{"user_id":632,"name":"Doctor Cringe","steam_id":76561198413125750,"connected_time":131000000000,"state":"active","ping":61},{"user_id":629,"name":"TheLonliestThelonius","steam_id":76561198097657243,"connected_time":874000000000,"state":"active","ping":68},{"user_id":628,"name":"Tomato Soup","steam_id":76561198048625847,"connected_time":944000000000,"state":"active","ping":80},{"user_id":590,"name":"dzcreeper","steam_id":76561198072250723,"connected_time":4181000000000,"state":"active","ping":76},{"user_id":626,"name":"Yesmar","steam_id":76561198236328806,"connected_time":1552000000000,"state":"active","ping":64},{"user_id":630,"name":"owlbortch","steam_id":76561198042849350,"connected_time":737000000000,"state":"active","ping":75},{"user_id":621,"name":"Mayxaroni","steam_id":76561198170642041,"connected_time":1920000000000,"state":"active","ping":91},{"user_id":623,"name":"Windy Writer","steam_id":76561198048217633,"connected_time":1885000000000,"state":"active","ping":46}]},{"server_id":403,"name":"Uncletopia | Chicago | 4 | All Maps","name_short":"chi-4","host":"chi-1.us.uncletopia.com","port":27045,"enabled":true,"region":"us-central","cc":"us","latitude":41.881832,"longitude":-87.62318,"reserved":0,"last_update":"0001-01-01T00:00:00Z","name_a2s":"Uncletopia | Chicago | 4 | All Maps","protocol":17,"map":"koth_cascade","folder":"tf","game":"Team Fortress","app_id":440,"player_count":0,"max_players":24,"Bots":0,"server_type":"Dedicated","server_os":"Linux","password":true,"vac":true,"version":"7757534","steam_id":85568392924515193,"keywords":["cp","nocrits","nodmgspread","uncletopia"],"game_id":440,"stv_port":27046,"stv_name":"Uncletopia | Chicago | 4 | All Maps | STV","players":null},{"server_id":36,"name":"Uncletopia | Chicago | 5 | All Maps","name_short":"chi-5","host":"chi-2.us.uncletopia.com","port":27015,"enabled":true,"region":"us-central","cc":"us","latitude":41.881832,"longitude":-87.62318,"reserved":0,"last_update":"0001-01-01T00:00:00Z","name_a2s":"Uncletopia | Chicago | 5 | All Maps","protocol":17,"map":"cp_dustbowl","folder":"tf","game":"Team Fortress","app_id":440,"player_count":0,"max_players":24,"Bots":0,"server_type":"Dedicated","server_os":"Linux","password":true,"vac":true,"version":"7757534","steam_id":85568392924866362,"keywords":["cp","nocrits","nodmgspread","uncletopia"],"game_id":440,"stv_port":27016,"stv_name":"Uncletopia | Chicago | 5 | All Maps | STV","players":null},{"server_id":37,"name":"Uncletopia | Chicago | 6 | All Maps","name_short":"chi-6","host":"chi-2.us.uncletopia.com","port":27025,"enabled":true,"region":"us-central","cc":"us","latitude":41.881832,"longitude":-87.62318,"reserved":0,"last_update":"0001-01-01T00:00:00Z","name_a2s":"Uncletopia | Chicago | 6 | All Maps","protocol":17,"map":"koth_lakeside_final","folder":"tf","game":"Team Fortress","app_id":440,"player_count":0,"max_players":24,"Bots":0,"server_type":"Dedicated","server_os":"Linux","password":true,"vac":true,"version":"7757534","steam_id":85568392924866363,"keywords":["cp","nocrits","nodmgspread","uncletopia"],"game_id":440,"stv_port":27026,"stv_name":"Uncletopia | Chicago | 6 | All Maps | STV","players":null},{"server_id":38,"name":"Uncletopia | Chicago | 7 | Stopwatch Beta","name_short":"chi-7","host":"chi-2.us.uncletopia.com","port":27035,"enabled":true,"region":"us-central","cc":"us","latitude":41.881832,"longitude":-87.62318,"reserved":0,"last_update":"0001-01-01T00:00:00Z","name_a2s":"Uncletopia | Chicago | 7 | Stopwatch Beta","protocol":17,"map":"koth_lakeside_final","folder":"tf","game":"Team Fortress","app_id":440,"player_count":0,"max_players":24,"Bots":0,"server_type":"Dedicated","server_os":"Linux","password":true,"vac":true,"version":"7757534","steam_id":85568392924866364,"keywords":["cp","nocrits","nodmgspread","uncletopia"],"game_id":440,"stv_port":27036,"stv_name":"Uncletopia | Chicago | 7 | Stopwatch Beta | STV","players":null},{"server_id":39,"name":"Uncletopia | Chicago | 8 | Community","name_short":"chi-8","host":"chi-2.us.uncletopia.com","port":27045,"enabled":true,"region":"us-central","cc":"us","latitude":41.881832,"longitude":-87.62318,"reserved":0,"last_update":"0001-01-01T00:00:00Z","name_a2s":"Uncletopia | Chicago | 8 | Community","protocol":17,"map":"workshop/rd_asteroid_redux_b1.ugc2154902912","folder":"tf","game":"Team Fortress","app_id":440,"player_count":0,"max_players":24,"Bots":0,"server_type":"Dedicated","server_os":"Linux","password":true,"vac":true,"version":"7757534","steam_id":85568392924866365,"keywords":["beta","nocrits","nodmgspread","rd","uncletopia"],"game_id":440,"stv_port":27046,"stv_name":"Uncletopia | Chicago | 8 | Community | STV","players":null},{"server_id":8,"name":"Uncletopia | Dallas | 1 | All Maps","name_short":"dal-1","host":"dal-1.us.uncletopia.com","port":27015,"enabled":true,"region":"us-central","cc":"us","latitude":32.779167,"longitude":-96.80889,"reserved":0,"last_update":"0001-01-01T00:00:00Z","name_a2s":"Uncletopia | Dallas | 1 | All Maps","protocol":17,"map":"koth_viaduct","folder":"tf","game":"Team Fortress","app_id":440,"player_count":24,"max_players":24,"Bots":0,"server_type":"Dedicated","server_os":"Linux","password":true,"vac":true,"version":"7757534","steam_id":85568392924469986,"keywords":["cp","nocrits","nodmgspread","uncletopia"],"game_id":440,"stv_port":27016,"stv_name":"Uncletopia | Dallas | 1 | All Maps | STV","players":[{"user_id":719,"name":"professional respawner","steam_id":76561198000757362,"connected_time":2378000000000,"state":"active","ping":85},{"user_id":661,"name":"Drowse","steam_id":76561198029794548,"connected_time":3781000000000,"state":"active","ping":75},{"user_id":800,"name":"autistic enby","steam_id":76561198440145948,"connected_time":18000000000,"state":"active","ping":72},{"user_id":759,"name":"smugdoug","steam_id":76561198021381678,"connected_time":1556000000000,"state":"active","ping":75},{"user_id":792,"name":"Quietsharp","steam_id":76561198277968438,"connected_time":281000000000,"state":"active","ping":78},{"user_id":785,"name":"An Unhappy Clown","steam_id":76561198175516514,"connected_time":679000000000,"state":"active","ping":47},{"user_id":793,"name":"PinguEnjoyer6","steam_id":76561199186723516,"connected_time":252000000000,"state":"active","ping":75},{"user_id":772,"name":"Antzen","steam_id":76561198041343470,"connected_time":1360000000000,"state":"active","ping":86},{"user_id":790,"name":"Quasi","steam_id":76561198256581731,"connected_time":436000000000,"state":"active","ping":76},{"user_id":712,"name":"Rallen","steam_id":76561198088024663,"connected_time":2566000000000,"state":"active","ping":64},{"user_id":781,"name":"eryn üó∫","steam_id":76561198004433070,"connected_time":1028000000000,"state":"active","ping":47},{"user_id":587,"name":"OddSlaush","steam_id":76561198043898488,"connected_time":6830000000000,"state":"active","ping":74},{"user_id":745,"name":"MrJokester","steam_id":76561198019101367,"connected_time":1963000000000,"state":"active","ping":112},{"user_id":695,"name":"perfect inCell","steam_id":76561198059182316,"connected_time":2959000000000,"state":"active","ping":77},{"user_id":776,"name":"sTAPler","steam_id":76561198394008714,"connected_time":1252000000000,"state":"active","ping":91},{"user_id":668,"name":"Slashes","steam_id":76561197968573499,"connected_time":3622000000000,"state":"active","ping":75},{"user_id":777,"name":"Randy \"the Man\" Johnson","steam_id":76561198039124445,"connected_time":1247000000000,"state":"active","ping":97},{"user_id":787,"name":"the rizzard of oz","steam_id":76561198108196753,"connected_time":563000000000,"state":"active","ping":75},{"user_id":684,"name":"Ojen","steam_id":76561197998414482,"connected_time":3224000000000,"state":"active","ping":95},{"user_id":760,"name":"Voraxic","steam_id":76561198148266239,"connected_time":1552000000000,"state":"active","ping":74},{"user_id":766,"name":"HellaCopter","steam_id":76561198062313698,"connected_time":1530000000000,"state":"active","ping":105},{"user_id":761,"name":"Mauricio Hoffman","steam_id":76561198055822497,"connected_time":1550000000000,"state":"active","ping":139},{"user_id":750,"name":"the lazy gamer","steam_id":76561199070127039,"connected_time":1855000000000,"state":"active","ping":125},{"user_id":789,"name":"James Baxter","steam_id":76561197985262246,"connected_time":500000000000,"state":"active","ping":74}]},{"server_id":108,"name":"Uncletopia | Dallas | 2 | All Maps","name_short":"dal-2","host":"dal-1.us.uncletopia.com","port":27025,"enabled":true,"region":"us-central","cc":"us","latitude":32.779167,"longitude":-96.80889,"reserved":0,"last_update":"0001-01-01T00:00:00Z","name_a2s":"Uncletopia | Dallas | 2 | All Maps","protocol":17,"map":"koth_highpass","folder":"tf","game":"Team Fortress","app_id":440,"player_count":7,"max_players":24,"Bots":0,"server_type":"Dedicated","server_os":"Linux","password":true,"vac":true,"version":"7757534","steam_id":85568392924469988,"keywords":["cp","nocrits","nodmgspread","uncletopia"],"game_id":440,"stv_port":27026,"stv_name":"Uncletopia | Dallas | 2 | All Maps | STV","players":[{"user_id":383,"name":"Void","steam_id":76561199020182550,"connected_time":892000000000,"state":"active","ping":69},{"user_id":385,"name":"sheytain01","steam_id":76561198120738825,"connected_time":139000000000,"state":"active","ping":212},{"user_id":376,"name":"dapper","steam_id":76561198088132948,"connected_time":1410000000000,"state":"active","ping":31},{"user_id":377,"name":"Ssilkyy","steam_id":76561198974587801,"connected_time":1405000000000,"state":"active","ping":31},{"user_id":378,"name":"Termin8r41","steam_id":76561198196958106,"connected_time":1393000000000,"state":"active","ping":42},{"user_id":382,"name":"TheNumberYouveDialed","steam_id":76561198981124068,"connected_time":1077000000000,"state":"active","ping":67},{"user_id":380,"name":"Blutregen","steam_id":76561198865464576,"connected_time":1242000000000,"state":"active","ping":60}]},{"server_id":5,"name":"Uncletopia | Frankfurt | 1 | All Maps","name_short":"frk-1","host":"frk-1.de.uncletopia.com","port":27015,"enabled":true,"region":"eu","cc":"de","latitude":50.110924,"longitude":8.682127,"reserved":0,"last_update":"0001-01-01T00:00:00Z","name_a2s":"Uncletopia | Frankfurt | 1 | All Maps","protocol":17,"map":"koth_viaduct","folder":"tf","game":"Team Fortress","app_id":440,"player_count":0,"max_players":24,"Bots":0,"server_type":"Dedicated","server_os":"Linux","password":true,"vac":true,"version":"7757534","steam_id":85568392924469989,"keywords":["cp","nocrits","nodmgspread","uncletopia"],"game_id":440,"stv_port":27016,"stv_name":"Uncletopia | Frankfurt | 1 | All Maps | STV","players":null},{"server_id":110,"name":"Uncletopia | Frankfurt | 2 | All Maps","name_short":"frk-2","host":"frk-1.de.uncletopia.com","port":27025,"enabled":true,"region":"eu","cc":"de","latitude":50.110924,"longitude":8.682127,"reserved":0,"last_update":"0001-01-01T00:00:00Z","name_a2s":"Uncletopia | Frankfurt | 2 | All Maps","protocol":17,"map":"cp_altitude","folder":"tf","game":"Team Fortress","app_id":440,"player_count":0,"max_players":24,"Bots":0,"server_type":"Dedicated","server_os":"Linux","password":true,"vac":true,"version":"7757534","steam_id":85568392924469990,"keywords":["cp","nocrits","nodmgspread","uncletopia"],"game_id":440,"stv_port":27026,"stv_name":"Uncletopia | Frankfurt | 2 | All Maps | STV","players":null},{"server_id":308,"name":"Uncletopia | Frankfurt | 3 | All Maps","name_short":"frk-3","host":"frk-1.de.uncletopia.com","port":27035,"enabled":true,"region":"eu","cc":"de","latitude":50.110924,"longitude":8.682127,"reserved":0,"last_update":"0001-01-01T00:00:00Z","name_a2s":"Uncletopia | Frankfurt | 3 | All Maps","protocol":17,"map":"pl_borneo","folder":"tf","game":"Team Fortress","app_id":440,"player_count":0,"max_players":24,"Bots":0,"server_type":"Dedicated","server_os":"Linux","password":true,"vac":true,"version":"7757534","steam_id":85568392924504274,"keywords":["nocrits","nodmgspread","payload","uncletopia"],"game_id":440,"stv_port":27036,"stv_name":"Uncletopia | Frankfurt | 3 | All Maps | STV","players":null},{"server_id":309,"name":"Uncletopia | Frankfurt | 4 | All Maps","name_short":"frk-4","host":"frk-1.de.uncletopia.com","port":27045,"enabled":true,"region":"eu","cc":"de","latitude":50.110924,"longitude":8.682127,"reserved":0,"last_update":"0001-01-01T00:00:00Z","name_a2s":"Uncletopia | Frankfurt | 4 | All Maps","protocol":17,"map":"pl_pier","folder":"tf","game":"Team Fortress","app_id":440,"player_count":0,"max_players":24,"Bots":0,"server_type":"Dedicated","server_os":"Linux","password":true,"vac":true,"version":"7757534","steam_id":85568392924504275,"keywords":["nocrits","nodmgspread","payload","uncletopia"],"game_id":440,"stv_port":27046,"stv_name":"Uncletopia | Frankfurt | 4 | All Maps | STV","players":null},{"server_id":310,"name":"Uncletopia | Frankfurt | 5 | All Maps","name_short":"frk-5","host":"frk-1.de.uncletopia.com","port":27055,"enabled":true,"region":"eu","cc":"de","latitude":50.110924,"longitude":8.682127,"reserved":0,"last_update":"0001-01-01T00:00:00Z","name_a2s":"Uncletopia | Frankfurt | 5 | All Maps","protocol":17,"map":"cp_altitude","folder":"tf","game":"Team Fortress","app_id":440,"player_count":0,"max_players":24,"Bots":0,"server_type":"Dedicated","server_os":"Linux","password":true,"vac":true,"version":"7757534","steam_id":85568392924504277,"keywords":["cp","nocrits","nodmgspread","uncletopia"],"game_id":440,"stv_port":27056,"stv_name":"Uncletopia | Frankfurt | 5 | All Maps | STV","players":null},{"server_id":311,"name":"Uncletopia | Frankfurt | 6 | All Maps","name_short":"frk-6","host":"frk-1.de.uncletopia.com","port":27065,"enabled":true,"region":"eu","cc":"de","latitude":50.110924,"longitude":8.682127,"reserved":0,"last_update":"0001-01-01T00:00:00Z","name_a2s":"Uncletopia | Frankfurt | 6 | All Maps","protocol":17,"map":"pl_barnblitz","folder":"tf","game":"Team Fortress","app_id":440,"player_count":0,"max_players":24,"Bots":0,"server_type":"Dedicated","server_os":"Linux","password":true,"vac":true,"version":"7757534","steam_id":85568392924504278,"keywords":["nocrits","nodmgspread","payload","uncletopia"],"game_id":440,"stv_port":27066,"stv_name":"Uncletopia | Frankfurt | 6 | All Maps | STV","players":null},{"server_id":23,"name":"Uncletopia | Frankfurt | 7 | Stopwatch Beta","name_short":"frk-7","host":"frk-1.de.uncletopia.com","port":27075,"enabled":true,"region":"eu","cc":"de","latitude":50.110924,"longitude":8.682127,"reserved":0,"last_update":"0001-01-01T00:00:00Z","name_a2s":"Uncletopia | Frankfurt | 7 | Stopwatch Beta","protocol":17,"map":"pl_borneo","folder":"tf","game":"Team Fortress","app_id":440,"player_count":0,"max_players":24,"Bots":0,"server_type":"Dedicated","server_os":"Linux","password":true,"vac":true,"version":"7757534","steam_id":85568392924742827,"keywords":["nocrits","nodmgspread","payload","uncletopia"],"game_id":440,"stv_port":27076,"stv_name":"Uncletopia | Frankfurt | 7 | Stopwatch Beta | STV","players":null},{"server_id":24,"name":"Uncletopia | Frankfurt | 8 | Community","name_short":"frk-8","host":"frk-1.de.uncletopia.com","port":27085,"enabled":true,"region":"eu","cc":"de","latitude":50.110924,"longitude":8.682127,"reserved":0,"last_update":"0001-01-01T00:00:00Z","name_a2s":"Uncletopia | Frankfurt | 8 | Community","protocol":17,"map":"workshop/cp_villa_b19.ugc2113052569","folder":"tf","game":"Team Fortress","app_id":440,"player_count":0,"max_players":24,"Bots":0,"server_type":"Dedicated","server_os":"Linux","password":true,"vac":true,"version":"7757534","steam_id":85568392924742828,"keywords":["cp","nocrits","nodmgspread","uncletopia"],"game_id":440,"stv_port":27086,"stv_name":"Uncletopia | Frankfurt | 8 | Community | STV","players":null},{"server_id":202,"name":"Uncletopia | Hong Kong | 1 | All Maps","name_short":"hgk-1","host":"hgk-1.hk.uncletopia.com","port":27015,"enabled":true,"region":"asia","cc":"hk","latitude":22.302711,"longitude":114.177216,"reserved":0,"last_update":"0001-01-01T00:00:00Z","name_a2s":"Uncletopia | Hong Kong | 1 | All Maps","protocol":17,"map":"koth_cascade","folder":"tf","game":"Team Fortress","app_id":440,"player_count":2,"max_players":24,"Bots":0,"server_type":"Dedicated","server_os":"Linux","password":true,"vac":true,"version":"7757534","steam_id":85568392924494504,"keywords":["cp","nocrits","nodmgspread","uncletopia"],"game_id":440,"stv_port":27016,"stv_name":"Uncletopia | Hong Kong | 1 | All Maps | STV","players":[{"user_id":19,"name":"Compressed","steam_id":76561199230196794,"connected_time":189000000000,"state":"active","ping":111},{"user_id":20,"name":"kuro","steam_id":76561199218582098,"connected_time":167000000000,"state":"active","ping":113}]},{"server_id":1,"name":"Uncletopia | Los Angeles | 1 | All Maps","name_short":"lax-1","host":"lax-1.us.uncletopia.com","port":27015,"enabled":true,"region":"us-west","cc":"us","latitude":33.94279,"longitude":-118.41004,"reserved":0,"last_update":"0001-01-01T00:00:00Z","name_a2s":"Uncletopia | Los Angeles | 1 | All Maps","protocol":17,"map":"pl_upward","folder":"tf","game":"Team Fortress","app_id":440,"player_count":25,"max_players":24,"Bots":0,"server_type":"Dedicated","server_os":"Linux","password":true,"vac":true,"version":"7757534","steam_id":85568392924469991,"keywords":["nocrits","nodmgspread","payload","uncletopia"],"game_id":440,"stv_port":27016,"stv_name":"Uncletopia | Los Angeles | 1 | All Maps | STV","players":[{"user_id":275,"name":"VintajeCheese","steam_id":76561198153688062,"connected_time":2151000000000,"state":"active","ping":77},{"user_id":271,"name":"gravy","steam_id":76561198089644778,"connected_time":2964000000000,"state":"active","ping":54},{"user_id":284,"name":"HammerHead","steam_id":76561197975668646,"connected_time":1714000000000,"state":"active","ping":67},{"user_id":295,"name":"the cock","steam_id":76561198065153674,"connected_time":538000000000,"state":"active","ping":59},{"user_id":285,"name":"JRDN","steam_id":76561198403965385,"connected_time":1632000000000,"state":"active","ping":61},{"user_id":291,"name":"Justin","steam_id":76561198110865423,"connected_time":897000000000,"state":"active","ping":36},{"user_id":258,"name":"Kneffy","steam_id":76561199076821117,"connected_time":4039000000000,"state":"active","ping":125},{"user_id":302,"name":"FRUITGOBLIN","steam_id":76561198051750641,"connected_time":19000000000,"state":"active","ping":59},{"user_id":202,"name":"toes","steam_id":76561198221151676,"connected_time":8896000000000,"state":"active","ping":97},{"user_id":292,"name":"frick","steam_id":76561198092666182,"connected_time":854000000000,"state":"active","ping":58},{"user_id":268,"name":"Y0b","steam_id":76561198000767656,"connected_time":3494000000000,"state":"active","ping":62},{"user_id":289,"name":"achoo","steam_id":76561198009091066,"connected_time":1407000000000,"state":"active","ping":75},{"user_id":293,"name":"chussy","steam_id":76561198150609972,"connected_time":598000000000,"state":"active","ping":68},{"user_id":298,"name":"Odd Life","steam_id":76561198244979998,"connected_time":360000000000,"state":"active","ping":45},{"user_id":296,"name":"The Toucher","steam_id":76561198263739357,"connected_time":490000000000,"state":"active","ping":56},{"user_id":261,"name":"JudeTheDude","steam_id":76561198834387981,"connected_time":3810000000000,"state":"active","ping":33},{"user_id":297,"name":"Drakeo","steam_id":76561198068214572,"connected_time":431000000000,"state":"active","ping":52},{"user_id":299,"name":"dP | I'm in a Wookie Suit","steam_id":76561198083307644,"connected_time":348000000000,"state":"active","ping":83},{"user_id":269,"name":"P.I.Staker","steam_id":76561198087096559,"connected_time":3215000000000,"state":"active","ping":74},{"user_id":274,"name":"xMystic_Fire","steam_id":76561198189961543,"connected_time":2283000000000,"state":"active","ping":82},{"user_id":281,"name":"Rommel2007","steam_id":76561198041744631,"connected_time":2049000000000,"state":"active","ping":56},{"user_id":286,"name":"Walnut","steam_id":76561198024954863,"connected_time":1628000000000,"state":"active","ping":104},{"user_id":301,"name":"lol","steam_id":76561198026491738,"connected_time":280000000000,"state":"active","ping":57},{"user_id":303,"name":"Pah-Wraith Gul Dukat","steam_id":76561198033918106,"connected_time":3000000000,"state":"spawning","ping":45},{"user_id":290,"name":"Rynx","steam_id":76561198369477018,"connected_time":1285000000000,"state":"active","ping":90}]},{"server_id":112,"name":"Uncletopia | Los Angeles | 2 | All Maps","name_short":"lax-2","host":"lax-1.us.uncletopia.com","port":27025,"enabled":true,"region":"us-west","cc":"us","latitude":33.94279,"longitude":-118.41004,"reserved":0,"last_update":"0001-01-01T00:00:00Z","name_a2s":"Uncletopia | Los Angeles | 2 | All Maps","protocol":17,"map":"koth_viaduct","folder":"tf","game":"Team Fortress","app_id":440,"player_count":0,"max_players":24,"Bots":0,"server_type":"Dedicated","server_os":"Linux","password":true,"vac":true,"version":"7757534","steam_id":85568392924469992,"keywords":["cp","nocrits","nodmgspread","uncletopia"],"game_id":440,"stv_port":27026,"stv_name":"Uncletopia | Los Angeles | 2 | All Maps | STV","players":null},{"server_id":324,"name":"Uncletopia | Los Angeles | 3 | All Maps","name_short":"lax-3","host":"lax-1.us.uncletopia.com","port":27035,"enabled":true,"region":"us-west","cc":"us","latitude":33.94279,"longitude":-118.41004,"reserved":0,"last_update":"0001-01-01T00:00:00Z","name_a2s":"Uncletopia | Los Angeles | 3 | All Maps","protocol":17,"map":"pl_swiftwater_final1","folder":"tf","game":"Team Fortress","app_id":440,"player_count":0,"max_players":24,"Bots":0,"server_type":"Dedicated","server_os":"Linux","password":true,"vac":true,"version":"7757534","steam_id":85568392924510198,"keywords":["nocrits","nodmgspread","payload","uncletopia"],"game_id":440,"stv_port":27036,"stv_name":"Uncletopia | Los Angeles | 3 | All Maps | STV","players":null},{"server_id":25,"name":"Uncletopia | Los Angeles | 4 | Stopwatch Beta","name_short":"lax-4","host":"lax-1.us.uncletopia.com","port":27045,"enabled":true,"region":"us-west","cc":"us","latitude":33.94279,"longitude":-118.41004,"reserved":0,"last_update":"0001-01-01T00:00:00Z","name_a2s":"Uncletopia | Los Angeles | 4 | Stopwatch Beta","protocol":17,"map":"workshop/koth_clearcut_b15.ugc2107050255","folder":"tf","game":"Team Fortress","app_id":440,"player_count":0,"max_players":24,"Bots":0,"server_type":"Dedicated","server_os":"Linux","password":true,"vac":true,"version":"7757534","steam_id":85568392924510199,"keywords":["cp","nocrits","nodmgspread","uncletopia"],"game_id":440,"stv_port":27046,"stv_name":"Uncletopia | Los Angeles | 4 | Stopwatch Beta | STV","players":null},{"server_id":11,"name":"Uncletopia | London | 1 | All Maps","name_short":"lon-1","host":"lon-1.uk.uncletopia.com","port":27015,"enabled":true,"region":"eu","cc":"gb","latitude":51.509865,"longitude":-0.118092,"reserved":0,"last_update":"0001-01-01T00:00:00Z","name_a2s":"Uncletopia | London | 1 | All Maps","protocol":17,"map":"cp_altitude","folder":"tf","game":"Team Fortress","app_id":440,"player_count":0,"max_players":24,"Bots":0,"server_type":"Dedicated","server_os":"Linux","password":true,"vac":true,"version":"7757534","steam_id":85568392924367362,"keywords":["cp","nocrits","nodmgspread","uncletopia"],"game_id":440,"stv_port":27016,"stv_name":"Uncletopia | London | 1 | All Maps | STV","players":null},{"server_id":114,"name":"Uncletopia | London | 2 | All Maps","name_short":"lon-2","host":"lon-1.uk.uncletopia.com","port":27025,"enabled":true,"region":"eu","cc":"gb","latitude":51.509865,"longitude":-0.118092,"reserved":0,"last_update":"0001-01-01T00:00:00Z","name_a2s":"Uncletopia | London | 2 | All Maps","protocol":17,"map":"pl_pier","folder":"tf","game":"Team Fortress","app_id":440,"player_count":0,"max_players":24,"Bots":0,"server_type":"Dedicated","server_os":"Linux","password":true,"vac":true,"version":"7757534","steam_id":85568392924470941,"keywords":["nocrits","nodmgspread","payload","uncletopia"],"game_id":440,"stv_port":27026,"stv_name":"Uncletopia | London | 2 | All Maps | STV","players":null},{"server_id":320,"name":"Uncletopia | London | 3 | All Maps","name_short":"lon-3","host":"lon-1.uk.uncletopia.com","port":27035,"enabled":true,"region":"eu","cc":"gb","latitude":51.509865,"longitude":-0.118092,"reserved":0,"last_update":"0001-01-01T00:00:00Z","name_a2s":"Uncletopia | London | 3 | All Maps","protocol":17,"map":"pl_swiftwater_final1","folder":"tf","game":"Team Fortress","app_id":440,"player_count":0,"max_players":24,"Bots":0,"server_type":"Dedicated","server_os":"Linux","password":true,"vac":true,"version":"7757534","steam_id":85568392924510192,"keywords":["nocrits","nodmgspread","payload","uncletopia"],"game_id":440,"stv_port":27036,"stv_name":"Uncletopia | London | 3 | All Maps | STV","players":null},{"server_id":321,"name":"Uncletopia | London | 4 | All Maps","name_short":"lon-4","host":"lon-1.uk.uncletopia.com","port":27045,"enabled":true,"region":"eu","cc":"gb","latitude":51.509865,"longitude":-0.118092,"reserved":0,"last_update":"0001-01-01T00:00:00Z","name_a2s":"Uncletopia | London | 4 | All Maps","protocol":17,"map":"pl_barnblitz","folder":"tf","game":"Team Fortress","app_id":440,"player_count":0,"max_players":24,"Bots":0,"server_type":"Dedicated","server_os":"Linux","password":true,"vac":true,"version":"7757534","steam_id":85568392924510193,"keywords":["nocrits","nodmgspread","payload","uncletopia"],"game_id":440,"stv_port":27046,"stv_name":"Uncletopia | London | 4 | All Maps | STV","players":null},{"server_id":21,"name":"Uncletopia | London | 5 | All Maps","name_short":"lon-5","host":"lon-1.uk.uncletopia.com","port":27055,"enabled":true,"region":"eu","cc":"gb","latitude":51.509865,"longitude":-0.118092,"reserved":0,"last_update":"0001-01-01T00:00:00Z","name_a2s":"Uncletopia | London | 5 | All Maps","protocol":17,"map":"koth_suijin","folder":"tf","game":"Team Fortress","app_id":440,"player_count":22,"max_players":24,"Bots":0,"server_type":"Dedicated","server_os":"Linux","password":true,"vac":true,"version":"7757534","steam_id":85568392924742829,"keywords":["cp","nocrits","nodmgspread","uncletopia"],"game_id":440,"stv_port":27056,"stv_name":"Uncletopia | London | 5 | All Maps | STV","players":[{"user_id":66,"name":"„Éå„Éô„Éº„É´ (Nubert)","steam_id":76561199121806567,"connected_time":350000000000,"state":"active","ping":52},{"user_id":47,"name":"Mayor Wank from Wanker Town","steam_id":76561197998253588,"connected_time":1945000000000,"state":"active","ping":58},{"user_id":20,"name":"Enigmus","steam_id":76561197994063627,"connected_time":3902000000000,"state":"active","ping":89},{"user_id":48,"name":"‚ù§ Sparx ‚ù§","steam_id":76561198095009261,"connected_time":1820000000000,"state":"active","ping":74},{"user_id":67,"name":"Tsuki","steam_id":76561198055410037,"connected_time":302000000000,"state":"active","ping":59},{"user_id":51,"name":"‚ô¶Silvia‚ô¶","steam_id":76561198373039444,"connected_time":1538000000000,"state":"active","ping":109},{"user_id":63,"name":"Â±Åalert ÊÄñ„ÅÑ","steam_id":76561198164806677,"connected_time":819000000000,"state":"active","ping":90},{"user_id":68,"name":"Linux Mint","steam_id":76561199009412563,"connected_time":276000000000,"state":"active","ping":106},{"user_id":14,"name":"Noodle","steam_id":76561198306486695,"connected_time":4768000000000,"state":"active","ping":71},{"user_id":64,"name":"thebananabomb00","steam_id":76561198296409283,"connected_time":709000000000,"state":"active","ping":89},{"user_id":45,"name":"Edla","steam_id":76561198062815315,"connected_time":2251000000000,"state":"active","ping":109},{"user_id":61,"name":"Guru","steam_id":76561198093853069,"connected_time":1081000000000,"state":"active","ping":66},{"user_id":53,"name":"trans werewolf","steam_id":76561198107235989,"connected_time":1473000000000,"state":"active","ping":72},{"user_id":60,"name":"leonardini.w #SaveTF2","steam_id":76561199097963071,"connected_time":1111000000000,"state":"active","ping":92},{"user_id":54,"name":"Flame","steam_id":76561198286672104,"connected_time":1389000000000,"state":"active","ping":115},{"user_id":65,"name":"nop 21","steam_id":76561198331641220,"connected_time":517000000000,"state":"active","ping":54},{"user_id":25,"name":"mewdic?","steam_id":76561199081625951,"connected_time":3754000000000,"state":"active","ping":72},{"user_id":62,"name":"Corpus Christi","steam_id":76561198417999443,"connected_time":1069000000000,"state":"active","ping":102},{"user_id":69,"name":"deathstar0611","steam_id":76561198120476410,"connected_time":52000000000,"state":"active","ping":201},{"user_id":70,"name":"wepon | freemail.hu","steam_id":76561198097789669,"connected_time":35000000000,"state":"spawning","ping":83},{"user_id":71,"name":"markie","steam_id":76561198170206590,"connected_time":7000000000,"state":"spawning","ping":149},{"user_id":59,"name":"Sweetcheesus","steam_id":76561198022299033,"connected_time":1181000000000,"state":"active","ping":55}]},{"server_id":22,"name":"Uncletopia | London | 6 | All Maps","name_short":"lon-6","host":"lon-1.uk.uncletopia.com","port":27065,"enabled":true,"region":"eu","cc":"gb","latitude":51.509865,"longitude":-0.118092,"reserved":0,"last_update":"0001-01-01T00:00:00Z","name_a2s":"Uncletopia | London | 6 | All Maps","protocol":17,"map":"koth_highpass","folder":"tf","game":"Team Fortress","app_id":440,"player_count":0,"max_players":24,"Bots":0,"server_type":"Dedicated","server_os":"Linux","password":true,"vac":true,"version":"7757534","steam_id":85568392924742830,"keywords":["cp","nocrits","nodmgspread","uncletopia"],"game_id":440,"stv_port":27066,"stv_name":"Uncletopia | London | 6 | All Maps | STV","players":null},{"server_id":40,"name":"Uncletopia | London | 7 | No Payload","name_short":"lon-7","host":"lon-1.uk.uncletopia.com","port":27075,"enabled":true,"region":"eu","cc":"gb","latitude":51.509865,"longitude":-0.118092,"reserved":0,"last_update":"0001-01-01T00:00:00Z","name_a2s":"Uncletopia | London | 7 | No Payload","protocol":17,"map":"koth_highpass","folder":"tf","game":"Team Fortress","app_id":440,"player_count":0,"max_players":24,"Bots":0,"server_type":"Dedicated","server_os":"Linux","password":true,"vac":true,"version":"7757534","steam_id":85568392924964314,"keywords":["cp","nocrits","nodmgspread","uncletopia"],"game_id":440,"stv_port":27076,"stv_name":"Uncletopia | London | 7 | No Payload | STV","players":null},{"server_id":41,"name":"Uncletopia | London | 8 | Community","name_short":"lon-8","host":"lon-1.uk.uncletopia.com","port":27085,"enabled":true,"region":"eu","cc":"gb","latitude":51.509865,"longitude":-0.118092,"reserved":0,"last_update":"0001-01-01T00:00:00Z","name_a2s":"Uncletopia | London | 8 | Community","protocol":17,"map":"cp_altitude","folder":"tf","game":"Team Fortress","app_id":440,"player_count":0,"max_players":24,"Bots":0,"server_type":"Dedicated","server_os":"Linux","password":true,"vac":true,"version":"7757534","steam_id":85568392924964315,"keywords":["cp","nocrits","nodmgspread","uncletopia"],"game_id":440,"stv_port":27086,"stv_name":"Uncletopia | London | 8 | Community | STV","players":null},{"server_id":300,"name":"Uncletopia | Montr√©al | 1 | All Maps","name_short":"mtl-1","host":"mtl-1.ca.uncletopia.com","port":27015,"enabled":true,"region":"us-east","cc":"ca","latitude":45.50889,"longitude":-73.56167,"reserved":0,"last_update":"0001-01-01T00:00:00Z","name_a2s":"Uncletopia | Montr√©al | 1 | All Maps","protocol":17,"map":"koth_highpass","folder":"tf","game":"Team Fortress","app_id":440,"player_count":0,"max_players":24,"Bots":0,"server_type":"Dedicated","server_os":"Linux","password":true,"vac":true,"version":"7757534","steam_id":85568392924500087,"keywords":["cp","nocrits","nodmgspread","uncletopia"],"game_id":440,"stv_port":27016,"stv_name":"Uncletopia | Montr√©al | 1 | All Maps | STV","players":null},{"server_id":301,"name":"Uncletopia | Montr√©al | 2 | All Maps","name_short":"mtl-2","host":"mtl-1.ca.uncletopia.com","port":27025,"enabled":true,"region":"us-east","cc":"ca","latitude":45.50889,"longitude":-73.56167,"reserved":0,"last_update":"0001-01-01T00:00:00Z","name_a2s":"Uncletopia | Montr√©al | 2 | All Maps","protocol":17,"map":"cp_mountainlab","folder":"tf","game":"Team Fortress","app_id":440,"player_count":0,"max_players":24,"Bots":0,"server_type":"Dedicated","server_os":"Linux","password":true,"vac":true,"version":"7757534","steam_id":85568392924500088,"keywords":["cp","nocrits","nodmgspread","uncletopia"],"game_id":440,"stv_port":27026,"stv_name":"Uncletopia | Montr√©al | 2 | All Maps | STV","players":null},{"server_id":302,"name":"Uncletopia | Montr√©al | 3 | All Maps","name_short":"mtl-3","host":"mtl-1.ca.uncletopia.com","port":27035,"enabled":true,"region":"us-east","cc":"ca","latitude":45.50889,"longitude":-73.56167,"reserved":0,"last_update":"0001-01-01T00:00:00Z","name_a2s":"Uncletopia | Montr√©al | 3 | All Maps","protocol":17,"map":"pl_badwater","folder":"tf","game":"Team Fortress","app_id":440,"player_count":0,"max_players":24,"Bots":0,"server_type":"Dedicated","server_os":"Linux","password":true,"vac":true,"version":"7757534","steam_id":85568392924500089,"keywords":["nocrits","nodmgspread","payload","uncletopia"],"game_id":440,"stv_port":27036,"stv_name":"Uncletopia | Montr√©al | 3 | All Maps | STV","players":null},{"server_id":303,"name":"Uncletopia | Montr√©al | 4 | No Payload","name_short":"mtl-4","host":"mtl-1.ca.uncletopia.com","port":27045,"enabled":true,"region":"us-east","cc":"ca","latitude":45.50889,"longitude":-73.56167,"reserved":0,"last_update":"0001-01-01T00:00:00Z","name_a2s":"Uncletopia | Montr√©al | 4 | No Payload","protocol":17,"map":"koth_highpass","folder":"tf","game":"Team Fortress","app_id":440,"player_count":0,"max_players":24,"Bots":0,"server_type":"Dedicated","server_os":"Linux","password":true,"vac":true,"version":"7757534","steam_id":85568392924500090,"keywords":["cp","nocrits","nodmgspread","uncletopia"],"game_id":440,"stv_port":27046,"stv_name":"Uncletopia | Montr√©al | 4 | No Payload | STV","players":null},{"server_id":13,"name":"Uncletopia | New York City | 1 | All Maps","name_short":"nyc-1","host":"nyc-1.us.uncletopia.com","port":27015,"enabled":true,"region":"us-east","cc":"us","latitude":40.73061,"longitude":-73.93524,"reserved":0,"last_update":"0001-01-01T00:00:00Z","name_a2s":"Uncletopia | New York City | 1 | All Maps","protocol":17,"map":"koth_viaduct","folder":"tf","game":"Team Fortress","app_id":440,"player_count":0,"max_players":24,"Bots":0,"server_type":"Dedicated","server_os":"Linux","password":true,"vac":true,"version":"7757534","steam_id":85568392924469993,"keywords":["cp","nocrits","nodmgspread","uncletopia"],"game_id":440,"stv_port":27016,"stv_name":"Uncletopia | New York City | 1 | All Maps | STV","players":null},{"server_id":14,"name":"Uncletopia | New York City | 2 | All Maps","name_short":"nyc-2","host":"nyc-1.us.uncletopia.com","port":27025,"enabled":true,"region":"us-east","cc":"us","latitude":40.73061,"longitude":-73.93524,"reserved":0,"last_update":"0001-01-01T00:00:00Z","name_a2s":"Uncletopia | New York City | 2 | All Maps","protocol":17,"map":"pl_barnblitz","folder":"tf","game":"Team Fortress","app_id":440,"player_count":0,"max_players":24,"Bots":0,"server_type":"Dedicated","server_os":"Linux","password":true,"vac":true,"version":"7757534","steam_id":85568392924469994,"keywords":["nocrits","nodmgspread","payload","uncletopia"],"game_id":440,"stv_port":27026,"stv_name":"Uncletopia | New York City | 2 | All Maps | STV","players":null},{"server_id":15,"name":"Uncletopia | New York City | 3 | Stopwatch Beta","name_short":"nyc-3","host":"nyc-1.us.uncletopia.com","port":27035,"enabled":true,"region":"us-east","cc":"us","latitude":40.73061,"longitude":-73.93524,"reserved":0,"last_update":"0001-01-01T00:00:00Z","name_a2s":"Uncletopia | New York City | 3 | Stopwatch Beta","protocol":17,"map":"koth_lakeside_final","folder":"tf","game":"Team Fortress","app_id":440,"player_count":0,"max_players":24,"Bots":0,"server_type":"Dedicated","server_os":"Linux","password":true,"vac":true,"version":"7757534","steam_id":85568392924742820,"keywords":["cp","nocrits","nodmgspread","uncletopia"],"game_id":440,"stv_port":27036,"stv_name":"Uncletopia | New York City | 3 | Stopwatch Beta | STV","players":null},{"server_id":16,"name":"Uncletopia | New York City | 4 | Community","name_short":"nyc-4","host":"nyc-1.us.uncletopia.com","port":27045,"enabled":true,"region":"us-east","cc":"us","latitude":40.73061,"longitude":-73.93524,"reserved":0,"last_update":"0001-01-01T00:00:00Z","name_a2s":"Uncletopia | New York City | 4 | Community","protocol":17,"map":"workshop/cp_propaganda_b18.ugc1603743849","folder":"tf","game":"Team Fortress","app_id":440,"player_count":0,"max_players":24,"Bots":0,"server_type":"Dedicated","server_os":"Linux","password":true,"vac":true,"version":"7757534","steam_id":85568392924742821,"keywords":["cp","nocrits","nodmgspread","uncletopia"],"game_id":440,"stv_port":27046,"stv_name":"Uncletopia | New York City | 4 | Community | STV","players":null},{"server_id":142,"name":"Uncletopia | S√£o Paulo | 1 | All Maps","name_short":"sao-1","host":"sao-1.br.uncletopia.com","port":27015,"enabled":true,"region":"sa","cc":"br","latitude":-23.533773,"longitude":-46.62529,"reserved":0,"last_update":"0001-01-01T00:00:00Z","name_a2s":"Uncletopia | S√£o Paulo | 1 | All Maps","protocol":17,"map":"pl_snowycoast","folder":"tf","game":"Team Fortress","app_id":440,"player_count":0,"max_players":24,"Bots":0,"server_type":"Dedicated","server_os":"Linux","password":true,"vac":true,"version":"7757534","steam_id":85568392924469996,"keywords":["nocrits","nodmgspread","payload","uncletopia"],"game_id":440,"stv_port":27016,"stv_name":"Uncletopia | S√£o Paulo | 1 | All Maps | STV","players":null},{"server_id":143,"name":"Uncletopia | S√£o Paulo | 2 | All Maps","name_short":"sao-2","host":"sao-2.br.uncletopia.com","port":27015,"enabled":true,"region":"sa","cc":"br","latitude":-23.533773,"longitude":-46.62529,"reserved":0,"last_update":"0001-01-01T00:00:00Z","name_a2s":"Uncletopia | S√£o Paulo | 2 | All Maps","protocol":17,"map":"koth_viaduct","folder":"tf","game":"Team Fortress","app_id":440,"player_count":2,"max_players":24,"Bots":0,"server_type":"Dedicated","server_os":"Linux","password":true,"vac":true,"version":"7757534","steam_id":85568392924485349,"keywords":["cp","nocrits","nodmgspread","uncletopia"],"game_id":440,"stv_port":27016,"stv_name":"Uncletopia | S√£o Paulo | 2 | All Maps | STV","players":[{"user_id":82,"name":"guarda-chuva","steam_id":76561198078694330,"connected_time":316000000000,"state":"active","ping":245},{"user_id":83,"name":"Tert_14","steam_id":76561198185952289,"connected_time":314000000000,"state":"active","ping":64}]},{"server_id":7,"name":"Uncletopia | Seattle | 1 | All Maps","name_short":"sea-1","host":"sea-1.us.uncletopia.com","port":27015,"enabled":true,"region":"us-west","cc":"us","latitude":47.608013,"longitude":-122.33517,"reserved":0,"last_update":"0001-01-01T00:00:00Z","name_a2s":"Uncletopia | Seattle | 1 | All Maps","protocol":17,"map":"pl_pier","folder":"tf","game":"Team Fortress","app_id":440,"player_count":12,"max_players":24,"Bots":0,"server_type":"Dedicated","server_os":"Linux","password":true,"vac":true,"version":"7757534","steam_id":85568392924469997,"keywords":["nocrits","nodmgspread","payload","uncletopia"],"game_id":440,"stv_port":27016,"stv_name":"Uncletopia | Seattle | 1 | All Maps | STV","players":[{"user_id":687,"name":"Luv","steam_id":76561198143209841,"connected_time":136000000000,"state":"active","ping":58},{"user_id":672,"name":"lil hog","steam_id":76561199230929836,"connected_time":1176000000000,"state":"active","ping":113},{"user_id":635,"name":"Boop Oop A Doop","steam_id":76561198036370174,"connected_time":4044000000000,"state":"active","ping":78},{"user_id":654,"name":"PopcornNinja101","steam_id":76561198330680181,"connected_time":3432000000000,"state":"active","ping":45},{"user_id":671,"name":"pneu","steam_id":76561198109052796,"connected_time":1227000000000,"state":"active","ping":47},{"user_id":679,"name":"The Horselords and Animal Gods","steam_id":76561197975094050,"connected_time":789000000000,"state":"active","ping":82},{"user_id":668,"name":"hotdog every meal","steam_id":76561198392514273,"connected_time":1262000000000,"state":"active","ping":57},{"user_id":674,"name":"BIG HOG","steam_id":76561198079923652,"connected_time":1172000000000,"state":"active","ping":102},{"user_id":675,"name":"Arrythmia","steam_id":76561198093748123,"connected_time":1030000000000,"state":"active","ping":53},{"user_id":677,"name":"ItsDifficultttt","steam_id":76561199402730529,"connected_time":1002000000000,"state":"active","ping":115},{"user_id":680,"name":"rustyorion","steam_id":76561198439186347,"connected_time":696000000000,"state":"active","ping":53},{"user_id":684,"name":"yo, pie in the face","steam_id":76561198285678987,"connected_time":587000000000,"state":"active","ping":73}]},{"server_id":119,"name":"Uncletopia | Seattle | 2 | All Maps","name_short":"sea-2","host":"sea-1.us.uncletopia.com","port":27025,"enabled":true,"region":"us-west","cc":"us","latitude":47.608013,"longitude":-122.33517,"reserved":0,"last_update":"0001-01-01T00:00:00Z","name_a2s":"Uncletopia | Seattle | 2 | All Maps","protocol":17,"map":"pl_swiftwater_final1","folder":"tf","game":"Team Fortress","app_id":440,"player_count":6,"max_players":24,"Bots":0,"server_type":"Dedicated","server_os":"Linux","password":true,"vac":true,"version":"7757534","steam_id":85568392924469998,"keywords":["nocrits","nodmgspread","payload","uncletopia"],"game_id":440,"stv_port":27026,"stv_name":"Uncletopia | Seattle | 2 | All Maps | STV","players":[{"user_id":1029,"name":"Sakisano","steam_id":76561198245814880,"connected_time":1242000000000,"state":"active","ping":73},{"user_id":1035,"name":"Ena","steam_id":76561198066986108,"connected_time":55000000000,"state":"active","ping":42},{"user_id":1030,"name":"Titocheeto","steam_id":76561198994684924,"connected_time":1185000000000,"state":"active","ping":73},{"user_id":1025,"name":"pee","steam_id":76561198171104651,"connected_time":1847000000000,"state":"active","ping":100},{"user_id":1032,"name":"Anxiety","steam_id":76561198365627687,"connected_time":794000000000,"state":"active","ping":72},{"user_id":992,"name":"i am weed","steam_id":76561198419896433,"connected_time":3687000000000,"state":"active","ping":37}]},{"server_id":406,"name":"Uncletopia | Seattle | 3 | Stopwatch Beta","name_short":"sea-3","host":"sea-1.us.uncletopia.com","port":27035,"enabled":true,"region":"us-west","cc":"us","latitude":47.608013,"longitude":-122.33517,"reserved":0,"last_update":"0001-01-01T00:00:00Z","name_a2s":"Uncletopia | Seattle | 3 | Stopwatch Beta","protocol":17,"map":"koth_highpass","folder":"tf","game":"Team Fortress","app_id":440,"player_count":0,"max_players":24,"Bots":0,"server_type":"Dedicated","server_os":"Linux","password":true,"vac":true,"version":"7757534","steam_id":85568392924515217,"keywords":["cp","nocrits","nodmgspread","uncletopia"],"game_id":440,"stv_port":27036,"stv_name":"Uncletopia | Seattle | 3 | Stopwatch Beta | STV","players":null},{"server_id":17,"name":"Uncletopia | San Francisco | 1 | All Maps","name_short":"sfo-1","host":"sfo-1.us.uncletopia.com","port":27015,"enabled":true,"region":"us-west","cc":"us","latitude":37.77397,"longitude":-122.4313,"reserved":0,"last_update":"0001-01-01T00:00:00Z","name_a2s":"Uncletopia | San Francisco | 1 | All Maps","protocol":17,"map":"cp_sunshine","folder":"tf","game":"Team Fortress","app_id":440,"player_count":0,"max_players":24,"Bots":0,"server_type":"Dedicated","server_os":"Linux","password":true,"vac":true,"version":"7757534","steam_id":85568392924469999,"keywords":["cp","nocrits","nodmgspread","uncletopia"],"game_id":440,"stv_port":27016,"stv_name":"Uncletopia | San Francisco | 1 | All Maps | STV","players":null},{"server_id":18,"name":"Uncletopia | San Francisco | 2 | All Maps","name_short":"sfo-2","host":"sfo-1.us.uncletopia.com","port":27025,"enabled":true,"region":"us-west","cc":"us","latitude":37.77397,"longitude":-122.4313,"reserved":0,"last_update":"0001-01-01T00:00:00Z","name_a2s":"Uncletopia | San Francisco | 2 | All Maps","protocol":17,"map":"koth_viaduct","folder":"tf","game":"Team Fortress","app_id":440,"player_count":0,"max_players":24,"Bots":0,"server_type":"Dedicated","server_os":"Linux","password":true,"vac":true,"version":"7757534","steam_id":85568392924470000,"keywords":["cp","nocrits","nodmgspread","uncletopia"],"game_id":440,"stv_port":27026,"stv_name":"Uncletopia | San Francisco | 2 | All Maps | STV","players":null},{"server_id":19,"name":"Uncletopia | San Francisco | 3 | Stopwatch Beta","name_short":"sfo-3","host":"sfo-1.us.uncletopia.com","port":27035,"enabled":true,"region":"us-west","cc":"us","latitude":37.77397,"longitude":-122.4313,"reserved":0,"last_update":"0001-01-01T00:00:00Z","name_a2s":"Uncletopia | San Francisco | 3 | Stopwatch Beta","protocol":17,"map":"koth_lakeside_final","folder":"tf","game":"Team Fortress","app_id":440,"player_count":0,"max_players":24,"Bots":0,"server_type":"Dedicated","server_os":"Linux","password":true,"vac":true,"version":"7757534","steam_id":85568392924742824,"keywords":["cp","nocrits","nodmgspread","uncletopia"],"game_id":440,"stv_port":27036,"stv_name":"Uncletopia | San Francisco | 3 | Stopwatch Beta | STV","players":null},{"server_id":20,"name":"Uncletopia | San Francisco | 4 | Community","name_short":"sfo-4","host":"sfo-1.us.uncletopia.com","port":27045,"enabled":true,"region":"us-west","cc":"us","latitude":37.77397,"longitude":-122.4313,"reserved":0,"last_update":"0001-01-01T00:00:00Z","name_a2s":"Uncletopia | San Francisco | 4 | Community","protocol":17,"map":"workshop/rd_asteroid_redux_b1.ugc2154902912","folder":"tf","game":"Team Fortress","app_id":440,"player_count":0,"max_players":24,"Bots":0,"server_type":"Dedicated","server_os":"Linux","password":true,"vac":true,"version":"7757534","steam_id":85568392924742826,"keywords":["beta","nocrits","nodmgspread","rd","uncletopia"],"game_id":440,"stv_port":27046,"stv_name":"Uncletopia | San Francisco | 4 | Community | STV","players":null},{"server_id":141,"name":"Uncletopia | Sydney | 1 | All Maps","name_short":"syd-1","host":"syd-1.au.uncletopia.com","port":27015,"enabled":true,"region":"au","cc":"au","latitude":-33.865143,"longitude":151.2099,"reserved":0,"last_update":"0001-01-01T00:00:00Z","name_a2s":"Uncletopia | Sydney | 1 | All Maps","protocol":17,"map":"cp_process_final","folder":"tf","game":"Team Fortress","app_id":440,"player_count":24,"max_players":24,"Bots":0,"server_type":"Dedicated","server_os":"Linux","password":true,"vac":true,"version":"7757534","steam_id":85568392924470001,"keywords":["cp","nocrits","nodmgspread","uncletopia"],"game_id":440,"stv_port":27016,"stv_name":"Uncletopia | Sydney | 1 | All Maps | STV","players":[{"user_id":509,"name":"garnish master","steam_id":76561197996551827,"connected_time":3641000000000,"state":"active","ping":49},{"user_id":541,"name":"BLORZINGUS","steam_id":76561198063481761,"connected_time":888000000000,"state":"active","ping":37},{"user_id":551,"name":"Dragonite","steam_id":76561199185507683,"connected_time":186000000000,"state":"active","ping":41},{"user_id":481,"name":"FyreFeat","steam_id":76561198068428930,"connected_time":6031000000000,"state":"active","ping":56},{"user_id":530,"name":"Mike","steam_id":76561199009189725,"connected_time":2389000000000,"state":"active","ping":67},{"user_id":535,"name":"david boeing","steam_id":76561198079351541,"connected_time":1790000000000,"state":"active","ping":45},{"user_id":517,"name":"Uncle Fester","steam_id":76561198036511528,"connected_time":3289000000000,"state":"active","ping":69},{"user_id":525,"name":"Really","steam_id":76561198153397177,"connected_time":2987000000000,"state":"active","ping":59},{"user_id":516,"name":"CrowPBS1 PC","steam_id":76561198943274401,"connected_time":3292000000000,"state":"active","ping":98},{"user_id":498,"name":"horrid creature ·òõ‚ÅêÃ§·ïê·ê∑","steam_id":76561198061998379,"connected_time":4842000000000,"state":"active","ping":47},{"user_id":520,"name":"Chooka","steam_id":76561197992307814,"connected_time":3133000000000,"state":"active","ping":61},{"user_id":529,"name":"krandlez` (Any/All)","steam_id":76561198044839726,"connected_time":2488000000000,"state":"active","ping":41},{"user_id":531,"name":"Sherpa","steam_id":76561198018913829,"connected_time":2185000000000,"state":"active","ping":59},{"user_id":521,"name":"Cofwee","steam_id":76561198072414195,"connected_time":3108000000000,"state":"active","ping":73},{"user_id":547,"name":"the normoaner","steam_id":76561198082423230,"connected_time":244000000000,"state":"active","ping":76},{"user_id":542,"name":"seiran","steam_id":76561198880907232,"connected_time":776000000000,"state":"active","ping":101},{"user_id":544,"name":"Charm","steam_id":76561198028891054,"connected_time":528000000000,"state":"active","ping":60},{"user_id":539,"name":"-Blackout337-","steam_id":76561198043519112,"connected_time":1326000000000,"state":"active","ping":113},{"user_id":447,"name":"Livid","steam_id":76561198060024585,"connected_time":8258000000000,"state":"active","ping":35},{"user_id":549,"name":"Chrisy","steam_id":76561198092382473,"connected_time":224000000000,"state":"active","ping":87},{"user_id":512,"name":"PapaCoe","steam_id":76561198281000760,"connected_time":3616000000000,"state":"active","ping":100},{"user_id":461,"name":"Lain","steam_id":76561198149217307,"connected_time":7264000000000,"state":"active","ping":90},{"user_id":503,"name":"Piklz","steam_id":76561198043384139,"connected_time":4565000000000,"state":"active","ping":41},{"user_id":523,"name":"Cup","steam_id":76561198038485845,"connected_time":3045000000000,"state":"active","ping":40}]},{"server_id":123,"name":"Uncletopia | Sydney | 2 | All Maps","name_short":"syd-2","host":"syd-1.au.uncletopia.com","port":27025,"enabled":true,"region":"au","cc":"au","latitude":-33.865143,"longitude":151.2099,"reserved":0,"last_update":"0001-01-01T00:00:00Z","name_a2s":"Uncletopia | Sydney | 2 | All Maps","protocol":17,"map":"koth_lakeside_final","folder":"tf","game":"Team Fortress","app_id":440,"player_count":0,"max_players":24,"Bots":0,"server_type":"Dedicated","server_os":"Linux","password":true,"vac":true,"version":"7757534","steam_id":85568392924470002,"keywords":["cp","nocrits","nodmgspread","uncletopia"],"game_id":440,"stv_port":27026,"stv_name":"Uncletopia | Sydney | 2 | All Maps | STV","players":null},{"server_id":395,"name":"Uncletopia | Sydney | 3 | All Maps","name_short":"syd-3","host":"syd-1.au.uncletopia.com","port":27035,"enabled":true,"region":"au","cc":"au","latitude":-33.865143,"longitude":151.2099,"reserved":0,"last_update":"0001-01-01T00:00:00Z","name_a2s":"Uncletopia | Sydney | 3 | All Maps","protocol":17,"map":"cp_process_final","folder":"tf","game":"Team Fortress","app_id":440,"player_count":9,"max_players":24,"Bots":0,"server_type":"Dedicated","server_os":"Linux","password":true,"vac":true,"version":"7757534","steam_id":85568392925194467,"keywords":["cp","nocrits","nodmgspread","uncletopia"],"game_id":440,"stv_port":27036,"stv_name":"Uncletopia | Sydney | 3 | All Maps | STV","players":[{"user_id":127,"name":"Cyborgcupine","steam_id":76561198257389366,"connected_time":901000000000,"state":"active","ping":95},{"user_id":126,"name":"Franco Cozzo","steam_id":76561198008432357,"connected_time":986000000000,"state":"active","ping":58},{"user_id":129,"name":"DragRiper","steam_id":76561198050917553,"connected_time":881000000000,"state":"active","ping":60},{"user_id":136,"name":"bitto","steam_id":76561198310550094,"connected_time":509000000000,"state":"active","ping":52},{"user_id":131,"name":"Gregory","steam_id":76561199028542666,"connected_time":662000000000,"state":"active","ping":36},{"user_id":132,"name":"lemur","steam_id":76561198278239170,"connected_time":645000000000,"state":"active","ping":84},{"user_id":133,"name":"Luscious_Lucifer","steam_id":76561198064993980,"connected_time":623000000000,"state":"active","ping":113},{"user_id":139,"name":"smoke","steam_id":76561198038401873,"connected_time":273000000000,"state":"active","ping":81},{"user_id":137,"name":"Discount Dane","steam_id":76561198336090528,"connected_time":491000000000,"state":"active","ping":53}]},{"server_id":396,"name":"Uncletopia | Sydney | 4 | All Maps","name_short":"syd-4","host":"syd-1.au.uncletopia.com","port":27045,"enabled":true,"region":"au","cc":"au","latitude":-33.865143,"longitude":151.2099,"reserved":0,"last_update":"0001-01-01T00:00:00Z","name_a2s":"Uncletopia | Sydney | 4 | All Maps","protocol":17,"map":"koth_lakeside_final","folder":"tf","game":"Team Fortress","app_id":440,"player_count":0,"max_players":24,"Bots":0,"server_type":"Dedicated","server_os":"Linux","password":true,"vac":true,"version":"7757534","steam_id":85568392925397958,"keywords":["cp","nocrits","nodmgspread","uncletopia"],"game_id":440,"stv_port":27046,"stv_name":"Uncletopia | Sydney | 4 | All Maps | STV","players":null},{"server_id":58,"name":"Uncletopia | Sydney | 5 | Stopwatch Beta","name_short":"syd-5","host":"syd-1.au.uncletopia.com","port":27055,"enabled":true,"region":"au","cc":"au","latitude":-33.865143,"longitude":151.2099,"reserved":0,"last_update":"0001-01-01T00:00:00Z","name_a2s":"Uncletopia | Sydney | 5 | Stopwatch Beta","protocol":17,"map":"koth_cascade","folder":"tf","game":"Team Fortress","app_id":440,"player_count":0,"max_players":24,"Bots":0,"server_type":"Dedicated","server_os":"Linux","password":true,"vac":true,"version":"7757534","steam_id":85568392925397959,"keywords":["cp","nocrits","nodmgspread","uncletopia"],"game_id":440,"stv_port":27056,"stv_name":"Uncletopia | Sydney | 5 | Stopwatch Beta | STV","players":null},{"server_id":59,"name":"Uncletopia | Sydney | 6 | Community","name_short":"syd-6","host":"syd-1.au.uncletopia.com","port":27065,"enabled":true,"region":"au","cc":"au","latitude":-33.865143,"longitude":151.2099,"reserved":0,"last_update":"0001-01-01T00:00:00Z","name_a2s":"Uncletopia | Sydney | 6 | Community","protocol":17,"map":"workshop/pl_cactuscanyon_redux_final1.ugc2579644293","folder":"tf","game":"Team Fortress","app_id":440,"player_count":0,"max_players":24,"Bots":0,"server_type":"Dedicated","server_os":"Linux","password":true,"vac":true,"version":"7757534","steam_id":85568392925397960,"keywords":["nocrits","nodmgspread","payload","uncletopia"],"game_id":440,"stv_port":27066,"stv_name":"Uncletopia | Sydney | 6 | Community | STV","players":null},{"server_id":49,"name":"Uncletopia | Warsaw | 1 | All Maps","name_short":"waw-1","host":"waw-1.pl.uncletopia.com","port":27015,"enabled":true,"region":"eu","cc":"pl","latitude":52.2297,"longitude":21.017532,"reserved":0,"last_update":"0001-01-01T00:00:00Z","name_a2s":"","protocol":0,"map":"","folder":"","game":"","app_id":0,"player_count":0,"max_players":0,"Bots":0,"server_type":"","server_os":"","password":false,"vac":false,"version":"","steam_id":0,"keywords":null,"game_id":0,"stv_port":0,"stv_name":"","players":null},{"server_id":50,"name":"Uncletopia | Warsaw | 2 | All Maps","name_short":"waw-2","host":"waw-1.pl.uncletopia.com","port":27025,"enabled":true,"region":"eu","cc":"pl","latitude":52.2297,"longitude":21.017532,"reserved":0,"last_update":"0001-01-01T00:00:00Z","name_a2s":"Uncletopia | Warsaw | 2 | All Maps","protocol":17,"map":"koth_viaduct","folder":"tf","game":"Team Fortress","app_id":440,"player_count":0,"max_players":24,"Bots":0,"server_type":"Dedicated","server_os":"Linux","password":true,"vac":true,"version":"7757534","steam_id":85568392925397851,"keywords":["cp","nocrits","nodmgspread","uncletopia"],"game_id":440,"stv_port":27026,"stv_name":"Uncletopia | Warsaw | 2 | All Maps | STV","players":null},{"server_id":51,"name":"Uncletopia | Warsaw | 3 | All Maps","name_short":"waw-3","host":"waw-1.pl.uncletopia.com","port":27035,"enabled":true,"region":"eu","cc":"pl","latitude":52.2297,"longitude":21.017532,"reserved":0,"last_update":"0001-01-01T00:00:00Z","name_a2s":"Uncletopia | Warsaw | 3 | All Maps","protocol":17,"map":"pl_barnblitz","folder":"tf","game":"Team Fortress","app_id":440,"player_count":0,"max_players":24,"Bots":0,"server_type":"Dedicated","server_os":"Linux","password":true,"vac":true,"version":"7757534","steam_id":85568392925397852,"keywords":["nocrits","nodmgspread","payload","uncletopia"],"game_id":440,"stv_port":27036,"stv_name":"Uncletopia | Warsaw | 3 | All Maps | STV","players":null},{"server_id":52,"name":"Uncletopia | Warsaw | 4 | All Maps","name_short":"waw-4","host":"waw-1.pl.uncletopia.com","port":27045,"enabled":true,"region":"eu","cc":"pl","latitude":52.2297,"longitude":21.017532,"reserved":0,"last_update":"0001-01-01T00:00:00Z","name_a2s":"Uncletopia | Warsaw | 4 | All Maps","protocol":17,"map":"cp_altitude","folder":"tf","game":"Team Fortress","app_id":440,"player_count":0,"max_players":24,"Bots":0,"server_type":"Dedicated","server_os":"Linux","password":true,"vac":true,"version":"7757534","steam_id":85568392925397853,"keywords":["cp","nocrits","nodmgspread","uncletopia"],"game_id":440,"stv_port":27046,"stv_name":"Uncletopia | Warsaw | 4 | All Maps | STV","players":null},{"server_id":53,"name":"Uncletopia | Warsaw | 5 | Stopwatch Beta","name_short":"waw-5","host":"waw-1.pl.uncletopia.com","port":27055,"enabled":true,"region":"eu","cc":"pl","latitude":52.2297,"longitude":21.017532,"reserved":0,"last_update":"0001-01-01T00:00:00Z","name_a2s":"Uncletopia | Warsaw | 5 | Stopwatch Beta","protocol":17,"map":"pl_pier","folder":"tf","game":"Team Fortress","app_id":440,"player_count":0,"max_players":24,"Bots":0,"server_type":"Dedicated","server_os":"Linux","password":true,"vac":true,"version":"7757534","steam_id":85568392925397854,"keywords":["nocrits","nodmgspread","payload","uncletopia"],"game_id":440,"stv_port":27056,"stv_name":"Uncletopia | Warsaw | 5 | Stopwatch Beta | STV","players":null},{"server_id":54,"name":"Uncletopia | Warsaw | 6 | Community","name_short":"waw-6","host":"waw-1.pl.uncletopia.com","port":27065,"enabled":true,"region":"eu","cc":"pl","latitude":52.2297,"longitude":21.017532,"reserved":0,"last_update":"0001-01-01T00:00:00Z","name_a2s":"Uncletopia | Warsaw | 6 | Community","protocol":17,"map":"koth_highpass","folder":"tf","game":"Team Fortress","app_id":440,"player_count":0,"max_players":24,"Bots":0,"server_type":"Dedicated","server_os":"Linux","password":true,"vac":true,"version":"7757534","steam_id":85568392925397856,"keywords":["cp","nocrits","nodmgspread","uncletopia"],"game_id":440,"stv_port":27066,"stv_name":"Uncletopia | Warsaw | 6 | Community | STV","players":null}]}