{"status":true,"message":"","result":[{"server_id":9,"name":"Uncletopia | Atlanta | 1 | All Maps","name_short":"atl-1","host":"atl-1.us.uncletopia.com","port":27015,"enabled":true,"region":"us-east","cc":"us","latitude":33.753746,"longitude":-84.38633,"reserved":0,"last_update":"0001-01-01T00:00:00Z","name_a2s":"Uncletopia | Atlanta | 1 | All Maps","protocol":17,"map":"cp_process_final","folder":"tf","game":"Team Fortress","app_id":440,"player_count":24,"max_players":24,"Bots":0,"server_type":"Dedicated","server_os":"Linux","password":true,"vac":true,"version":"7961495","steam_id":85568392924469982,"keywords":["cp","nocrits","nodmgspread","uncletopia"],"game_id":440,"stv_port":27016,"stv_name":"Uncletopia | Atlanta | 1 | All Maps | STV","players":null},{"server_id":104,"name":"Uncletopia | Atlanta | 2 | All Maps","name_short":"atl-2","host":"atl-1.us.uncletopia.com","port":27025,"enabled":true,"region":"us-east","cc":"us","latitude":33.753746,"longitude":-84.38633,"reserved":0,"last_update":"0001-01-01T00:00:00Z","name_a2s":"Uncletopia | Atlanta | 2 | All Maps","protocol":17,"map":"cp_sunshine","folder":"tf","game":"Team Fortress","app_id":440,"player_count":23,"max_players":24,"Bots":0,"server_type":"Dedicated","server_os":"Linux","password":true,"vac":true,"version":"7961495","steam_id":85568392924469983,"keywords":["cp","nocrits","nodmgspread","uncletopia"],"game_id":440,"stv_port":27026,"stv_name":"Uncletopia | Atlanta | 2 | All Maps | STV","players":null},{"server_id":400,"name":"Uncletopia | Atlanta | 3 | All Maps","name_short":"atl-3","host":"atl-1.us.uncletopia.com","port":27035,"enabled":true,"region":"us-east","cc":"us","latitude":33.753746,"longitude":-84.38633,"reserved":0,"last_update":"0001-01-01T00:00:00Z","name_a2s":"Uncletopia | Atlanta | 3 | All Maps","protocol":17,"map":"plr_hightower","folder":"tf","game":"Team Fortress","app_id":440,"player_count":14,"max_players":24,"Bots":0,"server_type":"Dedicated","server_os":"Linux","password":true,"vac":true,"version":"7961495","steam_id":85568392924515187,"keywords":["nocrits","nodmgspread","payload","uncletopia"],"game_id":440,"stv_port":27036,"stv_name":"Uncletopia | Atlanta | 3 | All Maps | STV","players":null},{"server_id":401,"name":"Uncletopia | Atlanta | 4 | Community","name_short":"atl-4","host":"atl-1.us.uncletopia.com","port":27045,"enabled":true,"region":"us-east","cc":"us","latitude":33.753746,"longitude":-84.38633,"reserved":0,"last_update":"0001-01-01T00:00:00Z","name_a2s":"Uncletopia | Atlanta | 4 | Community","protocol":17,"map":"cp_hazyfort_rc6","folder":"tf","game":"Team Fortress","app_id":440,"player_count":3,"max_players":24,"Bots":0,"server_type":"Dedicated","server_os":"Linux","password":true,"vac":true,"version":"7961495","steam_id":85568392924515188,"keywords":["cp","nocrits","nodmgspread","uncletopia"],"game_id":440,"stv_port":27046,"stv_name":"Uncletopia | Atlanta | 4 | Community | STV","players":null},{"server_id":2,"name":"Uncletopia | Chicago | 1 | All Maps","name_short":"chi-1","host":"chi-1.us.uncletopia.com","port":27015,"enabled":true,"region":"us-central","cc":"us","latitude":41.881832,"longitude":-87.62318,"reserved":0,"last_update":"0001-01-01T00:00:00Z","name_a2s":"Uncletopia | Chicago | 1 | All Maps","protocol":17,"map":"pl_snowycoast","folder":"tf","game":"Team Fortress","app_id":440,"player_count":24,"max_players":24,"Bots":0,"server_type":"Dedicated","server_os":"Linux","password":true,"vac":true,"version":"7961495","steam_id":85568392924469984,"keywords":["nocrits","nodmgspread","payload","uncletopia"],"game_id":440,"stv_port":27016,"stv_name":"Uncletopia | Chicago | 1 | All Maps | STV","players":[{"user_id":596,"name":"Saltail","steam_id":76561198063053039,"connected_time":11076000000000,"state":"active","ping":73},{"user_id":693,"name":"DinkleBerg","steam_id":76561198891626233,"connected_time":1601000000000,"state":"active","ping":73},{"user_id":666,"name":"Your Local Queer Librarian","steam_id":76561198013077080,"connected_time":4316000000000,"state":"active","ping":58},{"user_id":667,"name":"Shane Dawson's Cat","steam_id":76561199092109271,"connected_time":4283000000000,"state":"active","ping":73},{"user_id":677,"name":"ducks is the name","steam_id":76561198049372798,"connected_time":3381000000000,"state":"active","ping":90},{"user_id":700,"name":"HalfDead","steam_id":76561198049700226,"connected_time":533000000000,"state":"active","ping":86},{"user_id":689,"name":"V","steam_id":76561198057374871,"connected_time":1634000000000,"state":"active","ping":61},{"user_id":673,"name":"Thumb Yorke","steam_id":76561198089294060,"connected_time":4062000000000,"state":"active","ping":73},{"user_id":680,"name":"bruiseraaron","steam_id":76561198020092380,"connected_time":3108000000000,"state":"active","ping":57},{"user_id":645,"name":"Astoriae!","steam_id":76561199090168858,"connected_time":7694000000000,"state":"active","ping":69},{"user_id":698,"name":"Kalhoun","steam_id":76561197999648122,"connected_time":1396000000000,"state":"active","ping":60},{"user_id":662,"name":"Schlongulous","steam_id":76561198059715531,"connected_time":5063000000000,"state":"active","ping":74},{"user_id":665,"name":"StonedGiant","steam_id":76561197984386932,"connected_time":4331000000000,"state":"active","ping":62},{"user_id":696,"name":"Mango","steam_id":76561198156746320,"connected_time":1570000000000,"state":"active","ping":46},{"user_id":591,"name":"LJBLJB™","steam_id":76561198166782022,"connected_time":11379000000000,"state":"active","ping":61},{"user_id":691,"name":"Milkmur","steam_id":76561198210043821,"connected_time":1630000000000,"state":"active","ping":68},{"user_id":695,"name":"A Quiet Fartwell","steam_id":76561198397009880,"connected_time":1594000000000,"state":"active","ping":66},{"user_id":697,"name":"gnoll filth","steam_id":76561198066123607,"connected_time":1538000000000,"state":"active","ping":47},{"user_id":655,"name":"Zorlovo","steam_id":76561198006443283,"connected_time":5867000000000,"state":"active","ping":84},{"user_id":699,"name":"WaveSmash","steam_id":76561198208785485,"connected_time":941000000000,"state":"active","ping":83},{"user_id":679,"name":"Denzel McFlurry","steam_id":76561199231296521,"connected_time":3134000000000,"state":"active","ping":68},{"user_id":701,"name":"Lenny Gaggins","steam_id":76561198119768140,"connected_time":404000000000,"state":"active","ping":81},{"user_id":702,"name":"OrionKid","steam_id":76561198359094901,"connected_time":389000000000,"state":"active","ping":73},{"user_id":687,"name":"crispy","steam_id":76561198971106376,"connected_time":2015000000000,"state":"active","ping":47}]},{"server_id":106,"name":"Uncletopia | Chicago | 2 | All Maps","name_short":"chi-2","host":"chi-1.us.uncletopia.com","port":27025,"enabled":true,"region":"us-central","cc":"us","latitude":41.881832,"longitude":-87.62318,"reserved":0,"last_update":"0001-01-01T00:00:00Z","name_a2s":"Uncletopia | Chicago | 2 | All Maps","protocol":17,"map":"koth_cascade","folder":"tf","game":"Team Fortress","app_id":440,"player_count":24,"max_players":24,"Bots":0,"server_type":"Dedicated","server_os":"Linux","password":true,"vac":true,"version":"7961495","steam_id":85568392924469985,"keywords":["cp","nocrits","nodmgspread","uncletopia"],"game_id":440,"stv_port":27026,"stv_name":"Uncletopia | Chicago | 2 | All Maps | STV","players":[{"user_id":538,"name":"stoppablel36","steam_id":76561198117365188,"connected_time":250000000000,"state":"active","ping":87},{"user_id":506,"name":"NovaSc6ut","steam_id":76561198277163301,"connected_time":2782000000000,"state":"active","ping":64},{"user_id":539,"name":"Fuegan Ra","steam_id":76561198287923849,"connected_time":181000000000,"state":"active","ping":56},{"user_id":533,"name":"FriendlyStuart","steam_id":76561198136745161,"connected_time":384000000000,"state":"active","ping":49},{"user_id":531,"name":"smegma male","steam_id":76561197970450546,"connected_time":403000000000,"state":"active","ping":114},{"user_id":448,"name":"Akkrillic","steam_id":76561198224891080,"connected_time":7415000000000,"state":"active","ping":60},{"user_id":525,"name":"Bim","steam_id":76561198155979811,"connected_time":635000000000,"state":"active","ping":71},{"user_id":540,"name":"pim","steam_id":76561198095163441,"connected_time":160000000000,"state":"active","ping":62},{"user_id":515,"name":"Otis from Back at the Barnyard","steam_id":76561198051059704,"connected_time":1668000000000,"state":"active","ping":55},{"user_id":528,"name":"Hindmost","steam_id":76561199081837220,"connected_time":487000000000,"state":"active","ping":85},{"user_id":526,"name":"lamadre07","steam_id":76561198067337453,"connected_time":548000000000,"state":"active","ping":86},{"user_id":534,"name":"theghostofbinladen","steam_id":76561198881434725,"connected_time":373000000000,"state":"active","ping":59},{"user_id":541,"name":"MoonWolf","steam_id":76561198095735033,"connected_time":147000000000,"state":"active","ping":75},{"user_id":504,"name":"Castroy","steam_id":76561198108160099,"connected_time":3047000000000,"state":"active","ping":69},{"user_id":542,"name":"Super Ghostbusters (Full Album)","steam_id":76561198057415490,"connected_time":61000000000,"state":"active","ping":45},{"user_id":522,"name":"shut up","steam_id":76561198139761609,"connected_time":839000000000,"state":"active","ping":60},{"user_id":507,"name":"Boomerish","steam_id":76561198083946878,"connected_time":2736000000000,"state":"active","ping":72},{"user_id":520,"name":"ip09 i-0;olk;lj9u","steam_id":76561199490115981,"connected_time":1120000000000,"state":"active","ping":67},{"user_id":508,"name":"Kuddly Kay (She/Her)","steam_id":76561198353432576,"connected_time":2669000000000,"state":"active","ping":60},{"user_id":513,"name":"Ayylmao","steam_id":76561198104780147,"connected_time":2207000000000,"state":"active","ping":45},{"user_id":473,"name":"Levi","steam_id":76561198089832776,"connected_time":4923000000000,"state":"active","ping":77},{"user_id":514,"name":"Dominic","steam_id":76561198006988361,"connected_time":1866000000000,"state":"active","ping":68},{"user_id":512,"name":"Maxxycat","steam_id":76561198194062681,"connected_time":2319000000000,"state":"active","ping":60},{"user_id":537,"name":"raw chicken enjoyer","steam_id":76561198986943063,"connected_time":335000000000,"state":"active","ping":56}]},{"server_id":402,"name":"Uncletopia | Chicago | 3 | All Maps","name_short":"chi-3","host":"chi-1.us.uncletopia.com","port":27035,"enabled":true,"region":"us-central","cc":"us","latitude":41.881832,"longitude":-87.62318,"reserved":0,"last_update":"0001-01-01T00:00:00Z","name_a2s":"Uncletopia | Chicago | 3 | All Maps","protocol":17,"map":"pl_barnblitz","folder":"tf","game":"Team Fortress","app_id":440,"player_count":24,"max_players":24,"Bots":0,"server_type":"Dedicated","server_os":"Linux","password":true,"vac":true,"version":"7961495","steam_id":85568392924515191,"keywords":["nocrits","nodmgspread","payload","uncletopia"],"game_id":440,"stv_port":27036,"stv_name":"Uncletopia | Chicago | 3 | All Maps | STV","players":[{"user_id":750,"name":"Gobemouche","steam_id":76561198040418719,"connected_time":401000000000,"state":"active","ping":86},{"user_id":733,"name":"Mortal Flame","steam_id":76561198130698418,"connected_time":2223000000000,"state":"active","ping":86},{"user_id":752,"name":"Node⋄","steam_id":76561198219359475,"connected_time":327000000000,"state":"active","ping":67},{"user_id":734,"name":"C₄H₈Cl₂SGamez","steam_id":76561198250471340,"connected_time":2030000000000,"state":"active","ping":56},{"user_id":747,"name":"clicky clicky","steam_id":76561198099084394,"connected_time":687000000000,"state":"active","ping":63},{"user_id":751,"name":"Chicken Soup","steam_id":76561197989268948,"connected_time":339000000000,"state":"active","ping":83},{"user_id":737,"name":"Scatman","steam_id":76561198322096569,"connected_time":1976000000000,"state":"active","ping":85},{"user_id":738,"name":"type \"bad med\" to kick","steam_id":76561198076402476,"connected_time":1968000000000,"state":"active","ping":120},{"user_id":695,"name":"shlommy","steam_id":76561198040767402,"connected_time":3940000000000,"state":"active","ping":74},{"user_id":729,"name":"Chernov","steam_id":76561198014463424,"connected_time":2960000000000,"state":"active","ping":58},{"user_id":731,"name":"SpockASD","steam_id":76561198307516731,"connected_time":2560000000000,"state":"active","ping":79},{"user_id":753,"name":"Fargo","steam_id":76561198044703931,"connected_time":299000000000,"state":"active","ping":70},{"user_id":754,"name":"boe jiden","steam_id":76561198041048289,"connected_time":293000000000,"state":"active","ping":63},{"user_id":732,"name":"[82DK] Ike","steam_id":76561198135256526,"connected_time":2268000000000,"state":"active","ping":85},{"user_id":730,"name":"Milk","steam_id":76561198283314672,"connected_time":2911000000000,"state":"active","ping":62},{"user_id":749,"name":"Binkems","steam_id":76561198084220655,"connected_time":612000000000,"state":"active","ping":56},{"user_id":741,"name":"chrischrischris3018@yahoo.com","steam_id":76561198137316053,"connected_time":1327000000000,"state":"active","ping":77},{"user_id":717,"name":"myeahhaah the french.. champagn","steam_id":76561198019820563,"connected_time":3507000000000,"state":"active","ping":61},{"user_id":724,"name":"sooty","steam_id":76561198830243167,"connected_time":3272000000000,"state":"active","ping":68},{"user_id":719,"name":"gougar","steam_id":76561198061246566,"connected_time":3444000000000,"state":"active","ping":100},{"user_id":755,"name":"Caverman156","steam_id":76561198295409223,"connected_time":287000000000,"state":"active","ping":59},{"user_id":756,"name":"ElectronX","steam_id":76561198116034988,"connected_time":274000000000,"state":"active","ping":106},{"user_id":748,"name":"0100101101100001011100100110110","steam_id":76561198034028769,"connected_time":653000000000,"state":"active","ping":67},{"user_id":727,"name":"a dragon","steam_id":76561198026400965,"connected_time":3033000000000,"state":"active","ping":111}]},{"server_id":403,"name":"Uncletopia | Chicago | 4 | All Maps","name_short":"chi-4","host":"chi-1.us.uncletopia.com","port":27045,"enabled":true,"region":"us-central","cc":"us","latitude":41.881832,"longitude":-87.62318,"reserved":0,"last_update":"0001-01-01T00:00:00Z","name_a2s":"Uncletopia | Chicago | 4 | All Maps","protocol":17,"map":"pl_barnblitz","folder":"tf","game":"Team Fortress","app_id":440,"player_count":24,"max_players":24,"Bots":0,"server_type":"Dedicated","server_os":"Linux","password":true,"vac":true,"version":"7961495","steam_id":85568392924515193,"keywords":["nocrits","nodmgspread","payload","uncletopia"],"game_id":440,"stv_port":27046,"stv_name":"Uncletopia | Chicago | 4 | All Maps | STV","players":[{"user_id":563,"name":"Truffles","steam_id":76561198095868800,"connected_time":3261000000000,"state":"active","ping":81},{"user_id":541,"name":"evilclownattack","steam_id":76561198001627114,"connected_time":5665000000000,"state":"active","ping":158},{"user_id":582,"name":"Tony Hawk Underground 2 for PSP","steam_id":76561197999901620,"connected_time":251000000000,"state":"active","ping":57},{"user_id":543,"name":"shitass | troutsupply.net","steam_id":76561198210572481,"connected_time":5624000000000,"state":"active","ping":76},{"user_id":544,"name":"doro","steam_id":76561198099041747,"connected_time":5603000000000,"state":"active","ping":98},{"user_id":545,"name":"only a spoonful","steam_id":76561198113180616,"connected_time":5594000000000,"state":"active","ping":70},{"user_id":583,"name":"cakgamin","steam_id":76561199088909749,"connected_time":114000000000,"state":"active","ping":61},{"user_id":579,"name":"Hernandez$","steam_id":76561198019324588,"connected_time":1012000000000,"state":"active","ping":88},{"user_id":574,"name":"Grundle Thunder","steam_id":76561197960790338,"connected_time":1580000000000,"state":"active","ping":79},{"user_id":575,"name":"ѕυ【ʕ•ᴥ•ʔ】","steam_id":76561198071233302,"connected_time":1468000000000,"state":"active","ping":97},{"user_id":566,"name":"smooth brain","steam_id":76561198049253541,"connected_time":3007000000000,"state":"active","ping":62},{"user_id":577,"name":"Quick-Fix","steam_id":76561198295501978,"connected_time":1199000000000,"state":"active","ping":90},{"user_id":549,"name":"DragonHaert","steam_id":76561198132516061,"connected_time":5500000000000,"state":"active","ping":64},{"user_id":559,"name":"femtofarad™","steam_id":76561198308583053,"connected_time":4942000000000,"state":"active","ping":80},{"user_id":584,"name":"Techne","steam_id":76561198090486583,"connected_time":92000000000,"state":"active","ping":97},{"user_id":551,"name":"DSG","steam_id":76561198207574152,"connected_time":5436000000000,"state":"active","ping":64},{"user_id":557,"name":"Urbanzpinapple","steam_id":76561198115426938,"connected_time":5263000000000,"state":"active","ping":59},{"user_id":560,"name":"Lots0","steam_id":76561198043143145,"connected_time":4883000000000,"state":"active","ping":89},{"user_id":490,"name":"Nordie","steam_id":76561198102297774,"connected_time":9657000000000,"state":"active","ping":56},{"user_id":576,"name":"Yarman53","steam_id":76561198099889202,"connected_time":1216000000000,"state":"active","ping":47},{"user_id":554,"name":"Coolrattlesnake","steam_id":76561198254836888,"connected_time":5398000000000,"state":"active","ping":62},{"user_id":453,"name":"Grand","steam_id":76561198290143399,"connected_time":11870000000000,"state":"active","ping":68},{"user_id":578,"name":"Omochao Plush","steam_id":76561199031860890,"connected_time":1186000000000,"state":"active","ping":102},{"user_id":581,"name":"Aaron","steam_id":76561198091157802,"connected_time":699000000000,"state":"active","ping":68}]},{"server_id":36,"name":"Uncletopia | Chicago | 5 | All Maps","name_short":"chi-5","host":"chi-2.us.uncletopia.com","port":27015,"enabled":true,"region":"us-central","cc":"us","latitude":41.881832,"longitude":-87.62318,"reserved":0,"last_update":"0001-01-01T00:00:00Z","name_a2s":"Uncletopia | Chicago | 5 | All Maps","protocol":17,"map":"cp_mercenarypark","folder":"tf","game":"Team Fortress","app_id":440,"player_count":24,"max_players":24,"Bots":0,"server_type":"Dedicated","server_os":"Linux","password":true,"vac":true,"version":"7961495","steam_id":85568392924866362,"keywords":["cp","nocrits","nodmgspread","uncletopia"],"game_id":440,"stv_port":27016,"stv_name":"Uncletopia | Chicago | 5 | All Maps | STV","players":[{"user_id":641,"name":"SASQUATCH","steam_id":76561198308120431,"connected_time":723000000000,"state":"active","ping":117},{"user_id":649,"name":"Snoogs","steam_id":76561198444880931,"connected_time":643000000000,"state":"active","ping":74},{"user_id":653,"name":"Cara","steam_id":76561199080618819,"connected_time":23000000000,"state":"active","ping":129},{"user_id":633,"name":"t","steam_id":76561198175988929,"connected_time":1021000000000,"state":"active","ping":61},{"user_id":611,"name":"Dr Oshawott","steam_id":76561198042021629,"connected_time":2189000000000,"state":"active","ping":66},{"user_id":640,"name":"Chai-C","steam_id":76561198177334555,"connected_time":726000000000,"state":"active","ping":69},{"user_id":636,"name":"Magic ben","steam_id":76561199230750652,"connected_time":824000000000,"state":"active","ping":83},{"user_id":650,"name":"Trigger!","steam_id":76561198061514186,"connected_time":617000000000,"state":"active","ping":85},{"user_id":605,"name":"Space Lizard","steam_id":76561198056798193,"connected_time":2581000000000,"state":"active","ping":71},{"user_id":563,"name":"TangenT","steam_id":76561198211278067,"connected_time":4860000000000,"state":"active","ping":71},{"user_id":564,"name":"Kenbop","steam_id":76561198211761132,"connected_time":4841000000000,"state":"active","ping":114},{"user_id":627,"name":"sentry food","steam_id":76561198042926224,"connected_time":1287000000000,"state":"active","ping":83},{"user_id":628,"name":"Shroomish","steam_id":76561199109440924,"connected_time":1280000000000,"state":"active","ping":91},{"user_id":597,"name":"Ati","steam_id":76561198381841894,"connected_time":2831000000000,"state":"active","ping":59},{"user_id":618,"name":"totally not a pile of beans","steam_id":76561198119851931,"connected_time":1881000000000,"state":"active","ping":84},{"user_id":652,"name":"KYLE KYLESON","steam_id":76561198021920887,"connected_time":156000000000,"state":"active","ping":45},{"user_id":619,"name":"Jack Studs (t.tv)","steam_id":76561198803014281,"connected_time":1783000000000,"state":"active","ping":32},{"user_id":642,"name":"Lady Nessietrescu","steam_id":76561198179253414,"connected_time":722000000000,"state":"active","ping":68},{"user_id":615,"name":"FireQuiz","steam_id":76561198107357249,"connected_time":2097000000000,"state":"active","ping":101},{"user_id":646,"name":"Toxic Ron","steam_id":76561198089302972,"connected_time":691000000000,"state":"active","ping":62},{"user_id":643,"name":"㋡Erotic Leftovers㋡","steam_id":76561198117366820,"connected_time":709000000000,"state":"active","ping":95},{"user_id":630,"name":"black ops 2 hank hill trolling","steam_id":76561198095313463,"connected_time":1206000000000,"state":"active","ping":70},{"user_id":637,"name":"Sirphantom","steam_id":76561198125415432,"connected_time":818000000000,"state":"active","ping":102},{"user_id":648,"name":"Sweater-Fan","steam_id":76561199389567214,"connected_time":661000000000,"state":"active","ping":234}]},{"server_id":37,"name":"Uncletopia | Chicago | 6 | All Maps","name_short":"chi-6","host":"chi-2.us.uncletopia.com","port":27025,"enabled":true,"region":"us-central","cc":"us","latitude":41.881832,"longitude":-87.62318,"reserved":0,"last_update":"0001-01-01T00:00:00Z","name_a2s":"Uncletopia | Chicago | 6 | All Maps","protocol":17,"map":"cp_sunshine","folder":"tf","game":"Team Fortress","app_id":440,"player_count":24,"max_players":24,"Bots":0,"server_type":"Dedicated","server_os":"Linux","password":true,"vac":true,"version":"7961495","steam_id":85568392924866363,"keywords":["cp","nocrits","nodmgspread","uncletopia"],"game_id":440,"stv_port":27026,"stv_name":"Uncletopia | Chicago | 6 | All Maps | STV","players":[{"user_id":542,"name":"WLpeanut","steam_id":76561197981006264,"connected_time":242000000000,"state":"active","ping":80},{"user_id":494,"name":"kaputon","steam_id":76561198146299782,"connected_time":3021000000000,"state":"active","ping":59},{"user_id":524,"name":"sugoiboi48","steam_id":76561198060056280,"connected_time":1528000000000,"state":"active","ping":60},{"user_id":538,"name":"weeb_whacker","steam_id":76561198187098041,"connected_time":358000000000,"state":"active","ping":56},{"user_id":513,"name":"Jeff","steam_id":76561198050929005,"connected_time":2029000000000,"state":"active","ping":54},{"user_id":441,"name":"thatguy_luigi","steam_id":76561198968055462,"connected_time":7765000000000,"state":"active","ping":104},{"user_id":523,"name":"Noiceman","steam_id":76561199016137482,"connected_time":1605000000000,"state":"active","ping":74},{"user_id":535,"name":"TheHarmacist","steam_id":76561198068249096,"connected_time":705000000000,"state":"active","ping":91},{"user_id":514,"name":"Rohi Mig","steam_id":76561198113623627,"connected_time":2011000000000,"state":"active","ping":69},{"user_id":487,"name":"rivera","steam_id":76561198051058706,"connected_time":3529000000000,"state":"active","ping":56},{"user_id":497,"name":"DannyGamerXD","steam_id":76561198799224408,"connected_time":2930000000000,"state":"active","ping":65},{"user_id":468,"name":"Always Here for You","steam_id":76561198219252313,"connected_time":4496000000000,"state":"active","ping":70},{"user_id":506,"name":"Crispy Nugget Boy","steam_id":76561198256869589,"connected_time":2409000000000,"state":"active","ping":64},{"user_id":515,"name":"cincoyt LFB","steam_id":76561198041643833,"connected_time":2009000000000,"state":"active","ping":89},{"user_id":511,"name":"Large Man","steam_id":76561198880396651,"connected_time":2106000000000,"state":"active","ping":87},{"user_id":539,"name":"But what if theres more then WM","steam_id":76561199122315920,"connected_time":329000000000,"state":"active","ping":67},{"user_id":522,"name":"stiGGy","steam_id":76561198049311931,"connected_time":1639000000000,"state":"active","ping":75},{"user_id":530,"name":"A Puppy","steam_id":76561198828184456,"connected_time":1056000000000,"state":"active","ping":61},{"user_id":537,"name":"cilo","steam_id":76561198046163502,"connected_time":381000000000,"state":"active","ping":72},{"user_id":517,"name":"Banjo","steam_id":76561198004652853,"connected_time":1994000000000,"state":"active","ping":104},{"user_id":508,"name":"TheBlue","steam_id":76561198363412851,"connected_time":2381000000000,"state":"active","ping":49},{"user_id":528,"name":"Zaid","steam_id":76561199142840666,"connected_time":1374000000000,"state":"active","ping":152},{"user_id":533,"name":"woohooren","steam_id":76561198101840527,"connected_time":968000000000,"state":"active","ping":104},{"user_id":509,"name":"twix","steam_id":76561198040912048,"connected_time":2379000000000,"state":"active","ping":53}]},{"server_id":38,"name":"Uncletopia | Chicago | 7 | Stopwatch Beta","name_short":"chi-7","host":"chi-2.us.uncletopia.com","port":27035,"enabled":true,"region":"us-central","cc":"us","latitude":41.881832,"longitude":-87.62318,"reserved":0,"last_update":"0001-01-01T00:00:00Z","name_a2s":"Uncletopia | Chicago | 7 | Stopwatch Beta","protocol":17,"map":"workshop/koth_ashville_final.ugc2130459942","folder":"tf","game":"Team Fortress","app_id":440,"player_count":6,"max_players":24,"Bots":0,"server_type":"Dedicated","server_os":"Linux","password":true,"vac":true,"version":"7961495","steam_id":85568392924866364,"keywords":["cp","nocrits","nodmgspread","uncletopia"],"game_id":440,"stv_port":27036,"stv_name":"Uncletopia | Chicago | 7 | Stopwatch Beta | STV","players":[{"user_id":98,"name":"GreatColorGreen","steam_id":76561198284546954,"connected_time":1431000000000,"state":"active","ping":53},{"user_id":99,"name":"Vollly","steam_id":76561198073206108,"connected_time":1375000000000,"state":"active","ping":52},{"user_id":100,"name":"SwagPunch","steam_id":76561198187711090,"connected_time":1374000000000,"state":"active","ping":50},{"user_id":101,"name":"Lava Q","steam_id":76561199147429608,"connected_time":1354000000000,"state":"active","ping":67},{"user_id":102,"name":"raspy","steam_id":76561198027298961,"connected_time":1017000000000,"state":"active","ping":45},{"user_id":109,"name":"Thequirka","steam_id":76561198968058652,"connected_time":513000000000,"state":"active","ping":93}]},{"server_id":39,"name":"Uncletopia | Chicago | 8 | Community","name_short":"chi-8","host":"chi-2.us.uncletopia.com","port":27045,"enabled":true,"region":"us-central","cc":"us","latitude":41.881832,"longitude":-87.62318,"reserved":0,"last_update":"0001-01-01T00:00:00Z","name_a2s":"Uncletopia | Chicago | 8 | Community","protocol":17,"map":"workshop/pl_divulgence_b4b.ugc2884808746","folder":"tf","game":"Team Fortress","app_id":440,"player_count":24,"max_players":24,"Bots":0,"server_type":"Dedicated","server_os":"Linux","password":true,"vac":true,"version":"7961495","steam_id":85568392924866365,"keywords":["nocrits","nodmgspread","payload","uncletopia"],"game_id":440,"stv_port":27046,"stv_name":"Uncletopia | Chicago | 8 | Community | STV","players":[{"user_id":702,"name":"Musica Universalis","steam_id":76561198184794174,"connected_time":155000000000,"state":"active","ping":71},{"user_id":687,"name":"primordialheath","steam_id":76561199386942638,"connected_time":2957000000000,"state":"active","ping":52},{"user_id":710,"name":"Sturdy Primate","steam_id":76561198057954897,"connected_time":7000000000,"state":"spawning","ping":100},{"user_id":704,"name":"fazaness","steam_id":76561198851525394,"connected_time":148000000000,"state":"active","ping":85},{"user_id":594,"name":"frank","steam_id":76561198137777483,"connected_time":10547000000000,"state":"active","ping":66},{"user_id":629,"name":"Griffers","steam_id":76561198040782561,"connected_time":8965000000000,"state":"active","ping":70},{"user_id":705,"name":"Bheem","steam_id":76561198170453459,"connected_time":145000000000,"state":"active","ping":84},{"user_id":672,"name":"We Go Crazy","steam_id":76561198209641359,"connected_time":4554000000000,"state":"active","ping":58},{"user_id":701,"name":"Whompert","steam_id":76561198042939624,"connected_time":408000000000,"state":"active","ping":90},{"user_id":709,"name":"wise","steam_id":76561198030066204,"connected_time":43000000000,"state":"active","ping":58},{"user_id":706,"name":"Wang of Wall St","steam_id":76561198047460598,"connected_time":126000000000,"state":"active","ping":74},{"user_id":640,"name":"Butters495","steam_id":76561197998689042,"connected_time":7455000000000,"state":"active","ping":81},{"user_id":708,"name":"THIRDPIERCE","steam_id":76561198405366314,"connected_time":85000000000,"state":"active","ping":84},{"user_id":684,"name":"average plane driver","steam_id":76561198061552103,"connected_time":3101000000000,"state":"active","ping":41},{"user_id":683,"name":"Calvin?","steam_id":76561198034069587,"connected_time":3245000000000,"state":"active","ping":74},{"user_id":707,"name":"GoldtoothFour","steam_id":76561198055529332,"connected_time":100000000000,"state":"active","ping":58},{"user_id":694,"name":"Rodrick Knee","steam_id":76561198283021062,"connected_time":1838000000000,"state":"active","ping":86},{"user_id":695,"name":"Rick Astley's Foot","steam_id":76561198862617917,"connected_time":1813000000000,"state":"active","ping":72},{"user_id":674,"name":"Skreed [G*]","steam_id":76561197998086143,"connected_time":4521000000000,"state":"active","ping":63},{"user_id":685,"name":"Propaniac Gaming ☑","steam_id":76561198133963270,"connected_time":3092000000000,"state":"active","ping":62},{"user_id":692,"name":"not a good idea","steam_id":76561198032259680,"connected_time":2101000000000,"state":"active","ping":76},{"user_id":686,"name":"Kerbal01","steam_id":76561198080296298,"connected_time":2991000000000,"state":"active","ping":61},{"user_id":688,"name":"Mayo Monkey","steam_id":76561198090023039,"connected_time":2488000000000,"state":"active","ping":98},{"user_id":699,"name":"Infinitytacos","steam_id":76561198884260211,"connected_time":1180000000000,"state":"active","ping":48}]},{"server_id":8,"name":"Uncletopia | Dallas | 1 | All Maps","name_short":"dal-1","host":"dal-1.us.uncletopia.com","port":27015,"enabled":true,"region":"us-central","cc":"us","latitude":32.779167,"longitude":-96.80889,"reserved":0,"last_update":"0001-01-01T00:00:00Z","name_a2s":"Uncletopia | Dallas | 1 | All Maps","protocol":17,"map":"pl_hoodoo_final","folder":"tf","game":"Team Fortress","app_id":440,"player_count":24,"max_players":24,"Bots":0,"server_type":"Dedicated","server_os":"Linux","password":true,"vac":true,"version":"7961495","steam_id":85568392924469986,"keywords":["nocrits","nodmgspread","payload","uncletopia"],"game_id":440,"stv_port":27016,"stv_name":"Uncletopia | Dallas | 1 | All Maps | STV","players":[{"user_id":699,"name":"Magma","steam_id":76561197995793614,"connected_time":643000000000,"state":"active","ping":69},{"user_id":491,"name":"flippercurve","steam_id":76561199238295034,"connected_time":14466000000000,"state":"active","ping":71},{"user_id":701,"name":"Mr_Tuffy","steam_id":76561199206331113,"connected_time":297000000000,"state":"active","ping":91},{"user_id":682,"name":"Huh?","steam_id":76561198305380082,"connected_time":1486000000000,"state":"active","ping":76},{"user_id":613,"name":"Per My Last Email","steam_id":76561197970096950,"connected_time":4913000000000,"state":"active","ping":35},{"user_id":700,"name":"tres","steam_id":76561198067500833,"connected_time":330000000000,"state":"active","ping":45},{"user_id":677,"name":"everettroth63","steam_id":76561199237772642,"connected_time":1756000000000,"state":"active","ping":73},{"user_id":676,"name":"Gwando","steam_id":76561198294629124,"connected_time":1865000000000,"state":"active","ping":46},{"user_id":680,"name":"FanaticSalt","steam_id":76561199380123059,"connected_time":1507000000000,"state":"active","ping":39},{"user_id":702,"name":"frog gaming","steam_id":76561198323926258,"connected_time":274000000000,"state":"active","ping":56},{"user_id":694,"name":"tewz(s)","steam_id":76561198163264838,"connected_time":1030000000000,"state":"active","ping":59},{"user_id":622,"name":"Malkinson","steam_id":76561199101631369,"connected_time":4164000000000,"state":"active","ping":71},{"user_id":623,"name":"The Best Bad Idea","steam_id":76561198105931367,"connected_time":4157000000000,"state":"active","ping":57},{"user_id":696,"name":"A Straw","steam_id":76561199367935846,"connected_time":797000000000,"state":"active","ping":75},{"user_id":642,"name":"clmatt6","steam_id":76561198027812938,"connected_time":3239000000000,"state":"active","ping":71},{"user_id":644,"name":"constipated samurai","steam_id":76561198827327225,"connected_time":2933000000000,"state":"active","ping":56},{"user_id":645,"name":"booty","steam_id":76561198817452952,"connected_time":2925000000000,"state":"active","ping":82},{"user_id":667,"name":"Dreamzapp","steam_id":76561199084936632,"connected_time":2398000000000,"state":"active","ping":104},{"user_id":691,"name":"Vladimir Puddin","steam_id":76561198139674520,"connected_time":1241000000000,"state":"active","ping":86},{"user_id":674,"name":"Evil little man","steam_id":76561198311053471,"connected_time":1985000000000,"state":"active","ping":54},{"user_id":697,"name":"MasterCrafter27","steam_id":76561198151035981,"connected_time":793000000000,"state":"active","ping":94},{"user_id":660,"name":"Kobicha","steam_id":76561198144970720,"connected_time":2752000000000,"state":"active","ping":93},{"user_id":634,"name":"JtsRes","steam_id":76561197994809241,"connected_time":3629000000000,"state":"active","ping":61},{"user_id":686,"name":"Louie","steam_id":76561198195963114,"connected_time":1389000000000,"state":"active","ping":84}]},{"server_id":108,"name":"Uncletopia | Dallas | 2 | All Maps","name_short":"dal-2","host":"dal-1.us.uncletopia.com","port":27025,"enabled":true,"region":"us-central","cc":"us","latitude":32.779167,"longitude":-96.80889,"reserved":0,"last_update":"0001-01-01T00:00:00Z","name_a2s":"Uncletopia | Dallas | 2 | All Maps","protocol":17,"map":"pl_borneo","folder":"tf","game":"Team Fortress","app_id":440,"player_count":25,"max_players":24,"Bots":0,"server_type":"Dedicated","server_os":"Linux","password":true,"vac":true,"version":"7961495","steam_id":85568392924469988,"keywords":["nocrits","nodmgspread","payload","uncletopia"],"game_id":440,"stv_port":27026,"stv_name":"Uncletopia | Dallas | 2 | All Maps | STV","players":[{"user_id":715,"name":"Fruity","steam_id":76561198999674564,"connected_time":721000000000,"state":"active","ping":45},{"user_id":720,"name":"Ajax","steam_id":76561198071310833,"connected_time":189000000000,"state":"active","ping":71},{"user_id":686,"name":"flatts","steam_id":76561198094127177,"connected_time":2911000000000,"state":"active","ping":61},{"user_id":721,"name":"loader","steam_id":76561199196442823,"connected_time":189000000000,"state":"active","ping":128},{"user_id":682,"name":"bendera","steam_id":76561197965486503,"connected_time":3503000000000,"state":"active","ping":84},{"user_id":716,"name":"oh god i'm gonna CHUM","steam_id":76561198019210187,"connected_time":681000000000,"state":"active","ping":46},{"user_id":722,"name":"NotSoCool_Guy","steam_id":76561199307230135,"connected_time":173000000000,"state":"connecting","ping":0},{"user_id":723,"name":"E P H E M E R A L","steam_id":76561198128614882,"connected_time":170000000000,"state":"active","ping":83},{"user_id":647,"name":"IMM0RTAL","steam_id":76561198013747901,"connected_time":5957000000000,"state":"active","ping":67},{"user_id":677,"name":"BlancaLamb","steam_id":76561198025646073,"connected_time":4067000000000,"state":"active","ping":75},{"user_id":706,"name":"Kng","steam_id":76561198993248203,"connected_time":1238000000000,"state":"active","ping":84},{"user_id":710,"name":"plink","steam_id":76561198057829889,"connected_time":1149000000000,"state":"active","ping":53},{"user_id":689,"name":"Soda","steam_id":76561198219209367,"connected_time":2821000000000,"state":"active","ping":64},{"user_id":691,"name":"sleepy","steam_id":76561198255015060,"connected_time":2796000000000,"state":"active","ping":86},{"user_id":702,"name":"Holp","steam_id":76561199019186848,"connected_time":1494000000000,"state":"active","ping":78},{"user_id":693,"name":"Jäger","steam_id":76561198131110463,"connected_time":2773000000000,"state":"active","ping":72},{"user_id":724,"name":"SGT Disoriented","steam_id":76561198058177958,"connected_time":169000000000,"state":"active","ping":65},{"user_id":700,"name":"macironi and chesse","steam_id":76561199098060805,"connected_time":1678000000000,"state":"active","ping":82},{"user_id":712,"name":"Manic","steam_id":76561198128149670,"connected_time":1123000000000,"state":"active","ping":45},{"user_id":717,"name":"ĐïɐȐɹɦɆa","steam_id":76561198981411945,"connected_time":664000000000,"state":"active","ping":114},{"user_id":725,"name":"jizz gaming","steam_id":76561198984762462,"connected_time":168000000000,"state":"active","ping":90},{"user_id":672,"name":"TOKENLIZARD","steam_id":76561198218765205,"connected_time":4418000000000,"state":"active","ping":70},{"user_id":646,"name":"Hydroxianchaos","steam_id":76561198043786828,"connected_time":5981000000000,"state":"active","ping":79},{"user_id":698,"name":"cc","steam_id":76561199215821942,"connected_time":1728000000000,"state":"active","ping":58},{"user_id":727,"name":"LetsGooooo!!","steam_id":76561198064958312,"connected_time":138000000000,"state":"active","ping":69}]},{"server_id":404,"name":"Uncletopia | Dallas | 3 | All Maps","name_short":"dal-3","host":"dal-1.us.uncletopia.com","port":27035,"enabled":true,"region":"us-central","cc":"us","latitude":32.779167,"longitude":-96.80889,"reserved":0,"last_update":"0001-01-01T00:00:00Z","name_a2s":"Uncletopia | Dallas | 3 | All Maps","protocol":17,"map":"koth_suijin","folder":"tf","game":"Team Fortress","app_id":440,"player_count":10,"max_players":24,"Bots":0,"server_type":"Dedicated","server_os":"Linux","password":true,"vac":true,"version":"7961495","steam_id":85568392924515219,"keywords":["cp","nocrits","nodmgspread","uncletopia"],"game_id":440,"stv_port":27036,"stv_name":"Uncletopia | Dallas | 3 | All Maps | STV","players":[{"user_id":583,"name":"hDark","steam_id":76561198894533615,"connected_time":726000000000,"state":"active","ping":67},{"user_id":581,"name":"Rebird","steam_id":76561198226329116,"connected_time":910000000000,"state":"active","ping":53},{"user_id":588,"name":"NotSoCool_Guy","steam_id":76561199307230135,"connected_time":141000000000,"state":"active","ping":203},{"user_id":458,"name":"Smug","steam_id":76561198448205229,"connected_time":13029000000000,"state":"active","ping":75},{"user_id":577,"name":"The Lord of Bread","steam_id":76561199203901420,"connected_time":1226000000000,"state":"active","ping":48},{"user_id":585,"name":"BoyKisser","steam_id":76561199200969139,"connected_time":381000000000,"state":"active","ping":98},{"user_id":587,"name":"MelonMaster537","steam_id":76561198237316048,"connected_time":216000000000,"state":"active","ping":105},{"user_id":589,"name":"U ω U","steam_id":76561198118802562,"connected_time":98000000000,"state":"active","ping":92},{"user_id":590,"name":"troubless","steam_id":76561198335431391,"connected_time":85000000000,"state":"active","ping":58},{"user_id":592,"name":"H2OBourne","steam_id":76561198396293109,"connected_time":52000000000,"state":"active","ping":65}]},{"server_id":405,"name":"Uncletopia | Dallas | 4 | Community","name_short":"dal-4","host":"dal-1.us.uncletopia.com","port":27045,"enabled":true,"region":"us-central","cc":"us","latitude":32.779167,"longitude":-96.80889,"reserved":0,"last_update":"0001-01-01T00:00:00Z","name_a2s":"Uncletopia | Dallas | 4 | Community","protocol":17,"map":"workshop/koth_kemptown_rc1.ugc767410655","folder":"tf","game":"Team Fortress","app_id":440,"player_count":0,"max_players":24,"Bots":0,"server_type":"Dedicated","server_os":"Linux","password":true,"vac":true,"version":"7961495","steam_id":85568392924515220,"keywords":["cp","nocrits","nodmgspread","uncletopia"],"game_id":440,"stv_port":27046,"stv_name":"Uncletopia | Dallas | 4 | Community | STV","players":null},{"server_id":5,"name":"Uncletopia | Frankfurt | 1 | All Maps","name_short":"frk-1","host":"frk-1.de.uncletopia.com","port":27015,"enabled":true,"region":"eu","cc":"de","latitude":50.110924,"longitude":8.682127,"reserved":0,"last_update":"0001-01-01T00:00:00Z","name_a2s":"Uncletopia | Frankfurt | 1 | All Maps","protocol":17,"map":"pl_badwater","folder":"tf","game":"Team Fortress","app_id":440,"player_count":2,"max_players":24,"Bots":0,"server_type":"Dedicated","server_os":"Linux","password":true,"vac":true,"version":"7961495","steam_id":85568392924469989,"keywords":["nocrits","nodmgspread","payload","uncletopia"],"game_id":440,"stv_port":27016,"stv_name":"Uncletopia | Frankfurt | 1 | All Maps | STV","players":[{"user_id":3,"name":"Caber Man","steam_id":76561199142318442,"connected_time":1729000000000,"state":"active","ping":177},{"user_id":5,"name":"TUROK","steam_id":76561199231065766,"connected_time":113000000000,"state":"active","ping":54}]},{"server_id":110,"name":"Uncletopia | Frankfurt | 2 | All Maps","name_short":"frk-2","host":"frk-1.de.uncletopia.com","port":27025,"enabled":true,"region":"eu","cc":"de","latitude":50.110924,"longitude":8.682127,"reserved":0,"last_update":"0001-01-01T00:00:00Z","name_a2s":"Uncletopia | Frankfurt | 2 | All Maps","protocol":17,"map":"koth_lakeside_final","folder":"tf","game":"Team Fortress","app_id":440,"player_count":0,"max_players":24,"Bots":0,"server_type":"Dedicated","server_os":"Linux","password":true,"vac":true,"version":"7961495","steam_id":85568392924469990,"keywords":["cp","nocrits","nodmgspread","uncletopia"],"game_id":440,"stv_port":27026,"stv_name":"Uncletopia | Frankfurt | 2 | All Maps | STV","players":null},{"server_id":308,"name":"Uncletopia | Frankfurt | 3 | All Maps","name_short":"frk-3","host":"frk-1.de.uncletopia.com","port":27035,"enabled":true,"region":"eu","cc":"de","latitude":50.110924,"longitude":8.682127,"reserved":0,"last_update":"0001-01-01T00:00:00Z","name_a2s":"Uncletopia | Frankfurt | 3 | All Maps","protocol":17,"map":"cp_sunshine","folder":"tf","game":"Team Fortress","app_id":440,"player_count":0,"max_players":24,"Bots":0,"server_type":"Dedicated","server_os":"Linux","password":true,"vac":true,"version":"7961495","steam_id":85568392924504274,"keywords":["cp","nocrits","nodmgspread","uncletopia"],"game_id":440,"stv_port":27036,"stv_name":"Uncletopia | Frankfurt | 3 | All Maps | STV","players":null},{"server_id":309,"name":"Uncletopia | Frankfurt | 4 | All Maps","name_short":"frk-4","host":"frk-1.de.uncletopia.com","port":27045,"enabled":true,"region":"eu","cc":"de","latitude":50.110924,"longitude":8.682127,"reserved":0,"last_update":"0001-01-01T00:00:00Z","name_a2s":"Uncletopia | Frankfurt | 4 | All Maps","protocol":17,"map":"cp_altitude","folder":"tf","game":"Team Fortress","app_id":440,"player_count":0,"max_players":24,"Bots":0,"server_type":"Dedicated","server_os":"Linux","password":true,"vac":true,"version":"7961495","steam_id":85568392924504275,"keywords":["cp","nocrits","nodmgspread","uncletopia"],"game_id":440,"stv_port":27046,"stv_name":"Uncletopia | Frankfurt | 4 | All Maps | STV","players":null},{"server_id":310,"name":"Uncletopia | Frankfurt | 5 | All Maps","name_short":"frk-5","host":"frk-1.de.uncletopia.com","port":27055,"enabled":true,"region":"eu","cc":"de","latitude":50.110924,"longitude":8.682127,"reserved":0,"last_update":"0001-01-01T00:00:00Z","name_a2s":"Uncletopia | Frankfurt | 5 | All Maps","protocol":17,"map":"cp_process_final","folder":"tf","game":"Team Fortress","app_id":440,"player_count":0,"max_players":24,"Bots":0,"server_type":"Dedicated","server_os":"Linux","password":true,"vac":true,"version":"7961495","steam_id":85568392924504277,"keywords":["cp","nocrits","nodmgspread","uncletopia"],"game_id":440,"stv_port":27056,"stv_name":"Uncletopia | Frankfurt | 5 | All Maps | STV","players":null},{"server_id":311,"name":"Uncletopia | Frankfurt | 6 | All Maps","name_short":"frk-6","host":"frk-1.de.uncletopia.com","port":27065,"enabled":true,"region":"eu","cc":"de","latitude":50.110924,"longitude":8.682127,"reserved":0,"last_update":"0001-01-01T00:00:00Z","name_a2s":"Uncletopia | Frankfurt | 6 | All Maps","protocol":17,"map":"pl_barnblitz","folder":"tf","game":"Team Fortress","app_id":440,"player_count":0,"max_players":24,"Bots":0,"server_type":"Dedicated","server_os":"Linux","password":true,"vac":true,"version":"7961495","steam_id":85568392924504278,"keywords":["nocrits","nodmgspread","payload","uncletopia"],"game_id":440,"stv_port":27066,"stv_name":"Uncletopia | Frankfurt | 6 | All Maps | STV","players":null},{"server_id":23,"name":"Uncletopia | Frankfurt | 7 | Stopwatch Beta","name_short":"frk-7","host":"frk-1.de.uncletopia.com","port":27075,"enabled":true,"region":"eu","cc":"de","latitude":50.110924,"longitude":8.682127,"reserved":0,"last_update":"0001-01-01T00:00:00Z","name_a2s":"Uncletopia | Frankfurt | 7 | Stopwatch Beta","protocol":17,"map":"koth_cascade","folder":"tf","game":"Team Fortress","app_id":440,"player_count":0,"max_players":24,"Bots":0,"server_type":"Dedicated","server_os":"Linux","password":true,"vac":true,"version":"7961495","steam_id":85568392924742827,"keywords":["cp","nocrits","nodmgspread","uncletopia"],"game_id":440,"stv_port":27076,"stv_name":"Uncletopia | Frankfurt | 7 | Stopwatch Beta | STV","players":null},{"server_id":24,"name":"Uncletopia | Frankfurt | 8 | Community","name_short":"frk-8","host":"frk-1.de.uncletopia.com","port":27085,"enabled":true,"region":"eu","cc":"de","latitude":50.110924,"longitude":8.682127,"reserved":0,"last_update":"0001-01-01T00:00:00Z","name_a2s":"Uncletopia | Frankfurt | 8 | Community","protocol":17,"map":"cp_dustbowl","folder":"tf","game":"Team Fortress","app_id":440,"player_count":0,"max_players":24,"Bots":0,"server_type":"Dedicated","server_os":"Linux","password":true,"vac":true,"version":"7961495","steam_id":85568392924742828,"keywords":["cp","nocrits","nodmgspread","uncletopia"],"game_id":440,"stv_port":27086,"stv_name":"Uncletopia | Frankfurt | 8 | Community | STV","players":null},{"server_id":202,"name":"Uncletopia | Hong Kong | 1 | All Maps","name_short":"hgk-1","host":"hgk-1.hk.uncletopia.com","port":27015,"enabled":true,"region":"asia","cc":"hk","latitude":22.302711,"longitude":114.177216,"reserved":0,"last_update":"0001-01-01T00:00:00Z","name_a2s":"Uncletopia | Hong Kong | 1 | All Maps","protocol":17,"map":"cp_mercenarypark","folder":"tf","game":"Team Fortress","app_id":440,"player_count":10,"max_players":24,"Bots":0,"server_type":"Dedicated","server_os":"Linux","password":true,"vac":true,"version":"7961495","steam_id":85568392924494504,"keywords":["cp","nocrits","nodmgspread","uncletopia"],"game_id":440,"stv_port":27016,"stv_name":"Uncletopia | Hong Kong | 1 | All Maps | STV","players":[{"user_id":180,"name":"the gamer","steam_id":76561199175442910,"connected_time":389000000000,"state":"active","ping":278},{"user_id":183,"name":"malkuth","steam_id":76561198230213828,"connected_time":227000000000,"state":"active","ping":56},{"user_id":153,"name":"Muerto","steam_id":76561198328718520,"connected_time":1774000000000,"state":"active","ping":104},{"user_id":176,"name":"Jimmy","steam_id":76561198411087075,"connected_time":537000000000,"state":"active","ping":55},{"user_id":184,"name":"ConHoshi","steam_id":76561199387718733,"connected_time":98000000000,"state":"active","ping":79},{"user_id":127,"name":"김광만","steam_id":76561198295279503,"connected_time":2970000000000,"state":"active","ping":83},{"user_id":178,"name":"Kiss-Shot","steam_id":76561198110518729,"connected_time":472000000000,"state":"active","ping":93},{"user_id":158,"name":":weed:","steam_id":76561198386626651,"connected_time":1320000000000,"state":"active","ping":60},{"user_id":142,"name":"watamelon","steam_id":76561197994194946,"connected_time":2406000000000,"state":"active","ping":91},{"user_id":125,"name":"toad","steam_id":76561198082199290,"connected_time":3223000000000,"state":"active","ping":53}]},{"server_id":1,"name":"Uncletopia | Los Angeles | 1 | All Maps","name_short":"lax-1","host":"lax-1.us.uncletopia.com","port":27015,"enabled":true,"region":"us-west","cc":"us","latitude":33.94279,"longitude":-118.41004,"reserved":0,"last_update":"0001-01-01T00:00:00Z","name_a2s":"Uncletopia | Los Angeles | 1 | All Maps","protocol":17,"map":"cp_dustbowl","folder":"tf","game":"Team Fortress","app_id":440,"player_count":24,"max_players":24,"Bots":0,"server_type":"Dedicated","server_os":"Linux","password":true,"vac":true,"version":"7961495","steam_id":85568392924469991,"keywords":["cp","nocrits","nodmgspread","uncletopia"],"game_id":440,"stv_port":27016,"stv_name":"Uncletopia | Los Angeles | 1 | All Maps | STV","players":[{"user_id":257,"name":"Runny Eggs","steam_id":76561198006785882,"connected_time":198000000000,"state":"active","ping":106},{"user_id":251,"name":"⛧Alkahestry","steam_id":76561198109641497,"connected_time":322000000000,"state":"active","ping":42},{"user_id":243,"name":"CheesyPoofs","steam_id":76561197998650617,"connected_time":1066000000000,"state":"active","ping":86},{"user_id":247,"name":"fertile moist and well drained","steam_id":76561198031409921,"connected_time":376000000000,"state":"active","ping":67},{"user_id":250,"name":"noelle","steam_id":76561198842577534,"connected_time":342000000000,"state":"active","ping":79},{"user_id":252,"name":"Matches_","steam_id":76561198048925904,"connected_time":280000000000,"state":"active","ping":60},{"user_id":249,"name":"gleek","steam_id":76561198105374054,"connected_time":361000000000,"state":"active","ping":62},{"user_id":220,"name":"exx","steam_id":76561198090552145,"connected_time":2543000000000,"state":"active","ping":49},{"user_id":248,"name":"jovial","steam_id":76561198297130941,"connected_time":374000000000,"state":"active","ping":46},{"user_id":253,"name":"mellowhype","steam_id":76561198040675606,"connected_time":268000000000,"state":"active","ping":80},{"user_id":238,"name":"Chiaki Nanami","steam_id":76561198164782653,"connected_time":1428000000000,"state":"active","ping":118},{"user_id":244,"name":"I'm using a drawing tablet","steam_id":76561198986639507,"connected_time":1022000000000,"state":"active","ping":72},{"user_id":239,"name":"gerg","steam_id":76561197997127387,"connected_time":1424000000000,"state":"active","ping":60},{"user_id":242,"name":"Phillip Jeffries","steam_id":76561198064052174,"connected_time":1169000000000,"state":"active","ping":111},{"user_id":254,"name":"Bread Wizard","steam_id":76561198123443402,"connected_time":232000000000,"state":"active","ping":53},{"user_id":140,"name":"Squatter1","steam_id":76561198078987734,"connected_time":7282000000000,"state":"active","ping":72},{"user_id":246,"name":"luigiclub","steam_id":76561198180548194,"connected_time":665000000000,"state":"active","ping":89},{"user_id":222,"name":"HAT-WEARING™ Maggot Gamer Cat","steam_id":76561197973992705,"connected_time":2474000000000,"state":"active","ping":69},{"user_id":241,"name":"social distance warrior","steam_id":76561198128992994,"connected_time":1387000000000,"state":"active","ping":75},{"user_id":255,"name":"HiddenEgg","steam_id":76561199045105518,"connected_time":227000000000,"state":"active","ping":51},{"user_id":256,"name":"Komada337","steam_id":76561198153971124,"connected_time":222000000000,"state":"active","ping":102},{"user_id":214,"name":"Buswolley","steam_id":76561197995205571,"connected_time":3049000000000,"state":"active","ping":69},{"user_id":245,"name":"Dooku","steam_id":76561198216958508,"connected_time":887000000000,"state":"active","ping":54},{"user_id":212,"name":"Mr. Noodle","steam_id":76561198025280658,"connected_time":3111000000000,"state":"active","ping":60}]},{"server_id":112,"name":"Uncletopia | Los Angeles | 2 | All Maps","name_short":"lax-2","host":"lax-1.us.uncletopia.com","port":27025,"enabled":true,"region":"us-west","cc":"us","latitude":33.94279,"longitude":-118.41004,"reserved":0,"last_update":"0001-01-01T00:00:00Z","name_a2s":"Uncletopia | Los Angeles | 2 | All Maps","protocol":17,"map":"pl_upward","folder":"tf","game":"Team Fortress","app_id":440,"player_count":24,"max_players":24,"Bots":0,"server_type":"Dedicated","server_os":"Linux","password":true,"vac":true,"version":"7961495","steam_id":85568392924469992,"keywords":["nocrits","nodmgspread","payload","uncletopia"],"game_id":440,"stv_port":27026,"stv_name":"Uncletopia | Los Angeles | 2 | All Maps | STV","players":[{"user_id":192,"name":"Sol","steam_id":76561198121500201,"connected_time":5587000000000,"state":"active","ping":46},{"user_id":261,"name":"Future Tusk","steam_id":76561198199635217,"connected_time":980000000000,"state":"active","ping":60},{"user_id":260,"name":"Toadwinter","steam_id":76561198329216601,"connected_time":988000000000,"state":"active","ping":55},{"user_id":272,"name":"RUF","steam_id":76561198062315805,"connected_time":303000000000,"state":"active","ping":58},{"user_id":257,"name":"MayKaye","steam_id":76561199016092265,"connected_time":1165000000000,"state":"active","ping":62},{"user_id":231,"name":"worker","steam_id":76561198039608940,"connected_time":2725000000000,"state":"active","ping":84},{"user_id":242,"name":"Thunder","steam_id":76561198097721532,"connected_time":2031000000000,"state":"active","ping":48},{"user_id":232,"name":"TheGhostThatWas","steam_id":76561198055836483,"connected_time":2719000000000,"state":"active","ping":104},{"user_id":233,"name":"Newport1","steam_id":76561198074614044,"connected_time":2677000000000,"state":"active","ping":42},{"user_id":256,"name":"LeadButterTF2","steam_id":76561198260530863,"connected_time":1171000000000,"state":"active","ping":44},{"user_id":221,"name":"GLXy","steam_id":76561198207551544,"connected_time":3476000000000,"state":"active","ping":76},{"user_id":269,"name":"the hot dog","steam_id":76561198442125983,"connected_time":504000000000,"state":"active","ping":56},{"user_id":266,"name":"Clobbadat","steam_id":76561198053828975,"connected_time":722000000000,"state":"active","ping":82},{"user_id":248,"name":"Jezzus","steam_id":76561199289676387,"connected_time":1602000000000,"state":"active","ping":91},{"user_id":244,"name":"Odd Life","steam_id":76561198244979998,"connected_time":2015000000000,"state":"active","ping":52},{"user_id":249,"name":"Ryle","steam_id":76561198216682264,"connected_time":1576000000000,"state":"active","ping":45},{"user_id":273,"name":"HeHedron","steam_id":76561199199667164,"connected_time":293000000000,"state":"active","ping":70},{"user_id":238,"name":"Person Man","steam_id":76561198293857963,"connected_time":2170000000000,"state":"active","ping":66},{"user_id":274,"name":"Brain Magic","steam_id":76561198010201477,"connected_time":292000000000,"state":"active","ping":56},{"user_id":268,"name":"Tam Honks","steam_id":76561198044347961,"connected_time":618000000000,"state":"active","ping":65},{"user_id":245,"name":"two scoops of a jar of somethin","steam_id":76561199029306384,"connected_time":2000000000000,"state":"active","ping":42},{"user_id":264,"name":"Did you know","steam_id":76561198090057040,"connected_time":935000000000,"state":"active","ping":65},{"user_id":265,"name":"Sheev Palpatine","steam_id":76561198252332430,"connected_time":933000000000,"state":"active","ping":77},{"user_id":276,"name":"Sábado Gigante","steam_id":76561197994685971,"connected_time":127000000000,"state":"active","ping":50}]},{"server_id":324,"name":"Uncletopia | Los Angeles | 3 | All Maps","name_short":"lax-3","host":"lax-1.us.uncletopia.com","port":27035,"enabled":true,"region":"us-west","cc":"us","latitude":33.94279,"longitude":-118.41004,"reserved":0,"last_update":"0001-01-01T00:00:00Z","name_a2s":"Uncletopia | Los Angeles | 3 | All Maps","protocol":17,"map":"cp_dustbowl","folder":"tf","game":"Team Fortress","app_id":440,"player_count":24,"max_players":24,"Bots":0,"server_type":"Dedicated","server_os":"Linux","password":true,"vac":true,"version":"7961495","steam_id":85568392924510198,"keywords":["cp","nocrits","nodmgspread","uncletopia"],"game_id":440,"stv_port":27036,"stv_name":"Uncletopia | Los Angeles | 3 | All Maps | STV","players":[{"user_id":649,"name":"Floor Ninja","steam_id":76561198215538528,"connected_time":11000000000,"state":"spawning","ping":41},{"user_id":641,"name":"Wanders","steam_id":76561198261193526,"connected_time":224000000000,"state":"active","ping":61},{"user_id":613,"name":"Cactus™ ♥","steam_id":76561198036441270,"connected_time":2813000000000,"state":"active","ping":76},{"user_id":639,"name":"plutonium isotope","steam_id":76561198319442494,"connected_time":478000000000,"state":"active","ping":57},{"user_id":574,"name":"Vintage TV","steam_id":76561198800334545,"connected_time":4805000000000,"state":"active","ping":45},{"user_id":614,"name":"Culprit Shy","steam_id":76561198206506481,"connected_time":2785000000000,"state":"active","ping":45},{"user_id":642,"name":"doctor sex","steam_id":76561199167569123,"connected_time":223000000000,"state":"active","ping":55},{"user_id":619,"name":"♦♣Quadric♥♠","steam_id":76561198061003853,"connected_time":2275000000000,"state":"active","ping":116},{"user_id":626,"name":"subwoofer","steam_id":76561198087200115,"connected_time":1360000000000,"state":"active","ping":69},{"user_id":644,"name":"An Alien Mango","steam_id":76561198864823970,"connected_time":105000000000,"state":"active","ping":102},{"user_id":647,"name":"thisisSteve","steam_id":76561198420882318,"connected_time":47000000000,"state":"active","ping":44},{"user_id":629,"name":"Ja","steam_id":76561198396340174,"connected_time":1309000000000,"state":"active","ping":111},{"user_id":604,"name":"coolbust carti","steam_id":76561198065384345,"connected_time":3326000000000,"state":"active","ping":54},{"user_id":638,"name":"MinusSoup918","steam_id":76561198060902773,"connected_time":939000000000,"state":"active","ping":67},{"user_id":612,"name":"[El Fail] MR.BadassMCLee","steam_id":76561198043787818,"connected_time":2931000000000,"state":"active","ping":61},{"user_id":630,"name":"ACK","steam_id":76561198130390689,"connected_time":1283000000000,"state":"active","ping":64},{"user_id":646,"name":"big car","steam_id":76561198067082350,"connected_time":72000000000,"state":"active","ping":58},{"user_id":632,"name":"Tony","steam_id":76561198395604099,"connected_time":1265000000000,"state":"active","ping":68},{"user_id":634,"name":"nice cheese","steam_id":76561199212189723,"connected_time":1210000000000,"state":"active","ping":51},{"user_id":648,"name":"Creet1724","steam_id":76561198811242017,"connected_time":43000000000,"state":"spawning","ping":46},{"user_id":568,"name":"Seriously Bruh","steam_id":76561198070408485,"connected_time":5222000000000,"state":"active","ping":73},{"user_id":635,"name":"Rix FPV","steam_id":76561198299320893,"connected_time":1196000000000,"state":"active","ping":105},{"user_id":643,"name":"Derp :p","steam_id":76561198303081758,"connected_time":178000000000,"state":"active","ping":50},{"user_id":573,"name":"SAVECASEY","steam_id":76561198857896847,"connected_time":4860000000000,"state":"active","ping":44}]},{"server_id":25,"name":"Uncletopia | Los Angeles | 4 | Stopwatch Beta","name_short":"lax-4","host":"lax-1.us.uncletopia.com","port":27045,"enabled":true,"region":"us-west","cc":"us","latitude":33.94279,"longitude":-118.41004,"reserved":0,"last_update":"0001-01-01T00:00:00Z","name_a2s":"Uncletopia | Los Angeles | 4 | Stopwatch Beta","protocol":17,"map":"pl_upward","folder":"tf","game":"Team Fortress","app_id":440,"player_count":0,"max_players":24,"Bots":0,"server_type":"Dedicated","server_os":"Linux","password":true,"vac":true,"version":"7961495","steam_id":85568392924510199,"keywords":["nocrits","nodmgspread","payload","uncletopia"],"game_id":440,"stv_port":27046,"stv_name":"Uncletopia | Los Angeles | 4 | Stopwatch Beta | STV","players":null},{"server_id":11,"name":"Uncletopia | London | 1 | All Maps","name_short":"lon-1","host":"lon-1.uk.uncletopia.com","port":27015,"enabled":true,"region":"eu","cc":"gb","latitude":51.509865,"longitude":-0.118092,"reserved":0,"last_update":"0001-01-01T00:00:00Z","name_a2s":"Uncletopia | London | 1 | All Maps","protocol":17,"map":"cp_snakewater_final1","folder":"tf","game":"Team Fortress","app_id":440,"player_count":13,"max_players":24,"Bots":0,"server_type":"Dedicated","server_os":"Linux","password":true,"vac":true,"version":"7961495","steam_id":85568392924367362,"keywords":["cp","nocrits","nodmgspread","uncletopia"],"game_id":440,"stv_port":27016,"stv_name":"Uncletopia | London | 1 | All Maps | STV","players":[{"user_id":909,"name":"Núúb","steam_id":76561198111933414,"connected_time":843000000000,"state":"active","ping":68},{"user_id":854,"name":"Psyche","steam_id":76561198091662001,"connected_time":6352000000000,"state":"active","ping":64},{"user_id":910,"name":"puck_panzer","steam_id":76561198121260981,"connected_time":728000000000,"state":"active","ping":43},{"user_id":902,"name":"Simon","steam_id":76561199362109830,"connected_time":1314000000000,"state":"active","ping":46},{"user_id":908,"name":"Menthol Cop","steam_id":76561198179817985,"connected_time":1123000000000,"state":"active","ping":138},{"user_id":888,"name":"Xeno","steam_id":76561198074667742,"connected_time":2601000000000,"state":"active","ping":70},{"user_id":904,"name":"dumbest bitch","steam_id":76561198097712283,"connected_time":1308000000000,"state":"active","ping":74},{"user_id":878,"name":"bird ideas","steam_id":76561199480942903,"connected_time":3298000000000,"state":"active","ping":74},{"user_id":879,"name":"The SuSter","steam_id":76561198344435644,"connected_time":3281000000000,"state":"active","ping":59},{"user_id":905,"name":"Thrackzog","steam_id":76561198183203745,"connected_time":1299000000000,"state":"active","ping":141},{"user_id":906,"name":"fortnite2001","steam_id":76561198992914023,"connected_time":1243000000000,"state":"active","ping":148},{"user_id":907,"name":"60Hz gaming","steam_id":76561198032698137,"connected_time":1239000000000,"state":"active","ping":70},{"user_id":887,"name":"Rob","steam_id":76561198122971317,"connected_time":2748000000000,"state":"active","ping":54}]},{"server_id":114,"name":"Uncletopia | London | 2 | All Maps","name_short":"lon-2","host":"lon-1.uk.uncletopia.com","port":27025,"enabled":true,"region":"eu","cc":"gb","latitude":51.509865,"longitude":-0.118092,"reserved":0,"last_update":"0001-01-01T00:00:00Z","name_a2s":"Uncletopia | London | 2 | All Maps","protocol":17,"map":"koth_lakeside_final","folder":"tf","game":"Team Fortress","app_id":440,"player_count":1,"max_players":24,"Bots":0,"server_type":"Dedicated","server_os":"Linux","password":true,"vac":true,"version":"7961495","steam_id":85568392924470941,"keywords":["cp","nocrits","nodmgspread","uncletopia"],"game_id":440,"stv_port":27026,"stv_name":"Uncletopia | London | 2 | All Maps | STV","players":[{"user_id":727,"name":"The Chad, The Bad, This Guy","steam_id":76561199215849598,"connected_time":93000000000,"state":"active","ping":79}]},{"server_id":320,"name":"Uncletopia | London | 3 | All Maps","name_short":"lon-3","host":"lon-1.uk.uncletopia.com","port":27035,"enabled":true,"region":"eu","cc":"gb","latitude":51.509865,"longitude":-0.118092,"reserved":0,"last_update":"0001-01-01T00:00:00Z","name_a2s":"Uncletopia | London | 3 | All Maps","protocol":17,"map":"pl_pier","folder":"tf","game":"Team Fortress","app_id":440,"player_count":0,"max_players":24,"Bots":0,"server_type":"Dedicated","server_os":"Linux","password":true,"vac":true,"version":"7961495","steam_id":85568392924510192,"keywords":["nocrits","nodmgspread","payload","uncletopia"],"game_id":440,"stv_port":27036,"stv_name":"Uncletopia | London | 3 | All Maps | STV","players":null},{"server_id":321,"name":"Uncletopia | London | 4 | All Maps","name_short":"lon-4","host":"lon-1.uk.uncletopia.com","port":27045,"enabled":true,"region":"eu","cc":"gb","latitude":51.509865,"longitude":-0.118092,"reserved":0,"last_update":"0001-01-01T00:00:00Z","name_a2s":"Uncletopia | London | 4 | All Maps","protocol":17,"map":"pl_snowycoast","folder":"tf","game":"Team Fortress","app_id":440,"player_count":0,"max_players":24,"Bots":0,"server_type":"Dedicated","server_os":"Linux","password":true,"vac":true,"version":"7961495","steam_id":85568392924510193,"keywords":["nocrits","nodmgspread","payload","uncletopia"],"game_id":440,"stv_port":27046,"stv_name":"Uncletopia | London | 4 | All Maps | STV","players":null},{"server_id":21,"name":"Uncletopia | London | 5 | All Maps","name_short":"lon-5","host":"lon-1.uk.uncletopia.com","port":27055,"enabled":true,"region":"eu","cc":"gb","latitude":51.509865,"longitude":-0.118092,"reserved":0,"last_update":"0001-01-01T00:00:00Z","name_a2s":"Uncletopia | London | 5 | All Maps","protocol":17,"map":"cp_process_final","folder":"tf","game":"Team Fortress","app_id":440,"player_count":0,"max_players":24,"Bots":0,"server_type":"Dedicated","server_os":"Linux","password":true,"vac":true,"version":"7961495","steam_id":85568392924742829,"keywords":["cp","nocrits","nodmgspread","uncletopia"],"game_id":440,"stv_port":27056,"stv_name":"Uncletopia | London | 5 | All Maps | STV","players":null},{"server_id":22,"name":"Uncletopia | London | 6 | All Maps","name_short":"lon-6","host":"lon-1.uk.uncletopia.com","port":27065,"enabled":true,"region":"eu","cc":"gb","latitude":51.509865,"longitude":-0.118092,"reserved":0,"last_update":"0001-01-01T00:00:00Z","name_a2s":"Uncletopia | London | 6 | All Maps","protocol":17,"map":"pl_swiftwater_final1","folder":"tf","game":"Team Fortress","app_id":440,"player_count":0,"max_players":24,"Bots":0,"server_type":"Dedicated","server_os":"Linux","password":true,"vac":true,"version":"7961495","steam_id":85568392924742830,"keywords":["nocrits","nodmgspread","payload","uncletopia"],"game_id":440,"stv_port":27066,"stv_name":"Uncletopia | London | 6 | All Maps | STV","players":null},{"server_id":40,"name":"Uncletopia | London | 7 | No Payload","name_short":"lon-7","host":"lon-1.uk.uncletopia.com","port":27075,"enabled":true,"region":"eu","cc":"gb","latitude":51.509865,"longitude":-0.118092,"reserved":0,"last_update":"0001-01-01T00:00:00Z","name_a2s":"Uncletopia | London | 7 | No Payload","protocol":17,"map":"cp_snakewater_final1","folder":"tf","game":"Team Fortress","app_id":440,"player_count":0,"max_players":24,"Bots":0,"server_type":"Dedicated","server_os":"Linux","password":true,"vac":true,"version":"7961495","steam_id":85568392924964314,"keywords":["cp","nocrits","nodmgspread","uncletopia"],"game_id":440,"stv_port":27076,"stv_name":"Uncletopia | London | 7 | No Payload | STV","players":null},{"server_id":41,"name":"Uncletopia | London | 8 | Community","name_short":"lon-8","host":"lon-1.uk.uncletopia.com","port":27085,"enabled":true,"region":"eu","cc":"gb","latitude":51.509865,"longitude":-0.118092,"reserved":0,"last_update":"0001-01-01T00:00:00Z","name_a2s":"Uncletopia | London | 8 | Community","protocol":17,"map":"workshop/koth_slaughter_rc1.ugc1712845210","folder":"tf","game":"Team Fortress","app_id":440,"player_count":0,"max_players":24,"Bots":0,"server_type":"Dedicated","server_os":"Linux","password":true,"vac":true,"version":"7961495","steam_id":85568392924964315,"keywords":["cp","nocrits","nodmgspread","uncletopia"],"game_id":440,"stv_port":27086,"stv_name":"Uncletopia | London | 8 | Community | STV","players":null},{"server_id":300,"name":"Uncletopia | Montréal | 1 | All Maps","name_short":"mtl-1","host":"mtl-1.ca.uncletopia.com","port":27015,"enabled":true,"region":"us-east","cc":"ca","latitude":45.50889,"longitude":-73.56167,"reserved":0,"last_update":"0001-01-01T00:00:00Z","name_a2s":"","protocol":0,"map":"","folder":"","game":"","app_id":0,"player_count":2,"max_players":0,"Bots":0,"server_type":"","server_os":"","password":false,"vac":false,"version":"","steam_id":0,"keywords":null,"game_id":0,"stv_port":0,"stv_name":"","players":[{"user_id":588,"name":"Polar","steam_id":76561198271964253,"connected_time":572000000000,"state":"active","ping":87},{"user_id":590,"name":"tincant","steam_id":76561198357137800,"connected_time":539000000000,"state":"active","ping":130}]},{"server_id":301,"name":"Uncletopia | Montréal | 2 | All Maps","name_short":"mtl-2","host":"mtl-1.ca.uncletopia.com","port":27025,"enabled":true,"region":"us-east","cc":"ca","latitude":45.50889,"longitude":-73.56167,"reserved":0,"last_update":"0001-01-01T00:00:00Z","name_a2s":"","protocol":0,"map":"","folder":"","game":"","app_id":0,"player_count":24,"max_players":0,"Bots":0,"server_type":"","server_os":"","password":false,"vac":false,"version":"","steam_id":0,"keywords":null,"game_id":0,"stv_port":0,"stv_name":"","players":[{"user_id":136,"name":"[chef] iron","steam_id":76561197970888616,"connected_time":1508000000000,"state":"active","ping":58},{"user_id":143,"name":"Tripll-L","steam_id":76561197998077437,"connected_time":525000000000,"state":"active","ping":92},{"user_id":154,"name":"heck","steam_id":76561198308547958,"connected_time":202000000000,"state":"active","ping":69},{"user_id":110,"name":"Maokai","steam_id":76561198067176829,"connected_time":3250000000000,"state":"active","ping":124},{"user_id":129,"name":"Croc_Cheese","steam_id":76561199018907423,"connected_time":1820000000000,"state":"active","ping":91},{"user_id":107,"name":"froggy","steam_id":76561198079405234,"connected_time":3537000000000,"state":"active","ping":46},{"user_id":48,"name":"supahotkittyz","steam_id":76561198901020874,"connected_time":6523000000000,"state":"active","ping":60},{"user_id":145,"name":"Pizza","steam_id":76561198118748364,"connected_time":519000000000,"state":"active","ping":84},{"user_id":149,"name":"Loser","steam_id":76561198260540499,"connected_time":441000000000,"state":"active","ping":72},{"user_id":146,"name":"tosm-AA-","steam_id":76561198130032444,"connected_time":514000000000,"state":"active","ping":106},{"user_id":139,"name":"Mythical Lag","steam_id":76561198347031281,"connected_time":777000000000,"state":"active","ping":84},{"user_id":131,"name":"Өchpochmak","steam_id":76561198434212101,"connected_time":1757000000000,"state":"active","ping":67},{"user_id":147,"name":"Lore","steam_id":76561198098407538,"connected_time":493000000000,"state":"active","ping":71},{"user_id":122,"name":"Devoid","steam_id":76561198254039012,"connected_time":2261000000000,"state":"active","ping":49},{"user_id":151,"name":"Silverkeys","steam_id":76561197986012496,"connected_time":364000000000,"state":"active","ping":69},{"user_id":150,"name":"slayerluggyII","steam_id":76561198048104611,"connected_time":430000000000,"state":"active","ping":55},{"user_id":69,"name":"foreskin gaming","steam_id":76561198113407992,"connected_time":5432000000000,"state":"active","ping":45},{"user_id":120,"name":"Makina","steam_id":76561198057475567,"connected_time":2297000000000,"state":"active","ping":90},{"user_id":108,"name":"lili of the valley","steam_id":76561198253172399,"connected_time":3489000000000,"state":"active","ping":77},{"user_id":152,"name":"Lil Bo L33T","steam_id":76561198041843704,"connected_time":361000000000,"state":"active","ping":81},{"user_id":141,"name":"Renota","steam_id":76561198058224488,"connected_time":585000000000,"state":"active","ping":60},{"user_id":153,"name":"protect your dreams","steam_id":76561197998103691,"connected_time":330000000000,"state":"active","ping":116},{"user_id":91,"name":"No Chance of Pearly Gates","steam_id":76561198042570322,"connected_time":4577000000000,"state":"active","ping":69},{"user_id":137,"name":"Xii","steam_id":76561198860209947,"connected_time":1448000000000,"state":"active","ping":67}]},{"server_id":302,"name":"Uncletopia | Montréal | 3 | All Maps","name_short":"mtl-3","host":"mtl-1.ca.uncletopia.com","port":27035,"enabled":true,"region":"us-east","cc":"ca","latitude":45.50889,"longitude":-73.56167,"reserved":0,"last_update":"0001-01-01T00:00:00Z","name_a2s":"","protocol":0,"map":"","folder":"","game":"","app_id":0,"player_count":0,"max_players":0,"Bots":0,"server_type":"","server_os":"","password":false,"vac":false,"version":"","steam_id":0,"keywords":null,"game_id":0,"stv_port":0,"stv_name":"","players":null},{"server_id":303,"name":"Uncletopia | Montréal | 4 | No Payload","name_short":"mtl-4","host":"mtl-1.ca.uncletopia.com","port":27045,"enabled":true,"region":"us-east","cc":"ca","latitude":45.50889,"longitude":-73.56167,"reserved":0,"last_update":"0001-01-01T00:00:00Z","name_a2s":"","protocol":0,"map":"","folder":"","game":"","app_id":0,"player_count":0,"max_players":0,"Bots":0,"server_type":"","server_os":"","password":false,"vac":false,"version":"","steam_id":0,"keywords":null,"game_id":0,"stv_port":0,"stv_name":"","players":null},{"server_id":13,"name":"Uncletopia | New York City | 1 | All Maps","name_short":"nyc-1","host":"nyc-1.us.uncletopia.com","port":27015,"enabled":true,"region":"us-east","cc":"us","latitude":40.73061,"longitude":-73.93524,"reserved":0,"last_update":"0001-01-01T00:00:00Z","name_a2s":"Uncletopia | New York City | 1 | All Maps","protocol":17,"map":"cp_snakewater_final1","folder":"tf","game":"Team Fortress","app_id":440,"player_count":24,"max_players":24,"Bots":0,"server_type":"Dedicated","server_os":"Linux","password":true,"vac":true,"version":"7961495","steam_id":85568392924469993,"keywords":["cp","nocrits","nodmgspread","uncletopia"],"game_id":440,"stv_port":27016,"stv_name":"Uncletopia | New York City | 1 | All Maps | STV","players":[{"user_id":694,"name":"Arentrir","steam_id":76561198334126785,"connected_time":2675000000000,"state":"active","ping":135},{"user_id":721,"name":"doctorbowl","steam_id":76561198398475350,"connected_time":850000000000,"state":"active","ping":58},{"user_id":669,"name":"professorman","steam_id":76561198041882328,"connected_time":4718000000000,"state":"active","ping":55},{"user_id":705,"name":"twinkhole sinkhole","steam_id":76561198149775502,"connected_time":2108000000000,"state":"active","ping":51},{"user_id":722,"name":"flamingcookies","steam_id":76561198280864779,"connected_time":821000000000,"state":"active","ping":71},{"user_id":656,"name":"malon milk","steam_id":76561198042558913,"connected_time":5698000000000,"state":"active","ping":58},{"user_id":692,"name":"BB Lorexav","steam_id":76561198207565988,"connected_time":2797000000000,"state":"active","ping":78},{"user_id":675,"name":"Porcupine's Revenge!","steam_id":76561199121615234,"connected_time":4453000000000,"state":"active","ping":46},{"user_id":695,"name":"skosgo -eg","steam_id":76561197996403345,"connected_time":2666000000000,"state":"active","ping":111},{"user_id":710,"name":"Mog","steam_id":76561198025575870,"connected_time":1534000000000,"state":"active","ping":60},{"user_id":702,"name":"☹","steam_id":76561198804763186,"connected_time":2461000000000,"state":"active","ping":45},{"user_id":708,"name":"Coach Twig","steam_id":76561198058831591,"connected_time":1583000000000,"state":"active","ping":49},{"user_id":725,"name":"Five","steam_id":76561198026640473,"connected_time":376000000000,"state":"active","ping":89},{"user_id":711,"name":"Lord Scrubling","steam_id":76561198263744445,"connected_time":1533000000000,"state":"active","ping":80},{"user_id":689,"name":"SpongedSocks","steam_id":76561198374009086,"connected_time":3288000000000,"state":"active","ping":46},{"user_id":724,"name":"theghazinator","steam_id":76561198188027695,"connected_time":398000000000,"state":"active","ping":67},{"user_id":715,"name":"ErenJenga54","steam_id":76561199066185761,"connected_time":1245000000000,"state":"active","ping":134},{"user_id":706,"name":"the j","steam_id":76561198257263022,"connected_time":2081000000000,"state":"active","ping":64},{"user_id":718,"name":"sheep man shaun","steam_id":76561198994349483,"connected_time":910000000000,"state":"active","ping":121},{"user_id":607,"name":"XX_gamer2001_XxX","steam_id":76561198105405869,"connected_time":10995000000000,"state":"active","ping":89},{"user_id":701,"name":"Gitt Midgetstien","steam_id":76561198006890639,"connected_time":2602000000000,"state":"active","ping":87},{"user_id":712,"name":"vyx","steam_id":76561198037205391,"connected_time":1524000000000,"state":"active","ping":91},{"user_id":551,"name":"space man","steam_id":76561198066333670,"connected_time":15257000000000,"state":"active","ping":62},{"user_id":726,"name":"Dravenation","steam_id":76561198012411483,"connected_time":109000000000,"state":"active","ping":85}]},{"server_id":14,"name":"Uncletopia | New York City | 2 | All Maps","name_short":"nyc-2","host":"nyc-1.us.uncletopia.com","port":27025,"enabled":true,"region":"us-east","cc":"us","latitude":40.73061,"longitude":-73.93524,"reserved":0,"last_update":"0001-01-01T00:00:00Z","name_a2s":"Uncletopia | New York City | 2 | All Maps","protocol":17,"map":"pl_goldrush","folder":"tf","game":"Team Fortress","app_id":440,"player_count":24,"max_players":24,"Bots":0,"server_type":"Dedicated","server_os":"Linux","password":true,"vac":true,"version":"7961495","steam_id":85568392924469994,"keywords":["nocrits","nodmgspread","payload","uncletopia"],"game_id":440,"stv_port":27026,"stv_name":"Uncletopia | New York City | 2 | All Maps | STV","players":[{"user_id":853,"name":"götóttir sokkar","steam_id":76561197999657118,"connected_time":1685000000000,"state":"active","ping":66},{"user_id":836,"name":"Weeb","steam_id":76561198333568146,"connected_time":2865000000000,"state":"active","ping":62},{"user_id":851,"name":"uheggwhite","steam_id":76561199199795741,"connected_time":1964000000000,"state":"active","ping":92},{"user_id":844,"name":"Grand Piano Tuna","steam_id":76561198135137213,"connected_time":2048000000000,"state":"active","ping":71},{"user_id":840,"name":"The Wave","steam_id":76561198268225109,"connected_time":2254000000000,"state":"active","ping":81},{"user_id":846,"name":"MelonLikeAFelon","steam_id":76561198060170336,"connected_time":2031000000000,"state":"active","ping":86},{"user_id":866,"name":"Like a seal 😏","steam_id":76561198180951431,"connected_time":776000000000,"state":"active","ping":46},{"user_id":856,"name":"Herdez Hot Salsa","steam_id":76561197991740906,"connected_time":1485000000000,"state":"active","ping":68},{"user_id":855,"name":"just jazz","steam_id":76561198010637797,"connected_time":1528000000000,"state":"active","ping":88},{"user_id":867,"name":"Sea Nawks","steam_id":76561198110023381,"connected_time":772000000000,"state":"active","ping":75},{"user_id":831,"name":"Speedy","steam_id":76561198080761661,"connected_time":3041000000000,"state":"active","ping":63},{"user_id":842,"name":"SawyerSaur","steam_id":76561198872835142,"connected_time":2054000000000,"state":"active","ping":86},{"user_id":768,"name":"Miner2495","steam_id":76561198445904523,"connected_time":8008000000000,"state":"active","ping":66},{"user_id":868,"name":"Relare","steam_id":76561198004059718,"connected_time":173000000000,"state":"active","ping":77},{"user_id":813,"name":"Okpar","steam_id":76561199221067945,"connected_time":4452000000000,"state":"active","ping":97},{"user_id":854,"name":"Tots","steam_id":76561198027485007,"connected_time":1627000000000,"state":"active","ping":61},{"user_id":862,"name":"Murrdogg","steam_id":76561198210491188,"connected_time":1236000000000,"state":"active","ping":82},{"user_id":845,"name":"Ziggy Stardust","steam_id":76561198226531404,"connected_time":2041000000000,"state":"active","ping":69},{"user_id":865,"name":"take me back to november","steam_id":76561198099412571,"connected_time":797000000000,"state":"active","ping":45},{"user_id":834,"name":"The_Tax_Man","steam_id":76561198205246144,"connected_time":2912000000000,"state":"active","ping":101},{"user_id":849,"name":"evnobev","steam_id":76561198038966462,"connected_time":2005000000000,"state":"active","ping":39},{"user_id":860,"name":"[TF2Apples] Intense Green Apple","steam_id":76561198803561622,"connected_time":1351000000000,"state":"active","ping":82},{"user_id":861,"name":"Wiener Hole Paper Cut","steam_id":76561198000808203,"connected_time":1307000000000,"state":"active","ping":60},{"user_id":863,"name":"Jamendithas","steam_id":76561198119537716,"connected_time":942000000000,"state":"active","ping":61}]},{"server_id":15,"name":"Uncletopia | New York City | 3 | Stopwatch Beta","name_short":"nyc-3","host":"nyc-1.us.uncletopia.com","port":27035,"enabled":true,"region":"us-east","cc":"us","latitude":40.73061,"longitude":-73.93524,"reserved":0,"last_update":"0001-01-01T00:00:00Z","name_a2s":"Uncletopia | New York City | 3 | Stopwatch Beta","protocol":17,"map":"koth_lakeside_final","folder":"tf","game":"Team Fortress","app_id":440,"player_count":7,"max_players":24,"Bots":0,"server_type":"Dedicated","server_os":"Linux","password":true,"vac":true,"version":"7961495","steam_id":85568392924742820,"keywords":["cp","nocrits","nodmgspread","uncletopia"],"game_id":440,"stv_port":27036,"stv_name":"Uncletopia | New York City | 3 | Stopwatch Beta | STV","players":[{"user_id":28,"name":"3D Squelton","steam_id":76561198082762629,"connected_time":343000000000,"state":"active","ping":69},{"user_id":27,"name":"spudn1k","steam_id":76561198103084268,"connected_time":455000000000,"state":"active","ping":69},{"user_id":29,"name":"Deathor","steam_id":76561198072960817,"connected_time":330000000000,"state":"active","ping":69},{"user_id":30,"name":"buh","steam_id":76561198175113859,"connected_time":280000000000,"state":"active","ping":74},{"user_id":31,"name":"Sunset_Glimmer","steam_id":76561198389718156,"connected_time":273000000000,"state":"active","ping":50},{"user_id":32,"name":"19th Cowboy","steam_id":76561198166454148,"connected_time":263000000000,"state":"active","ping":78},{"user_id":33,"name":"Lydians","steam_id":76561198057985908,"connected_time":177000000000,"state":"active","ping":71}]},{"server_id":16,"name":"Uncletopia | New York City | 4 | Community","name_short":"nyc-4","host":"nyc-1.us.uncletopia.com","port":27045,"enabled":true,"region":"us-east","cc":"us","latitude":40.73061,"longitude":-73.93524,"reserved":0,"last_update":"0001-01-01T00:00:00Z","name_a2s":"Uncletopia | New York City | 4 | Community","protocol":17,"map":"workshop/koth_product_final.ugc454272353","folder":"tf","game":"Team Fortress","app_id":440,"player_count":0,"max_players":24,"Bots":0,"server_type":"Dedicated","server_os":"Linux","password":true,"vac":true,"version":"7961495","steam_id":85568392924742821,"keywords":["cp","nocrits","nodmgspread","uncletopia"],"game_id":440,"stv_port":27046,"stv_name":"Uncletopia | New York City | 4 | Community | STV","players":null},{"server_id":142,"name":"Uncletopia | São Paulo | 1 | All Maps","name_short":"sao-1","host":"sao-1.br.uncletopia.com","port":27015,"enabled":true,"region":"sa","cc":"br","latitude":-23.533773,"longitude":-46.62529,"reserved":0,"last_update":"0001-01-01T00:00:00Z","name_a2s":"Uncletopia | São Paulo | 1 | All Maps","protocol":17,"map":"pl_barnblitz","folder":"tf","game":"Team Fortress","app_id":440,"player_count":4,"max_players":24,"Bots":0,"server_type":"Dedicated","server_os":"Linux","password":true,"vac":true,"version":"7961495","steam_id":85568392924469996,"keywords":["nocrits","nodmgspread","payload","uncletopia"],"game_id":440,"stv_port":27016,"stv_name":"Uncletopia | São Paulo | 1 | All Maps | STV","players":[{"user_id":108,"name":"Slz.","steam_id":76561199156075097,"connected_time":4231000000000,"state":"active","ping":56},{"user_id":109,"name":"Zezerdison","steam_id":76561198974347652,"connected_time":4190000000000,"state":"active","ping":70},{"user_id":110,"name":"kdhbuilder","steam_id":76561199058095193,"connected_time":3878000000000,"state":"active","ping":206},{"user_id":114,"name":"NotTony69","steam_id":76561199122717140,"connected_time":336000000000,"state":"active","ping":217}]},{"server_id":143,"name":"Uncletopia | São Paulo | 2 | Community","name_short":"sao-2","host":"sao-2.br.uncletopia.com","port":27015,"enabled":true,"region":"sa","cc":"br","latitude":-23.533773,"longitude":-46.62529,"reserved":0,"last_update":"0001-01-01T00:00:00Z","name_a2s":"Uncletopia | São Paulo | 2 | Community","protocol":17,"map":"workshop/cp_mannbase_rc2a.ugc1900737467","folder":"tf","game":"Team Fortress","app_id":440,"player_count":0,"max_players":24,"Bots":0,"server_type":"Dedicated","server_os":"Linux","password":true,"vac":true,"version":"7961495","steam_id":85568392924485349,"keywords":["cp","nocrits","nodmgspread","uncletopia"],"game_id":440,"stv_port":27016,"stv_name":"Uncletopia | São Paulo | 2 | Community | STV","players":null},{"server_id":7,"name":"Uncletopia | Seattle | 1 | All Maps","name_short":"sea-1","host":"sea-1.us.uncletopia.com","port":27015,"enabled":true,"region":"us-west","cc":"us","latitude":47.608013,"longitude":-122.33517,"reserved":0,"last_update":"0001-01-01T00:00:00Z","name_a2s":"Uncletopia | Seattle | 1 | All Maps","protocol":17,"map":"cp_sunshine","folder":"tf","game":"Team Fortress","app_id":440,"player_count":24,"max_players":24,"Bots":0,"server_type":"Dedicated","server_os":"Linux","password":true,"vac":true,"version":"7961495","steam_id":85568392924469997,"keywords":["cp","nocrits","nodmgspread","uncletopia"],"game_id":440,"stv_port":27016,"stv_name":"Uncletopia | Seattle | 1 | All Maps | STV","players":[{"user_id":3,"name":"OneMisguidedSlyGuy","steam_id":76561198372243261,"connected_time":597000000000,"state":"active","ping":70},{"user_id":4,"name":"zpalmtree","steam_id":76561198134307620,"connected_time":595000000000,"state":"active","ping":116},{"user_id":16,"name":"yolginmo","steam_id":76561198157985901,"connected_time":536000000000,"state":"active","ping":59},{"user_id":6,"name":"William P. Ennis","steam_id":76561198073464877,"connected_time":593000000000,"state":"active","ping":76},{"user_id":7,"name":"Ayayayayayahuasca","steam_id":76561199002906056,"connected_time":593000000000,"state":"active","ping":48},{"user_id":8,"name":"Ducks","steam_id":76561198130038345,"connected_time":593000000000,"state":"active","ping":62},{"user_id":31,"name":"Mufalito","steam_id":76561198951889482,"connected_time":25000000000,"state":"active","ping":165},{"user_id":10,"name":"NEBULA","steam_id":76561198086878595,"connected_time":585000000000,"state":"active","ping":74},{"user_id":11,"name":"WaffleWithNoToppings","steam_id":76561199088280111,"connected_time":583000000000,"state":"active","ping":54},{"user_id":12,"name":"turtle","steam_id":76561198112673874,"connected_time":576000000000,"state":"active","ping":70},{"user_id":13,"name":"Flexo","steam_id":76561198111618506,"connected_time":567000000000,"state":"active","ping":71},{"user_id":14,"name":"3van","steam_id":76561198217229039,"connected_time":563000000000,"state":"active","ping":48},{"user_id":15,"name":"fragadelphia","steam_id":76561198066116363,"connected_time":563000000000,"state":"active","ping":45},{"user_id":17,"name":"theconqueror","steam_id":76561199229806456,"connected_time":530000000000,"state":"active","ping":118},{"user_id":30,"name":"Craftyjumper","steam_id":76561198126421562,"connected_time":50000000000,"state":"spawning","ping":60},{"user_id":19,"name":"?","steam_id":76561198209880837,"connected_time":513000000000,"state":"active","ping":45},{"user_id":20,"name":"no vc no c","steam_id":76561197989503095,"connected_time":510000000000,"state":"active","ping":152},{"user_id":21,"name":"Mocha Josie","steam_id":76561198066452726,"connected_time":509000000000,"state":"active","ping":76},{"user_id":23,"name":"Dr. Karl, the AUS Science Guy","steam_id":76561198031278747,"connected_time":470000000000,"state":"active","ping":50},{"user_id":24,"name":"Noah","steam_id":76561198059048749,"connected_time":463000000000,"state":"active","ping":59},{"user_id":25,"name":"Bottle V2","steam_id":76561199208835578,"connected_time":462000000000,"state":"active","ping":58},{"user_id":26,"name":"xvadan","steam_id":76561198989206670,"connected_time":441000000000,"state":"active","ping":88},{"user_id":28,"name":"PJROCK101","steam_id":76561198070616561,"connected_time":263000000000,"state":"active","ping":64},{"user_id":29,"name":"Henchie!","steam_id":76561198047567464,"connected_time":244000000000,"state":"active","ping":101}]},{"server_id":119,"name":"Uncletopia | Seattle | 2 | All Maps","name_short":"sea-2","host":"sea-1.us.uncletopia.com","port":27025,"enabled":true,"region":"us-west","cc":"us","latitude":47.608013,"longitude":-122.33517,"reserved":0,"last_update":"0001-01-01T00:00:00Z","name_a2s":"Uncletopia | Seattle | 2 | All Maps","protocol":17,"map":"pl_swiftwater_final1","folder":"tf","game":"Team Fortress","app_id":440,"player_count":24,"max_players":24,"Bots":0,"server_type":"Dedicated","server_os":"Linux","password":true,"vac":true,"version":"7961495","steam_id":85568392924469998,"keywords":["nocrits","nodmgspread","payload","uncletopia"],"game_id":440,"stv_port":27026,"stv_name":"Uncletopia | Seattle | 2 | All Maps | STV","players":[{"user_id":3,"name":"pete davidson","steam_id":76561198073549508,"connected_time":586000000000,"state":"active","ping":75},{"user_id":4,"name":"rat gets the cheese","steam_id":76561198031234032,"connected_time":586000000000,"state":"active","ping":99},{"user_id":5,"name":"fishykid477","steam_id":76561198161403931,"connected_time":585000000000,"state":"active","ping":105},{"user_id":18,"name":"bcizzo","steam_id":76561197994399953,"connected_time":421000000000,"state":"active","ping":67},{"user_id":7,"name":"Vibrantword3732","steam_id":76561198916638641,"connected_time":583000000000,"state":"active","ping":78},{"user_id":8,"name":"lug nut larry","steam_id":76561198170643378,"connected_time":565000000000,"state":"active","ping":78},{"user_id":33,"name":"Maurdakar","steam_id":76561197983420976,"connected_time":222000000000,"state":"active","ping":115},{"user_id":10,"name":"mub","steam_id":76561197961943948,"connected_time":562000000000,"state":"active","ping":49},{"user_id":11,"name":"greens beans","steam_id":76561198153611491,"connected_time":553000000000,"state":"active","ping":40},{"user_id":12,"name":"myunicorn","steam_id":76561199391478575,"connected_time":548000000000,"state":"active","ping":71},{"user_id":13,"name":"Mapachito Lindo","steam_id":76561198031359995,"connected_time":546000000000,"state":"active","ping":44},{"user_id":14,"name":"mine diam","steam_id":76561198119123981,"connected_time":530000000000,"state":"active","ping":58},{"user_id":16,"name":"tzarVOLVER","steam_id":76561198029581713,"connected_time":497000000000,"state":"active","ping":118},{"user_id":17,"name":"Aesthetix","steam_id":76561197995511642,"connected_time":486000000000,"state":"active","ping":63},{"user_id":32,"name":"Im Owlsey","steam_id":76561198103655351,"connected_time":241000000000,"state":"active","ping":96},{"user_id":22,"name":"kemonostyle","steam_id":76561198054280340,"connected_time":365000000000,"state":"active","ping":71},{"user_id":31,"name":"NickoDeeBz","steam_id":76561198294657867,"connected_time":258000000000,"state":"active","ping":78},{"user_id":24,"name":"ejschild745","steam_id":76561199013388867,"connected_time":356000000000,"state":"active","ping":76},{"user_id":25,"name":"Jew Man Jones","steam_id":76561198126552898,"connected_time":348000000000,"state":"active","ping":83},{"user_id":26,"name":"xpcrazyj","steam_id":76561198072625352,"connected_time":345000000000,"state":"active","ping":87},{"user_id":27,"name":"GameBreaker","steam_id":76561198836171572,"connected_time":331000000000,"state":"active","ping":62},{"user_id":28,"name":"Hyper-Sexist Gender Shredder","steam_id":76561198094750009,"connected_time":331000000000,"state":"active","ping":45},{"user_id":29,"name":"Outlier","steam_id":76561199093787770,"connected_time":319000000000,"state":"active","ping":141},{"user_id":30,"name":"Krashovo","steam_id":76561198880163891,"connected_time":312000000000,"state":"active","ping":112}]},{"server_id":406,"name":"Uncletopia | Seattle | 3 | Stopwatch Beta","name_short":"sea-3","host":"sea-1.us.uncletopia.com","port":27035,"enabled":true,"region":"us-west","cc":"us","latitude":47.608013,"longitude":-122.33517,"reserved":0,"last_update":"0001-01-01T00:00:00Z","name_a2s":"Uncletopia | Seattle | 3 | Stopwatch Beta","protocol":17,"map":"cp_process_final","folder":"tf","game":"Team Fortress","app_id":440,"player_count":0,"max_players":24,"Bots":0,"server_type":"Dedicated","server_os":"Linux","password":true,"vac":true,"version":"7961495","steam_id":85568392924515217,"keywords":["cp","nocrits","nodmgspread","uncletopia"],"game_id":440,"stv_port":27036,"stv_name":"Uncletopia | Seattle | 3 | Stopwatch Beta | STV","players":null},{"server_id":17,"name":"Uncletopia | San Francisco | 1 | All Maps","name_short":"sfo-1","host":"sfo-1.us.uncletopia.com","port":27015,"enabled":true,"region":"us-west","cc":"us","latitude":37.77397,"longitude":-122.4313,"reserved":0,"last_update":"0001-01-01T00:00:00Z","name_a2s":"Uncletopia | San Francisco | 1 | All Maps","protocol":17,"map":"pl_upward","folder":"tf","game":"Team Fortress","app_id":440,"player_count":24,"max_players":24,"Bots":0,"server_type":"Dedicated","server_os":"Linux","password":true,"vac":true,"version":"7961495","steam_id":85568392924469999,"keywords":["nocrits","nodmgspread","payload","uncletopia"],"game_id":440,"stv_port":27016,"stv_name":"Uncletopia | San Francisco | 1 | All Maps | STV","players":[{"user_id":323,"name":"crowe","steam_id":76561198142185527,"connected_time":1199000000000,"state":"active","ping":58},{"user_id":265,"name":"St. Bobson Q Dugnutt III Esq Sr","steam_id":76561197993459985,"connected_time":4770000000000,"state":"active","ping":119},{"user_id":324,"name":"ExpertScabPicker","steam_id":76561198081961642,"connected_time":1172000000000,"state":"active","ping":68},{"user_id":335,"name":"Sunny","steam_id":76561198261667312,"connected_time":691000000000,"state":"active","ping":66},{"user_id":342,"name":"The Smell of Jazz","steam_id":76561198005860388,"connected_time":67000000000,"state":"active","ping":57},{"user_id":275,"name":"juliet","steam_id":76561198239588280,"connected_time":4098000000000,"state":"active","ping":109},{"user_id":326,"name":"Da_Hippopotamus","steam_id":76561198802775925,"connected_time":1067000000000,"state":"active","ping":57},{"user_id":341,"name":"Deep Peepus","steam_id":76561198205395757,"connected_time":71000000000,"state":"active","ping":143},{"user_id":284,"name":"rad killl raccoon","steam_id":76561198980975595,"connected_time":3631000000000,"state":"active","ping":85},{"user_id":338,"name":"Rafl","steam_id":76561198055222756,"connected_time":313000000000,"state":"active","ping":77},{"user_id":291,"name":"Zizen","steam_id":76561199011832069,"connected_time":2925000000000,"state":"active","ping":58},{"user_id":257,"name":"1 Great Wooden Dad","steam_id":76561198377126974,"connected_time":4965000000000,"state":"active","ping":122},{"user_id":339,"name":"Jaredth eswaglo","steam_id":76561198210090967,"connected_time":312000000000,"state":"active","ping":100},{"user_id":334,"name":"Funkmaster yee","steam_id":76561198037738918,"connected_time":856000000000,"state":"active","ping":63},{"user_id":327,"name":"ZanderZX","steam_id":76561199174834047,"connected_time":1067000000000,"state":"active","ping":122},{"user_id":340,"name":"shoutyman","steam_id":76561198055456198,"connected_time":309000000000,"state":"active","ping":96},{"user_id":303,"name":"JACK BRUNO","steam_id":76561198027957690,"connected_time":2539000000000,"state":"active","ping":62},{"user_id":297,"name":"Luna_Blossom","steam_id":76561198816384987,"connected_time":2765000000000,"state":"active","ping":65},{"user_id":325,"name":"LACTOSE","steam_id":76561198282604344,"connected_time":1112000000000,"state":"active","ping":55},{"user_id":322,"name":"✪ Jam","steam_id":76561198101672564,"connected_time":1360000000000,"state":"active","ping":50},{"user_id":328,"name":"Hexelss","steam_id":76561198439963761,"connected_time":1058000000000,"state":"active","ping":77},{"user_id":329,"name":"ISEEU456","steam_id":76561198069648430,"connected_time":1028000000000,"state":"active","ping":82},{"user_id":332,"name":"clegane","steam_id":76561198187827373,"connected_time":929000000000,"state":"active","ping":55},{"user_id":331,"name":"SenTreats","steam_id":76561198085835841,"connected_time":1010000000000,"state":"active","ping":69}]},{"server_id":18,"name":"Uncletopia | San Francisco | 2 | All Maps","name_short":"sfo-2","host":"sfo-1.us.uncletopia.com","port":27025,"enabled":true,"region":"us-west","cc":"us","latitude":37.77397,"longitude":-122.4313,"reserved":0,"last_update":"0001-01-01T00:00:00Z","name_a2s":"Uncletopia | San Francisco | 2 | All Maps","protocol":17,"map":"pl_barnblitz","folder":"tf","game":"Team Fortress","app_id":440,"player_count":24,"max_players":24,"Bots":0,"server_type":"Dedicated","server_os":"Linux","password":true,"vac":true,"version":"7961495","steam_id":85568392924470000,"keywords":["nocrits","nodmgspread","payload","uncletopia"],"game_id":440,"stv_port":27026,"stv_name":"Uncletopia | San Francisco | 2 | All Maps | STV","players":[{"user_id":733,"name":"Windfall","steam_id":76561198046500859,"connected_time":2531000000000,"state":"active","ping":59},{"user_id":758,"name":"Mr Happy","steam_id":76561198067689328,"connected_time":1304000000000,"state":"active","ping":95},{"user_id":735,"name":"Papes","steam_id":76561198174593497,"connected_time":2387000000000,"state":"active","ping":73},{"user_id":762,"name":"Old Man Tricks","steam_id":76561197984526216,"connected_time":1043000000000,"state":"active","ping":81},{"user_id":737,"name":"mrthugpug1732","steam_id":76561198881200768,"connected_time":2225000000000,"state":"active","ping":68},{"user_id":729,"name":"YouAreReadingThis","steam_id":76561198367831600,"connected_time":3419000000000,"state":"active","ping":70},{"user_id":748,"name":"krcwettg3","steam_id":76561198811015090,"connected_time":1881000000000,"state":"active","ping":122},{"user_id":760,"name":"fart thief","steam_id":76561198046073848,"connected_time":1293000000000,"state":"active","ping":61},{"user_id":754,"name":"Ice cream sandwich","steam_id":76561198172748357,"connected_time":1655000000000,"state":"active","ping":49},{"user_id":741,"name":"[Industrial] A_HUMBLEBUMBLED","steam_id":76561198064771878,"connected_time":2087000000000,"state":"active","ping":51},{"user_id":693,"name":"your mom calls me princess too","steam_id":76561198020400899,"connected_time":6217000000000,"state":"active","ping":60},{"user_id":694,"name":"Poopie Babie","steam_id":76561198047500494,"connected_time":6209000000000,"state":"active","ping":63},{"user_id":742,"name":"Jpxfred","steam_id":76561199414783749,"connected_time":2022000000000,"state":"active","ping":67},{"user_id":731,"name":"Boomboombop","steam_id":76561198267531538,"connected_time":3025000000000,"state":"active","ping":114},{"user_id":743,"name":"elemental dragon","steam_id":76561199053290319,"connected_time":1994000000000,"state":"active","ping":85},{"user_id":744,"name":"Linkal_","steam_id":76561199122836553,"connected_time":1984000000000,"state":"active","ping":73},{"user_id":745,"name":"Harperlovesminecraft","steam_id":76561199166529239,"connected_time":1980000000000,"state":"active","ping":82},{"user_id":746,"name":"JaM724","steam_id":76561199077582671,"connected_time":1900000000000,"state":"active","ping":125},{"user_id":756,"name":"Red Orbama","steam_id":76561198047002366,"connected_time":1493000000000,"state":"active","ping":61},{"user_id":763,"name":"selling rice","steam_id":76561198063357023,"connected_time":892000000000,"state":"active","ping":47},{"user_id":759,"name":"ronald","steam_id":76561197960691622,"connected_time":1300000000000,"state":"active","ping":79},{"user_id":751,"name":"Medic Bag","steam_id":76561198403209900,"connected_time":1816000000000,"state":"active","ping":101},{"user_id":752,"name":"Sharkysaurus","steam_id":76561198285533174,"connected_time":1802000000000,"state":"active","ping":92},{"user_id":757,"name":"Ezab513","steam_id":76561199123803087,"connected_time":1464000000000,"state":"active","ping":141}]},{"server_id":19,"name":"Uncletopia | San Francisco | 3 | Stopwatch Beta","name_short":"sfo-3","host":"sfo-1.us.uncletopia.com","port":27035,"enabled":true,"region":"us-west","cc":"us","latitude":37.77397,"longitude":-122.4313,"reserved":0,"last_update":"0001-01-01T00:00:00Z","name_a2s":"Uncletopia | San Francisco | 3 | Stopwatch Beta","protocol":17,"map":"workshop/koth_bagel_rc6.ugc2514036946","folder":"tf","game":"Team Fortress","app_id":440,"player_count":0,"max_players":24,"Bots":0,"server_type":"Dedicated","server_os":"Linux","password":true,"vac":true,"version":"7961495","steam_id":85568392924742824,"keywords":["cp","nocrits","nodmgspread","uncletopia"],"game_id":440,"stv_port":27036,"stv_name":"Uncletopia | San Francisco | 3 | Stopwatch Beta | STV","players":null},{"server_id":20,"name":"Uncletopia | San Francisco | 4 | Community","name_short":"sfo-4","host":"sfo-1.us.uncletopia.com","port":27045,"enabled":true,"region":"us-west","cc":"us","latitude":37.77397,"longitude":-122.4313,"reserved":0,"last_update":"0001-01-01T00:00:00Z","name_a2s":"Uncletopia | San Francisco | 4 | Community","protocol":17,"map":"koth_viaduct","folder":"tf","game":"Team Fortress","app_id":440,"player_count":0,"max_players":24,"Bots":0,"server_type":"Dedicated","server_os":"Linux","password":true,"vac":true,"version":"7961495","steam_id":85568392924742826,"keywords":["cp","nocrits","nodmgspread","uncletopia"],"game_id":440,"stv_port":27046,"stv_name":"Uncletopia | San Francisco | 4 | Community | STV","players":null},{"server_id":141,"name":"Uncletopia | Sydney | 1 | All Maps","name_short":"syd-1","host":"syd-1.au.uncletopia.com","port":27015,"enabled":true,"region":"au","cc":"au","latitude":-33.865143,"longitude":151.2099,"reserved":0,"last_update":"0001-01-01T00:00:00Z","name_a2s":"Uncletopia | Sydney | 1 | All Maps","protocol":17,"map":"koth_highpass","folder":"tf","game":"Team Fortress","app_id":440,"player_count":24,"max_players":24,"Bots":0,"server_type":"Dedicated","server_os":"Linux","password":true,"vac":true,"version":"7961495","steam_id":85568392924470001,"keywords":["cp","nocrits","nodmgspread","uncletopia"],"game_id":440,"stv_port":27016,"stv_name":"Uncletopia | Sydney | 1 | All Maps | STV","players":[{"user_id":141,"name":"Speedicle","steam_id":76561199081060553,"connected_time":3137000000000,"state":"active","ping":60},{"user_id":182,"name":"Ᵽ𐌄Ť𐌄Ұ","steam_id":76561199140764838,"connected_time":847000000000,"state":"active","ping":69},{"user_id":134,"name":"burfdae boi","steam_id":76561199000827969,"connected_time":3482000000000,"state":"active","ping":39},{"user_id":157,"name":"lavanderpumpernickle(Del Davis)","steam_id":76561199093611800,"connected_time":2297000000000,"state":"active","ping":47},{"user_id":185,"name":"ibus","steam_id":76561199026701614,"connected_time":699000000000,"state":"active","ping":58},{"user_id":183,"name":"Araxamas","steam_id":76561198014474886,"connected_time":783000000000,"state":"active","ping":96},{"user_id":143,"name":"Plastic_Wrapp","steam_id":76561198817560659,"connected_time":3091000000000,"state":"active","ping":86},{"user_id":187,"name":"Dane6258","steam_id":76561198019827151,"connected_time":132000000000,"state":"active","ping":49},{"user_id":165,"name":"Evil Dragons 11","steam_id":76561199010001803,"connected_time":2019000000000,"state":"active","ping":49},{"user_id":171,"name":"Finger Bun Fun","steam_id":76561198118383219,"connected_time":1774000000000,"state":"active","ping":54},{"user_id":177,"name":"Sircrow22","steam_id":76561198211213113,"connected_time":1180000000000,"state":"active","ping":79},{"user_id":146,"name":"FlashyChips","steam_id":76561198071342589,"connected_time":3046000000000,"state":"active","ping":65},{"user_id":188,"name":"Medieval Cucumber Sorcerer","steam_id":76561198972095766,"connected_time":112000000000,"state":"active","ping":44},{"user_id":158,"name":"Medieval Serf With An SMG","steam_id":76561198963815687,"connected_time":2233000000000,"state":"active","ping":57},{"user_id":174,"name":"Halla875","steam_id":76561198371206561,"connected_time":1386000000000,"state":"active","ping":68},{"user_id":173,"name":"BigLadBoyga","steam_id":76561198985263763,"connected_time":1396000000000,"state":"active","ping":71},{"user_id":162,"name":"perturb (feed/seed)","steam_id":76561198085124297,"connected_time":2096000000000,"state":"active","ping":45},{"user_id":184,"name":"Bowl","steam_id":76561198345777684,"connected_time":761000000000,"state":"active","ping":79},{"user_id":179,"name":"Das Ist Scheisse","steam_id":76561198886094239,"connected_time":1150000000000,"state":"active","ping":53},{"user_id":189,"name":"FAgus","steam_id":76561198050013374,"connected_time":49000000000,"state":"active","ping":73},{"user_id":167,"name":"tenten","steam_id":76561198402822072,"connected_time":1993000000000,"state":"active","ping":116},{"user_id":169,"name":"Nonexistent","steam_id":76561198980563251,"connected_time":1966000000000,"state":"active","ping":140},{"user_id":170,"name":"trinhvs","steam_id":76561198986510078,"connected_time":1924000000000,"state":"active","ping":63},{"user_id":186,"name":"hive","steam_id":76561199099744527,"connected_time":674000000000,"state":"active","ping":49}]},{"server_id":123,"name":"Uncletopia | Sydney | 2 | All Maps","name_short":"syd-2","host":"syd-1.au.uncletopia.com","port":27025,"enabled":true,"region":"au","cc":"au","latitude":-33.865143,"longitude":151.2099,"reserved":0,"last_update":"0001-01-01T00:00:00Z","name_a2s":"Uncletopia | Sydney | 2 | All Maps","protocol":17,"map":"pl_pier","folder":"tf","game":"Team Fortress","app_id":440,"player_count":1,"max_players":24,"Bots":0,"server_type":"Dedicated","server_os":"Linux","password":true,"vac":true,"version":"7961495","steam_id":85568392924470002,"keywords":["nocrits","nodmgspread","payload","uncletopia"],"game_id":440,"stv_port":27026,"stv_name":"Uncletopia | Sydney | 2 | All Maps | STV","players":[{"user_id":19,"name":"Empolé","steam_id":76561198363939040,"connected_time":449000000000,"state":"active","ping":92}]},{"server_id":395,"name":"Uncletopia | Sydney | 3 | All Maps","name_short":"syd-3","host":"syd-1.au.uncletopia.com","port":27035,"enabled":true,"region":"au","cc":"au","latitude":-33.865143,"longitude":151.2099,"reserved":0,"last_update":"0001-01-01T00:00:00Z","name_a2s":"Uncletopia | Sydney | 3 | All Maps","protocol":17,"map":"koth_highpass","folder":"tf","game":"Team Fortress","app_id":440,"player_count":0,"max_players":24,"Bots":0,"server_type":"Dedicated","server_os":"Linux","password":true,"vac":true,"version":"7961495","steam_id":85568392925194467,"keywords":["cp","nocrits","nodmgspread","uncletopia"],"game_id":440,"stv_port":27036,"stv_name":"Uncletopia | Sydney | 3 | All Maps | STV","players":null},{"server_id":396,"name":"Uncletopia | Sydney | 4 | All Maps","name_short":"syd-4","host":"syd-1.au.uncletopia.com","port":27045,"enabled":true,"region":"au","cc":"au","latitude":-33.865143,"longitude":151.2099,"reserved":0,"last_update":"0001-01-01T00:00:00Z","name_a2s":"Uncletopia | Sydney | 4 | All Maps","protocol":17,"map":"cp_dustbowl","folder":"tf","game":"Team Fortress","app_id":440,"player_count":0,"max_players":24,"Bots":0,"server_type":"Dedicated","server_os":"Linux","password":true,"vac":true,"version":"7961495","steam_id":85568392925397958,"keywords":["cp","nocrits","nodmgspread","uncletopia"],"game_id":440,"stv_port":27046,"stv_name":"Uncletopia | Sydney | 4 | All Maps | STV","players":null},{"server_id":58,"name":"Uncletopia | Sydney | 5 | Stopwatch Beta","name_short":"syd-5","host":"syd-1.au.uncletopia.com","port":27055,"enabled":true,"region":"au","cc":"au","latitude":-33.865143,"longitude":151.2099,"reserved":0,"last_update":"0001-01-01T00:00:00Z","name_a2s":"Uncletopia | Sydney | 5 | Stopwatch Beta","protocol":17,"map":"koth_viaduct","folder":"tf","game":"Team Fortress","app_id":440,"player_count":0,"max_players":24,"Bots":0,"server_type":"Dedicated","server_os":"Linux","password":true,"vac":true,"version":"7961495","steam_id":85568392925397959,"keywords":["cp","nocrits","nodmgspread","uncletopia"],"game_id":440,"stv_port":27056,"stv_name":"Uncletopia | Sydney | 5 | Stopwatch Beta | STV","players":null},{"server_id":59,"name":"Uncletopia | Sydney | 6 | Community","name_short":"syd-6","host":"syd-1.au.uncletopia.com","port":27065,"enabled":true,"region":"au","cc":"au","latitude":-33.865143,"longitude":151.2099,"reserved":0,"last_update":"0001-01-01T00:00:00Z","name_a2s":"Uncletopia | Sydney | 6 | Community","protocol":17,"map":"koth_cascade","folder":"tf","game":"Team Fortress","app_id":440,"player_count":0,"max_players":24,"Bots":0,"server_type":"Dedicated","server_os":"Linux","password":true,"vac":true,"version":"7961495","steam_id":85568392925397960,"keywords":["cp","nocrits","nodmgspread","uncletopia"],"game_id":440,"stv_port":27066,"stv_name":"Uncletopia | Sydney | 6 | Community | STV","players":null},{"server_id":49,"name":"Uncletopia | Warsaw | 1 | All Maps","name_short":"waw-1","host":"waw-1.pl.uncletopia.com","port":27015,"enabled":true,"region":"eu","cc":"pl","latitude":52.2297,"longitude":21.017532,"reserved":0,"last_update":"0001-01-01T00:00:00Z","name_a2s":"Uncletopia | Warsaw | 1 | All Maps","protocol":17,"map":"pl_swiftwater_final1","folder":"tf","game":"Team Fortress","app_id":440,"player_count":0,"max_players":24,"Bots":0,"server_type":"Dedicated","server_os":"Linux","password":true,"vac":true,"version":"7961495","steam_id":85568392925397850,"keywords":["nocrits","nodmgspread","payload","uncletopia"],"game_id":440,"stv_port":27016,"stv_name":"Uncletopia | Warsaw | 1 | All Maps | STV","players":null},{"server_id":50,"name":"Uncletopia | Warsaw | 2 | All Maps","name_short":"waw-2","host":"waw-1.pl.uncletopia.com","port":27025,"enabled":true,"region":"eu","cc":"pl","latitude":52.2297,"longitude":21.017532,"reserved":0,"last_update":"0001-01-01T00:00:00Z","name_a2s":"Uncletopia | Warsaw | 2 | All Maps","protocol":17,"map":"cp_dustbowl","folder":"tf","game":"Team Fortress","app_id":440,"player_count":0,"max_players":24,"Bots":0,"server_type":"Dedicated","server_os":"Linux","password":true,"vac":true,"version":"7961495","steam_id":85568392925397851,"keywords":["cp","nocrits","nodmgspread","uncletopia"],"game_id":440,"stv_port":27026,"stv_name":"Uncletopia | Warsaw | 2 | All Maps | STV","players":null},{"server_id":51,"name":"Uncletopia | Warsaw | 3 | All Maps","name_short":"waw-3","host":"waw-1.pl.uncletopia.com","port":27035,"enabled":true,"region":"eu","cc":"pl","latitude":52.2297,"longitude":21.017532,"reserved":0,"last_update":"0001-01-01T00:00:00Z","name_a2s":"Uncletopia | Warsaw | 3 | All Maps","protocol":17,"map":"pl_upward","folder":"tf","game":"Team Fortress","app_id":440,"player_count":0,"max_players":24,"Bots":0,"server_type":"Dedicated","server_os":"Linux","password":true,"vac":true,"version":"7961495","steam_id":85568392925397852,"keywords":["nocrits","nodmgspread","payload","uncletopia"],"game_id":440,"stv_port":27036,"stv_name":"Uncletopia | Warsaw | 3 | All Maps | STV","players":null},{"server_id":52,"name":"Uncletopia | Warsaw | 4 | All Maps","name_short":"waw-4","host":"waw-1.pl.uncletopia.com","port":27045,"enabled":true,"region":"eu","cc":"pl","latitude":52.2297,"longitude":21.017532,"reserved":0,"last_update":"0001-01-01T00:00:00Z","name_a2s":"Uncletopia | Warsaw | 4 | All Maps","protocol":17,"map":"koth_viaduct","folder":"tf","game":"Team Fortress","app_id":440,"player_count":0,"max_players":24,"Bots":0,"server_type":"Dedicated","server_os":"Linux","password":true,"vac":true,"version":"7961495","steam_id":85568392925397853,"keywords":["cp","nocrits","nodmgspread","uncletopia"],"game_id":440,"stv_port":27046,"stv_name":"Uncletopia | Warsaw | 4 | All Maps | STV","players":null},{"server_id":53,"name":"Uncletopia | Warsaw | 5 | Stopwatch Beta","name_short":"waw-5","host":"waw-1.pl.uncletopia.com","port":27055,"enabled":true,"region":"eu","cc":"pl","latitude":52.2297,"longitude":21.017532,"reserved":0,"last_update":"0001-01-01T00:00:00Z","name_a2s":"Uncletopia | Warsaw | 5 | Stopwatch Beta","protocol":17,"map":"cp_snakewater_final1","folder":"tf","game":"Team Fortress","app_id":440,"player_count":0,"max_players":24,"Bots":0,"server_type":"Dedicated","server_os":"Linux","password":true,"vac":true,"version":"7961495","steam_id":85568392925397854,"keywords":["cp","nocrits","nodmgspread","uncletopia"],"game_id":440,"stv_port":27056,"stv_name":"Uncletopia | Warsaw | 5 | Stopwatch Beta | STV","players":null},{"server_id":54,"name":"Uncletopia | Warsaw | 6 | Community","name_short":"waw-6","host":"waw-1.pl.uncletopia.com","port":27065,"enabled":true,"region":"eu","cc":"pl","latitude":52.2297,"longitude":21.017532,"reserved":0,"last_update":"0001-01-01T00:00:00Z","name_a2s":"Uncletopia | Warsaw | 6 | Community","protocol":17,"map":"cp_mountainlab","folder":"tf","game":"Team Fortress","app_id":440,"player_count":0,"max_players":24,"Bots":0,"server_type":"Dedicated","server_os":"Linux","password":true,"vac":true,"version":"7961495","steam_id":85568392925397856,"keywords":["cp","nocrits","nodmgspread","uncletopia"],"game_id":440,"stv_port":27066,"stv_name":"Uncletopia | Warsaw | 6 | Community | STV","players":null}]}