{"status":true,"message":"","result":[{"server_id":9,"name":"Uncletopia | Atlanta | 1 | All Maps","name_short":"atl-1","host":"atl-1.us.uncletopia.com","port":27015,"enabled":true,"region":"us-east","cc":"us","latitude":33.753746,"longitude":-84.38633,"reserved":0,"last_update":"0001-01-01T00:00:00Z","name_a2s":"Uncletopia | Atlanta | 1 | All Maps","protocol":17,"map":"pl_badwater","folder":"tf","game":"Team Fortress","app_id":440,"player_count":24,"max_players":24,"Bots":0,"server_type":"Dedicated","server_os":"Linux","password":true,"vac":true,"version":"7961495","steam_id":85568392924469982,"keywords":["nocrits","nodmgspread","payload","uncletopia"],"game_id":440,"stv_port":27016,"stv_name":"Uncletopia | Atlanta | 1 | All Maps | STV","players":[{"user_id":276,"name":"Kirby","steam_id":76561199161858008,"connected_time":2656000000000,"state":"active","ping":69},{"user_id":309,"name":"Neptune˖⁺｡˚⋆˙♥","steam_id":76561199054203198,"connected_time":328000000000,"state":"active","ping":70},{"user_id":272,"name":"Okpar","steam_id":76561199221067945,"connected_time":3023000000000,"state":"active","ping":77},{"user_id":300,"name":"HarryjusttHarry","steam_id":76561198982810452,"connected_time":1191000000000,"state":"active","ping":78},{"user_id":264,"name":"Lilith","steam_id":76561198125102885,"connected_time":3799000000000,"state":"active","ping":61},{"user_id":308,"name":"BLOW UP NEW JERSEY","steam_id":76561198364439575,"connected_time":348000000000,"state":"active","ping":65},{"user_id":292,"name":"Aman","steam_id":76561198077092692,"connected_time":1714000000000,"state":"active","ping":66},{"user_id":291,"name":"dam","steam_id":76561198991633113,"connected_time":1819000000000,"state":"active","ping":117},{"user_id":287,"name":"big steve","steam_id":76561199037050183,"connected_time":1841000000000,"state":"active","ping":78},{"user_id":282,"name":"ravN :)","steam_id":76561198272366231,"connected_time":2546000000000,"state":"active","ping":83},{"user_id":301,"name":"femboy birb","steam_id":76561199198726572,"connected_time":1182000000000,"state":"active","ping":75},{"user_id":304,"name":"Mr_Frosty","steam_id":76561199380389079,"connected_time":541000000000,"state":"active","ping":80},{"user_id":260,"name":"Cat Eyed Lin","steam_id":76561198887593337,"connected_time":3981000000000,"state":"active","ping":66},{"user_id":303,"name":":(","steam_id":76561198347969061,"connected_time":622000000000,"state":"active","ping":83},{"user_id":288,"name":"Harbor Seal","steam_id":76561198162631724,"connected_time":1839000000000,"state":"active","ping":77},{"user_id":311,"name":"spid","steam_id":76561199102823714,"connected_time":137000000000,"state":"active","ping":74},{"user_id":249,"name":"Silly Shark","steam_id":76561198130714378,"connected_time":4568000000000,"state":"active","ping":126},{"user_id":268,"name":"flaccid","steam_id":76561198299241777,"connected_time":3505000000000,"state":"active","ping":98},{"user_id":296,"name":"paetho YT","steam_id":76561198152690003,"connected_time":1444000000000,"state":"active","ping":45},{"user_id":302,"name":"Cottoneyes","steam_id":76561197994730627,"connected_time":869000000000,"state":"active","ping":56},{"user_id":310,"name":"choi","steam_id":76561198053669887,"connected_time":152000000000,"state":"active","ping":109},{"user_id":297,"name":"joe","steam_id":76561198045781320,"connected_time":1431000000000,"state":"active","ping":63},{"user_id":261,"name":"roberttorontoj","steam_id":76561199309106011,"connected_time":3978000000000,"state":"active","ping":97},{"user_id":192,"name":"Luxembird","steam_id":76561198079992107,"connected_time":7045000000000,"state":"active","ping":97}]},{"server_id":104,"name":"Uncletopia | Atlanta | 2 | All Maps","name_short":"atl-2","host":"atl-1.us.uncletopia.com","port":27025,"enabled":true,"region":"us-east","cc":"us","latitude":33.753746,"longitude":-84.38633,"reserved":0,"last_update":"0001-01-01T00:00:00Z","name_a2s":"Uncletopia | Atlanta | 2 | All Maps","protocol":17,"map":"pl_pier","folder":"tf","game":"Team Fortress","app_id":440,"player_count":25,"max_players":24,"Bots":0,"server_type":"Dedicated","server_os":"Linux","password":true,"vac":true,"version":"7961495","steam_id":85568392924469983,"keywords":["nocrits","nodmgspread","payload","uncletopia"],"game_id":440,"stv_port":27026,"stv_name":"Uncletopia | Atlanta | 2 | All Maps | STV","players":[{"user_id":150,"name":"sillylokisparkles","steam_id":76561198872251615,"connected_time":2482000000000,"state":"active","ping":51},{"user_id":156,"name":"Gooper Blooper","steam_id":76561198067174070,"connected_time":1571000000000,"state":"active","ping":110},{"user_id":170,"name":"Severain","steam_id":76561198026326136,"connected_time":321000000000,"state":"active","ping":61},{"user_id":132,"name":"Kzjytsugn","steam_id":76561198130241974,"connected_time":3679000000000,"state":"active","ping":105},{"user_id":135,"name":"smart fella","steam_id":76561198120419761,"connected_time":3537000000000,"state":"active","ping":89},{"user_id":154,"name":"eNIGma","steam_id":76561198879961615,"connected_time":1736000000000,"state":"active","ping":69},{"user_id":182,"name":"boo_thefeared","steam_id":76561198127967685,"connected_time":52000000000,"state":"active","ping":135},{"user_id":101,"name":"JustADuck","steam_id":76561198311260943,"connected_time":6348000000000,"state":"active","ping":54},{"user_id":169,"name":"Brown_Dream","steam_id":76561198975766145,"connected_time":337000000000,"state":"active","ping":80},{"user_id":121,"name":"GlingGlop95","steam_id":76561198386865528,"connected_time":4886000000000,"state":"active","ping":69},{"user_id":171,"name":"\u003c blank \u003e","steam_id":76561199383789041,"connected_time":310000000000,"state":"active","ping":179},{"user_id":114,"name":"rf","steam_id":76561198195359229,"connected_time":5543000000000,"state":"active","ping":105},{"user_id":161,"name":"yourlocalforecast","steam_id":76561198042243083,"connected_time":1065000000000,"state":"active","ping":58},{"user_id":157,"name":"JohnsBriefcase","steam_id":76561198117657002,"connected_time":1554000000000,"state":"active","ping":76},{"user_id":126,"name":"Brawns","steam_id":76561198045190199,"connected_time":4563000000000,"state":"active","ping":79},{"user_id":183,"name":"FliturbiousRex","steam_id":76561199217583334,"connected_time":28000000000,"state":"active","ping":75},{"user_id":165,"name":"Sus:/","steam_id":76561199232156472,"connected_time":955000000000,"state":"active","ping":94},{"user_id":158,"name":"Drilly22","steam_id":76561198068838338,"connected_time":1553000000000,"state":"active","ping":81},{"user_id":172,"name":"What's My Age Again?","steam_id":76561198035304483,"connected_time":309000000000,"state":"active","ping":68},{"user_id":152,"name":"MeowLeagueGaming","steam_id":76561198126358045,"connected_time":2173000000000,"state":"active","ping":74},{"user_id":167,"name":"yuri","steam_id":76561198388123421,"connected_time":560000000000,"state":"active","ping":93},{"user_id":176,"name":"cars 2 (2011) enjoyer","steam_id":76561199013550334,"connected_time":240000000000,"state":"active","ping":61},{"user_id":173,"name":"bookreader","steam_id":76561198978568007,"connected_time":303000000000,"state":"active","ping":64},{"user_id":174,"name":"Dips","steam_id":76561198251975850,"connected_time":299000000000,"state":"active","ping":121},{"user_id":184,"name":"Fatass Hennessy Sargent","steam_id":76561198363267009,"connected_time":10000000000,"state":"spawning","ping":60}]},{"server_id":400,"name":"Uncletopia | Atlanta | 3 | Stopwatch","name_short":"atl-3","host":"atl-1.us.uncletopia.com","port":27035,"enabled":true,"region":"us-east","cc":"us","latitude":33.753746,"longitude":-84.38633,"reserved":0,"last_update":"0001-01-01T00:00:00Z","name_a2s":"Uncletopia | Atlanta | 3 | Stopwatch","protocol":17,"map":"pl_swiftwater_final1","folder":"tf","game":"Team Fortress","app_id":440,"player_count":0,"max_players":24,"Bots":0,"server_type":"Dedicated","server_os":"Linux","password":true,"vac":true,"version":"7961495","steam_id":85568392924515187,"keywords":["nocrits","nodmgspread","payload","uncletopia"],"game_id":440,"stv_port":27036,"stv_name":"Uncletopia | Atlanta | 3 | Stopwatch | STV","players":null},{"server_id":401,"name":"Uncletopia | Atlanta | 4 | Community","name_short":"atl-4","host":"atl-1.us.uncletopia.com","port":27045,"enabled":true,"region":"us-east","cc":"us","latitude":33.753746,"longitude":-84.38633,"reserved":0,"last_update":"0001-01-01T00:00:00Z","name_a2s":"Uncletopia | Atlanta | 4 | Community","protocol":17,"map":"workshop/cp_snowbase_b21.ugc2081770490","folder":"tf","game":"Team Fortress","app_id":440,"player_count":0,"max_players":24,"Bots":0,"server_type":"Dedicated","server_os":"Linux","password":true,"vac":true,"version":"7961495","steam_id":85568392924515188,"keywords":["cp","nocrits","nodmgspread","uncletopia"],"game_id":440,"stv_port":27046,"stv_name":"Uncletopia | Atlanta | 4 | Community | STV","players":null},{"server_id":2,"name":"Uncletopia | Chicago | 1 | All Maps","name_short":"chi-1","host":"chi-1.us.uncletopia.com","port":27015,"enabled":true,"region":"us-central","cc":"us","latitude":41.881832,"longitude":-87.62318,"reserved":0,"last_update":"0001-01-01T00:00:00Z","name_a2s":"Uncletopia | Chicago | 1 | All Maps","protocol":17,"map":"plr_hightower","folder":"tf","game":"Team Fortress","app_id":440,"player_count":24,"max_players":24,"Bots":0,"server_type":"Dedicated","server_os":"Linux","password":true,"vac":true,"version":"7961495","steam_id":85568392924469984,"keywords":["nocrits","nodmgspread","payload","uncletopia"],"game_id":440,"stv_port":27016,"stv_name":"Uncletopia | Chicago | 1 | All Maps | STV","players":[{"user_id":395,"name":"Praise_to_the_Flashlight!","steam_id":76561199001728789,"connected_time":142000000000,"state":"active","ping":60},{"user_id":369,"name":"You hate kissing boys,Don't you","steam_id":76561198996218460,"connected_time":2477000000000,"state":"active","ping":81},{"user_id":387,"name":"Window Licker #pride","steam_id":76561198386717007,"connected_time":1575000000000,"state":"active","ping":46},{"user_id":350,"name":"KSupes","steam_id":76561199131995067,"connected_time":3859000000000,"state":"active","ping":43},{"user_id":351,"name":"mo ge - ko","steam_id":76561198056432756,"connected_time":3840000000000,"state":"active","ping":65},{"user_id":372,"name":"y0","steam_id":76561198143894333,"connected_time":2415000000000,"state":"active","ping":47},{"user_id":388,"name":"Space","steam_id":76561198350489754,"connected_time":1425000000000,"state":"active","ping":56},{"user_id":352,"name":"LofiWhore","steam_id":76561198126686695,"connected_time":3812000000000,"state":"active","ping":70},{"user_id":370,"name":"chunk","steam_id":76561198134775401,"connected_time":2475000000000,"state":"active","ping":55},{"user_id":391,"name":"rat eater","steam_id":76561199216874750,"connected_time":1249000000000,"state":"active","ping":60},{"user_id":392,"name":"LikeASir","steam_id":76561198042209721,"connected_time":794000000000,"state":"active","ping":46},{"user_id":360,"name":"b^uma","steam_id":76561198856016840,"connected_time":3503000000000,"state":"active","ping":71},{"user_id":363,"name":"Astoriae!","steam_id":76561199090168858,"connected_time":2769000000000,"state":"active","ping":67},{"user_id":374,"name":"MrKokonut","steam_id":76561198879575825,"connected_time":2107000000000,"state":"active","ping":58},{"user_id":371,"name":"MaineGameBoy","steam_id":76561198278698726,"connected_time":2464000000000,"state":"active","ping":102},{"user_id":377,"name":"Milkmur","steam_id":76561198210043821,"connected_time":1829000000000,"state":"active","ping":69},{"user_id":376,"name":"Sonic Mania 2 [100 Real Leaked","steam_id":76561198062764039,"connected_time":1952000000000,"state":"active","ping":59},{"user_id":390,"name":"Firedust19","steam_id":76561198153238631,"connected_time":1306000000000,"state":"active","ping":115},{"user_id":347,"name":"The_Man","steam_id":76561199194890696,"connected_time":3884000000000,"state":"active","ping":97},{"user_id":252,"name":"Clean Lines","steam_id":76561197960691518,"connected_time":10224000000000,"state":"active","ping":54},{"user_id":366,"name":"Hunt0rb","steam_id":76561198120527608,"connected_time":2649000000000,"state":"active","ping":63},{"user_id":373,"name":"WALKING GOPRO","steam_id":76561198186928885,"connected_time":2115000000000,"state":"active","ping":81},{"user_id":394,"name":"Mikhaila (She/Her)","steam_id":76561198065005979,"connected_time":174000000000,"state":"active","ping":85},{"user_id":383,"name":"Do'h I Missed!","steam_id":76561198145320480,"connected_time":1739000000000,"state":"active","ping":108}]},{"server_id":106,"name":"Uncletopia | Chicago | 2 | All Maps","name_short":"chi-2","host":"chi-1.us.uncletopia.com","port":27025,"enabled":true,"region":"us-central","cc":"us","latitude":41.881832,"longitude":-87.62318,"reserved":0,"last_update":"0001-01-01T00:00:00Z","name_a2s":"Uncletopia | Chicago | 2 | All Maps","protocol":17,"map":"pl_upward","folder":"tf","game":"Team Fortress","app_id":440,"player_count":24,"max_players":24,"Bots":0,"server_type":"Dedicated","server_os":"Linux","password":true,"vac":true,"version":"7961495","steam_id":85568392924469985,"keywords":["nocrits","nodmgspread","payload","uncletopia"],"game_id":440,"stv_port":27026,"stv_name":"Uncletopia | Chicago | 2 | All Maps | STV","players":[{"user_id":521,"name":"Kyle","steam_id":76561198150061073,"connected_time":3314000000000,"state":"active","ping":58},{"user_id":502,"name":"Vaudeville Villain","steam_id":76561197991063996,"connected_time":4067000000000,"state":"active","ping":56},{"user_id":552,"name":"Rhutebeer","steam_id":76561198018302761,"connected_time":1232000000000,"state":"active","ping":101},{"user_id":559,"name":"22moo","steam_id":76561199075331630,"connected_time":372000000000,"state":"active","ping":68},{"user_id":504,"name":"dak","steam_id":76561198076596506,"connected_time":3977000000000,"state":"active","ping":59},{"user_id":528,"name":"Qui-Bong Jinn","steam_id":76561198077264112,"connected_time":2452000000000,"state":"active","ping":62},{"user_id":543,"name":"yitz","steam_id":76561198375575841,"connected_time":1862000000000,"state":"active","ping":54},{"user_id":553,"name":"King Rat","steam_id":76561198083835128,"connected_time":844000000000,"state":"active","ping":95},{"user_id":522,"name":"THE ULTIMATE JOHN","steam_id":76561199082758073,"connected_time":3236000000000,"state":"active","ping":59},{"user_id":554,"name":"Ajax","steam_id":76561197962240140,"connected_time":834000000000,"state":"active","ping":57},{"user_id":546,"name":"Mr.President","steam_id":76561198971144834,"connected_time":1480000000000,"state":"active","ping":59},{"user_id":557,"name":"Dr.BendyBones","steam_id":76561198048846641,"connected_time":576000000000,"state":"active","ping":69},{"user_id":515,"name":"Vadenair","steam_id":76561198277100433,"connected_time":3745000000000,"state":"active","ping":95},{"user_id":538,"name":"shadow6","steam_id":76561197979807910,"connected_time":2199000000000,"state":"active","ping":89},{"user_id":549,"name":"Yodie","steam_id":76561198152474661,"connected_time":1308000000000,"state":"active","ping":73},{"user_id":400,"name":"Coffee Instant Type 2","steam_id":76561198307845869,"connected_time":13380000000000,"state":"active","ping":70},{"user_id":536,"name":"Ejaculation Zach","steam_id":76561198203765200,"connected_time":2349000000000,"state":"active","ping":62},{"user_id":545,"name":"Stonks","steam_id":76561199490085068,"connected_time":1780000000000,"state":"active","ping":85},{"user_id":510,"name":"Aster","steam_id":76561198037920420,"connected_time":3863000000000,"state":"active","ping":88},{"user_id":540,"name":"Mimt1111","steam_id":76561198392370897,"connected_time":1987000000000,"state":"active","ping":104},{"user_id":547,"name":"BackToSchoolAds","steam_id":76561198870281128,"connected_time":1343000000000,"state":"active","ping":87},{"user_id":551,"name":"Pels","steam_id":76561198039580161,"connected_time":1265000000000,"state":"active","ping":121},{"user_id":542,"name":"fresco","steam_id":76561199101199477,"connected_time":1871000000000,"state":"active","ping":80},{"user_id":556,"name":"the zoo","steam_id":76561198013732450,"connected_time":815000000000,"state":"active","ping":55}]},{"server_id":402,"name":"Uncletopia | Chicago | 3 | All Maps","name_short":"chi-3","host":"chi-1.us.uncletopia.com","port":27035,"enabled":true,"region":"us-central","cc":"us","latitude":41.881832,"longitude":-87.62318,"reserved":0,"last_update":"0001-01-01T00:00:00Z","name_a2s":"Uncletopia | Chicago | 3 | All Maps","protocol":17,"map":"pl_thundermountain","folder":"tf","game":"Team Fortress","app_id":440,"player_count":24,"max_players":24,"Bots":0,"server_type":"Dedicated","server_os":"Linux","password":true,"vac":true,"version":"7961495","steam_id":85568392924515191,"keywords":["nocrits","nodmgspread","payload","uncletopia"],"game_id":440,"stv_port":27036,"stv_name":"Uncletopia | Chicago | 3 | All Maps | STV","players":[{"user_id":336,"name":"Ti00","steam_id":76561198083342036,"connected_time":2784000000000,"state":"active","ping":66},{"user_id":339,"name":"CowardicePrevails","steam_id":76561198145199545,"connected_time":2741000000000,"state":"active","ping":74},{"user_id":362,"name":"DeckofDragons","steam_id":76561198057398213,"connected_time":17000000000,"state":"spawning","ping":65},{"user_id":345,"name":"QuintupletPuppies","steam_id":76561198926124738,"connected_time":2336000000000,"state":"active","ping":61},{"user_id":333,"name":"Toxiod Enigma","steam_id":76561198213248165,"connected_time":2917000000000,"state":"active","ping":58},{"user_id":349,"name":"qool bun","steam_id":76561198064758306,"connected_time":1570000000000,"state":"active","ping":75},{"user_id":316,"name":"munch","steam_id":76561198820480684,"connected_time":3427000000000,"state":"active","ping":60},{"user_id":363,"name":"Menachem","steam_id":76561198041226420,"connected_time":6000000000,"state":"spawning","ping":44},{"user_id":346,"name":"Dokkibai","steam_id":76561198355935693,"connected_time":2311000000000,"state":"active","ping":47},{"user_id":335,"name":"RandomGuy","steam_id":76561198000897889,"connected_time":2793000000000,"state":"active","ping":101},{"user_id":356,"name":"swooce","steam_id":76561198156232484,"connected_time":809000000000,"state":"active","ping":80},{"user_id":341,"name":"thecal","steam_id":76561198307893384,"connected_time":2577000000000,"state":"active","ping":55},{"user_id":355,"name":"Röntgen","steam_id":76561197993492325,"connected_time":899000000000,"state":"active","ping":96},{"user_id":292,"name":"Fio4","steam_id":76561199221171536,"connected_time":5156000000000,"state":"active","ping":74},{"user_id":293,"name":"MarauderOP","steam_id":76561199087316861,"connected_time":5153000000000,"state":"active","ping":71},{"user_id":338,"name":"winrarFanatic","steam_id":76561198026538317,"connected_time":2764000000000,"state":"active","ping":60},{"user_id":357,"name":"A/funny/dream","steam_id":76561198354481597,"connected_time":803000000000,"state":"active","ping":97},{"user_id":359,"name":"American Steel","steam_id":76561198101116197,"connected_time":612000000000,"state":"active","ping":91},{"user_id":342,"name":"Breakaway","steam_id":76561198089308523,"connected_time":2554000000000,"state":"active","ping":88},{"user_id":348,"name":"A Puppy","steam_id":76561198828184456,"connected_time":2087000000000,"state":"active","ping":64},{"user_id":352,"name":"mercury in my cart","steam_id":76561198357132470,"connected_time":1282000000000,"state":"active","ping":101},{"user_id":347,"name":"Mona","steam_id":76561198353338634,"connected_time":2102000000000,"state":"active","ping":70},{"user_id":358,"name":"Hexadecatrack","steam_id":76561198044480181,"connected_time":627000000000,"state":"active","ping":52},{"user_id":354,"name":"Funky Kong Jr.","steam_id":76561199351137762,"connected_time":969000000000,"state":"active","ping":97}]},{"server_id":403,"name":"Uncletopia | Chicago | 4 | All Maps","name_short":"chi-4","host":"chi-1.us.uncletopia.com","port":27045,"enabled":true,"region":"us-central","cc":"us","latitude":41.881832,"longitude":-87.62318,"reserved":0,"last_update":"0001-01-01T00:00:00Z","name_a2s":"Uncletopia | Chicago | 4 | All Maps","protocol":17,"map":"cp_altitude","folder":"tf","game":"Team Fortress","app_id":440,"player_count":24,"max_players":24,"Bots":0,"server_type":"Dedicated","server_os":"Linux","password":true,"vac":true,"version":"7961495","steam_id":85568392924515193,"keywords":["cp","nocrits","nodmgspread","uncletopia"],"game_id":440,"stv_port":27046,"stv_name":"Uncletopia | Chicago | 4 | All Maps | STV","players":[{"user_id":143,"name":"Call me the sleeps","steam_id":76561198121245586,"connected_time":848000000000,"state":"active","ping":88},{"user_id":124,"name":"InstantOzone","steam_id":76561198067556825,"connected_time":2267000000000,"state":"active","ping":69},{"user_id":117,"name":"Thot Patrol","steam_id":76561198026003193,"connected_time":2894000000000,"state":"active","ping":63},{"user_id":152,"name":"tgirl swag","steam_id":76561198128164970,"connected_time":238000000000,"state":"active","ping":104},{"user_id":140,"name":"Xraverz","steam_id":76561198008891628,"connected_time":1086000000000,"state":"active","ping":85},{"user_id":131,"name":"ZYNTERLINKED","steam_id":76561198241948526,"connected_time":1778000000000,"state":"active","ping":59},{"user_id":121,"name":"bloop","steam_id":76561199206873162,"connected_time":2484000000000,"state":"active","ping":107},{"user_id":105,"name":"Shibo","steam_id":76561198168517216,"connected_time":3336000000000,"state":"active","ping":178},{"user_id":148,"name":"Bamboozler","steam_id":76561198010860383,"connected_time":484000000000,"state":"active","ping":87},{"user_id":135,"name":"DukeBobRoss","steam_id":76561198197728879,"connected_time":1460000000000,"state":"active","ping":77},{"user_id":108,"name":"BUCKY!","steam_id":76561198400316901,"connected_time":3315000000000,"state":"active","ping":61},{"user_id":147,"name":"Sylvain","steam_id":76561198113385271,"connected_time":524000000000,"state":"active","ping":72},{"user_id":144,"name":"BoyWithTheBeanie","steam_id":76561199435079308,"connected_time":818000000000,"state":"active","ping":158},{"user_id":107,"name":"stink","steam_id":76561198099318923,"connected_time":3324000000000,"state":"active","ping":60},{"user_id":110,"name":"Your Dad","steam_id":76561198060281192,"connected_time":3305000000000,"state":"active","ping":98},{"user_id":128,"name":"BeastRyder","steam_id":76561198330281584,"connected_time":2037000000000,"state":"active","ping":82},{"user_id":142,"name":"a","steam_id":76561198131245396,"connected_time":869000000000,"state":"active","ping":62},{"user_id":150,"name":"chud packer","steam_id":76561198051310816,"connected_time":397000000000,"state":"active","ping":65},{"user_id":145,"name":"harold of rock salt kingdom","steam_id":76561199016285746,"connected_time":816000000000,"state":"active","ping":87},{"user_id":119,"name":"TechnoBear2099","steam_id":76561198238863596,"connected_time":2787000000000,"state":"active","ping":74},{"user_id":133,"name":"Ganondorf","steam_id":76561198010421059,"connected_time":1511000000000,"state":"active","ping":56},{"user_id":126,"name":"Who","steam_id":76561198013049671,"connected_time":2115000000000,"state":"active","ping":115},{"user_id":138,"name":"YesMargaret","steam_id":76561198127971751,"connected_time":1141000000000,"state":"active","ping":71},{"user_id":139,"name":"Jpxfred","steam_id":76561199414783749,"connected_time":1133000000000,"state":"active","ping":114}]},{"server_id":36,"name":"Uncletopia | Chicago | 5 | All Maps","name_short":"chi-5","host":"chi-2.us.uncletopia.com","port":27015,"enabled":true,"region":"us-central","cc":"us","latitude":41.881832,"longitude":-87.62318,"reserved":0,"last_update":"0001-01-01T00:00:00Z","name_a2s":"Uncletopia | Chicago | 5 | All Maps","protocol":17,"map":"pl_snowycoast","folder":"tf","game":"Team Fortress","app_id":440,"player_count":24,"max_players":24,"Bots":0,"server_type":"Dedicated","server_os":"Linux","password":true,"vac":true,"version":"7961495","steam_id":85568392924866362,"keywords":["nocrits","nodmgspread","payload","uncletopia"],"game_id":440,"stv_port":27016,"stv_name":"Uncletopia | Chicago | 5 | All Maps | STV","players":[{"user_id":208,"name":"The Pybro","steam_id":76561198041622040,"connected_time":274000000000,"state":"active","ping":66},{"user_id":154,"name":"Hedene","steam_id":76561198044848271,"connected_time":5342000000000,"state":"active","ping":63},{"user_id":200,"name":"filthy white trash","steam_id":76561198154176367,"connected_time":703000000000,"state":"active","ping":74},{"user_id":174,"name":"DerpyNate","steam_id":76561198100249037,"connected_time":3532000000000,"state":"active","ping":46},{"user_id":185,"name":"CTriggerHurt","steam_id":76561198036209556,"connected_time":2198000000000,"state":"active","ping":79},{"user_id":203,"name":"socializedCryptid","steam_id":76561198991665007,"connected_time":626000000000,"state":"active","ping":50},{"user_id":110,"name":"Beebo, Son of Beebo","steam_id":76561198055948497,"connected_time":9825000000000,"state":"active","ping":59},{"user_id":196,"name":"totoro","steam_id":76561198210420871,"connected_time":895000000000,"state":"active","ping":43},{"user_id":188,"name":"Gardangle","steam_id":76561198394173831,"connected_time":1843000000000,"state":"active","ping":103},{"user_id":210,"name":"Amari","steam_id":76561198272446730,"connected_time":214000000000,"state":"active","ping":57},{"user_id":195,"name":"Burger Man","steam_id":76561198197096574,"connected_time":1417000000000,"state":"active","ping":70},{"user_id":205,"name":"Mog","steam_id":76561198025575870,"connected_time":540000000000,"state":"active","ping":62},{"user_id":190,"name":"Degree","steam_id":76561198059812393,"connected_time":1833000000000,"state":"active","ping":75},{"user_id":159,"name":"SIN K4RMA","steam_id":76561198869287223,"connected_time":4305000000000,"state":"active","ping":86},{"user_id":169,"name":"Hazeyboi","steam_id":76561198130687838,"connected_time":4021000000000,"state":"active","ping":45},{"user_id":211,"name":"THORNFIELDGAMER","steam_id":76561199087167473,"connected_time":151000000000,"state":"active","ping":87},{"user_id":164,"name":"funkeymonkey15","steam_id":76561198930961042,"connected_time":4183000000000,"state":"active","ping":90},{"user_id":206,"name":"HumFreY","steam_id":76561198076639682,"connected_time":537000000000,"state":"active","ping":81},{"user_id":193,"name":"vevetables","steam_id":76561198404178400,"connected_time":1678000000000,"state":"active","ping":61},{"user_id":175,"name":"Maximum Flame","steam_id":76561198073682529,"connected_time":3462000000000,"state":"active","ping":53},{"user_id":151,"name":"made in jNanachikov","steam_id":76561198236206014,"connected_time":5732000000000,"state":"active","ping":89},{"user_id":201,"name":"MONKEY | videogamer1002","steam_id":76561198157110599,"connected_time":675000000000,"state":"active","ping":117},{"user_id":202,"name":"moosein","steam_id":76561198354272434,"connected_time":669000000000,"state":"active","ping":98},{"user_id":181,"name":"the plunderer","steam_id":76561198061284371,"connected_time":3017000000000,"state":"active","ping":69}]},{"server_id":37,"name":"Uncletopia | Chicago | 6 | All Maps","name_short":"chi-6","host":"chi-2.us.uncletopia.com","port":27025,"enabled":true,"region":"us-central","cc":"us","latitude":41.881832,"longitude":-87.62318,"reserved":0,"last_update":"0001-01-01T00:00:00Z","name_a2s":"Uncletopia | Chicago | 6 | All Maps","protocol":17,"map":"pl_badwater","folder":"tf","game":"Team Fortress","app_id":440,"player_count":24,"max_players":24,"Bots":0,"server_type":"Dedicated","server_os":"Linux","password":true,"vac":true,"version":"7961495","steam_id":85568392924866363,"keywords":["nocrits","nodmgspread","payload","uncletopia"],"game_id":440,"stv_port":27026,"stv_name":"Uncletopia | Chicago | 6 | All Maps | STV","players":[{"user_id":67,"name":"Sarah she/her \u003c3","steam_id":76561198337719478,"connected_time":901000000000,"state":"active","ping":81},{"user_id":38,"name":"idiotloser","steam_id":76561198054390505,"connected_time":1895000000000,"state":"active","ping":57},{"user_id":73,"name":"thundah!","steam_id":76561199159928133,"connected_time":646000000000,"state":"active","ping":73},{"user_id":43,"name":"Kdash","steam_id":76561198043829155,"connected_time":1454000000000,"state":"active","ping":76},{"user_id":49,"name":"PocketTieAMPLFY","steam_id":76561199080485881,"connected_time":1260000000000,"state":"active","ping":109},{"user_id":34,"name":"Commander Scumbag","steam_id":76561198995420442,"connected_time":2050000000000,"state":"active","ping":91},{"user_id":71,"name":"Gaming","steam_id":76561198107080532,"connected_time":667000000000,"state":"active","ping":64},{"user_id":76,"name":"Joe Swanson","steam_id":76561198065327106,"connected_time":176000000000,"state":"active","ping":60},{"user_id":46,"name":"Eiss","steam_id":76561198343183806,"connected_time":1288000000000,"state":"active","ping":87},{"user_id":47,"name":"Hertz","steam_id":76561198245322982,"connected_time":1268000000000,"state":"active","ping":59},{"user_id":48,"name":"engineer gaming","steam_id":76561198105347620,"connected_time":1264000000000,"state":"active","ping":99},{"user_id":50,"name":"Psycho Raptor","steam_id":76561198325853767,"connected_time":1241000000000,"state":"active","ping":113},{"user_id":54,"name":"Cannon_Fodder_78","steam_id":76561198799685859,"connected_time":1173000000000,"state":"active","ping":82},{"user_id":52,"name":"Bean Boy","steam_id":76561198279184347,"connected_time":1188000000000,"state":"active","ping":89},{"user_id":53,"name":"Brisket Guilty Gear","steam_id":76561198347371385,"connected_time":1181000000000,"state":"active","ping":105},{"user_id":55,"name":"brisky","steam_id":76561198869675719,"connected_time":1162000000000,"state":"active","ping":68},{"user_id":77,"name":"Rornir","steam_id":76561198081829615,"connected_time":166000000000,"state":"active","ping":44},{"user_id":74,"name":"Texas guy","steam_id":76561198082315370,"connected_time":512000000000,"state":"active","ping":95},{"user_id":58,"name":"Old One Eye","steam_id":76561198185598330,"connected_time":1117000000000,"state":"active","ping":84},{"user_id":70,"name":"Not a girl gamer","steam_id":76561198975597174,"connected_time":752000000000,"state":"active","ping":84},{"user_id":61,"name":"Prsm","steam_id":76561198053344995,"connected_time":1102000000000,"state":"active","ping":59},{"user_id":62,"name":"leer.","steam_id":76561198864458303,"connected_time":1101000000000,"state":"active","ping":71},{"user_id":69,"name":"GuzdBurn","steam_id":76561198384689388,"connected_time":894000000000,"state":"active","ping":133},{"user_id":66,"name":"Orca?","steam_id":76561198164341099,"connected_time":974000000000,"state":"active","ping":84}]},{"server_id":38,"name":"Uncletopia | Chicago | 7 | Stopwatch","name_short":"chi-7","host":"chi-2.us.uncletopia.com","port":27035,"enabled":true,"region":"us-central","cc":"us","latitude":41.881832,"longitude":-87.62318,"reserved":0,"last_update":"0001-01-01T00:00:00Z","name_a2s":"Uncletopia | Chicago | 7 | Stopwatch","protocol":17,"map":"koth_highpass","folder":"tf","game":"Team Fortress","app_id":440,"player_count":1,"max_players":24,"Bots":0,"server_type":"Dedicated","server_os":"Linux","password":true,"vac":true,"version":"7961495","steam_id":85568392924866364,"keywords":["cp","nocrits","nodmgspread","uncletopia"],"game_id":440,"stv_port":27036,"stv_name":"Uncletopia | Chicago | 7 | Stopwatch | STV","players":[{"user_id":8,"name":"Mask","steam_id":76561198877649728,"connected_time":31000000000,"state":"active","ping":158}]},{"server_id":39,"name":"Uncletopia | Chicago | 8 | Community","name_short":"chi-8","host":"chi-2.us.uncletopia.com","port":27045,"enabled":true,"region":"us-central","cc":"us","latitude":41.881832,"longitude":-87.62318,"reserved":0,"last_update":"0001-01-01T00:00:00Z","name_a2s":"Uncletopia | Chicago | 8 | Community","protocol":17,"map":"workshop/pl_shoreleave_rc2.ugc1238849347","folder":"tf","game":"Team Fortress","app_id":440,"player_count":0,"max_players":24,"Bots":0,"server_type":"Dedicated","server_os":"Linux","password":true,"vac":true,"version":"7961495","steam_id":85568392924866365,"keywords":["nocrits","nodmgspread","payload","uncletopia"],"game_id":440,"stv_port":27046,"stv_name":"Uncletopia | Chicago | 8 | Community | STV","players":null},{"server_id":8,"name":"Uncletopia | Dallas | 1 | All Maps","name_short":"dal-1","host":"dal-1.us.uncletopia.com","port":27015,"enabled":true,"region":"us-central","cc":"us","latitude":32.779167,"longitude":-96.80889,"reserved":0,"last_update":"0001-01-01T00:00:00Z","name_a2s":"Uncletopia | Dallas | 1 | All Maps","protocol":17,"map":"pl_thundermountain","folder":"tf","game":"Team Fortress","app_id":440,"player_count":24,"max_players":24,"Bots":0,"server_type":"Dedicated","server_os":"Linux","password":true,"vac":true,"version":"7961495","steam_id":85568392924469986,"keywords":["nocrits","nodmgspread","payload","uncletopia"],"game_id":440,"stv_port":27016,"stv_name":"Uncletopia | Dallas | 1 | All Maps | STV","players":[{"user_id":214,"name":"( ͡° ͜ʖ ͡°)","steam_id":76561198982415497,"connected_time":235000000000,"state":"active","ping":94},{"user_id":210,"name":"CherryPieRed2023","steam_id":76561198998007496,"connected_time":979000000000,"state":"active","ping":89},{"user_id":215,"name":"Zaid","steam_id":76561199142840666,"connected_time":215000000000,"state":"active","ping":143},{"user_id":216,"name":"bigchungusgaming(real)","steam_id":76561198273392037,"connected_time":205000000000,"state":"active","ping":88},{"user_id":194,"name":"Ridley","steam_id":76561198248615662,"connected_time":1721000000000,"state":"active","ping":93},{"user_id":199,"name":"Kaestal","steam_id":76561198033174157,"connected_time":1662000000000,"state":"active","ping":47},{"user_id":207,"name":"Average","steam_id":76561199133007007,"connected_time":1230000000000,"state":"active","ping":69},{"user_id":217,"name":"Burny Sanders","steam_id":76561197961879048,"connected_time":202000000000,"state":"active","ping":44},{"user_id":197,"name":"PinPine","steam_id":76561198204369237,"connected_time":1692000000000,"state":"active","ping":80},{"user_id":128,"name":"Elias","steam_id":76561198106431732,"connected_time":6455000000000,"state":"active","ping":61},{"user_id":137,"name":"bashdzy","steam_id":76561199006087600,"connected_time":5230000000000,"state":"active","ping":65},{"user_id":191,"name":"BoxOfStaples","steam_id":76561198834773017,"connected_time":1834000000000,"state":"active","ping":93},{"user_id":220,"name":"Darling","steam_id":76561198127525888,"connected_time":182000000000,"state":"active","ping":47},{"user_id":148,"name":"Tako","steam_id":76561199264073138,"connected_time":4395000000000,"state":"active","ping":61},{"user_id":101,"name":"who ate the cheese","steam_id":76561198275408467,"connected_time":8965000000000,"state":"active","ping":51},{"user_id":224,"name":"Amtyk","steam_id":76561197979130554,"connected_time":4000000000,"state":"spawning","ping":73},{"user_id":218,"name":"jamsheed","steam_id":76561198150232875,"connected_time":195000000000,"state":"active","ping":70},{"user_id":212,"name":"[㏈] Bumpercars","steam_id":76561198061591743,"connected_time":661000000000,"state":"active","ping":89},{"user_id":222,"name":"[DATS➡] Sugar Meowth","steam_id":76561197995251793,"connected_time":145000000000,"state":"active","ping":93},{"user_id":177,"name":"LeBron James from Multiversus\ufffd\ufffd","steam_id":76561198316060646,"connected_time":2381000000000,"state":"active","ping":115},{"user_id":221,"name":"Crombun","steam_id":76561198031559642,"connected_time":177000000000,"state":"active","ping":75},{"user_id":166,"name":"Addicted2TheShindig","steam_id":76561198062459671,"connected_time":3069000000000,"state":"active","ping":86},{"user_id":223,"name":"OriOriOri","steam_id":76561198302640481,"connected_time":144000000000,"state":"active","ping":91},{"user_id":184,"name":"no more fucks to give","steam_id":76561199129974320,"connected_time":2153000000000,"state":"active","ping":70}]},{"server_id":108,"name":"Uncletopia | Dallas | 2 | All Maps","name_short":"dal-2","host":"dal-1.us.uncletopia.com","port":27025,"enabled":true,"region":"us-central","cc":"us","latitude":32.779167,"longitude":-96.80889,"reserved":0,"last_update":"0001-01-01T00:00:00Z","name_a2s":"Uncletopia | Dallas | 2 | All Maps","protocol":17,"map":"pl_frontier_final","folder":"tf","game":"Team Fortress","app_id":440,"player_count":23,"max_players":24,"Bots":0,"server_type":"Dedicated","server_os":"Linux","password":true,"vac":true,"version":"7961495","steam_id":85568392924469988,"keywords":["nocrits","nodmgspread","payload","uncletopia"],"game_id":440,"stv_port":27026,"stv_name":"Uncletopia | Dallas | 2 | All Maps | STV","players":[{"user_id":125,"name":"Crescent","steam_id":76561198095124633,"connected_time":101000000000,"state":"active","ping":74},{"user_id":105,"name":"DiviningWizard","steam_id":76561199101096245,"connected_time":1839000000000,"state":"active","ping":75},{"user_id":116,"name":"allahsdroptop (Bag/Chaser)","steam_id":76561198133195238,"connected_time":948000000000,"state":"active","ping":97},{"user_id":119,"name":"Kanye Asada","steam_id":76561198186678831,"connected_time":742000000000,"state":"active","ping":77},{"user_id":86,"name":"Unethical Worm","steam_id":76561197998121744,"connected_time":3160000000000,"state":"active","ping":55},{"user_id":121,"name":"RyInc","steam_id":76561198874261643,"connected_time":551000000000,"state":"active","ping":65},{"user_id":79,"name":"Pheonix Fel Dragon","steam_id":76561198164974227,"connected_time":4352000000000,"state":"active","ping":51},{"user_id":113,"name":"Migi","steam_id":76561198168938640,"connected_time":992000000000,"state":"active","ping":56},{"user_id":122,"name":"Frebresio","steam_id":76561198353493333,"connected_time":458000000000,"state":"active","ping":79},{"user_id":120,"name":"Krissy","steam_id":76561197960848174,"connected_time":567000000000,"state":"active","ping":87},{"user_id":85,"name":"Goldensliv","steam_id":76561198161673891,"connected_time":3188000000000,"state":"active","ping":61},{"user_id":92,"name":"Pyro","steam_id":76561199267143939,"connected_time":3021000000000,"state":"active","ping":72},{"user_id":78,"name":"celestia ludenberg","steam_id":76561199196437823,"connected_time":4442000000000,"state":"active","ping":96},{"user_id":87,"name":"Giselle","steam_id":76561198162593640,"connected_time":3157000000000,"state":"active","ping":115},{"user_id":117,"name":"Normalux","steam_id":76561198293891426,"connected_time":946000000000,"state":"active","ping":108},{"user_id":96,"name":"chiri","steam_id":76561198052373634,"connected_time":2884000000000,"state":"active","ping":108},{"user_id":82,"name":"djjones1999","steam_id":76561199121937746,"connected_time":4170000000000,"state":"active","ping":76},{"user_id":109,"name":"Minecraft","steam_id":76561198409907417,"connected_time":1456000000000,"state":"active","ping":92},{"user_id":106,"name":"BlueSceptile","steam_id":76561198303151606,"connected_time":1800000000000,"state":"active","ping":61},{"user_id":123,"name":"shellaa","steam_id":76561198044124102,"connected_time":440000000000,"state":"active","ping":41},{"user_id":98,"name":"Sprit ♥","steam_id":76561198268780781,"connected_time":2665000000000,"state":"active","ping":73},{"user_id":124,"name":"Lobstyr","steam_id":76561198884406859,"connected_time":135000000000,"state":"active","ping":81},{"user_id":111,"name":"SmokeyGalaxy","steam_id":76561198118780516,"connected_time":1090000000000,"state":"active","ping":60}]},{"server_id":404,"name":"Uncletopia | Dallas | 3 | All Maps","name_short":"dal-3","host":"dal-1.us.uncletopia.com","port":27035,"enabled":true,"region":"us-central","cc":"us","latitude":32.779167,"longitude":-96.80889,"reserved":0,"last_update":"0001-01-01T00:00:00Z","name_a2s":"Uncletopia | Dallas | 3 | All Maps","protocol":17,"map":"koth_cascade","folder":"tf","game":"Team Fortress","app_id":440,"player_count":0,"max_players":24,"Bots":0,"server_type":"Dedicated","server_os":"Linux","password":true,"vac":true,"version":"7961495","steam_id":85568392924515219,"keywords":["cp","nocrits","nodmgspread","uncletopia"],"game_id":440,"stv_port":27036,"stv_name":"Uncletopia | Dallas | 3 | All Maps | STV","players":null},{"server_id":405,"name":"Uncletopia | Dallas | 4 | Community","name_short":"dal-4","host":"dal-1.us.uncletopia.com","port":27045,"enabled":true,"region":"us-central","cc":"us","latitude":32.779167,"longitude":-96.80889,"reserved":0,"last_update":"0001-01-01T00:00:00Z","name_a2s":"Uncletopia | Dallas | 4 | Community","protocol":17,"map":"workshop/koth_slaughter_rc1.ugc1712845210","folder":"tf","game":"Team Fortress","app_id":440,"player_count":0,"max_players":24,"Bots":0,"server_type":"Dedicated","server_os":"Linux","password":true,"vac":true,"version":"7961495","steam_id":85568392924515220,"keywords":["cp","nocrits","nodmgspread","uncletopia"],"game_id":440,"stv_port":27046,"stv_name":"Uncletopia | Dallas | 4 | Community | STV","players":null},{"server_id":5,"name":"Uncletopia | Frankfurt | 1 | All Maps","name_short":"frk-1","host":"frk-1.de.uncletopia.com","port":27015,"enabled":true,"region":"eu","cc":"de","latitude":50.110924,"longitude":8.682127,"reserved":0,"last_update":"0001-01-01T00:00:00Z","name_a2s":"Uncletopia | Frankfurt | 1 | All Maps","protocol":17,"map":"koth_highpass","folder":"tf","game":"Team Fortress","app_id":440,"player_count":0,"max_players":24,"Bots":0,"server_type":"Dedicated","server_os":"Linux","password":true,"vac":true,"version":"7961495","steam_id":85568392924469989,"keywords":["cp","nocrits","nodmgspread","uncletopia"],"game_id":440,"stv_port":27016,"stv_name":"Uncletopia | Frankfurt | 1 | All Maps | STV","players":null},{"server_id":110,"name":"Uncletopia | Frankfurt | 2 | All Maps","name_short":"frk-2","host":"frk-1.de.uncletopia.com","port":27025,"enabled":true,"region":"eu","cc":"de","latitude":50.110924,"longitude":8.682127,"reserved":0,"last_update":"0001-01-01T00:00:00Z","name_a2s":"Uncletopia | Frankfurt | 2 | All Maps","protocol":17,"map":"koth_lakeside_final","folder":"tf","game":"Team Fortress","app_id":440,"player_count":18,"max_players":24,"Bots":0,"server_type":"Dedicated","server_os":"Linux","password":true,"vac":true,"version":"7961495","steam_id":85568392924469990,"keywords":["cp","nocrits","nodmgspread","uncletopia"],"game_id":440,"stv_port":27026,"stv_name":"Uncletopia | Frankfurt | 2 | All Maps | STV","players":[{"user_id":634,"name":"*devil emoji*","steam_id":76561198429138254,"connected_time":1692000000000,"state":"active","ping":59},{"user_id":598,"name":"thussu","steam_id":76561198890409949,"connected_time":3748000000000,"state":"active","ping":84},{"user_id":648,"name":"Skyrider of Spaceways","steam_id":76561197991678236,"connected_time":492000000000,"state":"active","ping":134},{"user_id":662,"name":"officeboss","steam_id":76561198091440740,"connected_time":234000000000,"state":"active","ping":99},{"user_id":665,"name":"Maoma112","steam_id":76561199012536447,"connected_time":73000000000,"state":"active","ping":180},{"user_id":663,"name":"♥ Lilliputt ♥","steam_id":76561198090146457,"connected_time":205000000000,"state":"active","ping":52},{"user_id":651,"name":"Kamelåså","steam_id":76561198149072785,"connected_time":443000000000,"state":"active","ping":74},{"user_id":661,"name":"R@DIO","steam_id":76561197995533046,"connected_time":267000000000,"state":"active","ping":73},{"user_id":664,"name":"MitraIDK","steam_id":76561198355718965,"connected_time":193000000000,"state":"active","ping":61},{"user_id":641,"name":"else1","steam_id":76561197996558319,"connected_time":1110000000000,"state":"active","ping":75},{"user_id":627,"name":"janfwajfnjnafjnagfjnaegja","steam_id":76561198963378933,"connected_time":2192000000000,"state":"active","ping":50},{"user_id":655,"name":"Uselss Joe","steam_id":76561198275853629,"connected_time":399000000000,"state":"active","ping":44},{"user_id":617,"name":"woop","steam_id":76561198985105074,"connected_time":2423000000000,"state":"active","ping":101},{"user_id":658,"name":"horrors within my comprehension","steam_id":76561198363841749,"connected_time":294000000000,"state":"active","ping":80},{"user_id":603,"name":"DRAW YOUR LAST BREATH","steam_id":76561198798803845,"connected_time":3646000000000,"state":"active","ping":50},{"user_id":612,"name":"Teezio","steam_id":76561198107617432,"connected_time":2697000000000,"state":"active","ping":65},{"user_id":645,"name":"TPD16","steam_id":76561198354138834,"connected_time":719000000000,"state":"active","ping":84},{"user_id":657,"name":"Frögg-Kät","steam_id":76561198263561004,"connected_time":397000000000,"state":"active","ping":59}]},{"server_id":308,"name":"Uncletopia | Frankfurt | 3 | All Maps","name_short":"frk-3","host":"frk-1.de.uncletopia.com","port":27035,"enabled":true,"region":"eu","cc":"de","latitude":50.110924,"longitude":8.682127,"reserved":0,"last_update":"0001-01-01T00:00:00Z","name_a2s":"Uncletopia | Frankfurt | 3 | All Maps","protocol":17,"map":"pl_frontier_final","folder":"tf","game":"Team Fortress","app_id":440,"player_count":24,"max_players":24,"Bots":0,"server_type":"Dedicated","server_os":"Linux","password":true,"vac":true,"version":"7961495","steam_id":85568392924504274,"keywords":["nocrits","nodmgspread","payload","uncletopia"],"game_id":440,"stv_port":27036,"stv_name":"Uncletopia | Frankfurt | 3 | All Maps | STV","players":[{"user_id":399,"name":"TidB","steam_id":76561198055342304,"connected_time":1211000000000,"state":"active","ping":45},{"user_id":368,"name":"Xeno","steam_id":76561198975556646,"connected_time":3079000000000,"state":"active","ping":44},{"user_id":380,"name":"glyph","steam_id":76561197980736364,"connected_time":2331000000000,"state":"active","ping":74},{"user_id":388,"name":"☭TheDevilsEye☭","steam_id":76561198017379398,"connected_time":1628000000000,"state":"active","ping":69},{"user_id":397,"name":"Dracodemus","steam_id":76561198079518597,"connected_time":1263000000000,"state":"active","ping":171},{"user_id":345,"name":"I am real human","steam_id":76561199036865103,"connected_time":4568000000000,"state":"active","ping":88},{"user_id":398,"name":"mini-sentry","steam_id":76561198884712155,"connected_time":1262000000000,"state":"active","ping":183},{"user_id":374,"name":"phrög","steam_id":76561199230709660,"connected_time":2824000000000,"state":"active","ping":46},{"user_id":383,"name":"TruckOperator47","steam_id":76561198192924663,"connected_time":2005000000000,"state":"active","ping":61},{"user_id":304,"name":"Frozteen","steam_id":76561198280062997,"connected_time":7593000000000,"state":"active","ping":89},{"user_id":405,"name":"Jack Baker","steam_id":76561198145890045,"connected_time":865000000000,"state":"active","ping":84},{"user_id":367,"name":"Larry Penus","steam_id":76561198207546233,"connected_time":3139000000000,"state":"active","ping":59},{"user_id":408,"name":"Pipper","steam_id":76561197970326616,"connected_time":243000000000,"state":"active","ping":65},{"user_id":391,"name":"Twang","steam_id":76561198257982008,"connected_time":1518000000000,"state":"active","ping":53},{"user_id":396,"name":"PUNK RECORDS","steam_id":76561197999954766,"connected_time":1375000000000,"state":"active","ping":48},{"user_id":401,"name":"Baba Sraka","steam_id":76561198128292318,"connected_time":1108000000000,"state":"active","ping":122},{"user_id":379,"name":"etc","steam_id":76561197998394797,"connected_time":2367000000000,"state":"active","ping":57},{"user_id":403,"name":"Groucho","steam_id":76561198042888918,"connected_time":1000000000000,"state":"active","ping":57},{"user_id":361,"name":"Raymus","steam_id":76561198021330407,"connected_time":3439000000000,"state":"active","ping":51},{"user_id":386,"name":"Sprottel","steam_id":76561198362958293,"connected_time":1790000000000,"state":"active","ping":45},{"user_id":406,"name":"corben","steam_id":76561198057360549,"connected_time":860000000000,"state":"active","ping":69},{"user_id":404,"name":"W","steam_id":76561199501358967,"connected_time":961000000000,"state":"active","ping":60},{"user_id":362,"name":"AnanasGerste","steam_id":76561198133825211,"connected_time":3250000000000,"state":"active","ping":47},{"user_id":382,"name":"tytanowy_sebek","steam_id":76561198048314729,"connected_time":2236000000000,"state":"active","ping":73}]},{"server_id":309,"name":"Uncletopia | Frankfurt | 4 | All Maps","name_short":"frk-4","host":"frk-1.de.uncletopia.com","port":27045,"enabled":true,"region":"eu","cc":"de","latitude":50.110924,"longitude":8.682127,"reserved":0,"last_update":"0001-01-01T00:00:00Z","name_a2s":"Uncletopia | Frankfurt | 4 | All Maps","protocol":17,"map":"pl_frontier_final","folder":"tf","game":"Team Fortress","app_id":440,"player_count":0,"max_players":24,"Bots":0,"server_type":"Dedicated","server_os":"Linux","password":true,"vac":true,"version":"7961495","steam_id":85568392924504275,"keywords":["nocrits","nodmgspread","payload","uncletopia"],"game_id":440,"stv_port":27046,"stv_name":"Uncletopia | Frankfurt | 4 | All Maps | STV","players":null},{"server_id":310,"name":"Uncletopia | Frankfurt | 5 | All Maps","name_short":"frk-5","host":"frk-1.de.uncletopia.com","port":27055,"enabled":true,"region":"eu","cc":"de","latitude":50.110924,"longitude":8.682127,"reserved":0,"last_update":"0001-01-01T00:00:00Z","name_a2s":"Uncletopia | Frankfurt | 5 | All Maps","protocol":17,"map":"koth_harvest_final","folder":"tf","game":"Team Fortress","app_id":440,"player_count":22,"max_players":24,"Bots":0,"server_type":"Dedicated","server_os":"Linux","password":true,"vac":true,"version":"7961495","steam_id":85568392924504277,"keywords":["cp","nocrits","nodmgspread","uncletopia"],"game_id":440,"stv_port":27056,"stv_name":"Uncletopia | Frankfurt | 5 | All Maps | STV","players":[{"user_id":623,"name":"Vershal Smershal","steam_id":76561198116223995,"connected_time":2316000000000,"state":"active","ping":57},{"user_id":624,"name":"crit hit!","steam_id":76561198112693639,"connected_time":2277000000000,"state":"active","ping":71},{"user_id":551,"name":"Just Navlis","steam_id":76561198090479609,"connected_time":8574000000000,"state":"active","ping":45},{"user_id":637,"name":"goop","steam_id":76561198190073005,"connected_time":1078000000000,"state":"active","ping":56},{"user_id":634,"name":"yakubian snow ape","steam_id":76561198316059681,"connected_time":1988000000000,"state":"active","ping":46},{"user_id":574,"name":"agent youppii","steam_id":76561198055264447,"connected_time":6353000000000,"state":"active","ping":70},{"user_id":639,"name":"NIKOLAbree123","steam_id":76561198247037348,"connected_time":555000000000,"state":"active","ping":80},{"user_id":636,"name":"debil boywife","steam_id":76561198160047415,"connected_time":1674000000000,"state":"active","ping":84},{"user_id":616,"name":"finbar","steam_id":76561198056812396,"connected_time":2741000000000,"state":"active","ping":78},{"user_id":626,"name":"SoapDictator","steam_id":76561198010540358,"connected_time":2095000000000,"state":"active","ping":61},{"user_id":644,"name":"j","steam_id":76561198299474630,"connected_time":118000000000,"state":"active","ping":42},{"user_id":628,"name":"Captain Puddleboat","steam_id":76561198053913970,"connected_time":2076000000000,"state":"active","ping":65},{"user_id":629,"name":"wes","steam_id":76561198067000117,"connected_time":2071000000000,"state":"active","ping":60},{"user_id":600,"name":"Bajas","steam_id":76561198179339326,"connected_time":3854000000000,"state":"active","ping":81},{"user_id":538,"name":"xavier","steam_id":76561198076494034,"connected_time":9749000000000,"state":"active","ping":57},{"user_id":641,"name":"John Daly","steam_id":76561197993849325,"connected_time":356000000000,"state":"active","ping":85},{"user_id":630,"name":"Xenok5","steam_id":76561198099238610,"connected_time":2061000000000,"state":"active","ping":79},{"user_id":582,"name":"powej","steam_id":76561198056381418,"connected_time":5845000000000,"state":"active","ping":46},{"user_id":631,"name":"nezolif","steam_id":76561198102030382,"connected_time":2061000000000,"state":"active","ping":74},{"user_id":611,"name":"去吃胡萝卜笨蛋","steam_id":76561198069649097,"connected_time":3090000000000,"state":"active","ping":85},{"user_id":632,"name":"dia","steam_id":76561198033281405,"connected_time":2054000000000,"state":"active","ping":81},{"user_id":539,"name":"hananamanna","steam_id":76561198006570285,"connected_time":9738000000000,"state":"active","ping":112}]},{"server_id":311,"name":"Uncletopia | Frankfurt | 6 | All Maps","name_short":"frk-6","host":"frk-1.de.uncletopia.com","port":27065,"enabled":true,"region":"eu","cc":"de","latitude":50.110924,"longitude":8.682127,"reserved":0,"last_update":"0001-01-01T00:00:00Z","name_a2s":"Uncletopia | Frankfurt | 6 | All Maps","protocol":17,"map":"pl_frontier_final","folder":"tf","game":"Team Fortress","app_id":440,"player_count":24,"max_players":24,"Bots":0,"server_type":"Dedicated","server_os":"Linux","password":true,"vac":true,"version":"7961495","steam_id":85568392924504278,"keywords":["nocrits","nodmgspread","payload","uncletopia"],"game_id":440,"stv_port":27066,"stv_name":"Uncletopia | Frankfurt | 6 | All Maps | STV","players":[{"user_id":554,"name":"QuantumFox","steam_id":76561198125912648,"connected_time":5251000000000,"state":"active","ping":57},{"user_id":613,"name":"Weegee","steam_id":76561198150308523,"connected_time":1375000000000,"state":"active","ping":67},{"user_id":620,"name":"Silas","steam_id":76561198388750592,"connected_time":649000000000,"state":"active","ping":50},{"user_id":617,"name":"jjvthou(NOtdRuNkMeswEaRss)","steam_id":76561199403071554,"connected_time":952000000000,"state":"active","ping":161},{"user_id":562,"name":"zazuza","steam_id":76561198049820905,"connected_time":4085000000000,"state":"active","ping":74},{"user_id":579,"name":"Madoqua","steam_id":76561198220063024,"connected_time":3469000000000,"state":"active","ping":109},{"user_id":552,"name":"Wildeshammer","steam_id":76561198132133702,"connected_time":5551000000000,"state":"active","ping":44},{"user_id":614,"name":"$$$","steam_id":76561198148991674,"connected_time":1086000000000,"state":"active","ping":75},{"user_id":627,"name":"RubyTheUnicorn","steam_id":76561198091772218,"connected_time":361000000000,"state":"active","ping":59},{"user_id":628,"name":"ebreadded333","steam_id":76561199278000175,"connected_time":117000000000,"state":"active","ping":101},{"user_id":564,"name":"Vonacht","steam_id":76561198016033944,"connected_time":4077000000000,"state":"active","ping":60},{"user_id":622,"name":"weaj","steam_id":76561198053628243,"connected_time":566000000000,"state":"active","ping":50},{"user_id":610,"name":"Fabulous Gordon","steam_id":76561198099432692,"connected_time":1578000000000,"state":"active","ping":73},{"user_id":604,"name":"NatyX","steam_id":76561198107867144,"connected_time":1886000000000,"state":"active","ping":47},{"user_id":626,"name":"Mizzow","steam_id":76561198008040797,"connected_time":431000000000,"state":"active","ping":73},{"user_id":592,"name":"Gaxkang","steam_id":76561198125768571,"connected_time":2471000000000,"state":"active","ping":70},{"user_id":624,"name":"Shovelhalfrusty","steam_id":76561198346447513,"connected_time":520000000000,"state":"active","ping":72},{"user_id":625,"name":"long crab","steam_id":76561198136239861,"connected_time":465000000000,"state":"active","ping":61},{"user_id":606,"name":"zulfie","steam_id":76561198117390056,"connected_time":1822000000000,"state":"active","ping":59},{"user_id":586,"name":"FJADL","steam_id":76561198237008214,"connected_time":3177000000000,"state":"active","ping":63},{"user_id":619,"name":"クケイ","steam_id":76561198215122444,"connected_time":918000000000,"state":"active","ping":166},{"user_id":599,"name":"dEzZe ツ","steam_id":76561197960291106,"connected_time":2302000000000,"state":"active","ping":55},{"user_id":602,"name":"Drosan ツ","steam_id":76561197960389216,"connected_time":2113000000000,"state":"active","ping":45},{"user_id":611,"name":"Gryoss","steam_id":76561197999837111,"connected_time":1556000000000,"state":"active","ping":101}]},{"server_id":23,"name":"Uncletopia | Frankfurt | 7 | Stopwatch","name_short":"frk-7","host":"frk-1.de.uncletopia.com","port":27075,"enabled":true,"region":"eu","cc":"de","latitude":50.110924,"longitude":8.682127,"reserved":0,"last_update":"0001-01-01T00:00:00Z","name_a2s":"Uncletopia | Frankfurt | 7 | Stopwatch","protocol":17,"map":"workshop/pl_badwater_pro_v12.ugc2142942074","folder":"tf","game":"Team Fortress","app_id":440,"player_count":0,"max_players":24,"Bots":0,"server_type":"Dedicated","server_os":"Linux","password":true,"vac":true,"version":"7961495","steam_id":85568392924742827,"keywords":["nocrits","nodmgspread","payload","uncletopia"],"game_id":440,"stv_port":27076,"stv_name":"Uncletopia | Frankfurt | 7 | Stopwatch | STV","players":null},{"server_id":24,"name":"Uncletopia | Frankfurt | 8 | Community","name_short":"frk-8","host":"frk-1.de.uncletopia.com","port":27085,"enabled":true,"region":"eu","cc":"de","latitude":50.110924,"longitude":8.682127,"reserved":0,"last_update":"0001-01-01T00:00:00Z","name_a2s":"Uncletopia | Frankfurt | 8 | Community","protocol":17,"map":"workshop/cp_alloy_rc3.ugc592805587","folder":"tf","game":"Team Fortress","app_id":440,"player_count":0,"max_players":24,"Bots":0,"server_type":"Dedicated","server_os":"Linux","password":true,"vac":true,"version":"7961495","steam_id":85568392924742828,"keywords":["cp","nocrits","nodmgspread","uncletopia"],"game_id":440,"stv_port":27086,"stv_name":"Uncletopia | Frankfurt | 8 | Community | STV","players":null},{"server_id":202,"name":"Uncletopia | Hong Kong | 1 | All Maps","name_short":"hgk-1","host":"hgk-1.hk.uncletopia.com","port":27015,"enabled":true,"region":"asia","cc":"hk","latitude":22.302711,"longitude":114.177216,"reserved":0,"last_update":"0001-01-01T00:00:00Z","name_a2s":"Uncletopia | Hong Kong | 1 | All Maps","protocol":17,"map":"pl_frontier_final","folder":"tf","game":"Team Fortress","app_id":440,"player_count":0,"max_players":24,"Bots":0,"server_type":"Dedicated","server_os":"Linux","password":true,"vac":true,"version":"7961495","steam_id":85568392924494504,"keywords":["nocrits","nodmgspread","payload","uncletopia"],"game_id":440,"stv_port":27016,"stv_name":"Uncletopia | Hong Kong | 1 | All Maps | STV","players":null},{"server_id":1,"name":"Uncletopia | Los Angeles | 1 | All Maps","name_short":"lax-1","host":"lax-1.us.uncletopia.com","port":27015,"enabled":true,"region":"us-west","cc":"us","latitude":33.94279,"longitude":-118.41004,"reserved":0,"last_update":"0001-01-01T00:00:00Z","name_a2s":"Uncletopia | Los Angeles | 1 | All Maps","protocol":17,"map":"pl_badwater","folder":"tf","game":"Team Fortress","app_id":440,"player_count":24,"max_players":24,"Bots":0,"server_type":"Dedicated","server_os":"Linux","password":true,"vac":true,"version":"7961495","steam_id":85568392924469991,"keywords":["nocrits","nodmgspread","payload","uncletopia"],"game_id":440,"stv_port":27016,"stv_name":"Uncletopia | Los Angeles | 1 | All Maps | STV","players":[{"user_id":231,"name":"shreklover69","steam_id":76561198054070811,"connected_time":301000000000,"state":"active","ping":56},{"user_id":212,"name":"Puss-Destroyer The Virile","steam_id":76561198088298999,"connected_time":2162000000000,"state":"active","ping":115},{"user_id":232,"name":"Keamy","steam_id":76561199471434875,"connected_time":237000000000,"state":"active","ping":75},{"user_id":227,"name":"FellowAutist","steam_id":76561198053916629,"connected_time":894000000000,"state":"active","ping":56},{"user_id":217,"name":"MDEEEEE","steam_id":76561198058460585,"connected_time":1689000000000,"state":"active","ping":46},{"user_id":224,"name":"rilby","steam_id":76561198132755619,"connected_time":1396000000000,"state":"active","ping":39},{"user_id":228,"name":"Gumpy","steam_id":76561198144747235,"connected_time":891000000000,"state":"active","ping":80},{"user_id":166,"name":"roach :3","steam_id":76561198354811369,"connected_time":6040000000000,"state":"active","ping":46},{"user_id":219,"name":"HumbDoe","steam_id":76561198065556553,"connected_time":1675000000000,"state":"active","ping":65},{"user_id":150,"name":"sobaka","steam_id":76561198116008934,"connected_time":7252000000000,"state":"active","ping":62},{"user_id":215,"name":"thekraken630","steam_id":76561199088410868,"connected_time":2020000000000,"state":"active","ping":59},{"user_id":225,"name":"Piggy McCool","steam_id":76561198309760791,"connected_time":963000000000,"state":"active","ping":119},{"user_id":220,"name":"hyaz, +rep.","steam_id":76561199100342013,"connected_time":1674000000000,"state":"active","ping":51},{"user_id":206,"name":"Tuxedo Terrorist","steam_id":76561199093106628,"connected_time":2401000000000,"state":"active","ping":56},{"user_id":214,"name":"Color Drop","steam_id":76561198066651473,"connected_time":2084000000000,"state":"active","ping":52},{"user_id":207,"name":"JACK BRUNO","steam_id":76561198027957690,"connected_time":2321000000000,"state":"active","ping":71},{"user_id":189,"name":"HopeTheNeko","steam_id":76561199159285465,"connected_time":4042000000000,"state":"active","ping":62},{"user_id":218,"name":"Cheemsgurger","steam_id":76561198130777835,"connected_time":1687000000000,"state":"active","ping":99},{"user_id":161,"name":"triph","steam_id":76561198067196509,"connected_time":6841000000000,"state":"active","ping":29},{"user_id":229,"name":"Tmiracle","steam_id":76561198052375275,"connected_time":878000000000,"state":"active","ping":46},{"user_id":222,"name":"Drive-By-Fish-Guy","steam_id":76561198105513652,"connected_time":1559000000000,"state":"active","ping":63},{"user_id":230,"name":"Tele Co","steam_id":76561198041909269,"connected_time":875000000000,"state":"active","ping":59},{"user_id":223,"name":"❤To Lazy❤","steam_id":76561198164211904,"connected_time":1423000000000,"state":"active","ping":67},{"user_id":63,"name":"rat","steam_id":76561198130412963,"connected_time":14970000000000,"state":"active","ping":81}]},{"server_id":112,"name":"Uncletopia | Los Angeles | 2 | All Maps","name_short":"lax-2","host":"lax-1.us.uncletopia.com","port":27025,"enabled":true,"region":"us-west","cc":"us","latitude":33.94279,"longitude":-118.41004,"reserved":0,"last_update":"0001-01-01T00:00:00Z","name_a2s":"Uncletopia | Los Angeles | 2 | All Maps","protocol":17,"map":"cp_process_final","folder":"tf","game":"Team Fortress","app_id":440,"player_count":0,"max_players":24,"Bots":0,"server_type":"Dedicated","server_os":"Linux","password":true,"vac":true,"version":"7961495","steam_id":85568392924469992,"keywords":["cp","nocrits","nodmgspread","uncletopia"],"game_id":440,"stv_port":27026,"stv_name":"Uncletopia | Los Angeles | 2 | All Maps | STV","players":null},{"server_id":324,"name":"Uncletopia | Los Angeles | 3 | All Maps","name_short":"lax-3","host":"lax-1.us.uncletopia.com","port":27035,"enabled":true,"region":"us-west","cc":"us","latitude":33.94279,"longitude":-118.41004,"reserved":0,"last_update":"0001-01-01T00:00:00Z","name_a2s":"Uncletopia | Los Angeles | 3 | All Maps","protocol":17,"map":"cp_sunshine","folder":"tf","game":"Team Fortress","app_id":440,"player_count":0,"max_players":24,"Bots":0,"server_type":"Dedicated","server_os":"Linux","password":true,"vac":true,"version":"7961495","steam_id":85568392924510198,"keywords":["cp","nocrits","nodmgspread","uncletopia"],"game_id":440,"stv_port":27036,"stv_name":"Uncletopia | Los Angeles | 3 | All Maps | STV","players":null},{"server_id":25,"name":"Uncletopia | Los Angeles | 4 | Stopwatch","name_short":"lax-4","host":"lax-1.us.uncletopia.com","port":27045,"enabled":true,"region":"us-west","cc":"us","latitude":33.94279,"longitude":-118.41004,"reserved":0,"last_update":"0001-01-01T00:00:00Z","name_a2s":"Uncletopia | Los Angeles | 4 | Stopwatch","protocol":17,"map":"pl_barnblitz","folder":"tf","game":"Team Fortress","app_id":440,"player_count":0,"max_players":24,"Bots":0,"server_type":"Dedicated","server_os":"Linux","password":true,"vac":true,"version":"7961495","steam_id":85568392924510199,"keywords":["nocrits","nodmgspread","payload","uncletopia"],"game_id":440,"stv_port":27046,"stv_name":"Uncletopia | Los Angeles | 4 | Stopwatch | STV","players":null},{"server_id":11,"name":"Uncletopia | London | 1 | All Maps","name_short":"lon-1","host":"lon-1.uk.uncletopia.com","port":27015,"enabled":true,"region":"eu","cc":"gb","latitude":51.509865,"longitude":-0.118092,"reserved":0,"last_update":"0001-01-01T00:00:00Z","name_a2s":"Uncletopia | London | 1 | All Maps","protocol":17,"map":"koth_harvest_final","folder":"tf","game":"Team Fortress","app_id":440,"player_count":24,"max_players":24,"Bots":0,"server_type":"Dedicated","server_os":"Linux","password":true,"vac":true,"version":"7961495","steam_id":85568392924367362,"keywords":["cp","nocrits","nodmgspread","uncletopia"],"game_id":440,"stv_port":27016,"stv_name":"Uncletopia | London | 1 | All Maps | STV","players":[{"user_id":812,"name":"Minimi","steam_id":76561198873850443,"connected_time":177000000000,"state":"active","ping":45},{"user_id":806,"name":"BreadBubbles","steam_id":76561198174332826,"connected_time":1309000000000,"state":"active","ping":57},{"user_id":658,"name":"KnugenIV","steam_id":76561198127091993,"connected_time":6951000000000,"state":"active","ping":56},{"user_id":597,"name":"Yelowchy","steam_id":76561198199416121,"connected_time":12556000000000,"state":"active","ping":68},{"user_id":799,"name":"so valid queen slay","steam_id":76561198190583242,"connected_time":1493000000000,"state":"active","ping":79},{"user_id":782,"name":"fluffy gurl :3","steam_id":76561198139632682,"connected_time":3561000000000,"state":"active","ping":90},{"user_id":787,"name":"sushii","steam_id":76561198297987372,"connected_time":2810000000000,"state":"active","ping":47},{"user_id":813,"name":"dec","steam_id":76561198009660168,"connected_time":175000000000,"state":"active","ping":45},{"user_id":794,"name":"SOPHIIAA (DRINKING GAME PLAYER)","steam_id":76561198443798981,"connected_time":1572000000000,"state":"active","ping":75},{"user_id":566,"name":"whimsy.","steam_id":76561198878171763,"connected_time":15749000000000,"state":"active","ping":51},{"user_id":633,"name":"ein","steam_id":76561198152162834,"connected_time":9634000000000,"state":"active","ping":90},{"user_id":802,"name":"rigel_","steam_id":76561198148640847,"connected_time":1487000000000,"state":"active","ping":81},{"user_id":550,"name":"shooer!","steam_id":76561198110531281,"connected_time":16915000000000,"state":"active","ping":72},{"user_id":805,"name":"Black Tom","steam_id":76561198335730273,"connected_time":1454000000000,"state":"active","ping":60},{"user_id":735,"name":"⸸aura⸸","steam_id":76561198066258544,"connected_time":5751000000000,"state":"active","ping":63},{"user_id":808,"name":"bebed bedba bedda","steam_id":76561198277943630,"connected_time":930000000000,"state":"active","ping":73},{"user_id":779,"name":"gibb (official)","steam_id":76561198074097655,"connected_time":4997000000000,"state":"active","ping":127},{"user_id":810,"name":"Mei","steam_id":76561198363464483,"connected_time":780000000000,"state":"active","ping":74},{"user_id":804,"name":"Chase","steam_id":76561198123487596,"connected_time":1478000000000,"state":"active","ping":75},{"user_id":653,"name":"sora","steam_id":76561198096547662,"connected_time":6982000000000,"state":"active","ping":54},{"user_id":800,"name":"Aaron","steam_id":76561197990046953,"connected_time":1492000000000,"state":"active","ping":52},{"user_id":661,"name":"Cabbch","steam_id":76561198045955679,"connected_time":6603000000000,"state":"active","ping":57},{"user_id":789,"name":"TheEventGuy","steam_id":76561197972797744,"connected_time":2708000000000,"state":"active","ping":80},{"user_id":811,"name":"Kphi(i)","steam_id":76561198970587061,"connected_time":188000000000,"state":"active","ping":56}]},{"server_id":114,"name":"Uncletopia | London | 2 | All Maps","name_short":"lon-2","host":"lon-1.uk.uncletopia.com","port":27025,"enabled":true,"region":"eu","cc":"gb","latitude":51.509865,"longitude":-0.118092,"reserved":0,"last_update":"0001-01-01T00:00:00Z","name_a2s":"Uncletopia | London | 2 | All Maps","protocol":17,"map":"pl_swiftwater_final1","folder":"tf","game":"Team Fortress","app_id":440,"player_count":20,"max_players":24,"Bots":0,"server_type":"Dedicated","server_os":"Linux","password":true,"vac":true,"version":"7961495","steam_id":85568392924470941,"keywords":["nocrits","nodmgspread","payload","uncletopia"],"game_id":440,"stv_port":27026,"stv_name":"Uncletopia | London | 2 | All Maps | STV","players":[{"user_id":434,"name":"Did somebody say box kites?","steam_id":76561198007653168,"connected_time":9442000000000,"state":"active","ping":56},{"user_id":557,"name":"Bot Fortress 2","steam_id":76561197984325644,"connected_time":23000000000,"state":"active","ping":139},{"user_id":533,"name":"f0x","steam_id":76561198072921704,"connected_time":1572000000000,"state":"active","ping":45},{"user_id":555,"name":"♂ Dungeon Master ♂","steam_id":76561198106441033,"connected_time":66000000000,"state":"active","ping":92},{"user_id":535,"name":"Dean Craig Pelton From Communit","steam_id":76561198155010055,"connected_time":1303000000000,"state":"active","ping":119},{"user_id":439,"name":"chillrend_morphs_high_lod6","steam_id":76561198452963141,"connected_time":8686000000000,"state":"active","ping":90},{"user_id":549,"name":"✪ qua ✪","steam_id":76561198066408333,"connected_time":703000000000,"state":"active","ping":75},{"user_id":536,"name":"Dark","steam_id":76561198086889620,"connected_time":1216000000000,"state":"active","ping":55},{"user_id":548,"name":"Vince","steam_id":76561199103000131,"connected_time":783000000000,"state":"active","ping":32},{"user_id":457,"name":"Guuse","steam_id":76561198030956814,"connected_time":8250000000000,"state":"active","ping":67},{"user_id":538,"name":"git bash -er","steam_id":76561198072586494,"connected_time":1089000000000,"state":"active","ping":42},{"user_id":556,"name":"turbo shart","steam_id":76561198012351808,"connected_time":65000000000,"state":"active","ping":46},{"user_id":552,"name":"Accident","steam_id":76561198037232641,"connected_time":238000000000,"state":"active","ping":69},{"user_id":523,"name":"The Lady","steam_id":76561198029895809,"connected_time":2593000000000,"state":"active","ping":81},{"user_id":546,"name":"imng","steam_id":76561198014988031,"connected_time":875000000000,"state":"active","ping":142},{"user_id":551,"name":"Bub222","steam_id":76561199455359865,"connected_time":365000000000,"state":"active","ping":98},{"user_id":530,"name":"Lithe","steam_id":76561198097130024,"connected_time":2222000000000,"state":"active","ping":58},{"user_id":531,"name":"Hero8171","steam_id":76561199239824271,"connected_time":2151000000000,"state":"active","ping":152},{"user_id":543,"name":"Zanryiel","steam_id":76561198120723872,"connected_time":984000000000,"state":"active","ping":71},{"user_id":550,"name":"zayd","steam_id":76561198895235231,"connected_time":670000000000,"state":"active","ping":56}]},{"server_id":320,"name":"Uncletopia | London | 3 | All Maps","name_short":"lon-3","host":"lon-1.uk.uncletopia.com","port":27035,"enabled":true,"region":"eu","cc":"gb","latitude":51.509865,"longitude":-0.118092,"reserved":0,"last_update":"0001-01-01T00:00:00Z","name_a2s":"Uncletopia | London | 3 | All Maps","protocol":17,"map":"koth_viaduct","folder":"tf","game":"Team Fortress","app_id":440,"player_count":0,"max_players":24,"Bots":0,"server_type":"Dedicated","server_os":"Linux","password":true,"vac":true,"version":"7961495","steam_id":85568392924510192,"keywords":["cp","nocrits","nodmgspread","uncletopia"],"game_id":440,"stv_port":27036,"stv_name":"Uncletopia | London | 3 | All Maps | STV","players":null},{"server_id":321,"name":"Uncletopia | London | 4 | All Maps","name_short":"lon-4","host":"lon-1.uk.uncletopia.com","port":27045,"enabled":true,"region":"eu","cc":"gb","latitude":51.509865,"longitude":-0.118092,"reserved":0,"last_update":"0001-01-01T00:00:00Z","name_a2s":"Uncletopia | London | 4 | All Maps","protocol":17,"map":"pl_snowycoast","folder":"tf","game":"Team Fortress","app_id":440,"player_count":23,"max_players":24,"Bots":0,"server_type":"Dedicated","server_os":"Linux","password":true,"vac":true,"version":"7961495","steam_id":85568392924510193,"keywords":["nocrits","nodmgspread","payload","uncletopia"],"game_id":440,"stv_port":27046,"stv_name":"Uncletopia | London | 4 | All Maps | STV","players":[{"user_id":719,"name":"Aregularhuman","steam_id":76561198343319848,"connected_time":1969000000000,"state":"active","ping":55},{"user_id":723,"name":"mary","steam_id":76561198014828037,"connected_time":1645000000000,"state":"active","ping":53},{"user_id":659,"name":"blackmaggit","steam_id":76561198263347587,"connected_time":5497000000000,"state":"active","ping":56},{"user_id":734,"name":"Engineer Gaming","steam_id":76561198103978102,"connected_time":530000000000,"state":"active","ping":74},{"user_id":710,"name":"Proud Jojo Fan #TF2SP","steam_id":76561198847327216,"connected_time":2558000000000,"state":"active","ping":77},{"user_id":707,"name":"7oid","steam_id":76561198142074232,"connected_time":2666000000000,"state":"active","ping":96},{"user_id":677,"name":"dopamine overdose","steam_id":76561199032511302,"connected_time":4114000000000,"state":"active","ping":119},{"user_id":726,"name":"earmufti (ethan)","steam_id":76561198097112369,"connected_time":1085000000000,"state":"active","ping":57},{"user_id":711,"name":"soup","steam_id":76561198386933065,"connected_time":2524000000000,"state":"active","ping":70},{"user_id":738,"name":"Flashback","steam_id":76561197973978552,"connected_time":213000000000,"state":"active","ping":61},{"user_id":724,"name":"Christmas Ham","steam_id":76561198119601623,"connected_time":1230000000000,"state":"active","ping":50},{"user_id":736,"name":"rory","steam_id":76561198062400295,"connected_time":288000000000,"state":"active","ping":64},{"user_id":688,"name":"Dr. Femboy Ghordbort","steam_id":76561198072320671,"connected_time":3866000000000,"state":"active","ping":34},{"user_id":675,"name":"Cruduxy","steam_id":76561198108508584,"connected_time":4145000000000,"state":"active","ping":129},{"user_id":715,"name":"Enda","steam_id":76561198202980164,"connected_time":2150000000000,"state":"active","ping":111},{"user_id":725,"name":"Ch4bby","steam_id":76561198058792875,"connected_time":1109000000000,"state":"active","ping":53},{"user_id":693,"name":"Dr Bondus Bolongus Dongus","steam_id":76561198378657692,"connected_time":3537000000000,"state":"active","ping":47},{"user_id":727,"name":"Elitepotatoz","steam_id":76561198063958525,"connected_time":1081000000000,"state":"active","ping":61},{"user_id":728,"name":"Princess Peach","steam_id":76561198260272240,"connected_time":1069000000000,"state":"active","ping":50},{"user_id":682,"name":"Hercules","steam_id":76561198041164170,"connected_time":4065000000000,"state":"active","ping":69},{"user_id":729,"name":"jessieeeee","steam_id":76561198037875922,"connected_time":1066000000000,"state":"active","ping":47},{"user_id":731,"name":"JosepXXL","steam_id":76561198407124695,"connected_time":871000000000,"state":"active","ping":78},{"user_id":739,"name":"dirhs","steam_id":76561198383867611,"connected_time":21000000000,"state":"active","ping":49}]},{"server_id":21,"name":"Uncletopia | London | 5 | All Maps","name_short":"lon-5","host":"lon-1.uk.uncletopia.com","port":27055,"enabled":true,"region":"eu","cc":"gb","latitude":51.509865,"longitude":-0.118092,"reserved":0,"last_update":"0001-01-01T00:00:00Z","name_a2s":"Uncletopia | London | 5 | All Maps","protocol":17,"map":"pl_upward","folder":"tf","game":"Team Fortress","app_id":440,"player_count":22,"max_players":24,"Bots":0,"server_type":"Dedicated","server_os":"Linux","password":true,"vac":true,"version":"7961495","steam_id":85568392924742829,"keywords":["nocrits","nodmgspread","payload","uncletopia"],"game_id":440,"stv_port":27056,"stv_name":"Uncletopia | London | 5 | All Maps | STV","players":[{"user_id":500,"name":"GigaBalls_","steam_id":76561198170895891,"connected_time":2131000000000,"state":"active","ping":70},{"user_id":528,"name":"UnaSimpleBatata","steam_id":76561199008490451,"connected_time":787000000000,"state":"active","ping":95},{"user_id":529,"name":"ROX","steam_id":76561198272289320,"connected_time":728000000000,"state":"active","ping":56},{"user_id":537,"name":"rat","steam_id":76561198079458690,"connected_time":204000000000,"state":"active","ping":50},{"user_id":484,"name":"Spliffendor","steam_id":76561198144020209,"connected_time":3079000000000,"state":"active","ping":51},{"user_id":518,"name":"Mr. Squiddles","steam_id":76561198079385023,"connected_time":1594000000000,"state":"active","ping":66},{"user_id":525,"name":"Odinmuninn99","steam_id":76561198393712705,"connected_time":1191000000000,"state":"active","ping":91},{"user_id":538,"name":"gαвє ησëℓ","steam_id":76561198067342352,"connected_time":173000000000,"state":"active","ping":54},{"user_id":499,"name":"[Heavy Mandarin]","steam_id":76561198531978435,"connected_time":2362000000000,"state":"active","ping":56},{"user_id":512,"name":"Fatmagic Mukbang ASMR","steam_id":76561198063492110,"connected_time":1708000000000,"state":"active","ping":85},{"user_id":504,"name":"robbie","steam_id":76561198798195287,"connected_time":2022000000000,"state":"active","ping":46},{"user_id":466,"name":"joachym","steam_id":76561198428579761,"connected_time":3912000000000,"state":"active","ping":70},{"user_id":520,"name":"the fucking rat","steam_id":76561198112115972,"connected_time":1564000000000,"state":"active","ping":71},{"user_id":513,"name":"Mr_Pulse_","steam_id":76561198095001602,"connected_time":1692000000000,"state":"active","ping":95},{"user_id":531,"name":"WenjiHago","steam_id":76561198038078011,"connected_time":690000000000,"state":"active","ping":103},{"user_id":509,"name":"yuno appreciator","steam_id":76561198083286511,"connected_time":1825000000000,"state":"active","ping":31},{"user_id":485,"name":"gabagool","steam_id":76561198307111838,"connected_time":2993000000000,"state":"active","ping":29},{"user_id":511,"name":"dodge","steam_id":76561198085296668,"connected_time":1781000000000,"state":"active","ping":41},{"user_id":533,"name":"Mcdonalds poop","steam_id":76561198184360615,"connected_time":493000000000,"state":"active","ping":90},{"user_id":515,"name":"LopsidedBunny","steam_id":76561198088713141,"connected_time":1685000000000,"state":"active","ping":66},{"user_id":534,"name":"Germanium_Ge","steam_id":76561198130561775,"connected_time":473000000000,"state":"active","ping":57},{"user_id":535,"name":"azzy","steam_id":76561198061293740,"connected_time":470000000000,"state":"active","ping":75}]},{"server_id":22,"name":"Uncletopia | London | 6 | All Maps","name_short":"lon-6","host":"lon-1.uk.uncletopia.com","port":27065,"enabled":true,"region":"eu","cc":"gb","latitude":51.509865,"longitude":-0.118092,"reserved":0,"last_update":"0001-01-01T00:00:00Z","name_a2s":"Uncletopia | London | 6 | All Maps","protocol":17,"map":"cp_sunshine","folder":"tf","game":"Team Fortress","app_id":440,"player_count":0,"max_players":24,"Bots":0,"server_type":"Dedicated","server_os":"Linux","password":true,"vac":true,"version":"7961495","steam_id":85568392924742830,"keywords":["cp","nocrits","nodmgspread","uncletopia"],"game_id":440,"stv_port":27066,"stv_name":"Uncletopia | London | 6 | All Maps | STV","players":null},{"server_id":40,"name":"Uncletopia | London | 7 | Stopwatch","name_short":"lon-7","host":"lon-1.uk.uncletopia.com","port":27075,"enabled":true,"region":"eu","cc":"gb","latitude":51.509865,"longitude":-0.118092,"reserved":0,"last_update":"0001-01-01T00:00:00Z","name_a2s":"Uncletopia | London | 7 | Stopwatch","protocol":17,"map":"koth_highpass","folder":"tf","game":"Team Fortress","app_id":440,"player_count":0,"max_players":24,"Bots":0,"server_type":"Dedicated","server_os":"Linux","password":true,"vac":true,"version":"7961495","steam_id":85568392924964314,"keywords":["cp","nocrits","nodmgspread","uncletopia"],"game_id":440,"stv_port":27076,"stv_name":"Uncletopia | London | 7 | Stopwatch | STV","players":null},{"server_id":41,"name":"Uncletopia | London | 8 | Community","name_short":"lon-8","host":"lon-1.uk.uncletopia.com","port":27085,"enabled":true,"region":"eu","cc":"gb","latitude":51.509865,"longitude":-0.118092,"reserved":0,"last_update":"0001-01-01T00:00:00Z","name_a2s":"Uncletopia | London | 8 | Community","protocol":17,"map":"workshop/koth_slaughter_rc1.ugc1712845210","folder":"tf","game":"Team Fortress","app_id":440,"player_count":0,"max_players":24,"Bots":0,"server_type":"Dedicated","server_os":"Linux","password":true,"vac":true,"version":"7961495","steam_id":85568392924964315,"keywords":["cp","nocrits","nodmgspread","uncletopia"],"game_id":440,"stv_port":27086,"stv_name":"Uncletopia | London | 8 | Community | STV","players":null},{"server_id":300,"name":"Uncletopia | Montréal | 1 | One Thousand Uncles","name_short":"mtl-1","host":"mtl-1.ca.uncletopia.com","port":27015,"enabled":true,"region":"us-east","cc":"ca","latitude":45.50889,"longitude":-73.56167,"reserved":0,"last_update":"0001-01-01T00:00:00Z","name_a2s":"","protocol":0,"map":"","folder":"","game":"","app_id":0,"player_count":0,"max_players":0,"Bots":0,"server_type":"","server_os":"","password":false,"vac":false,"version":"","steam_id":0,"keywords":null,"game_id":0,"stv_port":0,"stv_name":"","players":null},{"server_id":301,"name":"Uncletopia | Montréal | 2 | One Thousand Uncles","name_short":"mtl-2","host":"mtl-1.ca.uncletopia.com","port":27025,"enabled":true,"region":"us-east","cc":"ca","latitude":45.50889,"longitude":-73.56167,"reserved":0,"last_update":"0001-01-01T00:00:00Z","name_a2s":"","protocol":0,"map":"","folder":"","game":"","app_id":0,"player_count":3,"max_players":0,"Bots":0,"server_type":"","server_os":"","password":false,"vac":false,"version":"","steam_id":0,"keywords":null,"game_id":0,"stv_port":0,"stv_name":"","players":[{"user_id":93,"name":"tfkillr","steam_id":76561199308986695,"connected_time":1957000000000,"state":"active","ping":74},{"user_id":112,"name":"ConnorWRM","steam_id":76561199350333302,"connected_time":262000000000,"state":"active","ping":121},{"user_id":111,"name":"Featherless Biped","steam_id":76561198034171721,"connected_time":677000000000,"state":"active","ping":56}]},{"server_id":302,"name":"Uncletopia | Montréal | 3 | One Thousand Uncles","name_short":"mtl-3","host":"mtl-1.ca.uncletopia.com","port":27035,"enabled":true,"region":"us-east","cc":"ca","latitude":45.50889,"longitude":-73.56167,"reserved":0,"last_update":"0001-01-01T00:00:00Z","name_a2s":"","protocol":0,"map":"","folder":"","game":"","app_id":0,"player_count":0,"max_players":0,"Bots":0,"server_type":"","server_os":"","password":false,"vac":false,"version":"","steam_id":0,"keywords":null,"game_id":0,"stv_port":0,"stv_name":"","players":null},{"server_id":13,"name":"Uncletopia | New York City | 1 | All Maps","name_short":"nyc-1","host":"nyc-1.us.uncletopia.com","port":27015,"enabled":true,"region":"us-east","cc":"us","latitude":40.73061,"longitude":-73.93524,"reserved":0,"last_update":"0001-01-01T00:00:00Z","name_a2s":"Uncletopia | New York City | 1 | All Maps","protocol":17,"map":"cp_freight_final1","folder":"tf","game":"Team Fortress","app_id":440,"player_count":24,"max_players":24,"Bots":0,"server_type":"Dedicated","server_os":"Linux","password":true,"vac":true,"version":"7961495","steam_id":85568392924469993,"keywords":["cp","nocrits","nodmgspread","uncletopia"],"game_id":440,"stv_port":27016,"stv_name":"Uncletopia | New York City | 1 | All Maps | STV","players":[{"user_id":440,"name":"Tokyo_Timeshift_","steam_id":76561198048677523,"connected_time":2365000000000,"state":"active","ping":61},{"user_id":453,"name":"Lucille_Bluth","steam_id":76561198206133916,"connected_time":1405000000000,"state":"active","ping":75},{"user_id":454,"name":"Minion Bob","steam_id":76561198023938170,"connected_time":1378000000000,"state":"active","ping":66},{"user_id":458,"name":"Sickduck Mcgee","steam_id":76561198028577159,"connected_time":1316000000000,"state":"active","ping":61},{"user_id":461,"name":"ndvr","steam_id":76561199379200102,"connected_time":924000000000,"state":"active","ping":47},{"user_id":432,"name":"artemisjackson2","steam_id":76561199094686268,"connected_time":2945000000000,"state":"active","ping":98},{"user_id":370,"name":"Fudgely","steam_id":76561198039425862,"connected_time":6383000000000,"state":"active","ping":61},{"user_id":397,"name":"Totouri","steam_id":76561198004229789,"connected_time":5121000000000,"state":"active","ping":64},{"user_id":457,"name":"VerrucktMedic","steam_id":76561198093144226,"connected_time":1355000000000,"state":"active","ping":99},{"user_id":459,"name":"David Blaine","steam_id":76561198980560578,"connected_time":1313000000000,"state":"active","ping":62},{"user_id":414,"name":"t.tv/ibbKitty  ∑:3","steam_id":76561198110858518,"connected_time":4397000000000,"state":"active","ping":47},{"user_id":441,"name":"Hero","steam_id":76561199239997936,"connected_time":2087000000000,"state":"active","ping":61},{"user_id":460,"name":"TheDudeofDC","steam_id":76561199059346175,"connected_time":1245000000000,"state":"active","ping":55},{"user_id":433,"name":"DefaultKoala","steam_id":76561198059141147,"connected_time":2945000000000,"state":"active","ping":96},{"user_id":444,"name":"HAT-WEARING™ Maggot Gamer Cat","steam_id":76561197973992705,"connected_time":1636000000000,"state":"active","ping":116},{"user_id":462,"name":"taigaxx","steam_id":76561198202669250,"connected_time":101000000000,"state":"active","ping":73},{"user_id":410,"name":"chen","steam_id":76561198064872330,"connected_time":4624000000000,"state":"active","ping":66},{"user_id":434,"name":"Rumble","steam_id":76561199170926322,"connected_time":2883000000000,"state":"active","ping":77},{"user_id":413,"name":"Ikalpo","steam_id":76561198044686915,"connected_time":4399000000000,"state":"active","ping":115},{"user_id":443,"name":"Dr. Enforcicle (real)","steam_id":76561198964471859,"connected_time":2077000000000,"state":"active","ping":66},{"user_id":437,"name":"Steel Tombstone","steam_id":76561199160542103,"connected_time":2858000000000,"state":"active","ping":41},{"user_id":412,"name":"Narz","steam_id":76561198076240365,"connected_time":4473000000000,"state":"active","ping":74},{"user_id":450,"name":"epsilene","steam_id":76561198027468624,"connected_time":1421000000000,"state":"active","ping":45},{"user_id":452,"name":"i look at gay people","steam_id":76561198078032019,"connected_time":1421000000000,"state":"active","ping":149}]},{"server_id":14,"name":"Uncletopia | New York City | 2 | All Maps","name_short":"nyc-2","host":"nyc-1.us.uncletopia.com","port":27025,"enabled":true,"region":"us-east","cc":"us","latitude":40.73061,"longitude":-73.93524,"reserved":0,"last_update":"0001-01-01T00:00:00Z","name_a2s":"Uncletopia | New York City | 2 | All Maps","protocol":17,"map":"cp_sunshine","folder":"tf","game":"Team Fortress","app_id":440,"player_count":23,"max_players":24,"Bots":0,"server_type":"Dedicated","server_os":"Linux","password":true,"vac":true,"version":"7961495","steam_id":85568392924469994,"keywords":["cp","nocrits","nodmgspread","uncletopia"],"game_id":440,"stv_port":27026,"stv_name":"Uncletopia | New York City | 2 | All Maps | STV","players":[{"user_id":184,"name":"whirlybird","steam_id":76561198353887173,"connected_time":4315000000000,"state":"active","ping":51},{"user_id":195,"name":"Peepster","steam_id":76561198297854733,"connected_time":3866000000000,"state":"active","ping":85},{"user_id":279,"name":"reymundo","steam_id":76561197989412830,"connected_time":227000000000,"state":"active","ping":123},{"user_id":222,"name":"PageBoiSkull","steam_id":76561198237353578,"connected_time":2434000000000,"state":"active","ping":143},{"user_id":280,"name":"BSGNetwork","steam_id":76561198188006763,"connected_time":199000000000,"state":"active","ping":87},{"user_id":285,"name":"THE BIG CHUNK","steam_id":76561199039405824,"connected_time":16000000000,"state":"active","ping":105},{"user_id":223,"name":"wearing my sunday pants","steam_id":76561198834106533,"connected_time":2331000000000,"state":"active","ping":63},{"user_id":270,"name":"Cole Boye","steam_id":76561198282449106,"connected_time":431000000000,"state":"active","ping":91},{"user_id":281,"name":"gregoryhens","steam_id":76561199434318315,"connected_time":134000000000,"state":"active","ping":166},{"user_id":260,"name":"Scum Knight | T.I.D.K.","steam_id":76561198282444763,"connected_time":734000000000,"state":"active","ping":51},{"user_id":271,"name":"8bitprick","steam_id":76561199474825993,"connected_time":425000000000,"state":"active","ping":100},{"user_id":282,"name":"zen","steam_id":76561198066485047,"connected_time":53000000000,"state":"active","ping":56},{"user_id":278,"name":"staks","steam_id":76561198059570070,"connected_time":335000000000,"state":"active","ping":59},{"user_id":274,"name":"black tar estrogen","steam_id":76561198043911582,"connected_time":390000000000,"state":"active","ping":44},{"user_id":215,"name":"camoik","steam_id":76561198808002874,"connected_time":3139000000000,"state":"active","ping":115},{"user_id":283,"name":"Big Bill Haywood","steam_id":76561198142290733,"connected_time":46000000000,"state":"spawning","ping":52},{"user_id":275,"name":"oxlande","steam_id":76561199187110899,"connected_time":389000000000,"state":"active","ping":61},{"user_id":264,"name":"RC","steam_id":76561198048127881,"connected_time":577000000000,"state":"active","ping":102},{"user_id":268,"name":"Danitom","steam_id":76561198000717813,"connected_time":482000000000,"state":"active","ping":89},{"user_id":233,"name":"breathingtrees","steam_id":76561198118931690,"connected_time":1910000000000,"state":"active","ping":59},{"user_id":212,"name":"B.","steam_id":76561198040445907,"connected_time":3323000000000,"state":"active","ping":82},{"user_id":284,"name":"fitdrewd","steam_id":76561198839276719,"connected_time":44000000000,"state":"active","ping":89},{"user_id":276,"name":"hammythegreat #SaveTF2","steam_id":76561198079526946,"connected_time":381000000000,"state":"active","ping":88}]},{"server_id":15,"name":"Uncletopia | New York City | 3 | Stopwatch","name_short":"nyc-3","host":"nyc-1.us.uncletopia.com","port":27035,"enabled":true,"region":"us-east","cc":"us","latitude":40.73061,"longitude":-73.93524,"reserved":0,"last_update":"0001-01-01T00:00:00Z","name_a2s":"Uncletopia | New York City | 3 | Stopwatch","protocol":17,"map":"workshop/koth_ashville_final.ugc2130459942","folder":"tf","game":"Team Fortress","app_id":440,"player_count":0,"max_players":24,"Bots":0,"server_type":"Dedicated","server_os":"Linux","password":true,"vac":true,"version":"7961495","steam_id":85568392924742820,"keywords":["cp","nocrits","nodmgspread","uncletopia"],"game_id":440,"stv_port":27036,"stv_name":"Uncletopia | New York City | 3 | Stopwatch | STV","players":null},{"server_id":16,"name":"Uncletopia | New York City | 4 | Community","name_short":"nyc-4","host":"nyc-1.us.uncletopia.com","port":27045,"enabled":true,"region":"us-east","cc":"us","latitude":40.73061,"longitude":-73.93524,"reserved":0,"last_update":"0001-01-01T00:00:00Z","name_a2s":"Uncletopia | New York City | 4 | Community","protocol":17,"map":"workshop/koth_kemptown_rc1.ugc767410655","folder":"tf","game":"Team Fortress","app_id":440,"player_count":0,"max_players":24,"Bots":0,"server_type":"Dedicated","server_os":"Linux","password":true,"vac":true,"version":"7961495","steam_id":85568392924742821,"keywords":["cp","nocrits","nodmgspread","uncletopia"],"game_id":440,"stv_port":27046,"stv_name":"Uncletopia | New York City | 4 | Community | STV","players":null},{"server_id":142,"name":"Uncletopia | São Paulo | 1 | All Maps","name_short":"sao-1","host":"sao-1.br.uncletopia.com","port":27015,"enabled":true,"region":"sa","cc":"br","latitude":-23.533773,"longitude":-46.62529,"reserved":0,"last_update":"0001-01-01T00:00:00Z","name_a2s":"Uncletopia | São Paulo | 1 | All Maps","protocol":17,"map":"pl_frontier_final","folder":"tf","game":"Team Fortress","app_id":440,"player_count":4,"max_players":24,"Bots":0,"server_type":"Dedicated","server_os":"Linux","password":true,"vac":true,"version":"7961495","steam_id":85568392924469996,"keywords":["nocrits","nodmgspread","payload","uncletopia"],"game_id":440,"stv_port":27016,"stv_name":"Uncletopia | São Paulo | 1 | All Maps | STV","players":[{"user_id":33,"name":"FOBF","steam_id":76561199286874698,"connected_time":3093000000000,"state":"active","ping":46},{"user_id":34,"name":"New Day After Tomorrow","steam_id":76561199210291456,"connected_time":2144000000000,"state":"active","ping":49},{"user_id":39,"name":"Cachorro Loko","steam_id":76561198149302888,"connected_time":933000000000,"state":"active","ping":55},{"user_id":43,"name":"whatsapp 2","steam_id":76561199359501901,"connected_time":575000000000,"state":"active","ping":32}]},{"server_id":143,"name":"Uncletopia | São Paulo | 2 | Community","name_short":"sao-2","host":"sao-2.br.uncletopia.com","port":27015,"enabled":true,"region":"sa","cc":"br","latitude":-23.533773,"longitude":-46.62529,"reserved":0,"last_update":"0001-01-01T00:00:00Z","name_a2s":"Uncletopia | São Paulo | 2 | Community","protocol":17,"map":"workshop/koth_trenchfoot_ab1.ugc731436616","folder":"tf","game":"Team Fortress","app_id":440,"player_count":0,"max_players":24,"Bots":0,"server_type":"Dedicated","server_os":"Linux","password":true,"vac":true,"version":"7961495","steam_id":85568392924485349,"keywords":["cp","nocrits","nodmgspread","uncletopia"],"game_id":440,"stv_port":27016,"stv_name":"Uncletopia | São Paulo | 2 | Community | STV","players":null},{"server_id":7,"name":"Uncletopia | Seattle | 1 | All Maps","name_short":"sea-1","host":"sea-1.us.uncletopia.com","port":27015,"enabled":true,"region":"us-west","cc":"us","latitude":47.608013,"longitude":-122.33517,"reserved":0,"last_update":"0001-01-01T00:00:00Z","name_a2s":"Uncletopia | Seattle | 1 | All Maps","protocol":17,"map":"pl_badwater","folder":"tf","game":"Team Fortress","app_id":440,"player_count":24,"max_players":24,"Bots":0,"server_type":"Dedicated","server_os":"Linux","password":true,"vac":true,"version":"7961495","steam_id":85568392924469997,"keywords":["nocrits","nodmgspread","payload","uncletopia"],"game_id":440,"stv_port":27016,"stv_name":"Uncletopia | Seattle | 1 | All Maps | STV","players":[{"user_id":379,"name":"OxOoxen841","steam_id":76561198297981993,"connected_time":9829000000000,"state":"active","ping":73},{"user_id":454,"name":"CraftOfDoom","steam_id":76561198856919544,"connected_time":424000000000,"state":"active","ping":55},{"user_id":442,"name":"Whimsy!","steam_id":76561197989578836,"connected_time":1364000000000,"state":"active","ping":63},{"user_id":427,"name":"greenpeace","steam_id":76561197983221708,"connected_time":3403000000000,"state":"active","ping":60},{"user_id":438,"name":"snowcap","steam_id":76561198344164944,"connected_time":2141000000000,"state":"active","ping":69},{"user_id":443,"name":"Petey0712","steam_id":76561199401008981,"connected_time":1363000000000,"state":"active","ping":48},{"user_id":426,"name":"purple hatsune miku","steam_id":76561198108844158,"connected_time":3447000000000,"state":"active","ping":89},{"user_id":436,"name":"lukamine","steam_id":76561198166827208,"connected_time":2494000000000,"state":"active","ping":44},{"user_id":460,"name":"Greskrendtregk","steam_id":76561197969553142,"connected_time":395000000000,"state":"active","ping":58},{"user_id":461,"name":"Meso","steam_id":76561199088153190,"connected_time":214000000000,"state":"active","ping":56},{"user_id":455,"name":"Dimple","steam_id":76561198980324190,"connected_time":421000000000,"state":"active","ping":52},{"user_id":444,"name":"Neb","steam_id":76561198883473473,"connected_time":1362000000000,"state":"active","ping":45},{"user_id":432,"name":"\u0026Femboy Friday (they/them)","steam_id":76561198027321950,"connected_time":2744000000000,"state":"active","ping":44},{"user_id":459,"name":"BolognaWithOlives","steam_id":76561198101262668,"connected_time":404000000000,"state":"active","ping":105},{"user_id":435,"name":"Dongus","steam_id":76561197979056451,"connected_time":2701000000000,"state":"active","ping":49},{"user_id":452,"name":"Pah-Wraith Gul Dukat","steam_id":76561198033918106,"connected_time":447000000000,"state":"active","ping":78},{"user_id":440,"name":"tophawkyy","steam_id":76561199075934685,"connected_time":2069000000000,"state":"active","ping":82},{"user_id":437,"name":"Neco Arc","steam_id":76561198836051950,"connected_time":2234000000000,"state":"active","ping":112},{"user_id":453,"name":"*forges your documents* :3","steam_id":76561198134309750,"connected_time":431000000000,"state":"active","ping":96},{"user_id":447,"name":"John Calibur","steam_id":76561197999986606,"connected_time":1040000000000,"state":"active","ping":63},{"user_id":446,"name":"Squids023","steam_id":76561199013031576,"connected_time":1268000000000,"state":"active","ping":73},{"user_id":451,"name":"Baltimore CA-68","steam_id":76561198313517179,"connected_time":611000000000,"state":"active","ping":101},{"user_id":456,"name":"lfk thunderous prophet","steam_id":76561198131166135,"connected_time":421000000000,"state":"active","ping":44},{"user_id":382,"name":"rat gets the cheese","steam_id":76561198031234032,"connected_time":8659000000000,"state":"active","ping":93}]},{"server_id":119,"name":"Uncletopia | Seattle | 2 | All Maps","name_short":"sea-2","host":"sea-1.us.uncletopia.com","port":27025,"enabled":true,"region":"us-west","cc":"us","latitude":47.608013,"longitude":-122.33517,"reserved":0,"last_update":"0001-01-01T00:00:00Z","name_a2s":"Uncletopia | Seattle | 2 | All Maps","protocol":17,"map":"koth_lakeside_final","folder":"tf","game":"Team Fortress","app_id":440,"player_count":0,"max_players":24,"Bots":0,"server_type":"Dedicated","server_os":"Linux","password":true,"vac":true,"version":"7961495","steam_id":85568392924469998,"keywords":["cp","nocrits","nodmgspread","uncletopia"],"game_id":440,"stv_port":27026,"stv_name":"Uncletopia | Seattle | 2 | All Maps | STV","players":null},{"server_id":406,"name":"Uncletopia | Seattle | 3 | Stopwatch","name_short":"sea-3","host":"sea-1.us.uncletopia.com","port":27035,"enabled":true,"region":"us-west","cc":"us","latitude":47.608013,"longitude":-122.33517,"reserved":0,"last_update":"0001-01-01T00:00:00Z","name_a2s":"Uncletopia | Seattle | 3 | Stopwatch","protocol":17,"map":"workshop/pl_badwater_pro_v12.ugc2142942074","folder":"tf","game":"Team Fortress","app_id":440,"player_count":0,"max_players":24,"Bots":0,"server_type":"Dedicated","server_os":"Linux","password":true,"vac":true,"version":"7961495","steam_id":85568392924515217,"keywords":["nocrits","nodmgspread","payload","uncletopia"],"game_id":440,"stv_port":27036,"stv_name":"Uncletopia | Seattle | 3 | Stopwatch | STV","players":null},{"server_id":17,"name":"Uncletopia | San Francisco | 1 | All Maps","name_short":"sfo-1","host":"sfo-1.us.uncletopia.com","port":27015,"enabled":true,"region":"us-west","cc":"us","latitude":37.77397,"longitude":-122.4313,"reserved":0,"last_update":"0001-01-01T00:00:00Z","name_a2s":"Uncletopia | San Francisco | 1 | All Maps","protocol":17,"map":"koth_cascade","folder":"tf","game":"Team Fortress","app_id":440,"player_count":10,"max_players":24,"Bots":0,"server_type":"Dedicated","server_os":"Linux","password":true,"vac":true,"version":"7961495","steam_id":85568392924469999,"keywords":["cp","nocrits","nodmgspread","uncletopia"],"game_id":440,"stv_port":27016,"stv_name":"Uncletopia | San Francisco | 1 | All Maps | STV","players":[{"user_id":9,"name":"Paperclip","steam_id":76561198057076337,"connected_time":1202000000000,"state":"active","ping":69},{"user_id":14,"name":"Pyrolimited","steam_id":76561198195455657,"connected_time":733000000000,"state":"active","ping":61},{"user_id":15,"name":"Schmupp","steam_id":76561198150928115,"connected_time":582000000000,"state":"active","ping":48},{"user_id":16,"name":"U ω U","steam_id":76561198118802562,"connected_time":552000000000,"state":"active","ping":62},{"user_id":17,"name":"Swimps","steam_id":76561199095494639,"connected_time":536000000000,"state":"active","ping":148},{"user_id":18,"name":"mremannn","steam_id":76561198241105316,"connected_time":489000000000,"state":"active","ping":89},{"user_id":20,"name":"proud_asian","steam_id":76561198977973083,"connected_time":315000000000,"state":"active","ping":102},{"user_id":23,"name":"mafia is mafia","steam_id":76561198042574722,"connected_time":56000000000,"state":"active","ping":68},{"user_id":22,"name":"Vetexpor","steam_id":76561199087480628,"connected_time":271000000000,"state":"connecting","ping":0},{"user_id":24,"name":"Mack","steam_id":76561198089361823,"connected_time":51000000000,"state":"active","ping":134}]},{"server_id":18,"name":"Uncletopia | San Francisco | 2 | All Maps","name_short":"sfo-2","host":"sfo-1.us.uncletopia.com","port":27025,"enabled":true,"region":"us-west","cc":"us","latitude":37.77397,"longitude":-122.4313,"reserved":0,"last_update":"0001-01-01T00:00:00Z","name_a2s":"Uncletopia | San Francisco | 2 | All Maps","protocol":17,"map":"pl_frontier_final","folder":"tf","game":"Team Fortress","app_id":440,"player_count":0,"max_players":24,"Bots":0,"server_type":"Dedicated","server_os":"Linux","password":true,"vac":true,"version":"7961495","steam_id":85568392924470000,"keywords":["nocrits","nodmgspread","payload","uncletopia"],"game_id":440,"stv_port":27026,"stv_name":"Uncletopia | San Francisco | 2 | All Maps | STV","players":null},{"server_id":19,"name":"Uncletopia | San Francisco | 3 | Stopwatch","name_short":"sfo-3","host":"sfo-1.us.uncletopia.com","port":27035,"enabled":true,"region":"us-west","cc":"us","latitude":37.77397,"longitude":-122.4313,"reserved":0,"last_update":"0001-01-01T00:00:00Z","name_a2s":"Uncletopia | San Francisco | 3 | Stopwatch","protocol":17,"map":"workshop/koth_product_final.ugc454272353","folder":"tf","game":"Team Fortress","app_id":440,"player_count":0,"max_players":24,"Bots":0,"server_type":"Dedicated","server_os":"Linux","password":true,"vac":true,"version":"7961495","steam_id":85568392924742824,"keywords":["cp","nocrits","nodmgspread","uncletopia"],"game_id":440,"stv_port":27036,"stv_name":"Uncletopia | San Francisco | 3 | Stopwatch | STV","players":null},{"server_id":20,"name":"Uncletopia | San Francisco | 4 | Community","name_short":"sfo-4","host":"sfo-1.us.uncletopia.com","port":27045,"enabled":true,"region":"us-west","cc":"us","latitude":37.77397,"longitude":-122.4313,"reserved":0,"last_update":"0001-01-01T00:00:00Z","name_a2s":"Uncletopia | San Francisco | 4 | Community","protocol":17,"map":"workshop/pl_badwater_pro_v12.ugc2142942074","folder":"tf","game":"Team Fortress","app_id":440,"player_count":0,"max_players":24,"Bots":0,"server_type":"Dedicated","server_os":"Linux","password":true,"vac":true,"version":"7961495","steam_id":85568392924742826,"keywords":["nocrits","nodmgspread","payload","uncletopia"],"game_id":440,"stv_port":27046,"stv_name":"Uncletopia | San Francisco | 4 | Community | STV","players":null},{"server_id":141,"name":"Uncletopia | Sydney | 1 | All Maps","name_short":"syd-1","host":"syd-1.au.uncletopia.com","port":27015,"enabled":true,"region":"au","cc":"au","latitude":-33.865143,"longitude":151.2099,"reserved":0,"last_update":"0001-01-01T00:00:00Z","name_a2s":"Uncletopia | Sydney | 1 | All Maps","protocol":17,"map":"koth_viaduct","folder":"tf","game":"Team Fortress","app_id":440,"player_count":0,"max_players":24,"Bots":0,"server_type":"Dedicated","server_os":"Linux","password":true,"vac":true,"version":"7961495","steam_id":85568392924470001,"keywords":["cp","nocrits","nodmgspread","uncletopia"],"game_id":440,"stv_port":27016,"stv_name":"Uncletopia | Sydney | 1 | All Maps | STV","players":null},{"server_id":123,"name":"Uncletopia | Sydney | 2 | All Maps","name_short":"syd-2","host":"syd-1.au.uncletopia.com","port":27025,"enabled":true,"region":"au","cc":"au","latitude":-33.865143,"longitude":151.2099,"reserved":0,"last_update":"0001-01-01T00:00:00Z","name_a2s":"Uncletopia | Sydney | 2 | All Maps","protocol":17,"map":"koth_lakeside_final","folder":"tf","game":"Team Fortress","app_id":440,"player_count":0,"max_players":24,"Bots":0,"server_type":"Dedicated","server_os":"Linux","password":true,"vac":true,"version":"7961495","steam_id":85568392924470002,"keywords":["cp","nocrits","nodmgspread","uncletopia"],"game_id":440,"stv_port":27026,"stv_name":"Uncletopia | Sydney | 2 | All Maps | STV","players":null},{"server_id":395,"name":"Uncletopia | Sydney | 3 | All Maps","name_short":"syd-3","host":"syd-1.au.uncletopia.com","port":27035,"enabled":true,"region":"au","cc":"au","latitude":-33.865143,"longitude":151.2099,"reserved":0,"last_update":"0001-01-01T00:00:00Z","name_a2s":"Uncletopia | Sydney | 3 | All Maps","protocol":17,"map":"pl_frontier_final","folder":"tf","game":"Team Fortress","app_id":440,"player_count":0,"max_players":24,"Bots":0,"server_type":"Dedicated","server_os":"Linux","password":true,"vac":true,"version":"7961495","steam_id":85568392925194467,"keywords":["nocrits","nodmgspread","payload","uncletopia"],"game_id":440,"stv_port":27036,"stv_name":"Uncletopia | Sydney | 3 | All Maps | STV","players":null},{"server_id":396,"name":"Uncletopia | Sydney | 4 | All Maps","name_short":"syd-4","host":"syd-1.au.uncletopia.com","port":27045,"enabled":true,"region":"au","cc":"au","latitude":-33.865143,"longitude":151.2099,"reserved":0,"last_update":"0001-01-01T00:00:00Z","name_a2s":"Uncletopia | Sydney | 4 | All Maps","protocol":17,"map":"cp_process_final","folder":"tf","game":"Team Fortress","app_id":440,"player_count":0,"max_players":24,"Bots":0,"server_type":"Dedicated","server_os":"Linux","password":true,"vac":true,"version":"7961495","steam_id":85568392925397958,"keywords":["cp","nocrits","nodmgspread","uncletopia"],"game_id":440,"stv_port":27046,"stv_name":"Uncletopia | Sydney | 4 | All Maps | STV","players":null},{"server_id":58,"name":"Uncletopia | Sydney | 5 | Stopwatch","name_short":"syd-5","host":"syd-1.au.uncletopia.com","port":27055,"enabled":true,"region":"au","cc":"au","latitude":-33.865143,"longitude":151.2099,"reserved":0,"last_update":"0001-01-01T00:00:00Z","name_a2s":"Uncletopia | Sydney | 5 | Stopwatch","protocol":17,"map":"pl_frontier_final","folder":"tf","game":"Team Fortress","app_id":440,"player_count":0,"max_players":24,"Bots":0,"server_type":"Dedicated","server_os":"Linux","password":true,"vac":true,"version":"7961495","steam_id":85568392925397959,"keywords":["nocrits","nodmgspread","payload","uncletopia"],"game_id":440,"stv_port":27056,"stv_name":"Uncletopia | Sydney | 5 | Stopwatch | STV","players":null},{"server_id":59,"name":"Uncletopia | Sydney | 6 | Community","name_short":"syd-6","host":"syd-1.au.uncletopia.com","port":27065,"enabled":true,"region":"au","cc":"au","latitude":-33.865143,"longitude":151.2099,"reserved":0,"last_update":"0001-01-01T00:00:00Z","name_a2s":"Uncletopia | Sydney | 6 | Community","protocol":17,"map":"cp_sunshine","folder":"tf","game":"Team Fortress","app_id":440,"player_count":0,"max_players":24,"Bots":0,"server_type":"Dedicated","server_os":"Linux","password":true,"vac":true,"version":"7961495","steam_id":85568392925397960,"keywords":["cp","nocrits","nodmgspread","uncletopia"],"game_id":440,"stv_port":27066,"stv_name":"Uncletopia | Sydney | 6 | Community | STV","players":null},{"server_id":49,"name":"Uncletopia | Warsaw | 1 | One Thousand Uncles","name_short":"waw-1","host":"waw-1.pl.uncletopia.com","port":27015,"enabled":true,"region":"eu","cc":"pl","latitude":52.2297,"longitude":21.017532,"reserved":0,"last_update":"0001-01-01T00:00:00Z","name_a2s":"Uncletopia | Warsaw | 1 | One Thousand Uncles","protocol":17,"map":"pl_barnblitz","folder":"tf","game":"Team Fortress","app_id":440,"player_count":28,"max_players":32,"Bots":16,"server_type":"Dedicated","server_os":"Linux","password":true,"vac":true,"version":"7961495","steam_id":85568392925397850,"keywords":["alltalk","bots","danepve","increased_maxplayers","nocrits","norespawntime","payload","uncletopia"],"game_id":440,"stv_port":0,"stv_name":"","players":[{"user_id":563,"name":"joe8317","steam_id":76561199113974643,"connected_time":3578000000000,"state":"active","ping":212},{"user_id":617,"name":"Jason.","steam_id":76561199172692062,"connected_time":54000000000,"state":"active","ping":220},{"user_id":597,"name":"King Octopus","steam_id":76561198321978456,"connected_time":1401000000000,"state":"active","ping":176},{"user_id":593,"name":"Kotomin","steam_id":76561198009938954,"connected_time":2400000000000,"state":"active","ping":90},{"user_id":559,"name":"naidrokyt","steam_id":76561198961373507,"connected_time":4372000000000,"state":"active","ping":43},{"user_id":561,"name":"Valoxi","steam_id":76561197995042938,"connected_time":3787000000000,"state":"active","ping":72},{"user_id":575,"name":"WishMakers","steam_id":76561198061533565,"connected_time":2838000000000,"state":"active","ping":145},{"user_id":576,"name":"Joonkeh","steam_id":76561198144172575,"connected_time":2768000000000,"state":"active","ping":79},{"user_id":599,"name":"tadisab","steam_id":76561199484049632,"connected_time":374000000000,"state":"active","ping":148},{"user_id":600,"name":"Cortez -A-","steam_id":76561198064000348,"connected_time":296000000000,"state":"active","ping":60},{"user_id":596,"name":"tekt","steam_id":76561198044554387,"connected_time":1750000000000,"state":"active","ping":111},{"user_id":483,"name":"Scout","steam_id":76561198992898803,"connected_time":12008000000000,"state":"active","ping":78}]},{"server_id":50,"name":"Uncletopia | Warsaw | 2 | One Thousand Uncles","name_short":"waw-2","host":"waw-1.pl.uncletopia.com","port":27025,"enabled":true,"region":"eu","cc":"pl","latitude":52.2297,"longitude":21.017532,"reserved":0,"last_update":"0001-01-01T00:00:00Z","name_a2s":"Uncletopia | Warsaw | 2 | One Thousand Uncles","protocol":17,"map":"cp_dustbowl","folder":"tf","game":"Team Fortress","app_id":440,"player_count":0,"max_players":32,"Bots":0,"server_type":"Dedicated","server_os":"Linux","password":true,"vac":true,"version":"7961495","steam_id":85568392925397851,"keywords":["alltalk","cp","danepve","increased_maxplayers","nocrits","norespawntime","uncletopia"],"game_id":440,"stv_port":0,"stv_name":"","players":null},{"server_id":51,"name":"Uncletopia | Warsaw | 3 | All Maps","name_short":"waw-3","host":"waw-1.pl.uncletopia.com","port":27035,"enabled":true,"region":"eu","cc":"pl","latitude":52.2297,"longitude":21.017532,"reserved":0,"last_update":"0001-01-01T00:00:00Z","name_a2s":"Uncletopia | Warsaw | 3 | All Maps","protocol":17,"map":"cp_sunshine","folder":"tf","game":"Team Fortress","app_id":440,"player_count":0,"max_players":24,"Bots":0,"server_type":"Dedicated","server_os":"Linux","password":true,"vac":true,"version":"7961495","steam_id":85568392925397852,"keywords":["cp","nocrits","nodmgspread","uncletopia"],"game_id":440,"stv_port":27036,"stv_name":"Uncletopia | Warsaw | 3 | All Maps | STV","players":null},{"server_id":52,"name":"Uncletopia | Warsaw | 4 | All Maps","name_short":"waw-4","host":"waw-1.pl.uncletopia.com","port":27045,"enabled":true,"region":"eu","cc":"pl","latitude":52.2297,"longitude":21.017532,"reserved":0,"last_update":"0001-01-01T00:00:00Z","name_a2s":"Uncletopia | Warsaw | 4 | All Maps","protocol":17,"map":"cp_dustbowl","folder":"tf","game":"Team Fortress","app_id":440,"player_count":0,"max_players":24,"Bots":0,"server_type":"Dedicated","server_os":"Linux","password":true,"vac":true,"version":"7961495","steam_id":85568392925397853,"keywords":["cp","nocrits","nodmgspread","uncletopia"],"game_id":440,"stv_port":27046,"stv_name":"Uncletopia | Warsaw | 4 | All Maps | STV","players":null},{"server_id":53,"name":"Uncletopia | Warsaw | 5 | Stopwatch","name_short":"waw-5","host":"waw-1.pl.uncletopia.com","port":27055,"enabled":true,"region":"eu","cc":"pl","latitude":52.2297,"longitude":21.017532,"reserved":0,"last_update":"0001-01-01T00:00:00Z","name_a2s":"Uncletopia | Warsaw | 5 | Stopwatch","protocol":17,"map":"workshop/pl_vigil_rc10.ugc1266210012","folder":"tf","game":"Team Fortress","app_id":440,"player_count":0,"max_players":24,"Bots":0,"server_type":"Dedicated","server_os":"Linux","password":true,"vac":true,"version":"7961495","steam_id":85568392925397854,"keywords":["nocrits","nodmgspread","payload","uncletopia"],"game_id":440,"stv_port":27056,"stv_name":"Uncletopia | Warsaw | 5 | Stopwatch | STV","players":null},{"server_id":54,"name":"Uncletopia | Warsaw | 6 | Community","name_short":"waw-6","host":"waw-1.pl.uncletopia.com","port":27065,"enabled":true,"region":"eu","cc":"pl","latitude":52.2297,"longitude":21.017532,"reserved":0,"last_update":"0001-01-01T00:00:00Z","name_a2s":"Uncletopia | Warsaw | 6 | Community","protocol":17,"map":"workshop/koth_ramjam_rc1.ugc459778887","folder":"tf","game":"Team Fortress","app_id":440,"player_count":0,"max_players":24,"Bots":0,"server_type":"Dedicated","server_os":"Linux","password":true,"vac":true,"version":"7961495","steam_id":85568392925397856,"keywords":["cp","nocrits","nodmgspread","uncletopia"],"game_id":440,"stv_port":27066,"stv_name":"Uncletopia | Warsaw | 6 | Community | STV","players":null}]}