{"status":true,"message":"","result":[{"server_id":9,"name":"Uncletopia | Atlanta | 1 | All Maps","name_short":"atl-1","host":"atl-1.us.uncletopia.com","port":27015,"enabled":true,"region":"us-east","cc":"us","latitude":33.753746,"longitude":-84.38633,"reserved":0,"last_update":"0001-01-01T00:00:00Z","name_a2s":"Uncletopia | Atlanta | 1 | All Maps","protocol":17,"map":"pl_swiftwater_final1","folder":"tf","game":"Team Fortress","app_id":440,"player_count":23,"max_players":24,"Bots":0,"server_type":"Dedicated","server_os":"Linux","password":true,"vac":true,"version":"7723704","steam_id":85568392924469982,"keywords":["nocrits","nodmgspread","payload","uncletopia"],"game_id":440,"stv_port":27016,"stv_name":"Uncletopia | Atlanta | 1 | All Maps | STV","players":[{"user_id":103,"name":"VurkRoix","steam_id":76561198889393147,"connected_time":183000000000,"state":"active","ping":74},{"user_id":96,"name":"LeTonzy","steam_id":76561198005806699,"connected_time":479000000000,"state":"active","ping":110},{"user_id":5,"name":"mommy claus","steam_id":76561199230929836,"connected_time":6258000000000,"state":"active","ping":84},{"user_id":87,"name":"ATL1 | on my hunting trip","steam_id":76561198315341646,"connected_time":1575000000000,"state":"active","ping":65},{"user_id":7,"name":"HEFTY HOG","steam_id":76561198079923652,"connected_time":6257000000000,"state":"active","ping":67},{"user_id":105,"name":"scorn","steam_id":76561197966261919,"connected_time":120000000000,"state":"active","ping":88},{"user_id":97,"name":"roln","steam_id":76561198041066271,"connected_time":474000000000,"state":"active","ping":91},{"user_id":86,"name":"SHADOW (he/him)","steam_id":76561198207768148,"connected_time":1683000000000,"state":"active","ping":111},{"user_id":98,"name":"fac","steam_id":76561198009818412,"connected_time":465000000000,"state":"active","ping":64},{"user_id":99,"name":"reik","steam_id":76561198018564445,"connected_time":464000000000,"state":"active","ping":61},{"user_id":91,"name":"peachy","steam_id":76561198026664629,"connected_time":796000000000,"state":"active","ping":55},{"user_id":100,"name":"AnalConquest666","steam_id":76561198218558897,"connected_time":342000000000,"state":"active","ping":133},{"user_id":17,"name":"flappyflap2","steam_id":76561198285048973,"connected_time":6235000000000,"state":"active","ping":61},{"user_id":101,"name":"Antwan","steam_id":76561198246200638,"connected_time":281000000000,"state":"active","ping":61},{"user_id":92,"name":"can't escape from crossing apes","steam_id":76561198327138508,"connected_time":766000000000,"state":"active","ping":90},{"user_id":102,"name":"Reclipser","steam_id":76561198093697554,"connected_time":281000000000,"state":"active","ping":78},{"user_id":69,"name":"athletesfoot","steam_id":76561197997331867,"connected_time":3334000000000,"state":"active","ping":64},{"user_id":109,"name":"tell me about it","steam_id":76561198277799227,"connected_time":12000000000,"state":"spawning","ping":75},{"user_id":108,"name":"Lo-Pan","steam_id":76561198085670133,"connected_time":70000000000,"state":"active","ping":88},{"user_id":79,"name":"shadow3004","steam_id":76561198064870076,"connected_time":2350000000000,"state":"active","ping":95},{"user_id":62,"name":"eggo","steam_id":76561198105515914,"connected_time":3927000000000,"state":"active","ping":92},{"user_id":57,"name":"swag commander in chief","steam_id":76561198143132686,"connected_time":4166000000000,"state":"active","ping":105},{"user_id":65,"name":"natalie","steam_id":76561198084507532,"connected_time":3671000000000,"state":"active","ping":149}]},{"server_id":400,"name":"Uncletopia | Atlanta | 3 | Stopwatch Beta","name_short":"atl-3","host":"atl-1.us.uncletopia.com","port":27035,"enabled":true,"region":"us-east","cc":"us","latitude":33.753746,"longitude":-84.38633,"reserved":0,"last_update":"0001-01-01T00:00:00Z","name_a2s":"Uncletopia | Atlanta | 3 | Stopwatch Beta","protocol":17,"map":"koth_cascade","folder":"tf","game":"Team Fortress","app_id":440,"player_count":0,"max_players":24,"Bots":0,"server_type":"Dedicated","server_os":"Linux","password":true,"vac":true,"version":"7723704","steam_id":85568392924515187,"keywords":["cp","nocrits","nodmgspread","uncletopia"],"game_id":440,"stv_port":27036,"stv_name":"Uncletopia | Atlanta | 3 | Stopwatch Beta | STV","players":null},{"server_id":401,"name":"Uncletopia | Atlanta | 4 | No Payload","name_short":"atl-4","host":"atl-1.us.uncletopia.com","port":27045,"enabled":true,"region":"us-east","cc":"us","latitude":33.753746,"longitude":-84.38633,"reserved":0,"last_update":"0001-01-01T00:00:00Z","name_a2s":"Uncletopia | Atlanta | 4 | No Payload","protocol":17,"map":"ctf_doublecross","folder":"tf","game":"Team Fortress","app_id":440,"player_count":23,"max_players":24,"Bots":0,"server_type":"Dedicated","server_os":"Linux","password":true,"vac":true,"version":"7723704","steam_id":85568392924515188,"keywords":["ctf","nocrits","nodmgspread","uncletopia"],"game_id":440,"stv_port":27046,"stv_name":"Uncletopia | Atlanta | 4 | No Payload | STV","players":[{"user_id":293,"name":"_BOBE","steam_id":76561198004578255,"connected_time":898000000000,"state":"active","ping":124},{"user_id":294,"name":"Gerald Jay Sussman","steam_id":76561198114515026,"connected_time":894000000000,"state":"active","ping":67},{"user_id":279,"name":"hops_a_pops","steam_id":76561198210902109,"connected_time":1285000000000,"state":"active","ping":47},{"user_id":295,"name":"sheep","steam_id":76561198172943006,"connected_time":887000000000,"state":"active","ping":61},{"user_id":274,"name":"Phantasm","steam_id":76561198036954108,"connected_time":1478000000000,"state":"active","ping":83},{"user_id":301,"name":"Funke Monke","steam_id":76561198079440976,"connected_time":579000000000,"state":"active","ping":46},{"user_id":287,"name":"bingle","steam_id":76561198359413453,"connected_time":1124000000000,"state":"active","ping":62},{"user_id":281,"name":"breathing meat donut","steam_id":76561198123566649,"connected_time":1231000000000,"state":"active","ping":68},{"user_id":296,"name":"category 5 girl moment","steam_id":76561198972801541,"connected_time":878000000000,"state":"active","ping":60},{"user_id":297,"name":"littengamer1112","steam_id":76561198992690060,"connected_time":872000000000,"state":"active","ping":81},{"user_id":302,"name":"Anhkrehg","steam_id":76561197963201684,"connected_time":573000000000,"state":"active","ping":83},{"user_id":277,"name":"Animal Slices","steam_id":76561198137545511,"connected_time":1364000000000,"state":"active","ping":72},{"user_id":289,"name":"和平精益实干家","steam_id":76561198054697958,"connected_time":1023000000000,"state":"active","ping":101},{"user_id":216,"name":"Brother Garland","steam_id":76561198108026255,"connected_time":3798000000000,"state":"active","ping":48},{"user_id":290,"name":"Shepper2k","steam_id":76561198033960883,"connected_time":1018000000000,"state":"active","ping":181},{"user_id":263,"name":"MrPunda59","steam_id":76561199178520181,"connected_time":1549000000000,"state":"active","ping":75},{"user_id":266,"name":"skaj","steam_id":76561198082278586,"connected_time":1535000000000,"state":"active","ping":74},{"user_id":291,"name":"Vitzenhauzer","steam_id":76561198116449787,"connected_time":1009000000000,"state":"active","ping":65},{"user_id":292,"name":"Tsuki","steam_id":76561198299998288,"connected_time":1005000000000,"state":"active","ping":80},{"user_id":245,"name":"tools","steam_id":76561199010542612,"connected_time":2535000000000,"state":"active","ping":63},{"user_id":300,"name":"Hey","steam_id":76561198447517893,"connected_time":697000000000,"state":"active","ping":57},{"user_id":267,"name":"Infinity","steam_id":76561199134919099,"connected_time":1524000000000,"state":"active","ping":64},{"user_id":304,"name":"Cutercills 9x9","steam_id":76561199125856210,"connected_time":65000000000,"state":"active","ping":118}]},{"server_id":2,"name":"Uncletopia | Chicago | 1 | All Maps","name_short":"chi-1","host":"chi-1.us.uncletopia.com","port":27015,"enabled":true,"region":"us-central","cc":"us","latitude":41.881832,"longitude":-87.62318,"reserved":0,"last_update":"0001-01-01T00:00:00Z","name_a2s":"Uncletopia | Chicago | 1 | All Maps","protocol":17,"map":"pl_upward","folder":"tf","game":"Team Fortress","app_id":440,"player_count":24,"max_players":24,"Bots":0,"server_type":"Dedicated","server_os":"Linux","password":true,"vac":true,"version":"7723704","steam_id":85568392924469984,"keywords":["nocrits","nodmgspread","payload","uncletopia"],"game_id":440,"stv_port":27016,"stv_name":"Uncletopia | Chicago | 1 | All Maps | STV","players":[{"user_id":52,"name":"「Saint」","steam_id":76561198241943070,"connected_time":4497000000000,"state":"active","ping":107},{"user_id":106,"name":"Gob From My Singing Monsters","steam_id":76561198272471440,"connected_time":199000000000,"state":"active","ping":73},{"user_id":107,"name":"uneducated guess","steam_id":76561198140846580,"connected_time":196000000000,"state":"active","ping":65},{"user_id":105,"name":"pinglefingle","steam_id":76561198216580197,"connected_time":223000000000,"state":"active","ping":82},{"user_id":101,"name":"canadian birds","steam_id":76561198059466588,"connected_time":507000000000,"state":"active","ping":67},{"user_id":113,"name":"forklift circumcised","steam_id":76561198278756087,"connected_time":90000000000,"state":"active","ping":86},{"user_id":100,"name":"TeaPirate [TTC]","steam_id":76561197993068398,"connected_time":599000000000,"state":"active","ping":80},{"user_id":11,"name":"[slug]","steam_id":76561197989592178,"connected_time":6115000000000,"state":"active","ping":62},{"user_id":98,"name":"Genius Meme","steam_id":76561198162911254,"connected_time":717000000000,"state":"active","ping":106},{"user_id":102,"name":"Fudge_Cake","steam_id":76561198059218167,"connected_time":409000000000,"state":"active","ping":59},{"user_id":109,"name":"yo merry chirstmas","steam_id":76561198163265338,"connected_time":181000000000,"state":"active","ping":96},{"user_id":86,"name":"Scorpie Doodle","steam_id":76561198021845763,"connected_time":1659000000000,"state":"active","ping":50},{"user_id":110,"name":"Grape Juice","steam_id":76561198380337568,"connected_time":137000000000,"state":"active","ping":73},{"user_id":111,"name":"Trow","steam_id":76561198033918106,"connected_time":123000000000,"state":"active","ping":105},{"user_id":112,"name":"Zubats |TAOZ|","steam_id":76561198041819445,"connected_time":115000000000,"state":"active","ping":47},{"user_id":114,"name":"Chicken Nugget","steam_id":76561198082601232,"connected_time":73000000000,"state":"active","ping":73},{"user_id":73,"name":"Cyborg","steam_id":76561198278373788,"connected_time":2751000000000,"state":"active","ping":47},{"user_id":115,"name":"⦕ 艾萨克 ⦖","steam_id":76561198293727875,"connected_time":57000000000,"state":"active","ping":60},{"user_id":93,"name":"MeatwadMeatwad","steam_id":76561198202194160,"connected_time":1027000000000,"state":"active","ping":85},{"user_id":99,"name":"A Bic Lighter","steam_id":76561198070606068,"connected_time":712000000000,"state":"active","ping":46},{"user_id":116,"name":"moe","steam_id":76561198929586245,"connected_time":53000000000,"state":"active","ping":102},{"user_id":79,"name":"General Fisticuffs","steam_id":76561198255721392,"connected_time":2406000000000,"state":"active","ping":74},{"user_id":87,"name":"Garbage","steam_id":76561198286796934,"connected_time":1643000000000,"state":"active","ping":64},{"user_id":91,"name":"LUNARPUMPKIN","steam_id":76561198027902955,"connected_time":1076000000000,"state":"active","ping":63}]},{"server_id":106,"name":"Uncletopia | Chicago | 2 | All Maps","name_short":"chi-2","host":"chi-1.us.uncletopia.com","port":27025,"enabled":true,"region":"us-central","cc":"us","latitude":41.881832,"longitude":-87.62318,"reserved":0,"last_update":"0001-01-01T00:00:00Z","name_a2s":"Uncletopia | Chicago | 2 | All Maps","protocol":17,"map":"pl_snowycoast","folder":"tf","game":"Team Fortress","app_id":440,"player_count":24,"max_players":24,"Bots":0,"server_type":"Dedicated","server_os":"Linux","password":true,"vac":true,"version":"7723704","steam_id":85568392924469985,"keywords":["nocrits","nodmgspread","payload","uncletopia"],"game_id":440,"stv_port":27026,"stv_name":"Uncletopia | Chicago | 2 | All Maps | STV","players":[{"user_id":59,"name":"beatwice from uwumineko","steam_id":76561198114679256,"connected_time":2392000000000,"state":"active","ping":59},{"user_id":78,"name":"Burnt Cheeto","steam_id":76561198284627634,"connected_time":570000000000,"state":"active","ping":46},{"user_id":51,"name":"Fluffeline","steam_id":76561198352909489,"connected_time":3444000000000,"state":"active","ping":138},{"user_id":81,"name":"Lord_Manship","steam_id":76561198045168765,"connected_time":469000000000,"state":"active","ping":76},{"user_id":64,"name":"GUINNESS ANYONE?","steam_id":76561197985970131,"connected_time":1793000000000,"state":"active","ping":68},{"user_id":75,"name":"sweaterfan","steam_id":76561199389567214,"connected_time":1016000000000,"state":"active","ping":63},{"user_id":13,"name":"Devious Wink","steam_id":76561198043571022,"connected_time":5839000000000,"state":"active","ping":62},{"user_id":47,"name":"River Rat","steam_id":76561198116383976,"connected_time":3629000000000,"state":"active","ping":111},{"user_id":68,"name":"PinkSpider","steam_id":76561198310119828,"connected_time":1653000000000,"state":"active","ping":88},{"user_id":30,"name":"『Hazon』","steam_id":76561198119852107,"connected_time":4301000000000,"state":"active","ping":65},{"user_id":76,"name":"Zuriel","steam_id":76561198149673080,"connected_time":871000000000,"state":"active","ping":99},{"user_id":67,"name":"Why Kappa","steam_id":76561198374425955,"connected_time":1666000000000,"state":"active","ping":63},{"user_id":34,"name":"Second Hand Smoke Gaming","steam_id":76561198380926090,"connected_time":4192000000000,"state":"active","ping":56},{"user_id":83,"name":"Jimmy","steam_id":76561197970838363,"connected_time":420000000000,"state":"active","ping":79},{"user_id":79,"name":"slimjim557","steam_id":76561199094710853,"connected_time":559000000000,"state":"active","ping":65},{"user_id":37,"name":"glug slug","steam_id":76561197988690273,"connected_time":4132000000000,"state":"active","ping":67},{"user_id":48,"name":"ctap2lean","steam_id":76561198068538473,"connected_time":3573000000000,"state":"active","ping":81},{"user_id":39,"name":"merty","steam_id":76561198067874268,"connected_time":4109000000000,"state":"active","ping":67},{"user_id":40,"name":"longer arms","steam_id":76561197984752473,"connected_time":4100000000000,"state":"active","ping":55},{"user_id":62,"name":"Dill","steam_id":76561197985091914,"connected_time":2387000000000,"state":"active","ping":68},{"user_id":84,"name":"Heavy Lobster","steam_id":76561199437953754,"connected_time":366000000000,"state":"active","ping":85},{"user_id":77,"name":"Female Gamer","steam_id":76561199366482682,"connected_time":654000000000,"state":"active","ping":91},{"user_id":72,"name":"Wso1123","steam_id":76561198048040111,"connected_time":1300000000000,"state":"active","ping":69},{"user_id":86,"name":"Brian","steam_id":76561198144650969,"connected_time":183000000000,"state":"active","ping":86}]},{"server_id":402,"name":"Uncletopia | Chicago | 3 | All Maps","name_short":"chi-3","host":"chi-1.us.uncletopia.com","port":27035,"enabled":true,"region":"us-central","cc":"us","latitude":41.881832,"longitude":-87.62318,"reserved":0,"last_update":"0001-01-01T00:00:00Z","name_a2s":"Uncletopia | Chicago | 3 | All Maps","protocol":17,"map":"cp_mountainlab","folder":"tf","game":"Team Fortress","app_id":440,"player_count":0,"max_players":24,"Bots":0,"server_type":"Dedicated","server_os":"Linux","password":true,"vac":true,"version":"7723704","steam_id":85568392924515191,"keywords":["cp","nocrits","nodmgspread","uncletopia"],"game_id":440,"stv_port":27036,"stv_name":"Uncletopia | Chicago | 3 | All Maps | STV","players":null},{"server_id":403,"name":"Uncletopia | Chicago | 4 | All Maps","name_short":"chi-4","host":"chi-1.us.uncletopia.com","port":27045,"enabled":true,"region":"us-central","cc":"us","latitude":41.881832,"longitude":-87.62318,"reserved":0,"last_update":"0001-01-01T00:00:00Z","name_a2s":"Uncletopia | Chicago | 4 | All Maps","protocol":17,"map":"pl_borneo","folder":"tf","game":"Team Fortress","app_id":440,"player_count":24,"max_players":24,"Bots":0,"server_type":"Dedicated","server_os":"Linux","password":true,"vac":true,"version":"7723704","steam_id":85568392924515193,"keywords":["nocrits","nodmgspread","payload","uncletopia"],"game_id":440,"stv_port":27046,"stv_name":"Uncletopia | Chicago | 4 | All Maps | STV","players":[{"user_id":13,"name":"M249 | Spectre","steam_id":76561198118334485,"connected_time":6025000000000,"state":"active","ping":77},{"user_id":4,"name":"Ye (I Love Hitler) West","steam_id":76561198068830312,"connected_time":6135000000000,"state":"active","ping":45},{"user_id":8,"name":"Zodyxajon","steam_id":76561198165561581,"connected_time":6099000000000,"state":"active","ping":69},{"user_id":72,"name":"Spider","steam_id":76561198051430727,"connected_time":1168000000000,"state":"active","ping":85},{"user_id":7,"name":"Wug","steam_id":76561198084112264,"connected_time":6120000000000,"state":"active","ping":79},{"user_id":75,"name":"Ebenezer Splooge","steam_id":76561198063146571,"connected_time":541000000000,"state":"active","ping":76},{"user_id":37,"name":"Bloop","steam_id":76561198253563271,"connected_time":4979000000000,"state":"active","ping":47},{"user_id":60,"name":"weeb_whacker #Jenius","steam_id":76561198187098041,"connected_time":2121000000000,"state":"active","ping":52},{"user_id":40,"name":"q!k.glodfyeehs","steam_id":76561198086008437,"connected_time":4353000000000,"state":"active","ping":77},{"user_id":76,"name":"The Super Mario Bros. Movie","steam_id":76561198871692156,"connected_time":535000000000,"state":"active","ping":101},{"user_id":68,"name":"WONDER.","steam_id":76561198092527854,"connected_time":1937000000000,"state":"active","ping":105},{"user_id":57,"name":"NyanPigz","steam_id":76561198124136007,"connected_time":2465000000000,"state":"active","ping":59},{"user_id":73,"name":"Blorgus_J_Blart","steam_id":76561198430926135,"connected_time":1131000000000,"state":"active","ping":230},{"user_id":71,"name":"just call me joe","steam_id":76561198043911582,"connected_time":1185000000000,"state":"active","ping":75},{"user_id":74,"name":"OldManHenderson1976","steam_id":76561198148713751,"connected_time":1087000000000,"state":"active","ping":94},{"user_id":70,"name":"jt","steam_id":76561198059575962,"connected_time":1611000000000,"state":"active","ping":60},{"user_id":66,"name":"ramensniffer","steam_id":76561198046870291,"connected_time":1996000000000,"state":"active","ping":74},{"user_id":41,"name":"{AmethystPlays}","steam_id":76561198314936891,"connected_time":4082000000000,"state":"active","ping":138},{"user_id":67,"name":"Zee❤","steam_id":76561198274550638,"connected_time":1994000000000,"state":"active","ping":62},{"user_id":54,"name":"Murk Wahlberg","steam_id":76561198131467867,"connected_time":2489000000000,"state":"active","ping":90},{"user_id":52,"name":"josh","steam_id":76561198111565081,"connected_time":2552000000000,"state":"active","ping":112},{"user_id":62,"name":"❤ Ashley ❤","steam_id":76561198056428303,"connected_time":2120000000000,"state":"active","ping":153},{"user_id":32,"name":"cube","steam_id":76561197991759721,"connected_time":5529000000000,"state":"active","ping":65},{"user_id":39,"name":"Rat God","steam_id":76561198066161598,"connected_time":4364000000000,"state":"active","ping":58}]},{"server_id":36,"name":"Uncletopia | Chicago | 5 | All Maps","name_short":"chi-5","host":"chi-2.us.uncletopia.com","port":27015,"enabled":true,"region":"us-central","cc":"us","latitude":41.881832,"longitude":-87.62318,"reserved":0,"last_update":"0001-01-01T00:00:00Z","name_a2s":"Uncletopia | Chicago | 5 | All Maps","protocol":17,"map":"cp_altitude","folder":"tf","game":"Team Fortress","app_id":440,"player_count":6,"max_players":24,"Bots":0,"server_type":"Dedicated","server_os":"Linux","password":true,"vac":true,"version":"7723704","steam_id":85568392924866362,"keywords":["cp","nocrits","nodmgspread","uncletopia"],"game_id":440,"stv_port":27016,"stv_name":"Uncletopia | Chicago | 5 | All Maps | STV","players":[{"user_id":4,"name":"mmph","steam_id":76561198204213057,"connected_time":1271000000000,"state":"active","ping":55},{"user_id":5,"name":"The Gentlemen","steam_id":76561198828421684,"connected_time":1208000000000,"state":"active","ping":96},{"user_id":6,"name":"Crizer","steam_id":76561199006271691,"connected_time":1207000000000,"state":"active","ping":62},{"user_id":7,"name":"PoopCock","steam_id":76561198119363542,"connected_time":1195000000000,"state":"active","ping":53},{"user_id":8,"name":"TheMilkMan","steam_id":76561199068930228,"connected_time":1171000000000,"state":"active","ping":117},{"user_id":10,"name":"catboy trickster","steam_id":76561198075665211,"connected_time":561000000000,"state":"active","ping":134}]},{"server_id":37,"name":"Uncletopia | Chicago | 6 | All Maps","name_short":"chi-6","host":"chi-2.us.uncletopia.com","port":27025,"enabled":true,"region":"us-central","cc":"us","latitude":41.881832,"longitude":-87.62318,"reserved":0,"last_update":"0001-01-01T00:00:00Z","name_a2s":"Uncletopia | Chicago | 6 | All Maps","protocol":17,"map":"cp_mountainlab","folder":"tf","game":"Team Fortress","app_id":440,"player_count":0,"max_players":24,"Bots":0,"server_type":"Dedicated","server_os":"Linux","password":true,"vac":true,"version":"7723704","steam_id":85568392924866363,"keywords":["cp","nocrits","nodmgspread","uncletopia"],"game_id":440,"stv_port":27026,"stv_name":"Uncletopia | Chicago | 6 | All Maps | STV","players":null},{"server_id":38,"name":"Uncletopia | Chicago | 7 | Stopwatch Beta","name_short":"chi-7","host":"chi-2.us.uncletopia.com","port":27035,"enabled":true,"region":"us-central","cc":"us","latitude":41.881832,"longitude":-87.62318,"reserved":0,"last_update":"0001-01-01T00:00:00Z","name_a2s":"Uncletopia | Chicago | 7 | Stopwatch Beta","protocol":17,"map":"pl_badwater","folder":"tf","game":"Team Fortress","app_id":440,"player_count":0,"max_players":24,"Bots":0,"server_type":"Dedicated","server_os":"Linux","password":true,"vac":true,"version":"7723704","steam_id":85568392924866364,"keywords":["nocrits","nodmgspread","payload","uncletopia"],"game_id":440,"stv_port":27036,"stv_name":"Uncletopia | Chicago | 7 | Stopwatch Beta | STV","players":null},{"server_id":39,"name":"Uncletopia | Chicago | 8 | Community","name_short":"chi-8","host":"chi-2.us.uncletopia.com","port":27045,"enabled":true,"region":"us-central","cc":"us","latitude":41.881832,"longitude":-87.62318,"reserved":0,"last_update":"0001-01-01T00:00:00Z","name_a2s":"Uncletopia | Chicago | 8 | Community","protocol":17,"map":"workshop/pl_barnblitz_pro7.ugc582280235","folder":"tf","game":"Team Fortress","app_id":440,"player_count":24,"max_players":24,"Bots":0,"server_type":"Dedicated","server_os":"Linux","password":true,"vac":true,"version":"7723704","steam_id":85568392924866365,"keywords":["nocrits","nodmgspread","payload","uncletopia"],"game_id":440,"stv_port":27046,"stv_name":"Uncletopia | Chicago | 8 | Community | STV","players":[{"user_id":89,"name":"DiscoTraveler","steam_id":76561199240168088,"connected_time":2480000000000,"state":"active","ping":62},{"user_id":122,"name":"Kuyumiester","steam_id":76561198126835302,"connected_time":796000000000,"state":"active","ping":67},{"user_id":132,"name":"akirajimbo","steam_id":76561197979960008,"connected_time":100000000000,"state":"active","ping":60},{"user_id":111,"name":"faxxy","steam_id":76561198079621240,"connected_time":1312000000000,"state":"active","ping":64},{"user_id":107,"name":"Yunaa","steam_id":76561198244315088,"connected_time":1783000000000,"state":"active","ping":57},{"user_id":51,"name":"Snoopy","steam_id":76561198273735974,"connected_time":4465000000000,"state":"active","ping":92},{"user_id":124,"name":"CFDv20","steam_id":76561198450073779,"connected_time":694000000000,"state":"active","ping":104},{"user_id":92,"name":"JakeTheBoi","steam_id":76561199278135331,"connected_time":2426000000000,"state":"active","ping":76},{"user_id":93,"name":"Eon","steam_id":76561198085175016,"connected_time":2418000000000,"state":"active","ping":76},{"user_id":104,"name":"bad","steam_id":76561198090531755,"connected_time":2095000000000,"state":"active","ping":73},{"user_id":128,"name":"Vhee","steam_id":76561198032525780,"connected_time":292000000000,"state":"active","ping":89},{"user_id":41,"name":"TÖZI","steam_id":76561198045268695,"connected_time":4920000000000,"state":"active","ping":59},{"user_id":119,"name":"The Bee's Knees","steam_id":76561198042153923,"connected_time":930000000000,"state":"active","ping":63},{"user_id":69,"name":"mohamy_19","steam_id":76561198075833698,"connected_time":3049000000000,"state":"active","ping":76},{"user_id":108,"name":"Tilde Kill","steam_id":76561198144429324,"connected_time":1684000000000,"state":"active","ping":63},{"user_id":120,"name":"deez ratz","steam_id":76561198864572366,"connected_time":907000000000,"state":"active","ping":91},{"user_id":125,"name":"Snoofy Snorfa","steam_id":76561198161556537,"connected_time":665000000000,"state":"active","ping":79},{"user_id":117,"name":"Um, cool!","steam_id":76561198129870038,"connected_time":998000000000,"state":"active","ping":110},{"user_id":95,"name":"Lizbeth!","steam_id":76561198134418839,"connected_time":2366000000000,"state":"active","ping":76},{"user_id":109,"name":"Deez Nutz","steam_id":76561198057374871,"connected_time":1662000000000,"state":"active","ping":64},{"user_id":118,"name":"JoeyTV","steam_id":76561198872805416,"connected_time":987000000000,"state":"active","ping":86},{"user_id":129,"name":"fice (autumnheals)","steam_id":76561198860361610,"connected_time":283000000000,"state":"active","ping":58},{"user_id":130,"name":"Hamster","steam_id":76561198079599992,"connected_time":279000000000,"state":"active","ping":38},{"user_id":131,"name":"DannyM","steam_id":76561198351165570,"connected_time":277000000000,"state":"active","ping":66}]},{"server_id":8,"name":"Uncletopia | Dallas | 1 | All Maps","name_short":"dal-1","host":"dal-1.us.uncletopia.com","port":27015,"enabled":true,"region":"us-central","cc":"us","latitude":32.779167,"longitude":-96.80889,"reserved":0,"last_update":"0001-01-01T00:00:00Z","name_a2s":"Uncletopia | Dallas | 1 | All Maps","protocol":17,"map":"cp_altitude","folder":"tf","game":"Team Fortress","app_id":440,"player_count":0,"max_players":24,"Bots":0,"server_type":"Dedicated","server_os":"Linux","password":true,"vac":true,"version":"7723704","steam_id":85568392924469986,"keywords":["cp","nocrits","nodmgspread","uncletopia"],"game_id":440,"stv_port":27016,"stv_name":"Uncletopia | Dallas | 1 | All Maps | STV","players":null},{"server_id":108,"name":"Uncletopia | Dallas | 2 | All Maps","name_short":"dal-2","host":"dal-1.us.uncletopia.com","port":27025,"enabled":true,"region":"us-central","cc":"us","latitude":32.779167,"longitude":-96.80889,"reserved":0,"last_update":"0001-01-01T00:00:00Z","name_a2s":"Uncletopia | Dallas | 2 | All Maps","protocol":17,"map":"cp_gorge","folder":"tf","game":"Team Fortress","app_id":440,"player_count":24,"max_players":24,"Bots":0,"server_type":"Dedicated","server_os":"Linux","password":true,"vac":true,"version":"7723704","steam_id":85568392924469988,"keywords":["cp","nocrits","nodmgspread","uncletopia"],"game_id":440,"stv_port":27026,"stv_name":"Uncletopia | Dallas | 2 | All Maps | STV","players":[{"user_id":72,"name":"mista wayne","steam_id":76561198056249150,"connected_time":563000000000,"state":"active","ping":95},{"user_id":71,"name":"TheDieeg","steam_id":76561199443116996,"connected_time":629000000000,"state":"active","ping":70},{"user_id":21,"name":"★CyberWario★","steam_id":76561198362810244,"connected_time":6109000000000,"state":"active","ping":49},{"user_id":73,"name":"belieber2011","steam_id":76561198998340318,"connected_time":549000000000,"state":"active","ping":131},{"user_id":14,"name":"G. Howard Dee","steam_id":76561198058382812,"connected_time":6123000000000,"state":"active","ping":61},{"user_id":44,"name":"Lezabel","steam_id":76561198970753261,"connected_time":2124000000000,"state":"active","ping":70},{"user_id":46,"name":"Vazquez Perez","steam_id":76561199185750989,"connected_time":2105000000000,"state":"active","ping":70},{"user_id":76,"name":"Faust main","steam_id":76561198971799149,"connected_time":504000000000,"state":"active","ping":62},{"user_id":74,"name":"Klip","steam_id":76561198316254429,"connected_time":540000000000,"state":"active","ping":57},{"user_id":38,"name":"+","steam_id":76561198262422184,"connected_time":3706000000000,"state":"active","ping":53},{"user_id":13,"name":"★CyberMario★","steam_id":76561198045798329,"connected_time":6126000000000,"state":"active","ping":49},{"user_id":68,"name":"SwooWoop","steam_id":76561199244312225,"connected_time":972000000000,"state":"active","ping":80},{"user_id":39,"name":"Medical Asshat","steam_id":76561198004584315,"connected_time":3705000000000,"state":"active","ping":85},{"user_id":75,"name":"ChipperGunslinger","steam_id":76561199100483140,"connected_time":539000000000,"state":"active","ping":60},{"user_id":50,"name":"El Benjador","steam_id":76561198345883103,"connected_time":1973000000000,"state":"active","ping":60},{"user_id":70,"name":"Saltycheesecak0","steam_id":76561199044288353,"connected_time":724000000000,"state":"active","ping":62},{"user_id":77,"name":"Robbie Rotten","steam_id":76561198125993888,"connected_time":460000000000,"state":"active","ping":42},{"user_id":78,"name":"POWER IN MISERY","steam_id":76561198032008701,"connected_time":416000000000,"state":"active","ping":77},{"user_id":43,"name":"★CyberWaluigi★","steam_id":76561198845834620,"connected_time":2739000000000,"state":"active","ping":47},{"user_id":85,"name":"Dude With A Gasmask","steam_id":76561198881532241,"connected_time":153000000000,"state":"active","ping":71},{"user_id":84,"name":"Nico The Cheese","steam_id":76561199065272792,"connected_time":221000000000,"state":"active","ping":76},{"user_id":81,"name":"Big floppa","steam_id":76561199198599527,"connected_time":386000000000,"state":"active","ping":113},{"user_id":83,"name":"Xmas Xtar","steam_id":76561198301774048,"connected_time":325000000000,"state":"active","ping":106},{"user_id":40,"name":"Pinetree w/ apples.","steam_id":76561198105411709,"connected_time":3131000000000,"state":"active","ping":102}]},{"server_id":5,"name":"Uncletopia | Frankfurt | 1 | All Maps","name_short":"frk-1","host":"frk-1.de.uncletopia.com","port":27015,"enabled":true,"region":"eu","cc":"de","latitude":50.110924,"longitude":8.682127,"reserved":0,"last_update":"0001-01-01T00:00:00Z","name_a2s":"Uncletopia | Frankfurt | 1 | All Maps","protocol":17,"map":"koth_highpass","folder":"tf","game":"Team Fortress","app_id":440,"player_count":0,"max_players":24,"Bots":0,"server_type":"Dedicated","server_os":"Linux","password":true,"vac":true,"version":"7723704","steam_id":85568392924469989,"keywords":["cp","nocrits","nodmgspread","uncletopia"],"game_id":440,"stv_port":27016,"stv_name":"Uncletopia | Frankfurt | 1 | All Maps | STV","players":null},{"server_id":110,"name":"Uncletopia | Frankfurt | 2 | All Maps","name_short":"frk-2","host":"frk-1.de.uncletopia.com","port":27025,"enabled":true,"region":"eu","cc":"de","latitude":50.110924,"longitude":8.682127,"reserved":0,"last_update":"0001-01-01T00:00:00Z","name_a2s":"Uncletopia | Frankfurt | 2 | All Maps","protocol":17,"map":"cp_snakewater_final1","folder":"tf","game":"Team Fortress","app_id":440,"player_count":0,"max_players":24,"Bots":0,"server_type":"Dedicated","server_os":"Linux","password":true,"vac":true,"version":"7723704","steam_id":85568392924469990,"keywords":["cp","nocrits","nodmgspread","uncletopia"],"game_id":440,"stv_port":27026,"stv_name":"Uncletopia | Frankfurt | 2 | All Maps | STV","players":null},{"server_id":308,"name":"Uncletopia | Frankfurt | 3 | All Maps","name_short":"frk-3","host":"frk-1.de.uncletopia.com","port":27035,"enabled":true,"region":"eu","cc":"de","latitude":50.110924,"longitude":8.682127,"reserved":0,"last_update":"0001-01-01T00:00:00Z","name_a2s":"Uncletopia | Frankfurt | 3 | All Maps","protocol":17,"map":"pl_barnblitz","folder":"tf","game":"Team Fortress","app_id":440,"player_count":0,"max_players":24,"Bots":0,"server_type":"Dedicated","server_os":"Linux","password":true,"vac":true,"version":"7723704","steam_id":85568392924504274,"keywords":["nocrits","nodmgspread","payload","uncletopia"],"game_id":440,"stv_port":27036,"stv_name":"Uncletopia | Frankfurt | 3 | All Maps | STV","players":null},{"server_id":309,"name":"Uncletopia | Frankfurt | 4 | All Maps","name_short":"frk-4","host":"frk-1.de.uncletopia.com","port":27045,"enabled":true,"region":"eu","cc":"de","latitude":50.110924,"longitude":8.682127,"reserved":0,"last_update":"0001-01-01T00:00:00Z","name_a2s":"Uncletopia | Frankfurt | 4 | All Maps","protocol":17,"map":"pl_snowycoast","folder":"tf","game":"Team Fortress","app_id":440,"player_count":0,"max_players":24,"Bots":0,"server_type":"Dedicated","server_os":"Linux","password":true,"vac":true,"version":"7723704","steam_id":85568392924504275,"keywords":["nocrits","nodmgspread","payload","uncletopia"],"game_id":440,"stv_port":27046,"stv_name":"Uncletopia | Frankfurt | 4 | All Maps | STV","players":null},{"server_id":310,"name":"Uncletopia | Frankfurt | 5 | All Maps","name_short":"frk-5","host":"frk-1.de.uncletopia.com","port":27055,"enabled":true,"region":"eu","cc":"de","latitude":50.110924,"longitude":8.682127,"reserved":0,"last_update":"0001-01-01T00:00:00Z","name_a2s":"Uncletopia | Frankfurt | 5 | All Maps","protocol":17,"map":"pl_barnblitz","folder":"tf","game":"Team Fortress","app_id":440,"player_count":0,"max_players":24,"Bots":0,"server_type":"Dedicated","server_os":"Linux","password":true,"vac":true,"version":"7723704","steam_id":85568392924504277,"keywords":["nocrits","nodmgspread","payload","uncletopia"],"game_id":440,"stv_port":27056,"stv_name":"Uncletopia | Frankfurt | 5 | All Maps | STV","players":null},{"server_id":311,"name":"Uncletopia | Frankfurt | 6 | All Maps","name_short":"frk-6","host":"frk-1.de.uncletopia.com","port":27065,"enabled":true,"region":"eu","cc":"de","latitude":50.110924,"longitude":8.682127,"reserved":0,"last_update":"0001-01-01T00:00:00Z","name_a2s":"Uncletopia | Frankfurt | 6 | All Maps","protocol":17,"map":"pl_swiftwater_final1","folder":"tf","game":"Team Fortress","app_id":440,"player_count":0,"max_players":24,"Bots":0,"server_type":"Dedicated","server_os":"Linux","password":true,"vac":true,"version":"7723704","steam_id":85568392924504278,"keywords":["nocrits","nodmgspread","payload","uncletopia"],"game_id":440,"stv_port":27066,"stv_name":"Uncletopia | Frankfurt | 6 | All Maps | STV","players":null},{"server_id":23,"name":"Uncletopia | Frankfurt | 7 | Stopwatch Beta","name_short":"frk-7","host":"frk-1.de.uncletopia.com","port":27075,"enabled":true,"region":"eu","cc":"de","latitude":50.110924,"longitude":8.682127,"reserved":0,"last_update":"0001-01-01T00:00:00Z","name_a2s":"Uncletopia | Frankfurt | 7 | Stopwatch Beta","protocol":17,"map":"koth_viaduct","folder":"tf","game":"Team Fortress","app_id":440,"player_count":0,"max_players":24,"Bots":0,"server_type":"Dedicated","server_os":"Linux","password":true,"vac":true,"version":"7723704","steam_id":85568392924742827,"keywords":["cp","nocrits","nodmgspread","uncletopia"],"game_id":440,"stv_port":27076,"stv_name":"Uncletopia | Frankfurt | 7 | Stopwatch Beta | STV","players":null},{"server_id":24,"name":"Uncletopia | Frankfurt | 8 | Community","name_short":"frk-8","host":"frk-1.de.uncletopia.com","port":27085,"enabled":true,"region":"eu","cc":"de","latitude":50.110924,"longitude":8.682127,"reserved":0,"last_update":"0001-01-01T00:00:00Z","name_a2s":"Uncletopia | Frankfurt | 8 | Community","protocol":17,"map":"pl_frontier_final","folder":"tf","game":"Team Fortress","app_id":440,"player_count":0,"max_players":24,"Bots":0,"server_type":"Dedicated","server_os":"Linux","password":true,"vac":true,"version":"7723704","steam_id":85568392924742828,"keywords":["nocrits","nodmgspread","payload","uncletopia"],"game_id":440,"stv_port":27086,"stv_name":"Uncletopia | Frankfurt | 8 | Community | STV","players":null},{"server_id":202,"name":"Uncletopia | Hong Kong | 1 | All Maps","name_short":"hgk-1","host":"hgk-1.hk.uncletopia.com","port":27015,"enabled":true,"region":"asia","cc":"hk","latitude":22.302711,"longitude":114.177216,"reserved":0,"last_update":"0001-01-01T00:00:00Z","name_a2s":"Uncletopia | Hong Kong | 1 | All Maps","protocol":17,"map":"cp_dustbowl","folder":"tf","game":"Team Fortress","app_id":440,"player_count":24,"max_players":24,"Bots":0,"server_type":"Dedicated","server_os":"Linux","password":true,"vac":true,"version":"7723704","steam_id":85568392924494504,"keywords":["cp","nocrits","nodmgspread","uncletopia"],"game_id":440,"stv_port":27016,"stv_name":"Uncletopia | Hong Kong | 1 | All Maps | STV","players":[{"user_id":33,"name":":D","steam_id":76561198009692495,"connected_time":1457000000000,"state":"active","ping":87},{"user_id":4,"name":"Windmill","steam_id":76561199230997986,"connected_time":2182000000000,"state":"active","ping":72},{"user_id":5,"name":"Me is gaming","steam_id":76561199025438331,"connected_time":2181000000000,"state":"active","ping":59},{"user_id":6,"name":"Creeper-Chan","steam_id":76561198172623219,"connected_time":2180000000000,"state":"active","ping":51},{"user_id":7,"name":"UZ","steam_id":76561198179320563,"connected_time":2180000000000,"state":"active","ping":93},{"user_id":8,"name":"Pillboi","steam_id":76561198011172886,"connected_time":2179000000000,"state":"active","ping":45},{"user_id":35,"name":"dunkleshreken","steam_id":76561198044875028,"connected_time":1118000000000,"state":"active","ping":106},{"user_id":10,"name":"Milk❤ (most hated guy in ut)","steam_id":76561198163911560,"connected_time":2178000000000,"state":"active","ping":99},{"user_id":11,"name":"Vortex Morez","steam_id":76561198833527091,"connected_time":2177000000000,"state":"active","ping":87},{"user_id":38,"name":"SOS By SZA","steam_id":76561198400698408,"connected_time":816000000000,"state":"active","ping":88},{"user_id":13,"name":"Oral Cigarettes","steam_id":76561198347418251,"connected_time":2176000000000,"state":"active","ping":64},{"user_id":14,"name":"alphakennybuddy","steam_id":76561199219625644,"connected_time":2172000000000,"state":"active","ping":102},{"user_id":15,"name":"Lúd","steam_id":76561198828840546,"connected_time":2168000000000,"state":"active","ping":74},{"user_id":16,"name":"i like cheese","steam_id":76561198085893796,"connected_time":2168000000000,"state":"active","ping":101},{"user_id":17,"name":"煙海 | Enkai","steam_id":76561198050460825,"connected_time":2168000000000,"state":"active","ping":85},{"user_id":39,"name":"derek.patriarca30","steam_id":76561199427230206,"connected_time":407000000000,"state":"active","ping":65},{"user_id":41,"name":"akblueguy","steam_id":76561198448294021,"connected_time":126000000000,"state":"active","ping":131},{"user_id":31,"name":"Kek","steam_id":76561199004616229,"connected_time":1758000000000,"state":"active","ping":100},{"user_id":22,"name":"Bertengkar","steam_id":76561198213031155,"connected_time":2145000000000,"state":"active","ping":104},{"user_id":23,"name":"bakabazooka(merrychrismas)","steam_id":76561198061628689,"connected_time":2143000000000,"state":"active","ping":57},{"user_id":32,"name":"r/leroy","steam_id":76561199137927625,"connected_time":1686000000000,"state":"active","ping":122},{"user_id":26,"name":"The blue phonograph","steam_id":76561199286547213,"connected_time":2049000000000,"state":"active","ping":123},{"user_id":29,"name":"Yes'Tir'Day","steam_id":76561198091798037,"connected_time":1931000000000,"state":"active","ping":102},{"user_id":37,"name":"Cá Tháng 4","steam_id":76561198047162026,"connected_time":860000000000,"state":"active","ping":66}]},{"server_id":1,"name":"Uncletopia | Los Angeles | 1 | All Maps","name_short":"lax-1","host":"lax-1.us.uncletopia.com","port":27015,"enabled":true,"region":"us-west","cc":"us","latitude":33.94279,"longitude":-118.41004,"reserved":0,"last_update":"0001-01-01T00:00:00Z","name_a2s":"Uncletopia | Los Angeles | 1 | All Maps","protocol":17,"map":"pl_snowycoast","folder":"tf","game":"Team Fortress","app_id":440,"player_count":0,"max_players":24,"Bots":0,"server_type":"Dedicated","server_os":"Linux","password":true,"vac":true,"version":"7723704","steam_id":85568392924469991,"keywords":["nocrits","nodmgspread","payload","uncletopia"],"game_id":440,"stv_port":27016,"stv_name":"Uncletopia | Los Angeles | 1 | All Maps | STV","players":null},{"server_id":112,"name":"Uncletopia | Los Angeles | 2 | All Maps","name_short":"lax-2","host":"lax-1.us.uncletopia.com","port":27025,"enabled":true,"region":"us-west","cc":"us","latitude":33.94279,"longitude":-118.41004,"reserved":0,"last_update":"0001-01-01T00:00:00Z","name_a2s":"Uncletopia | Los Angeles | 2 | All Maps","protocol":17,"map":"koth_viaduct","folder":"tf","game":"Team Fortress","app_id":440,"player_count":0,"max_players":24,"Bots":0,"server_type":"Dedicated","server_os":"Linux","password":true,"vac":true,"version":"7723704","steam_id":85568392924469992,"keywords":["cp","nocrits","nodmgspread","uncletopia"],"game_id":440,"stv_port":27026,"stv_name":"Uncletopia | Los Angeles | 2 | All Maps | STV","players":null},{"server_id":324,"name":"Uncletopia | Los Angeles | 3 | All Maps","name_short":"lax-3","host":"lax-1.us.uncletopia.com","port":27035,"enabled":true,"region":"us-west","cc":"us","latitude":33.94279,"longitude":-118.41004,"reserved":0,"last_update":"0001-01-01T00:00:00Z","name_a2s":"Uncletopia | Los Angeles | 3 | All Maps","protocol":17,"map":"koth_viaduct","folder":"tf","game":"Team Fortress","app_id":440,"player_count":0,"max_players":24,"Bots":0,"server_type":"Dedicated","server_os":"Linux","password":true,"vac":true,"version":"7723704","steam_id":85568392924510198,"keywords":["cp","nocrits","nodmgspread","uncletopia"],"game_id":440,"stv_port":27036,"stv_name":"Uncletopia | Los Angeles | 3 | All Maps | STV","players":null},{"server_id":25,"name":"Uncletopia | Los Angeles | 4 | Stopwatch Beta","name_short":"lax-4","host":"lax-1.us.uncletopia.com","port":27045,"enabled":true,"region":"us-west","cc":"us","latitude":33.94279,"longitude":-118.41004,"reserved":0,"last_update":"0001-01-01T00:00:00Z","name_a2s":"Uncletopia | Los Angeles | 4 | Stopwatch Beta","protocol":17,"map":"cp_sunshine","folder":"tf","game":"Team Fortress","app_id":440,"player_count":0,"max_players":24,"Bots":0,"server_type":"Dedicated","server_os":"Linux","password":true,"vac":true,"version":"7723704","steam_id":85568392924510199,"keywords":["cp","nocrits","nodmgspread","uncletopia"],"game_id":440,"stv_port":27046,"stv_name":"Uncletopia | Los Angeles | 4 | Stopwatch Beta | STV","players":null},{"server_id":11,"name":"Uncletopia | London | 1 | All Maps","name_short":"lon-1","host":"lon-1.uk.uncletopia.com","port":27015,"enabled":true,"region":"eu","cc":"gb","latitude":51.509865,"longitude":-0.118092,"reserved":0,"last_update":"0001-01-01T00:00:00Z","name_a2s":"Uncletopia | London | 1 | All Maps","protocol":17,"map":"koth_viaduct","folder":"tf","game":"Team Fortress","app_id":440,"player_count":0,"max_players":24,"Bots":0,"server_type":"Dedicated","server_os":"Linux","password":true,"vac":true,"version":"7723704","steam_id":85568392924367362,"keywords":["cp","nocrits","nodmgspread","uncletopia"],"game_id":440,"stv_port":27016,"stv_name":"Uncletopia | London | 1 | All Maps | STV","players":null},{"server_id":114,"name":"Uncletopia | London | 2 | All Maps","name_short":"lon-2","host":"lon-1.uk.uncletopia.com","port":27025,"enabled":true,"region":"eu","cc":"gb","latitude":51.509865,"longitude":-0.118092,"reserved":0,"last_update":"0001-01-01T00:00:00Z","name_a2s":"Uncletopia | London | 2 | All Maps","protocol":17,"map":"pl_upward","folder":"tf","game":"Team Fortress","app_id":440,"player_count":0,"max_players":24,"Bots":0,"server_type":"Dedicated","server_os":"Linux","password":true,"vac":true,"version":"7723704","steam_id":85568392924470941,"keywords":["nocrits","nodmgspread","payload","uncletopia"],"game_id":440,"stv_port":27026,"stv_name":"Uncletopia | London | 2 | All Maps | STV","players":null},{"server_id":320,"name":"Uncletopia | London | 3 | All Maps","name_short":"lon-3","host":"lon-1.uk.uncletopia.com","port":27035,"enabled":true,"region":"eu","cc":"gb","latitude":51.509865,"longitude":-0.118092,"reserved":0,"last_update":"0001-01-01T00:00:00Z","name_a2s":"Uncletopia | London | 3 | All Maps","protocol":17,"map":"pl_snowycoast","folder":"tf","game":"Team Fortress","app_id":440,"player_count":3,"max_players":24,"Bots":0,"server_type":"Dedicated","server_os":"Linux","password":true,"vac":true,"version":"7723704","steam_id":85568392924510192,"keywords":["nocrits","nodmgspread","payload","uncletopia"],"game_id":440,"stv_port":27036,"stv_name":"Uncletopia | London | 3 | All Maps | STV","players":[{"user_id":3,"name":"CODSWOLOP","steam_id":76561199114598660,"connected_time":523000000000,"state":"active","ping":139},{"user_id":7,"name":"Squash Banana","steam_id":76561198055480280,"connected_time":35000000000,"state":"active","ping":83},{"user_id":6,"name":"hrize","steam_id":76561198829023463,"connected_time":73000000000,"state":"active","ping":104}]},{"server_id":321,"name":"Uncletopia | London | 4 | All Maps","name_short":"lon-4","host":"lon-1.uk.uncletopia.com","port":27045,"enabled":true,"region":"eu","cc":"gb","latitude":51.509865,"longitude":-0.118092,"reserved":0,"last_update":"0001-01-01T00:00:00Z","name_a2s":"Uncletopia | London | 4 | All Maps","protocol":17,"map":"koth_lakeside_final","folder":"tf","game":"Team Fortress","app_id":440,"player_count":0,"max_players":24,"Bots":0,"server_type":"Dedicated","server_os":"Linux","password":true,"vac":true,"version":"7723704","steam_id":85568392924510193,"keywords":["cp","nocrits","nodmgspread","uncletopia"],"game_id":440,"stv_port":27046,"stv_name":"Uncletopia | London | 4 | All Maps | STV","players":null},{"server_id":21,"name":"Uncletopia | London | 5 | All Maps","name_short":"lon-5","host":"lon-1.uk.uncletopia.com","port":27055,"enabled":true,"region":"eu","cc":"gb","latitude":51.509865,"longitude":-0.118092,"reserved":0,"last_update":"0001-01-01T00:00:00Z","name_a2s":"Uncletopia | London | 5 | All Maps","protocol":17,"map":"cp_snakewater_final1","folder":"tf","game":"Team Fortress","app_id":440,"player_count":0,"max_players":24,"Bots":0,"server_type":"Dedicated","server_os":"Linux","password":true,"vac":true,"version":"7723704","steam_id":85568392924742829,"keywords":["cp","nocrits","nodmgspread","uncletopia"],"game_id":440,"stv_port":27056,"stv_name":"Uncletopia | London | 5 | All Maps | STV","players":null},{"server_id":22,"name":"Uncletopia | London | 6 | All Maps","name_short":"lon-6","host":"lon-1.uk.uncletopia.com","port":27065,"enabled":true,"region":"eu","cc":"gb","latitude":51.509865,"longitude":-0.118092,"reserved":0,"last_update":"0001-01-01T00:00:00Z","name_a2s":"Uncletopia | London | 6 | All Maps","protocol":17,"map":"cp_process_final","folder":"tf","game":"Team Fortress","app_id":440,"player_count":0,"max_players":24,"Bots":0,"server_type":"Dedicated","server_os":"Linux","password":true,"vac":true,"version":"7723704","steam_id":85568392924742830,"keywords":["cp","nocrits","nodmgspread","uncletopia"],"game_id":440,"stv_port":27066,"stv_name":"Uncletopia | London | 6 | All Maps | STV","players":null},{"server_id":40,"name":"Uncletopia | London | 7 | No Payload","name_short":"lon-7","host":"lon-1.uk.uncletopia.com","port":27075,"enabled":true,"region":"eu","cc":"gb","latitude":51.509865,"longitude":-0.118092,"reserved":0,"last_update":"0001-01-01T00:00:00Z","name_a2s":"Uncletopia | London | 7 | No Payload","protocol":17,"map":"koth_viaduct","folder":"tf","game":"Team Fortress","app_id":440,"player_count":0,"max_players":24,"Bots":0,"server_type":"Dedicated","server_os":"Linux","password":true,"vac":true,"version":"7723704","steam_id":85568392924964314,"keywords":["cp","nocrits","nodmgspread","uncletopia"],"game_id":440,"stv_port":27076,"stv_name":"Uncletopia | London | 7 | No Payload | STV","players":null},{"server_id":41,"name":"Uncletopia | London | 8 | Community","name_short":"lon-8","host":"lon-1.uk.uncletopia.com","port":27085,"enabled":true,"region":"eu","cc":"gb","latitude":51.509865,"longitude":-0.118092,"reserved":0,"last_update":"0001-01-01T00:00:00Z","name_a2s":"Uncletopia | London | 8 | Community","protocol":17,"map":"koth_highpass","folder":"tf","game":"Team Fortress","app_id":440,"player_count":0,"max_players":24,"Bots":0,"server_type":"Dedicated","server_os":"Linux","password":true,"vac":true,"version":"7723704","steam_id":85568392924964315,"keywords":["cp","nocrits","nodmgspread","uncletopia"],"game_id":440,"stv_port":27086,"stv_name":"Uncletopia | London | 8 | Community | STV","players":null},{"server_id":300,"name":"Uncletopia | Montréal | 1 | All Maps","name_short":"mtl-1","host":"mtl-1.ca.uncletopia.com","port":27015,"enabled":true,"region":"us-east","cc":"ca","latitude":45.50889,"longitude":-73.56167,"reserved":0,"last_update":"0001-01-01T00:00:00Z","name_a2s":"Uncletopia | Montréal | 1 | All Maps","protocol":17,"map":"pl_snowycoast","folder":"tf","game":"Team Fortress","app_id":440,"player_count":0,"max_players":24,"Bots":0,"server_type":"Dedicated","server_os":"Linux","password":true,"vac":true,"version":"7723704","steam_id":85568392924500087,"keywords":["nocrits","nodmgspread","payload","uncletopia"],"game_id":440,"stv_port":27016,"stv_name":"Uncletopia | Montréal | 1 | All Maps | STV","players":null},{"server_id":301,"name":"Uncletopia | Montréal | 2 | All Maps","name_short":"mtl-2","host":"mtl-1.ca.uncletopia.com","port":27025,"enabled":true,"region":"us-east","cc":"ca","latitude":45.50889,"longitude":-73.56167,"reserved":0,"last_update":"0001-01-01T00:00:00Z","name_a2s":"Uncletopia | Montréal | 2 | All Maps","protocol":17,"map":"cp_process_final","folder":"tf","game":"Team Fortress","app_id":440,"player_count":0,"max_players":24,"Bots":0,"server_type":"Dedicated","server_os":"Linux","password":true,"vac":true,"version":"7723704","steam_id":85568392924500088,"keywords":["cp","nocrits","nodmgspread","uncletopia"],"game_id":440,"stv_port":27026,"stv_name":"Uncletopia | Montréal | 2 | All Maps | STV","players":null},{"server_id":302,"name":"Uncletopia | Montréal | 3 | All Maps","name_short":"mtl-3","host":"mtl-1.ca.uncletopia.com","port":27035,"enabled":true,"region":"us-east","cc":"ca","latitude":45.50889,"longitude":-73.56167,"reserved":0,"last_update":"0001-01-01T00:00:00Z","name_a2s":"Uncletopia | Montréal | 3 | All Maps","protocol":17,"map":"pl_barnblitz","folder":"tf","game":"Team Fortress","app_id":440,"player_count":0,"max_players":24,"Bots":0,"server_type":"Dedicated","server_os":"Linux","password":true,"vac":true,"version":"7723704","steam_id":85568392924500089,"keywords":["nocrits","nodmgspread","payload","uncletopia"],"game_id":440,"stv_port":27036,"stv_name":"Uncletopia | Montréal | 3 | All Maps | STV","players":null},{"server_id":303,"name":"Uncletopia | Montréal | 4 | No Payload","name_short":"mtl-4","host":"mtl-1.ca.uncletopia.com","port":27045,"enabled":true,"region":"us-east","cc":"ca","latitude":45.50889,"longitude":-73.56167,"reserved":0,"last_update":"0001-01-01T00:00:00Z","name_a2s":"Uncletopia | Montréal | 4 | No Payload","protocol":17,"map":"koth_cascade","folder":"tf","game":"Team Fortress","app_id":440,"player_count":0,"max_players":24,"Bots":0,"server_type":"Dedicated","server_os":"Linux","password":true,"vac":true,"version":"7723704","steam_id":85568392924500090,"keywords":["cp","nocrits","nodmgspread","uncletopia"],"game_id":440,"stv_port":27046,"stv_name":"Uncletopia | Montréal | 4 | No Payload | STV","players":null},{"server_id":13,"name":"Uncletopia | New York City | 1 | All Maps","name_short":"nyc-1","host":"nyc-1.us.uncletopia.com","port":27015,"enabled":true,"region":"us-east","cc":"us","latitude":40.73061,"longitude":-73.93524,"reserved":0,"last_update":"0001-01-01T00:00:00Z","name_a2s":"Uncletopia | New York City | 1 | All Maps","protocol":17,"map":"koth_viaduct","folder":"tf","game":"Team Fortress","app_id":440,"player_count":0,"max_players":24,"Bots":0,"server_type":"Dedicated","server_os":"Linux","password":true,"vac":true,"version":"7723704","steam_id":85568392924469993,"keywords":["cp","nocrits","nodmgspread","uncletopia"],"game_id":440,"stv_port":27016,"stv_name":"Uncletopia | New York City | 1 | All Maps | STV","players":null},{"server_id":14,"name":"Uncletopia | New York City | 2 | All Maps","name_short":"nyc-2","host":"nyc-1.us.uncletopia.com","port":27025,"enabled":true,"region":"us-east","cc":"us","latitude":40.73061,"longitude":-73.93524,"reserved":0,"last_update":"0001-01-01T00:00:00Z","name_a2s":"Uncletopia | New York City | 2 | All Maps","protocol":17,"map":"koth_lakeside_final","folder":"tf","game":"Team Fortress","app_id":440,"player_count":16,"max_players":24,"Bots":0,"server_type":"Dedicated","server_os":"Linux","password":true,"vac":true,"version":"7723704","steam_id":85568392924469994,"keywords":["cp","nocrits","nodmgspread","uncletopia"],"game_id":440,"stv_port":27026,"stv_name":"Uncletopia | New York City | 2 | All Maps | STV","players":[{"user_id":72,"name":"One-Man Cheeseburger Apocalypse","steam_id":76561198084465676,"connected_time":1383000000000,"state":"active","ping":65},{"user_id":6,"name":"Grundle Thunder","steam_id":76561197960790338,"connected_time":6151000000000,"state":"active","ping":60},{"user_id":64,"name":"xxxDABGODxxx","steam_id":76561199061979040,"connected_time":1531000000000,"state":"active","ping":127},{"user_id":36,"name":"sprunk","steam_id":76561198061768122,"connected_time":4069000000000,"state":"active","ping":73},{"user_id":76,"name":"The Great Mighty Poo","steam_id":76561199158397833,"connected_time":1255000000000,"state":"active","ping":100},{"user_id":17,"name":"2003 chevy malibu","steam_id":76561199075669125,"connected_time":5293000000000,"state":"active","ping":48},{"user_id":18,"name":"Juri Han","steam_id":76561198041678517,"connected_time":5288000000000,"state":"active","ping":128},{"user_id":77,"name":"SpycyNoodles","steam_id":76561198309439750,"connected_time":1200000000000,"state":"active","ping":78},{"user_id":21,"name":"lets do it","steam_id":76561198110314362,"connected_time":5227000000000,"state":"active","ping":71},{"user_id":23,"name":"Iggy!","steam_id":76561198035671259,"connected_time":5223000000000,"state":"active","ping":69},{"user_id":78,"name":"Indica","steam_id":76561197996611634,"connected_time":1193000000000,"state":"active","ping":123},{"user_id":67,"name":"Diamond Jack","steam_id":76561198321304762,"connected_time":1504000000000,"state":"active","ping":43},{"user_id":43,"name":"Lucy Lou!","steam_id":76561198078209088,"connected_time":3872000000000,"state":"active","ping":66},{"user_id":83,"name":"matkaster","steam_id":76561197998546486,"connected_time":717000000000,"state":"active","ping":79},{"user_id":73,"name":"Juno was mad, knew he'd been ha","steam_id":76561198294013916,"connected_time":1373000000000,"state":"active","ping":44},{"user_id":75,"name":"Admiral Misanthrope","steam_id":76561197999529704,"connected_time":1298000000000,"state":"active","ping":113}]},{"server_id":15,"name":"Uncletopia | New York City | 3 | Stopwatch Beta","name_short":"nyc-3","host":"nyc-1.us.uncletopia.com","port":27035,"enabled":true,"region":"us-east","cc":"us","latitude":40.73061,"longitude":-73.93524,"reserved":0,"last_update":"0001-01-01T00:00:00Z","name_a2s":"Uncletopia | New York City | 3 | Stopwatch Beta","protocol":17,"map":"workshop/cp_reckoner_rc6.ugc674719999","folder":"tf","game":"Team Fortress","app_id":440,"player_count":0,"max_players":24,"Bots":0,"server_type":"Dedicated","server_os":"Linux","password":true,"vac":true,"version":"7723704","steam_id":85568392924742820,"keywords":["cp","nocrits","nodmgspread","uncletopia"],"game_id":440,"stv_port":27036,"stv_name":"Uncletopia | New York City | 3 | Stopwatch Beta | STV","players":null},{"server_id":16,"name":"Uncletopia | New York City | 4 | Community","name_short":"nyc-4","host":"nyc-1.us.uncletopia.com","port":27045,"enabled":true,"region":"us-east","cc":"us","latitude":40.73061,"longitude":-73.93524,"reserved":0,"last_update":"0001-01-01T00:00:00Z","name_a2s":"Uncletopia | New York City | 4 | Community","protocol":17,"map":"workshop/pl_eruption_b8c.ugc2865677281","folder":"tf","game":"Team Fortress","app_id":440,"player_count":0,"max_players":24,"Bots":0,"server_type":"Dedicated","server_os":"Linux","password":true,"vac":true,"version":"7723704","steam_id":85568392924742821,"keywords":["nocrits","nodmgspread","payload","uncletopia"],"game_id":440,"stv_port":27046,"stv_name":"Uncletopia | New York City | 4 | Community | STV","players":null},{"server_id":142,"name":"Uncletopia | São Paulo | 1 | All Maps","name_short":"sao-1","host":"sao-1.br.uncletopia.com","port":27015,"enabled":true,"region":"sa","cc":"br","latitude":-23.533773,"longitude":-46.62529,"reserved":0,"last_update":"0001-01-01T00:00:00Z","name_a2s":"Uncletopia | São Paulo | 1 | All Maps","protocol":17,"map":"pl_barnblitz","folder":"tf","game":"Team Fortress","app_id":440,"player_count":0,"max_players":24,"Bots":0,"server_type":"Dedicated","server_os":"Linux","password":true,"vac":true,"version":"7723704","steam_id":85568392924469996,"keywords":["nocrits","nodmgspread","payload","uncletopia"],"game_id":440,"stv_port":27016,"stv_name":"Uncletopia | São Paulo | 1 | All Maps | STV","players":null},{"server_id":143,"name":"Uncletopia | São Paulo | 2 | All Maps","name_short":"sao-2","host":"sao-2.br.uncletopia.com","port":27015,"enabled":true,"region":"sa","cc":"br","latitude":-23.533773,"longitude":-46.62529,"reserved":0,"last_update":"0001-01-01T00:00:00Z","name_a2s":"Uncletopia | São Paulo | 2 | All Maps","protocol":17,"map":"pl_frontier_final","folder":"tf","game":"Team Fortress","app_id":440,"player_count":0,"max_players":24,"Bots":0,"server_type":"Dedicated","server_os":"Linux","password":true,"vac":true,"version":"7723704","steam_id":85568392924485349,"keywords":["nocrits","nodmgspread","payload","uncletopia"],"game_id":440,"stv_port":27016,"stv_name":"Uncletopia | São Paulo | 2 | All Maps | STV","players":null},{"server_id":7,"name":"Uncletopia | Seattle | 1 | All Maps","name_short":"sea-1","host":"sea-1.us.uncletopia.com","port":27015,"enabled":true,"region":"us-west","cc":"us","latitude":47.608013,"longitude":-122.33517,"reserved":0,"last_update":"0001-01-01T00:00:00Z","name_a2s":"Uncletopia | Seattle | 1 | All Maps","protocol":17,"map":"pl_pier","folder":"tf","game":"Team Fortress","app_id":440,"player_count":0,"max_players":24,"Bots":0,"server_type":"Dedicated","server_os":"Linux","password":true,"vac":true,"version":"7723704","steam_id":85568392924469997,"keywords":["nocrits","nodmgspread","payload","uncletopia"],"game_id":440,"stv_port":27016,"stv_name":"Uncletopia | Seattle | 1 | All Maps | STV","players":null},{"server_id":119,"name":"Uncletopia | Seattle | 2 | All Maps","name_short":"sea-2","host":"sea-1.us.uncletopia.com","port":27025,"enabled":true,"region":"us-west","cc":"us","latitude":47.608013,"longitude":-122.33517,"reserved":0,"last_update":"0001-01-01T00:00:00Z","name_a2s":"Uncletopia | Seattle | 2 | All Maps","protocol":17,"map":"pl_borneo","folder":"tf","game":"Team Fortress","app_id":440,"player_count":24,"max_players":24,"Bots":0,"server_type":"Dedicated","server_os":"Linux","password":true,"vac":true,"version":"7723704","steam_id":85568392924469998,"keywords":["nocrits","nodmgspread","payload","uncletopia"],"game_id":440,"stv_port":27026,"stv_name":"Uncletopia | Seattle | 2 | All Maps | STV","players":[{"user_id":3,"name":"rad killl raccoon","steam_id":76561198980975595,"connected_time":6135000000000,"state":"active","ping":60},{"user_id":63,"name":"timmy","steam_id":76561198063322988,"connected_time":2370000000000,"state":"active","ping":45},{"user_id":78,"name":"ted Kaczynski","steam_id":76561199136984385,"connected_time":787000000000,"state":"active","ping":85},{"user_id":64,"name":"digby","steam_id":76561198079927859,"connected_time":2368000000000,"state":"active","ping":46},{"user_id":68,"name":"Boobanator5000","steam_id":76561198393299316,"connected_time":2309000000000,"state":"active","ping":48},{"user_id":75,"name":"sly1","steam_id":76561198049014977,"connected_time":1587000000000,"state":"active","ping":59},{"user_id":56,"name":"Pneumo.","steam_id":76561197987911883,"connected_time":2658000000000,"state":"active","ping":62},{"user_id":77,"name":"pyrotechnic","steam_id":76561198043558709,"connected_time":1019000000000,"state":"active","ping":45},{"user_id":11,"name":"delight","steam_id":76561197980280272,"connected_time":6121000000000,"state":"active","ping":46},{"user_id":50,"name":"rorytherednosedreindeer","steam_id":76561198065825165,"connected_time":3633000000000,"state":"active","ping":75},{"user_id":70,"name":"goldhed","steam_id":76561198051751133,"connected_time":2294000000000,"state":"active","ping":59},{"user_id":80,"name":"oof","steam_id":76561198068031860,"connected_time":375000000000,"state":"active","ping":77},{"user_id":62,"name":"return of gas station buttplug","steam_id":76561198073269122,"connected_time":2378000000000,"state":"active","ping":120},{"user_id":85,"name":"4","steam_id":76561198009121060,"connected_time":129000000000,"state":"active","ping":46},{"user_id":38,"name":"Arsonist Goose","steam_id":76561198147441830,"connected_time":4795000000000,"state":"active","ping":75},{"user_id":81,"name":"gorlab","steam_id":76561198025089694,"connected_time":373000000000,"state":"active","ping":60},{"user_id":21,"name":"Sniff","steam_id":76561198010270922,"connected_time":6063000000000,"state":"active","ping":45},{"user_id":74,"name":"vincy","steam_id":76561198055522158,"connected_time":2104000000000,"state":"active","ping":105},{"user_id":23,"name":"[K.Y.L.L.]Drone #0432 (it)","steam_id":76561198027321950,"connected_time":6045000000000,"state":"active","ping":45},{"user_id":84,"name":"Grill Skills","steam_id":76561198053575147,"connected_time":204000000000,"state":"active","ping":66},{"user_id":55,"name":"Ayayahuasca","steam_id":76561199002906056,"connected_time":3277000000000,"state":"active","ping":46},{"user_id":82,"name":"Ducks","steam_id":76561198130038345,"connected_time":372000000000,"state":"active","ping":61},{"user_id":29,"name":"jorts","steam_id":76561199041179985,"connected_time":5966000000000,"state":"active","ping":61},{"user_id":42,"name":"The Squid Gamer™","steam_id":76561198340621517,"connected_time":4591000000000,"state":"active","ping":103}]},{"server_id":17,"name":"Uncletopia | San Francisco | 1 | All Maps","name_short":"sfo-1","host":"sfo-1.us.uncletopia.com","port":27015,"enabled":true,"region":"us-west","cc":"us","latitude":37.77397,"longitude":-122.4313,"reserved":0,"last_update":"0001-01-01T00:00:00Z","name_a2s":"Uncletopia | San Francisco | 1 | All Maps","protocol":17,"map":"pl_upward","folder":"tf","game":"Team Fortress","app_id":440,"player_count":24,"max_players":24,"Bots":0,"server_type":"Dedicated","server_os":"Linux","password":true,"vac":true,"version":"7723704","steam_id":85568392924469999,"keywords":["nocrits","nodmgspread","payload","uncletopia"],"game_id":440,"stv_port":27016,"stv_name":"Uncletopia | San Francisco | 1 | All Maps | STV","players":[{"user_id":79,"name":"chicken salad","steam_id":76561198831172374,"connected_time":1447000000000,"state":"active","ping":144},{"user_id":93,"name":"snooopay","steam_id":76561198132873984,"connected_time":89000000000,"state":"active","ping":206},{"user_id":9,"name":"Frongus","steam_id":76561197979056451,"connected_time":6163000000000,"state":"active","ping":64},{"user_id":7,"name":"lol","steam_id":76561198026491738,"connected_time":6177000000000,"state":"active","ping":59},{"user_id":92,"name":"plutonium isotope","steam_id":76561198319442494,"connected_time":400000000000,"state":"active","ping":58},{"user_id":84,"name":"dealer","steam_id":76561197961095970,"connected_time":889000000000,"state":"active","ping":132},{"user_id":68,"name":"pasta","steam_id":76561198069094862,"connected_time":1816000000000,"state":"active","ping":68},{"user_id":64,"name":"A Man Named Pancho","steam_id":76561197984895522,"connected_time":2032000000000,"state":"active","ping":52},{"user_id":53,"name":"self sufficient kitten","steam_id":76561197960592612,"connected_time":3274000000000,"state":"active","ping":63},{"user_id":81,"name":"Dwayne \"The Crack Rock\" Johnson","steam_id":76561198073699764,"connected_time":1370000000000,"state":"active","ping":44},{"user_id":59,"name":"yockurt","steam_id":76561199006950127,"connected_time":2286000000000,"state":"active","ping":55},{"user_id":67,"name":"Khallaria","steam_id":76561198000706490,"connected_time":1916000000000,"state":"active","ping":92},{"user_id":83,"name":"Morflez","steam_id":76561198338880051,"connected_time":1153000000000,"state":"active","ping":74},{"user_id":85,"name":"JDizzle","steam_id":76561199122696841,"connected_time":881000000000,"state":"active","ping":56},{"user_id":72,"name":"butt3r_","steam_id":76561198156374792,"connected_time":1669000000000,"state":"active","ping":66},{"user_id":86,"name":"TransWomanGaming","steam_id":76561198809645656,"connected_time":867000000000,"state":"active","ping":95},{"user_id":73,"name":"laggy mcstab","steam_id":76561198106379962,"connected_time":1669000000000,"state":"active","ping":72},{"user_id":80,"name":"Dullahan","steam_id":76561198119668908,"connected_time":1420000000000,"state":"active","ping":48},{"user_id":75,"name":"panda","steam_id":76561198025214612,"connected_time":1646000000000,"state":"active","ping":68},{"user_id":89,"name":"սցհ","steam_id":76561198223986956,"connected_time":782000000000,"state":"active","ping":70},{"user_id":77,"name":"Sivinus","steam_id":76561198025589541,"connected_time":1591000000000,"state":"active","ping":64},{"user_id":88,"name":"Mr Majesticals","steam_id":76561198015242706,"connected_time":860000000000,"state":"active","ping":57},{"user_id":90,"name":"wife haver","steam_id":76561198248170354,"connected_time":730000000000,"state":"active","ping":82},{"user_id":95,"name":"FestiveAnarchist","steam_id":76561199116042550,"connected_time":36000000000,"state":"spawning","ping":129}]},{"server_id":18,"name":"Uncletopia | San Francisco | 2 | All Maps","name_short":"sfo-2","host":"sfo-1.us.uncletopia.com","port":27025,"enabled":true,"region":"us-west","cc":"us","latitude":37.77397,"longitude":-122.4313,"reserved":0,"last_update":"0001-01-01T00:00:00Z","name_a2s":"Uncletopia | San Francisco | 2 | All Maps","protocol":17,"map":"pl_barnblitz","folder":"tf","game":"Team Fortress","app_id":440,"player_count":24,"max_players":24,"Bots":0,"server_type":"Dedicated","server_os":"Linux","password":true,"vac":true,"version":"7723704","steam_id":85568392924470000,"keywords":["nocrits","nodmgspread","payload","uncletopia"],"game_id":440,"stv_port":27026,"stv_name":"Uncletopia | San Francisco | 2 | All Maps | STV","players":[{"user_id":46,"name":"lukamine","steam_id":76561198166827208,"connected_time":4549000000000,"state":"active","ping":74},{"user_id":12,"name":"FCKGW-RHQQ2-YXRKT-8TG6W-2B7Q8","steam_id":76561197993138592,"connected_time":5473000000000,"state":"active","ping":53},{"user_id":86,"name":"Morbius","steam_id":76561198387984694,"connected_time":996000000000,"state":"active","ping":79},{"user_id":87,"name":"Zelumie","steam_id":76561198147335801,"connected_time":957000000000,"state":"active","ping":107},{"user_id":14,"name":"lili.winters","steam_id":76561199391478575,"connected_time":5399000000000,"state":"active","ping":79},{"user_id":74,"name":"SmallErection","steam_id":76561198071770147,"connected_time":2805000000000,"state":"active","ping":75},{"user_id":17,"name":"Raven","steam_id":76561198393887732,"connected_time":5173000000000,"state":"active","ping":91},{"user_id":59,"name":"Seriously Bruh","steam_id":76561198070408485,"connected_time":3698000000000,"state":"active","ping":75},{"user_id":88,"name":"Chilihohoho","steam_id":76561198004929152,"connected_time":850000000000,"state":"active","ping":60},{"user_id":79,"name":"Krow Lyngin (she/her)","steam_id":76561198085410622,"connected_time":2539000000000,"state":"active","ping":82},{"user_id":89,"name":"Dosario","steam_id":76561198298095535,"connected_time":847000000000,"state":"active","ping":73},{"user_id":80,"name":"Juicebox boi","steam_id":76561198081649681,"connected_time":2373000000000,"state":"active","ping":61},{"user_id":90,"name":"dyke","steam_id":76561198079111954,"connected_time":828000000000,"state":"active","ping":75},{"user_id":82,"name":"Soviet Potato","steam_id":76561198068546113,"connected_time":2045000000000,"state":"active","ping":45},{"user_id":91,"name":"Kiamix","steam_id":76561198065070117,"connected_time":744000000000,"state":"active","ping":78},{"user_id":92,"name":"Nez","steam_id":76561197963109059,"connected_time":737000000000,"state":"active","ping":68},{"user_id":94,"name":"Rugar","steam_id":76561198200450623,"connected_time":690000000000,"state":"active","ping":44},{"user_id":85,"name":"keffers | Chrimbus Time","steam_id":76561198202338796,"connected_time":1445000000000,"state":"active","ping":103},{"user_id":83,"name":"SpinnerSpecial","steam_id":76561198065661869,"connected_time":1934000000000,"state":"active","ping":114},{"user_id":34,"name":"jc5000","steam_id":76561198052825211,"connected_time":4873000000000,"state":"active","ping":59},{"user_id":81,"name":"Phillip Jeffries","steam_id":76561198064052174,"connected_time":2273000000000,"state":"active","ping":118},{"user_id":77,"name":"Lore","steam_id":76561198098407538,"connected_time":2607000000000,"state":"active","ping":105},{"user_id":84,"name":"Majestic-A","steam_id":76561198988062101,"connected_time":1880000000000,"state":"active","ping":70},{"user_id":68,"name":"Jousty","steam_id":76561199162677853,"connected_time":3370000000000,"state":"active","ping":126}]},{"server_id":19,"name":"Uncletopia | San Francisco | 3 | Stopwatch Beta","name_short":"sfo-3","host":"sfo-1.us.uncletopia.com","port":27035,"enabled":true,"region":"us-west","cc":"us","latitude":37.77397,"longitude":-122.4313,"reserved":0,"last_update":"0001-01-01T00:00:00Z","name_a2s":"Uncletopia | San Francisco | 3 | Stopwatch Beta","protocol":17,"map":"cp_gullywash_final1","folder":"tf","game":"Team Fortress","app_id":440,"player_count":2,"max_players":24,"Bots":0,"server_type":"Dedicated","server_os":"Linux","password":true,"vac":true,"version":"7723704","steam_id":85568392924742824,"keywords":["cp","nocrits","nodmgspread","uncletopia"],"game_id":440,"stv_port":27036,"stv_name":"Uncletopia | San Francisco | 3 | Stopwatch Beta | STV","players":[{"user_id":3,"name":"Blake","steam_id":76561198884871311,"connected_time":4588000000000,"state":"active","ping":65},{"user_id":4,"name":"NotAToaster","steam_id":76561198349938357,"connected_time":4526000000000,"state":"active","ping":96}]},{"server_id":20,"name":"Uncletopia | San Francisco | 4 | Community","name_short":"sfo-4","host":"sfo-1.us.uncletopia.com","port":27045,"enabled":true,"region":"us-west","cc":"us","latitude":37.77397,"longitude":-122.4313,"reserved":0,"last_update":"0001-01-01T00:00:00Z","name_a2s":"Uncletopia | San Francisco | 4 | Community","protocol":17,"map":"koth_cascade","folder":"tf","game":"Team Fortress","app_id":440,"player_count":0,"max_players":24,"Bots":0,"server_type":"Dedicated","server_os":"Linux","password":true,"vac":true,"version":"7723704","steam_id":85568392924742826,"keywords":["cp","nocrits","nodmgspread","uncletopia"],"game_id":440,"stv_port":27046,"stv_name":"Uncletopia | San Francisco | 4 | Community | STV","players":null},{"server_id":141,"name":"Uncletopia | Sydney | 1 | All Maps","name_short":"syd-1","host":"syd-1.au.uncletopia.com","port":27015,"enabled":true,"region":"au","cc":"au","latitude":-33.865143,"longitude":151.2099,"reserved":0,"last_update":"0001-01-01T00:00:00Z","name_a2s":"Uncletopia | Sydney | 1 | All Maps","protocol":17,"map":"cp_dustbowl","folder":"tf","game":"Team Fortress","app_id":440,"player_count":0,"max_players":24,"Bots":0,"server_type":"Dedicated","server_os":"Linux","password":true,"vac":true,"version":"7723704","steam_id":85568392924470001,"keywords":["cp","nocrits","nodmgspread","uncletopia"],"game_id":440,"stv_port":27016,"stv_name":"Uncletopia | Sydney | 1 | All Maps | STV","players":null},{"server_id":123,"name":"Uncletopia | Sydney | 2 | All Maps","name_short":"syd-2","host":"syd-1.au.uncletopia.com","port":27025,"enabled":true,"region":"au","cc":"au","latitude":-33.865143,"longitude":151.2099,"reserved":0,"last_update":"0001-01-01T00:00:00Z","name_a2s":"Uncletopia | Sydney | 2 | All Maps","protocol":17,"map":"cp_mountainlab","folder":"tf","game":"Team Fortress","app_id":440,"player_count":19,"max_players":24,"Bots":0,"server_type":"Dedicated","server_os":"Linux","password":true,"vac":true,"version":"7723704","steam_id":85568392924470002,"keywords":["cp","nocrits","nodmgspread","uncletopia"],"game_id":440,"stv_port":27026,"stv_name":"Uncletopia | Sydney | 2 | All Maps | STV","players":[{"user_id":3,"name":"BobTheHuminoid","steam_id":76561199241312725,"connected_time":1112000000000,"state":"active","ping":85},{"user_id":4,"name":"Scout","steam_id":76561198322807454,"connected_time":1110000000000,"state":"active","ping":94},{"user_id":5,"name":"Kuneho","steam_id":76561198215306437,"connected_time":1101000000000,"state":"active","ping":67},{"user_id":6,"name":"TW_light2022","steam_id":76561199393566784,"connected_time":798000000000,"state":"active","ping":64},{"user_id":28,"name":"Gonzo","steam_id":76561198202095541,"connected_time":3000000000,"state":"spawning","ping":245},{"user_id":8,"name":"IamDinosaur","steam_id":76561198081540507,"connected_time":627000000000,"state":"active","ping":65},{"user_id":18,"name":"ziah","steam_id":76561198159375596,"connected_time":288000000000,"state":"active","ping":56},{"user_id":26,"name":"Cellar_Dweller","steam_id":76561199021048193,"connected_time":103000000000,"state":"active","ping":100},{"user_id":11,"name":"Granola-rama","steam_id":76561198059129270,"connected_time":557000000000,"state":"active","ping":56},{"user_id":12,"name":"Totally a real lvl 3 sentry","steam_id":76561198979802944,"connected_time":546000000000,"state":"active","ping":158},{"user_id":13,"name":"FrOStY","steam_id":76561198088155805,"connected_time":468000000000,"state":"active","ping":78},{"user_id":14,"name":"PsychoTy","steam_id":76561198806631730,"connected_time":444000000000,"state":"active","ping":57},{"user_id":20,"name":"Cyro","steam_id":76561198115325995,"connected_time":200000000000,"state":"active","ping":98},{"user_id":21,"name":"Kelly-Sama","steam_id":76561198097638698,"connected_time":194000000000,"state":"active","ping":90},{"user_id":22,"name":"Bobbyjobsocks","steam_id":76561198299024682,"connected_time":184000000000,"state":"active","ping":107},{"user_id":23,"name":"Javier","steam_id":76561198795551290,"connected_time":164000000000,"state":"active","ping":89},{"user_id":24,"name":"Bonald","steam_id":76561198261041295,"connected_time":148000000000,"state":"active","ping":104},{"user_id":25,"name":"Cyan","steam_id":76561199123867057,"connected_time":132000000000,"state":"active","ping":47},{"user_id":27,"name":"clout","steam_id":76561198073310502,"connected_time":83000000000,"state":"active","ping":74}]},{"server_id":395,"name":"Uncletopia | Sydney | 3 | All Maps","name_short":"syd-3","host":"syd-1.au.uncletopia.com","port":27035,"enabled":true,"region":"au","cc":"au","latitude":-33.865143,"longitude":151.2099,"reserved":0,"last_update":"0001-01-01T00:00:00Z","name_a2s":"Uncletopia | Sydney | 3 | All Maps","protocol":17,"map":"pl_borneo","folder":"tf","game":"Team Fortress","app_id":440,"player_count":0,"max_players":24,"Bots":0,"server_type":"Dedicated","server_os":"Linux","password":true,"vac":true,"version":"7723704","steam_id":85568392925194467,"keywords":["nocrits","nodmgspread","payload","uncletopia"],"game_id":440,"stv_port":27036,"stv_name":"Uncletopia | Sydney | 3 | All Maps | STV","players":null},{"server_id":396,"name":"Uncletopia | Sydney | 4 | All Maps","name_short":"syd-4","host":"syd-1.au.uncletopia.com","port":27045,"enabled":true,"region":"au","cc":"au","latitude":-33.865143,"longitude":151.2099,"reserved":0,"last_update":"0001-01-01T00:00:00Z","name_a2s":"Uncletopia | Sydney | 4 | All Maps","protocol":17,"map":"pl_pier","folder":"tf","game":"Team Fortress","app_id":440,"player_count":0,"max_players":24,"Bots":0,"server_type":"Dedicated","server_os":"Linux","password":true,"vac":true,"version":"7723704","steam_id":85568392925397958,"keywords":["nocrits","nodmgspread","payload","uncletopia"],"game_id":440,"stv_port":27046,"stv_name":"Uncletopia | Sydney | 4 | All Maps | STV","players":null},{"server_id":58,"name":"Uncletopia | Sydney | 5 | Stopwatch Beta","name_short":"syd-5","host":"syd-1.au.uncletopia.com","port":27055,"enabled":true,"region":"au","cc":"au","latitude":-33.865143,"longitude":151.2099,"reserved":0,"last_update":"0001-01-01T00:00:00Z","name_a2s":"Uncletopia | Sydney | 5 | Stopwatch Beta","protocol":17,"map":"cp_altitude","folder":"tf","game":"Team Fortress","app_id":440,"player_count":0,"max_players":24,"Bots":0,"server_type":"Dedicated","server_os":"Linux","password":true,"vac":true,"version":"7723704","steam_id":85568392925397959,"keywords":["cp","nocrits","nodmgspread","uncletopia"],"game_id":440,"stv_port":27056,"stv_name":"Uncletopia | Sydney | 5 | Stopwatch Beta | STV","players":null},{"server_id":59,"name":"Uncletopia | Sydney | 6 | Community","name_short":"syd-6","host":"syd-1.au.uncletopia.com","port":27065,"enabled":true,"region":"au","cc":"au","latitude":-33.865143,"longitude":151.2099,"reserved":0,"last_update":"0001-01-01T00:00:00Z","name_a2s":"Uncletopia | Sydney | 6 | Community","protocol":17,"map":"pl_frontier_final","folder":"tf","game":"Team Fortress","app_id":440,"player_count":0,"max_players":24,"Bots":0,"server_type":"Dedicated","server_os":"Linux","password":true,"vac":true,"version":"7723704","steam_id":85568392925397960,"keywords":["nocrits","nodmgspread","payload","uncletopia"],"game_id":440,"stv_port":27066,"stv_name":"Uncletopia | Sydney | 6 | Community | STV","players":null},{"server_id":49,"name":"Uncletopia | Warsaw | 1 | All Maps","name_short":"waw-1","host":"waw-1.pl.uncletopia.com","port":27015,"enabled":true,"region":"eu","cc":"pl","latitude":52.2297,"longitude":21.017532,"reserved":0,"last_update":"0001-01-01T00:00:00Z","name_a2s":"Uncletopia | Warsaw | 1 | All Maps","protocol":17,"map":"cp_snakewater_final1","folder":"tf","game":"Team Fortress","app_id":440,"player_count":0,"max_players":24,"Bots":0,"server_type":"Dedicated","server_os":"Linux","password":true,"vac":true,"version":"7723704","steam_id":85568392925397850,"keywords":["cp","nocrits","nodmgspread","uncletopia"],"game_id":440,"stv_port":27016,"stv_name":"Uncletopia | Warsaw | 1 | All Maps | STV","players":null},{"server_id":50,"name":"Uncletopia | Warsaw | 2 | All Maps","name_short":"waw-2","host":"waw-1.pl.uncletopia.com","port":27025,"enabled":true,"region":"eu","cc":"pl","latitude":52.2297,"longitude":21.017532,"reserved":0,"last_update":"0001-01-01T00:00:00Z","name_a2s":"Uncletopia | Warsaw | 2 | All Maps","protocol":17,"map":"pl_barnblitz","folder":"tf","game":"Team Fortress","app_id":440,"player_count":0,"max_players":24,"Bots":0,"server_type":"Dedicated","server_os":"Linux","password":true,"vac":true,"version":"7723704","steam_id":85568392925397851,"keywords":["nocrits","nodmgspread","payload","uncletopia"],"game_id":440,"stv_port":27026,"stv_name":"Uncletopia | Warsaw | 2 | All Maps | STV","players":null},{"server_id":51,"name":"Uncletopia | Warsaw | 3 | All Maps","name_short":"waw-3","host":"waw-1.pl.uncletopia.com","port":27035,"enabled":true,"region":"eu","cc":"pl","latitude":52.2297,"longitude":21.017532,"reserved":0,"last_update":"0001-01-01T00:00:00Z","name_a2s":"Uncletopia | Warsaw | 3 | All Maps","protocol":17,"map":"pl_barnblitz","folder":"tf","game":"Team Fortress","app_id":440,"player_count":0,"max_players":24,"Bots":0,"server_type":"Dedicated","server_os":"Linux","password":true,"vac":true,"version":"7723704","steam_id":85568392925397852,"keywords":["nocrits","nodmgspread","payload","uncletopia"],"game_id":440,"stv_port":27036,"stv_name":"Uncletopia | Warsaw | 3 | All Maps | STV","players":null},{"server_id":52,"name":"Uncletopia | Warsaw | 4 | All Maps","name_short":"waw-4","host":"waw-1.pl.uncletopia.com","port":27045,"enabled":true,"region":"eu","cc":"pl","latitude":52.2297,"longitude":21.017532,"reserved":0,"last_update":"0001-01-01T00:00:00Z","name_a2s":"Uncletopia | Warsaw | 4 | All Maps","protocol":17,"map":"pl_upward","folder":"tf","game":"Team Fortress","app_id":440,"player_count":0,"max_players":24,"Bots":0,"server_type":"Dedicated","server_os":"Linux","password":true,"vac":true,"version":"7723704","steam_id":85568392925397853,"keywords":["nocrits","nodmgspread","payload","uncletopia"],"game_id":440,"stv_port":27046,"stv_name":"Uncletopia | Warsaw | 4 | All Maps | STV","players":null},{"server_id":53,"name":"Uncletopia | Warsaw | 5 | Stopwatch Beta","name_short":"waw-5","host":"waw-1.pl.uncletopia.com","port":27055,"enabled":true,"region":"eu","cc":"pl","latitude":52.2297,"longitude":21.017532,"reserved":0,"last_update":"0001-01-01T00:00:00Z","name_a2s":"Uncletopia | Warsaw | 5 | Stopwatch Beta","protocol":17,"map":"cp_sunshine","folder":"tf","game":"Team Fortress","app_id":440,"player_count":0,"max_players":24,"Bots":0,"server_type":"Dedicated","server_os":"Linux","password":true,"vac":true,"version":"7723704","steam_id":85568392925397854,"keywords":["cp","nocrits","nodmgspread","uncletopia"],"game_id":440,"stv_port":27056,"stv_name":"Uncletopia | Warsaw | 5 | Stopwatch Beta | STV","players":null},{"server_id":54,"name":"Uncletopia | Warsaw | 6 | Community","name_short":"waw-6","host":"waw-1.pl.uncletopia.com","port":27065,"enabled":true,"region":"eu","cc":"pl","latitude":52.2297,"longitude":21.017532,"reserved":0,"last_update":"0001-01-01T00:00:00Z","name_a2s":"Uncletopia | Warsaw | 6 | Community","protocol":17,"map":"pl_snowycoast","folder":"tf","game":"Team Fortress","app_id":440,"player_count":0,"max_players":24,"Bots":0,"server_type":"Dedicated","server_os":"Linux","password":true,"vac":true,"version":"7723704","steam_id":85568392925397856,"keywords":["nocrits","nodmgspread","payload","uncletopia"],"game_id":440,"stv_port":27066,"stv_name":"Uncletopia | Warsaw | 6 | Community | STV","players":null}]}