{"status":true,"message":"","result":[{"server_id":9,"name":"Uncletopia | Atlanta | 1 | All Maps","name_short":"atl-1","host":"atl-1.us.uncletopia.com","port":27015,"enabled":true,"region":"us-east","cc":"us","latitude":33.753746,"longitude":-84.38633,"reserved":0,"last_update":"0001-01-01T00:00:00Z","name_a2s":"Uncletopia | Atlanta | 1 | All Maps","protocol":17,"map":"cp_sunshine","folder":"tf","game":"Team Fortress","app_id":440,"player_count":24,"max_players":24,"Bots":0,"server_type":"Dedicated","server_os":"Linux","password":true,"vac":true,"version":"7757534","steam_id":85568392924469982,"keywords":["cp","nocrits","nodmgspread","uncletopia"],"game_id":440,"stv_port":27016,"stv_name":"Uncletopia | Atlanta | 1 | All Maps | STV","players":[{"user_id":956,"name":"Ixcarsis","steam_id":76561198880674783,"connected_time":4423000000000,"state":"active","ping":53},{"user_id":986,"name":"Home Depot","steam_id":76561198354971054,"connected_time":2547000000000,"state":"active","ping":36},{"user_id":953,"name":"Silent Midnight","steam_id":76561198093234997,"connected_time":4461000000000,"state":"active","ping":78},{"user_id":1004,"name":"ATL2 | S4tisfactoree","steam_id":76561198088337557,"connected_time":594000000000,"state":"active","ping":58},{"user_id":987,"name":"Sm0ky","steam_id":76561198418262145,"connected_time":2525000000000,"state":"active","ping":111},{"user_id":978,"name":"Furious George","steam_id":76561198405111646,"connected_time":3227000000000,"state":"active","ping":101},{"user_id":1001,"name":"The Builder","steam_id":76561198093432863,"connected_time":663000000000,"state":"active","ping":72},{"user_id":995,"name":"max poop retention","steam_id":76561199050461421,"connected_time":1721000000000,"state":"active","ping":126},{"user_id":980,"name":"The Absolute Rarest","steam_id":76561198029737032,"connected_time":3008000000000,"state":"active","ping":93},{"user_id":988,"name":"B/S/SuperBoofOG","steam_id":76561197992030936,"connected_time":2524000000000,"state":"active","ping":60},{"user_id":996,"name":"あなたのミーマウを耕\ufffd","steam_id":76561198017114970,"connected_time":1704000000000,"state":"active","ping":129},{"user_id":994,"name":"ATL1 | on my hunting trip","steam_id":76561198315341646,"connected_time":1764000000000,"state":"active","ping":73},{"user_id":977,"name":"The jesus guy (FRNK)","steam_id":76561198237997622,"connected_time":3344000000000,"state":"active","ping":169},{"user_id":997,"name":"Alexhcgarヅ","steam_id":76561198085706389,"connected_time":1704000000000,"state":"active","ping":78},{"user_id":1008,"name":"for the king","steam_id":76561197973488858,"connected_time":462000000000,"state":"active","ping":58},{"user_id":525,"name":"lker","steam_id":76561197976975075,"connected_time":7615000000000,"state":"active","ping":44},{"user_id":1006,"name":"pablo","steam_id":76561198395577807,"connected_time":556000000000,"state":"active","ping":52},{"user_id":968,"name":"hatchetax","steam_id":76561199013337543,"connected_time":3941000000000,"state":"active","ping":47},{"user_id":458,"name":"Onyx","steam_id":76561198275349640,"connected_time":16378000000000,"state":"active","ping":74},{"user_id":992,"name":"I can't heal","steam_id":76561198039763676,"connected_time":2278000000000,"state":"active","ping":58},{"user_id":991,"name":"Persona404","steam_id":76561198109635077,"connected_time":2344000000000,"state":"active","ping":64},{"user_id":1009,"name":"Minininjin","steam_id":76561198231288168,"connected_time":212000000000,"state":"active","ping":59},{"user_id":983,"name":"『YARE』","steam_id":76561198158421145,"connected_time":2619000000000,"state":"active","ping":61},{"user_id":993,"name":"Broken Cereal√","steam_id":76561198087489795,"connected_time":1937000000000,"state":"active","ping":67}]},{"server_id":400,"name":"Uncletopia | Atlanta | 3 | Community","name_short":"atl-3","host":"atl-1.us.uncletopia.com","port":27035,"enabled":true,"region":"us-east","cc":"us","latitude":33.753746,"longitude":-84.38633,"reserved":0,"last_update":"0001-01-01T00:00:00Z","name_a2s":"Uncletopia | Atlanta | 3 | Community","protocol":17,"map":"workshop/koth_ramjam_rc1.ugc459778887","folder":"tf","game":"Team Fortress","app_id":440,"player_count":0,"max_players":24,"Bots":0,"server_type":"Dedicated","server_os":"Linux","password":true,"vac":true,"version":"7757534","steam_id":85568392924515187,"keywords":["cp","nocrits","nodmgspread","uncletopia"],"game_id":440,"stv_port":27036,"stv_name":"Uncletopia | Atlanta | 3 | Community | STV","players":null},{"server_id":401,"name":"Uncletopia | Atlanta | 4 | No Payload","name_short":"atl-4","host":"atl-1.us.uncletopia.com","port":27045,"enabled":true,"region":"us-east","cc":"us","latitude":33.753746,"longitude":-84.38633,"reserved":0,"last_update":"0001-01-01T00:00:00Z","name_a2s":"","protocol":0,"map":"","folder":"","game":"","app_id":0,"player_count":0,"max_players":0,"Bots":0,"server_type":"","server_os":"","password":false,"vac":false,"version":"","steam_id":0,"keywords":null,"game_id":0,"stv_port":0,"stv_name":"","players":null},{"server_id":2,"name":"Uncletopia | Chicago | 1 | All Maps","name_short":"chi-1","host":"chi-1.us.uncletopia.com","port":27015,"enabled":true,"region":"us-central","cc":"us","latitude":41.881832,"longitude":-87.62318,"reserved":0,"last_update":"0001-01-01T00:00:00Z","name_a2s":"Uncletopia | Chicago | 1 | All Maps","protocol":17,"map":"cp_dustbowl","folder":"tf","game":"Team Fortress","app_id":440,"player_count":24,"max_players":24,"Bots":0,"server_type":"Dedicated","server_os":"Linux","password":true,"vac":true,"version":"7757534","steam_id":85568392924469984,"keywords":["cp","nocrits","nodmgspread","uncletopia"],"game_id":440,"stv_port":27016,"stv_name":"Uncletopia | Chicago | 1 | All Maps | STV","players":[{"user_id":937,"name":"wolsne","steam_id":76561197960315263,"connected_time":644000000000,"state":"active","ping":75},{"user_id":909,"name":"Tommy Provolone","steam_id":76561198170062377,"connected_time":2819000000000,"state":"active","ping":70},{"user_id":932,"name":"TeruoTurtle","steam_id":76561198940925397,"connected_time":1272000000000,"state":"active","ping":109},{"user_id":934,"name":"Rex The Mouse","steam_id":76561197995569428,"connected_time":1184000000000,"state":"active","ping":69},{"user_id":939,"name":"Spring Beans","steam_id":76561197978546259,"connected_time":9000000000,"state":"active","ping":69},{"user_id":911,"name":"GORDON_OFFICIAL","steam_id":76561197967562495,"connected_time":2673000000000,"state":"active","ping":108},{"user_id":907,"name":"Ganondork","steam_id":76561198114972080,"connected_time":2876000000000,"state":"active","ping":70},{"user_id":908,"name":"Luke","steam_id":76561198072441047,"connected_time":2863000000000,"state":"active","ping":96},{"user_id":912,"name":"Timon's high on crack cocaine!","steam_id":76561198180396430,"connected_time":2660000000000,"state":"active","ping":95},{"user_id":913,"name":"AdmiralMiniBar","steam_id":76561198002871140,"connected_time":2659000000000,"state":"active","ping":106},{"user_id":915,"name":"Joey :)","steam_id":76561197977131782,"connected_time":2449000000000,"state":"active","ping":113},{"user_id":916,"name":"Glass Joe","steam_id":76561198317365741,"connected_time":2442000000000,"state":"active","ping":59},{"user_id":927,"name":"Ryuujin","steam_id":76561198000897946,"connected_time":2147000000000,"state":"active","ping":121},{"user_id":879,"name":"phil on boots","steam_id":76561198069668107,"connected_time":5111000000000,"state":"active","ping":123},{"user_id":918,"name":"The Deders","steam_id":76561198002639950,"connected_time":2308000000000,"state":"active","ping":70},{"user_id":938,"name":"mel","steam_id":76561198215559840,"connected_time":478000000000,"state":"active","ping":65},{"user_id":935,"name":"Hawf","steam_id":76561197998364880,"connected_time":1002000000000,"state":"active","ping":84},{"user_id":921,"name":"Ｔ ｅ ｒ ｒ ｏ ｒ ！","steam_id":76561198829853789,"connected_time":2289000000000,"state":"active","ping":82},{"user_id":922,"name":"ovenfresh01","steam_id":76561199086062124,"connected_time":2276000000000,"state":"active","ping":77},{"user_id":926,"name":"Bobbycoolpop","steam_id":76561198186392674,"connected_time":2202000000000,"state":"active","ping":79},{"user_id":924,"name":"Titar Industries","steam_id":76561198143078476,"connected_time":2260000000000,"state":"active","ping":67},{"user_id":820,"name":"Phil Collins","steam_id":76561198068868644,"connected_time":10278000000000,"state":"active","ping":106},{"user_id":835,"name":"Ademar","steam_id":76561199391802581,"connected_time":8819000000000,"state":"active","ping":56},{"user_id":851,"name":"deadpixel","steam_id":76561198150249843,"connected_time":7650000000000,"state":"active","ping":46}]},{"server_id":106,"name":"Uncletopia | Chicago | 2 | All Maps","name_short":"chi-2","host":"chi-1.us.uncletopia.com","port":27025,"enabled":true,"region":"us-central","cc":"us","latitude":41.881832,"longitude":-87.62318,"reserved":0,"last_update":"0001-01-01T00:00:00Z","name_a2s":"Uncletopia | Chicago | 2 | All Maps","protocol":17,"map":"cp_steel","folder":"tf","game":"Team Fortress","app_id":440,"player_count":16,"max_players":24,"Bots":0,"server_type":"Dedicated","server_os":"Linux","password":true,"vac":true,"version":"7757534","steam_id":85568392924469985,"keywords":["cp","nocrits","nodmgspread","uncletopia"],"game_id":440,"stv_port":27026,"stv_name":"Uncletopia | Chicago | 2 | All Maps | STV","players":[{"user_id":1789,"name":"Chaffy2125","steam_id":76561198232839260,"connected_time":2434000000000,"state":"active","ping":140},{"user_id":1817,"name":"Gen3tics","steam_id":76561198025520151,"connected_time":111000000000,"state":"active","ping":103},{"user_id":1799,"name":"WatchfulDragon","steam_id":76561198149051958,"connected_time":1605000000000,"state":"active","ping":53},{"user_id":1788,"name":"Ghostmeal","steam_id":76561198042380299,"connected_time":2510000000000,"state":"active","ping":68},{"user_id":1804,"name":"The Juice","steam_id":76561198065307144,"connected_time":1429000000000,"state":"active","ping":74},{"user_id":1800,"name":"The_Iguana_Lord","steam_id":76561198996181850,"connected_time":1602000000000,"state":"active","ping":55},{"user_id":1805,"name":"WAKEUP!","steam_id":76561198254479725,"connected_time":1408000000000,"state":"active","ping":43},{"user_id":1753,"name":"ribbonborn","steam_id":76561198001195423,"connected_time":4166000000000,"state":"active","ping":76},{"user_id":1784,"name":"the1silentninja","steam_id":76561198387601885,"connected_time":3074000000000,"state":"active","ping":108},{"user_id":1757,"name":"RagingRoosevelt","steam_id":76561197985483153,"connected_time":4062000000000,"state":"active","ping":94},{"user_id":1791,"name":"JimboSlice","steam_id":76561199225336634,"connected_time":2392000000000,"state":"active","ping":70},{"user_id":1806,"name":"Mush","steam_id":76561198393461065,"connected_time":1388000000000,"state":"active","ping":80},{"user_id":1807,"name":"Anderred","steam_id":76561198149983847,"connected_time":1382000000000,"state":"active","ping":81},{"user_id":1771,"name":"Westlyroots","steam_id":76561198170431198,"connected_time":3666000000000,"state":"active","ping":49},{"user_id":1794,"name":"The Foolish Samurai","steam_id":76561198094494945,"connected_time":2147000000000,"state":"active","ping":116},{"user_id":1795,"name":"Brendan","steam_id":76561198041079914,"connected_time":2099000000000,"state":"active","ping":65}]},{"server_id":402,"name":"Uncletopia | Chicago | 3 | All Maps","name_short":"chi-3","host":"chi-1.us.uncletopia.com","port":27035,"enabled":true,"region":"us-central","cc":"us","latitude":41.881832,"longitude":-87.62318,"reserved":0,"last_update":"0001-01-01T00:00:00Z","name_a2s":"Uncletopia | Chicago | 3 | All Maps","protocol":17,"map":"cp_mountainlab","folder":"tf","game":"Team Fortress","app_id":440,"player_count":23,"max_players":24,"Bots":0,"server_type":"Dedicated","server_os":"Linux","password":true,"vac":true,"version":"7757534","steam_id":85568392924515191,"keywords":["cp","nocrits","nodmgspread","uncletopia"],"game_id":440,"stv_port":27036,"stv_name":"Uncletopia | Chicago | 3 | All Maps | STV","players":[{"user_id":461,"name":"NormalUser","steam_id":76561199025374371,"connected_time":607000000000,"state":"active","ping":171},{"user_id":443,"name":"Mogwr","steam_id":76561198124942972,"connected_time":1554000000000,"state":"active","ping":79},{"user_id":418,"name":"Skeleton Hotel","steam_id":76561198041704727,"connected_time":3107000000000,"state":"active","ping":53},{"user_id":462,"name":"CreativeUsername","steam_id":76561198186045503,"connected_time":597000000000,"state":"active","ping":50},{"user_id":463,"name":"Susiety","steam_id":76561198182294378,"connected_time":592000000000,"state":"active","ping":121},{"user_id":452,"name":"PizzaMozzarella","steam_id":76561198131537047,"connected_time":838000000000,"state":"active","ping":68},{"user_id":470,"name":"evan_is_sauce","steam_id":76561199086802383,"connected_time":269000000000,"state":"active","ping":92},{"user_id":458,"name":"Cliff Burton","steam_id":76561198116832190,"connected_time":782000000000,"state":"active","ping":70},{"user_id":421,"name":"THEDINKY","steam_id":76561198190077399,"connected_time":2897000000000,"state":"active","ping":72},{"user_id":423,"name":"Superman123389","steam_id":76561198267472539,"connected_time":2680000000000,"state":"active","ping":90},{"user_id":434,"name":"totally not a pile of beans","steam_id":76561198119851931,"connected_time":2535000000000,"state":"active","ping":84},{"user_id":473,"name":"Queen Frau the Round","steam_id":76561197999942134,"connected_time":119000000000,"state":"active","ping":45},{"user_id":456,"name":"Katto","steam_id":76561197976002174,"connected_time":800000000000,"state":"active","ping":74},{"user_id":457,"name":"Melquiades","steam_id":76561198837590112,"connected_time":796000000000,"state":"active","ping":86},{"user_id":459,"name":"slime girl","steam_id":76561198337705174,"connected_time":761000000000,"state":"active","ping":63},{"user_id":447,"name":"coolguy782","steam_id":76561198165212575,"connected_time":900000000000,"state":"active","ping":65},{"user_id":460,"name":"Gustavo Fring","steam_id":76561198132807405,"connected_time":751000000000,"state":"active","ping":90},{"user_id":465,"name":"Miltynine","steam_id":76561198085520594,"connected_time":470000000000,"state":"active","ping":58},{"user_id":448,"name":"Ringo x Seiran","steam_id":76561198357437908,"connected_time":895000000000,"state":"active","ping":62},{"user_id":472,"name":"Lilly","steam_id":76561197982714873,"connected_time":188000000000,"state":"active","ping":58},{"user_id":467,"name":"mcdoubble","steam_id":76561198089126832,"connected_time":411000000000,"state":"active","ping":83},{"user_id":468,"name":"fice","steam_id":76561198860361610,"connected_time":385000000000,"state":"active","ping":73},{"user_id":474,"name":"$ ACTIVE SHOOTER $","steam_id":76561198880396651,"connected_time":101000000000,"state":"active","ping":75}]},{"server_id":403,"name":"Uncletopia | Chicago | 4 | All Maps","name_short":"chi-4","host":"chi-1.us.uncletopia.com","port":27045,"enabled":true,"region":"us-central","cc":"us","latitude":41.881832,"longitude":-87.62318,"reserved":0,"last_update":"0001-01-01T00:00:00Z","name_a2s":"Uncletopia | Chicago | 4 | All Maps","protocol":17,"map":"pl_upward","folder":"tf","game":"Team Fortress","app_id":440,"player_count":24,"max_players":24,"Bots":0,"server_type":"Dedicated","server_os":"Linux","password":true,"vac":true,"version":"7757534","steam_id":85568392924515193,"keywords":["nocrits","nodmgspread","payload","uncletopia"],"game_id":440,"stv_port":27046,"stv_name":"Uncletopia | Chicago | 4 | All Maps | STV","players":[{"user_id":574,"name":"ARegularJohnDoe","steam_id":76561198015020139,"connected_time":54000000000,"state":"active","ping":53},{"user_id":526,"name":"Nerdin4Life","steam_id":76561198138417387,"connected_time":3503000000000,"state":"active","ping":114},{"user_id":556,"name":"roast pig with apple in mouth","steam_id":76561198051353647,"connected_time":1284000000000,"state":"active","ping":57},{"user_id":571,"name":"urine trouble","steam_id":76561199013266640,"connected_time":427000000000,"state":"active","ping":89},{"user_id":570,"name":"Comfy Monkey","steam_id":76561197998434936,"connected_time":606000000000,"state":"active","ping":117},{"user_id":550,"name":"weed lesbian","steam_id":76561198042263805,"connected_time":1750000000000,"state":"active","ping":81},{"user_id":553,"name":"Lost (15)","steam_id":76561198093713427,"connected_time":1377000000000,"state":"active","ping":60},{"user_id":573,"name":"HanakoToast","steam_id":76561198045233131,"connected_time":304000000000,"state":"active","ping":107},{"user_id":552,"name":"deepmeta","steam_id":76561199053600691,"connected_time":1385000000000,"state":"active","ping":65},{"user_id":540,"name":"yeyoi","steam_id":76561198069821885,"connected_time":2424000000000,"state":"active","ping":71},{"user_id":494,"name":"SkyShu","steam_id":76561198084848054,"connected_time":5415000000000,"state":"active","ping":67},{"user_id":546,"name":"veryscaryreaper","steam_id":76561198380018244,"connected_time":2099000000000,"state":"active","ping":74},{"user_id":528,"name":"junki","steam_id":76561198353456379,"connected_time":3471000000000,"state":"active","ping":71},{"user_id":543,"name":"John;Titor","steam_id":76561198266404287,"connected_time":2227000000000,"state":"active","ping":118},{"user_id":575,"name":"Crit Magnet","steam_id":76561198002158982,"connected_time":13000000000,"state":"spawning","ping":68},{"user_id":559,"name":"lili","steam_id":76561199391478575,"connected_time":1251000000000,"state":"active","ping":118},{"user_id":554,"name":"Kyrisuu","steam_id":76561198362711064,"connected_time":1314000000000,"state":"active","ping":69},{"user_id":565,"name":"YoteDab McFapDab.jpg","steam_id":76561197984870380,"connected_time":1153000000000,"state":"active","ping":85},{"user_id":470,"name":"Gibus Man","steam_id":76561198257241062,"connected_time":7567000000000,"state":"active","ping":83},{"user_id":569,"name":"Tokey","steam_id":76561198825943127,"connected_time":641000000000,"state":"active","ping":118},{"user_id":563,"name":"dzcreeper","steam_id":76561198072250723,"connected_time":1221000000000,"state":"active","ping":80},{"user_id":572,"name":"Yuhh","steam_id":76561199112894955,"connected_time":326000000000,"state":"active","ping":76},{"user_id":551,"name":"genuine he/him pussy","steam_id":76561198260722699,"connected_time":1423000000000,"state":"active","ping":87},{"user_id":532,"name":"Austin 3:16","steam_id":76561198120789856,"connected_time":3320000000000,"state":"active","ping":74}]},{"server_id":36,"name":"Uncletopia | Chicago | 5 | All Maps","name_short":"chi-5","host":"chi-2.us.uncletopia.com","port":27015,"enabled":true,"region":"us-central","cc":"us","latitude":41.881832,"longitude":-87.62318,"reserved":0,"last_update":"0001-01-01T00:00:00Z","name_a2s":"Uncletopia | Chicago | 5 | All Maps","protocol":17,"map":"pl_snowycoast","folder":"tf","game":"Team Fortress","app_id":440,"player_count":21,"max_players":24,"Bots":0,"server_type":"Dedicated","server_os":"Linux","password":true,"vac":true,"version":"7757534","steam_id":85568392924866362,"keywords":["nocrits","nodmgspread","payload","uncletopia"],"game_id":440,"stv_port":27016,"stv_name":"Uncletopia | Chicago | 5 | All Maps | STV","players":[{"user_id":685,"name":"honked off the bobo","steam_id":76561198123287268,"connected_time":226000000000,"state":"active","ping":50},{"user_id":675,"name":"Born to shit, Forced to wipe","steam_id":76561198137880777,"connected_time":1795000000000,"state":"active","ping":83},{"user_id":647,"name":"Inspecteur Spie","steam_id":76561198082825407,"connected_time":3607000000000,"state":"active","ping":115},{"user_id":682,"name":"Javaris Jamar Javarison-Lamar","steam_id":76561198146951387,"connected_time":1089000000000,"state":"active","ping":74},{"user_id":653,"name":"lucil3 on Bandcamp","steam_id":76561198149063013,"connected_time":2939000000000,"state":"active","ping":61},{"user_id":651,"name":"thanks pfizer","steam_id":76561198881665250,"connected_time":3170000000000,"state":"active","ping":90},{"user_id":686,"name":"TGPupps","steam_id":76561198281201914,"connected_time":103000000000,"state":"active","ping":140},{"user_id":495,"name":"Lore","steam_id":76561198098407538,"connected_time":11843000000000,"state":"active","ping":45},{"user_id":586,"name":"iluvtoust","steam_id":76561198869269207,"connected_time":6929000000000,"state":"active","ping":73},{"user_id":687,"name":"spygamin (F2P)","steam_id":76561199388333241,"connected_time":58000000000,"state":"active","ping":263},{"user_id":654,"name":"Dilbert Garfunkel","steam_id":76561198088318184,"connected_time":2891000000000,"state":"active","ping":104},{"user_id":681,"name":"SammichBro™","steam_id":76561198111412929,"connected_time":1114000000000,"state":"active","ping":67},{"user_id":630,"name":"xFactr","steam_id":76561198129007422,"connected_time":4496000000000,"state":"active","ping":57},{"user_id":658,"name":"Alphas_beta","steam_id":76561199240998993,"connected_time":2861000000000,"state":"active","ping":108},{"user_id":684,"name":"Hairy Pear","steam_id":76561198087397457,"connected_time":310000000000,"state":"active","ping":84},{"user_id":674,"name":"PoisonIvy","steam_id":76561198072384574,"connected_time":1879000000000,"state":"active","ping":53},{"user_id":688,"name":"The Pan Man From Slavic Land","steam_id":76561198401875841,"connected_time":40000000000,"state":"active","ping":46},{"user_id":680,"name":"Veirū Viseris","steam_id":76561197989857176,"connected_time":1150000000000,"state":"active","ping":166},{"user_id":683,"name":"wwwillsux","steam_id":76561198201819066,"connected_time":973000000000,"state":"active","ping":81},{"user_id":664,"name":"A Shiny Meat Bicycle","steam_id":76561198358757709,"connected_time":2789000000000,"state":"active","ping":100},{"user_id":670,"name":"bad spy player","steam_id":76561198873699671,"connected_time":2344000000000,"state":"active","ping":105}]},{"server_id":37,"name":"Uncletopia | Chicago | 6 | All Maps","name_short":"chi-6","host":"chi-2.us.uncletopia.com","port":27025,"enabled":true,"region":"us-central","cc":"us","latitude":41.881832,"longitude":-87.62318,"reserved":0,"last_update":"0001-01-01T00:00:00Z","name_a2s":"Uncletopia | Chicago | 6 | All Maps","protocol":17,"map":"pl_snowycoast","folder":"tf","game":"Team Fortress","app_id":440,"player_count":0,"max_players":24,"Bots":0,"server_type":"Dedicated","server_os":"Linux","password":true,"vac":true,"version":"7757534","steam_id":85568392924866363,"keywords":["nocrits","nodmgspread","payload","uncletopia"],"game_id":440,"stv_port":27026,"stv_name":"Uncletopia | Chicago | 6 | All Maps | STV","players":null},{"server_id":38,"name":"Uncletopia | Chicago | 7 | Stopwatch Beta","name_short":"chi-7","host":"chi-2.us.uncletopia.com","port":27035,"enabled":true,"region":"us-central","cc":"us","latitude":41.881832,"longitude":-87.62318,"reserved":0,"last_update":"0001-01-01T00:00:00Z","name_a2s":"Uncletopia | Chicago | 7 | Stopwatch Beta","protocol":17,"map":"koth_viaduct","folder":"tf","game":"Team Fortress","app_id":440,"player_count":0,"max_players":24,"Bots":0,"server_type":"Dedicated","server_os":"Linux","password":true,"vac":true,"version":"7757534","steam_id":85568392924866364,"keywords":["cp","nocrits","nodmgspread","uncletopia"],"game_id":440,"stv_port":27036,"stv_name":"Uncletopia | Chicago | 7 | Stopwatch Beta | STV","players":null},{"server_id":39,"name":"Uncletopia | Chicago | 8 | Community","name_short":"chi-8","host":"chi-2.us.uncletopia.com","port":27045,"enabled":true,"region":"us-central","cc":"us","latitude":41.881832,"longitude":-87.62318,"reserved":0,"last_update":"0001-01-01T00:00:00Z","name_a2s":"Uncletopia | Chicago | 8 | Community","protocol":17,"map":"workshop/koth_ramjam_rc1.ugc459778887","folder":"tf","game":"Team Fortress","app_id":440,"player_count":0,"max_players":24,"Bots":0,"server_type":"Dedicated","server_os":"Linux","password":true,"vac":true,"version":"7757534","steam_id":85568392924866365,"keywords":["cp","nocrits","nodmgspread","uncletopia"],"game_id":440,"stv_port":27046,"stv_name":"Uncletopia | Chicago | 8 | Community | STV","players":null},{"server_id":8,"name":"Uncletopia | Dallas | 1 | All Maps","name_short":"dal-1","host":"dal-1.us.uncletopia.com","port":27015,"enabled":true,"region":"us-central","cc":"us","latitude":32.779167,"longitude":-96.80889,"reserved":0,"last_update":"0001-01-01T00:00:00Z","name_a2s":"Uncletopia | Dallas | 1 | All Maps","protocol":17,"map":"pl_borneo","folder":"tf","game":"Team Fortress","app_id":440,"player_count":24,"max_players":24,"Bots":0,"server_type":"Dedicated","server_os":"Linux","password":true,"vac":true,"version":"7757534","steam_id":85568392924469986,"keywords":["nocrits","nodmgspread","payload","uncletopia"],"game_id":440,"stv_port":27016,"stv_name":"Uncletopia | Dallas | 1 | All Maps | STV","players":[{"user_id":613,"name":"RedheadRed","steam_id":76561198110361411,"connected_time":2133000000000,"state":"active","ping":74},{"user_id":609,"name":"psycho   c","steam_id":76561199215821942,"connected_time":2189000000000,"state":"active","ping":46},{"user_id":592,"name":"Ryo31337","steam_id":76561198063083553,"connected_time":3090000000000,"state":"active","ping":56},{"user_id":602,"name":"TTV.SkullSquishe","steam_id":76561198092721889,"connected_time":2663000000000,"state":"active","ping":93},{"user_id":632,"name":"Samsung Galaxy S23","steam_id":76561198319442494,"connected_time":55000000000,"state":"active","ping":77},{"user_id":625,"name":"crumblebungus","steam_id":76561199323707429,"connected_time":800000000000,"state":"active","ping":56},{"user_id":626,"name":"Saulen","steam_id":76561198150726407,"connected_time":756000000000,"state":"active","ping":62},{"user_id":596,"name":"Lord Garrard","steam_id":76561198212184303,"connected_time":3056000000000,"state":"active","ping":53},{"user_id":628,"name":"Wiggle Wiggle","steam_id":76561199053447896,"connected_time":710000000000,"state":"active","ping":79},{"user_id":615,"name":"Silly HypurrCanehdian, eh?","steam_id":76561198050804549,"connected_time":2093000000000,"state":"active","ping":79},{"user_id":610,"name":"margaret","steam_id":76561198038291026,"connected_time":2188000000000,"state":"active","ping":35},{"user_id":607,"name":"Quiver Cakes ._.","steam_id":76561198243155576,"connected_time":2282000000000,"state":"active","ping":75},{"user_id":582,"name":"Fish Enjoyer","steam_id":76561198300458561,"connected_time":3451000000000,"state":"active","ping":82},{"user_id":633,"name":"Dr. Peppers Strongest Soldier","steam_id":76561199107068627,"connected_time":43000000000,"state":"active","ping":71},{"user_id":617,"name":"intek","steam_id":76561198052705291,"connected_time":2066000000000,"state":"active","ping":77},{"user_id":606,"name":"Derp140","steam_id":76561198887787200,"connected_time":2367000000000,"state":"active","ping":74},{"user_id":618,"name":"Kinesio","steam_id":76561198059394316,"connected_time":2041000000000,"state":"active","ping":96},{"user_id":619,"name":"Locomotive","steam_id":76561199152926930,"connected_time":2041000000000,"state":"active","ping":65},{"user_id":629,"name":"Pensive Clown Noises","steam_id":76561198010708247,"connected_time":669000000000,"state":"active","ping":104},{"user_id":620,"name":"^2Moving^1shadoW","steam_id":76561198078674411,"connected_time":2034000000000,"state":"active","ping":60},{"user_id":623,"name":"Pet.Waterdew | Operation B.O.X ","steam_id":76561198405648949,"connected_time":1769000000000,"state":"active","ping":90},{"user_id":634,"name":"Darentmotion","steam_id":76561198161628971,"connected_time":41000000000,"state":"spawning","ping":92},{"user_id":621,"name":"SIGMA [BS]","steam_id":76561197962604879,"connected_time":2004000000000,"state":"active","ping":92},{"user_id":627,"name":"Koiba","steam_id":76561198114470376,"connected_time":736000000000,"state":"active","ping":91}]},{"server_id":108,"name":"Uncletopia | Dallas | 2 | All Maps","name_short":"dal-2","host":"dal-1.us.uncletopia.com","port":27025,"enabled":true,"region":"us-central","cc":"us","latitude":32.779167,"longitude":-96.80889,"reserved":0,"last_update":"0001-01-01T00:00:00Z","name_a2s":"Uncletopia | Dallas | 2 | All Maps","protocol":17,"map":"pl_badwater","folder":"tf","game":"Team Fortress","app_id":440,"player_count":24,"max_players":24,"Bots":0,"server_type":"Dedicated","server_os":"Linux","password":true,"vac":true,"version":"7757534","steam_id":85568392924469988,"keywords":["nocrits","nodmgspread","payload","uncletopia"],"game_id":440,"stv_port":27026,"stv_name":"Uncletopia | Dallas | 2 | All Maps | STV","players":[{"user_id":536,"name":"J1H","steam_id":76561198278432509,"connected_time":3150000000000,"state":"active","ping":83},{"user_id":537,"name":"the smiling zombie","steam_id":76561199246231090,"connected_time":3148000000000,"state":"active","ping":83},{"user_id":512,"name":"Hamee333","steam_id":76561199388127663,"connected_time":5314000000000,"state":"active","ping":101},{"user_id":552,"name":"ArnoldGaming","steam_id":76561198040140247,"connected_time":1927000000000,"state":"active","ping":94},{"user_id":570,"name":"fire","steam_id":76561198044354279,"connected_time":1200000000000,"state":"active","ping":71},{"user_id":568,"name":"Hogenix.TTV","steam_id":76561198209333963,"connected_time":1308000000000,"state":"active","ping":100},{"user_id":569,"name":"WillieMakit","steam_id":76561197985391684,"connected_time":1244000000000,"state":"active","ping":110},{"user_id":577,"name":"EatSomeBEES","steam_id":76561198047334307,"connected_time":561000000000,"state":"active","ping":111},{"user_id":571,"name":"Random","steam_id":76561198318879454,"connected_time":992000000000,"state":"active","ping":80},{"user_id":497,"name":"Forklift Certified Cat Girl","steam_id":76561198072555204,"connected_time":5767000000000,"state":"active","ping":66},{"user_id":556,"name":"potato pat","steam_id":76561198025489194,"connected_time":1845000000000,"state":"active","ping":58},{"user_id":562,"name":"errant","steam_id":76561197961758410,"connected_time":1619000000000,"state":"active","ping":33},{"user_id":576,"name":"daniel","steam_id":76561197991289254,"connected_time":569000000000,"state":"active","ping":105},{"user_id":578,"name":"town.midi","steam_id":76561198059041027,"connected_time":516000000000,"state":"active","ping":113},{"user_id":555,"name":"Homo Ejectus","steam_id":76561197968701952,"connected_time":1858000000000,"state":"active","ping":75},{"user_id":557,"name":"Fluffy \u003c3 [HUGS]","steam_id":76561198119444962,"connected_time":1841000000000,"state":"active","ping":107},{"user_id":561,"name":"ValidSalad","steam_id":76561198948874685,"connected_time":1783000000000,"state":"active","ping":62},{"user_id":573,"name":"Biggest Dude In Town 4U","steam_id":76561198070281464,"connected_time":630000000000,"state":"active","ping":95},{"user_id":579,"name":"Unofficial","steam_id":76561198370071152,"connected_time":483000000000,"state":"active","ping":107},{"user_id":559,"name":"JingleDingo","steam_id":76561198394666640,"connected_time":1836000000000,"state":"active","ping":81},{"user_id":582,"name":"Nobody","steam_id":76561198441444545,"connected_time":380000000000,"state":"active","ping":76},{"user_id":574,"name":"Little Green Man, Clayton","steam_id":76561198038945235,"connected_time":627000000000,"state":"active","ping":97},{"user_id":549,"name":"Rivers Cuomo","steam_id":76561198800032551,"connected_time":2304000000000,"state":"active","ping":75},{"user_id":567,"name":"DevilPcats","steam_id":76561198200572765,"connected_time":1410000000000,"state":"active","ping":90}]},{"server_id":5,"name":"Uncletopia | Frankfurt | 1 | All Maps","name_short":"frk-1","host":"frk-1.de.uncletopia.com","port":27015,"enabled":true,"region":"eu","cc":"de","latitude":50.110924,"longitude":8.682127,"reserved":0,"last_update":"0001-01-01T00:00:00Z","name_a2s":"Uncletopia | Frankfurt | 1 | All Maps","protocol":17,"map":"pl_badwater","folder":"tf","game":"Team Fortress","app_id":440,"player_count":0,"max_players":24,"Bots":0,"server_type":"Dedicated","server_os":"Linux","password":true,"vac":true,"version":"7757534","steam_id":85568392924469989,"keywords":["nocrits","nodmgspread","payload","uncletopia"],"game_id":440,"stv_port":27016,"stv_name":"Uncletopia | Frankfurt | 1 | All Maps | STV","players":null},{"server_id":110,"name":"Uncletopia | Frankfurt | 2 | All Maps","name_short":"frk-2","host":"frk-1.de.uncletopia.com","port":27025,"enabled":true,"region":"eu","cc":"de","latitude":50.110924,"longitude":8.682127,"reserved":0,"last_update":"0001-01-01T00:00:00Z","name_a2s":"Uncletopia | Frankfurt | 2 | All Maps","protocol":17,"map":"cp_altitude","folder":"tf","game":"Team Fortress","app_id":440,"player_count":0,"max_players":24,"Bots":0,"server_type":"Dedicated","server_os":"Linux","password":true,"vac":true,"version":"7757534","steam_id":85568392924469990,"keywords":["cp","nocrits","nodmgspread","uncletopia"],"game_id":440,"stv_port":27026,"stv_name":"Uncletopia | Frankfurt | 2 | All Maps | STV","players":null},{"server_id":308,"name":"Uncletopia | Frankfurt | 3 | All Maps","name_short":"frk-3","host":"frk-1.de.uncletopia.com","port":27035,"enabled":true,"region":"eu","cc":"de","latitude":50.110924,"longitude":8.682127,"reserved":0,"last_update":"0001-01-01T00:00:00Z","name_a2s":"Uncletopia | Frankfurt | 3 | All Maps","protocol":17,"map":"pl_borneo","folder":"tf","game":"Team Fortress","app_id":440,"player_count":0,"max_players":24,"Bots":0,"server_type":"Dedicated","server_os":"Linux","password":true,"vac":true,"version":"7757534","steam_id":85568392924504274,"keywords":["nocrits","nodmgspread","payload","uncletopia"],"game_id":440,"stv_port":27036,"stv_name":"Uncletopia | Frankfurt | 3 | All Maps | STV","players":null},{"server_id":309,"name":"Uncletopia | Frankfurt | 4 | All Maps","name_short":"frk-4","host":"frk-1.de.uncletopia.com","port":27045,"enabled":true,"region":"eu","cc":"de","latitude":50.110924,"longitude":8.682127,"reserved":0,"last_update":"0001-01-01T00:00:00Z","name_a2s":"Uncletopia | Frankfurt | 4 | All Maps","protocol":17,"map":"pl_pier","folder":"tf","game":"Team Fortress","app_id":440,"player_count":0,"max_players":24,"Bots":0,"server_type":"Dedicated","server_os":"Linux","password":true,"vac":true,"version":"7757534","steam_id":85568392924504275,"keywords":["nocrits","nodmgspread","payload","uncletopia"],"game_id":440,"stv_port":27046,"stv_name":"Uncletopia | Frankfurt | 4 | All Maps | STV","players":null},{"server_id":310,"name":"Uncletopia | Frankfurt | 5 | All Maps","name_short":"frk-5","host":"frk-1.de.uncletopia.com","port":27055,"enabled":true,"region":"eu","cc":"de","latitude":50.110924,"longitude":8.682127,"reserved":0,"last_update":"0001-01-01T00:00:00Z","name_a2s":"Uncletopia | Frankfurt | 5 | All Maps","protocol":17,"map":"cp_altitude","folder":"tf","game":"Team Fortress","app_id":440,"player_count":0,"max_players":24,"Bots":0,"server_type":"Dedicated","server_os":"Linux","password":true,"vac":true,"version":"7757534","steam_id":85568392924504277,"keywords":["cp","nocrits","nodmgspread","uncletopia"],"game_id":440,"stv_port":27056,"stv_name":"Uncletopia | Frankfurt | 5 | All Maps | STV","players":null},{"server_id":311,"name":"Uncletopia | Frankfurt | 6 | All Maps","name_short":"frk-6","host":"frk-1.de.uncletopia.com","port":27065,"enabled":true,"region":"eu","cc":"de","latitude":50.110924,"longitude":8.682127,"reserved":0,"last_update":"0001-01-01T00:00:00Z","name_a2s":"Uncletopia | Frankfurt | 6 | All Maps","protocol":17,"map":"pl_barnblitz","folder":"tf","game":"Team Fortress","app_id":440,"player_count":0,"max_players":24,"Bots":0,"server_type":"Dedicated","server_os":"Linux","password":true,"vac":true,"version":"7757534","steam_id":85568392924504278,"keywords":["nocrits","nodmgspread","payload","uncletopia"],"game_id":440,"stv_port":27066,"stv_name":"Uncletopia | Frankfurt | 6 | All Maps | STV","players":null},{"server_id":23,"name":"Uncletopia | Frankfurt | 7 | Stopwatch Beta","name_short":"frk-7","host":"frk-1.de.uncletopia.com","port":27075,"enabled":true,"region":"eu","cc":"de","latitude":50.110924,"longitude":8.682127,"reserved":0,"last_update":"0001-01-01T00:00:00Z","name_a2s":"Uncletopia | Frankfurt | 7 | Stopwatch Beta","protocol":17,"map":"pl_borneo","folder":"tf","game":"Team Fortress","app_id":440,"player_count":0,"max_players":24,"Bots":0,"server_type":"Dedicated","server_os":"Linux","password":true,"vac":true,"version":"7757534","steam_id":85568392924742827,"keywords":["nocrits","nodmgspread","payload","uncletopia"],"game_id":440,"stv_port":27076,"stv_name":"Uncletopia | Frankfurt | 7 | Stopwatch Beta | STV","players":null},{"server_id":24,"name":"Uncletopia | Frankfurt | 8 | Community","name_short":"frk-8","host":"frk-1.de.uncletopia.com","port":27085,"enabled":true,"region":"eu","cc":"de","latitude":50.110924,"longitude":8.682127,"reserved":0,"last_update":"0001-01-01T00:00:00Z","name_a2s":"Uncletopia | Frankfurt | 8 | Community","protocol":17,"map":"koth_viaduct","folder":"tf","game":"Team Fortress","app_id":440,"player_count":0,"max_players":24,"Bots":0,"server_type":"Dedicated","server_os":"Linux","password":true,"vac":true,"version":"7757534","steam_id":85568392924742828,"keywords":["cp","nocrits","nodmgspread","uncletopia"],"game_id":440,"stv_port":27086,"stv_name":"Uncletopia | Frankfurt | 8 | Community | STV","players":null},{"server_id":202,"name":"Uncletopia | Hong Kong | 1 | All Maps","name_short":"hgk-1","host":"hgk-1.hk.uncletopia.com","port":27015,"enabled":true,"region":"asia","cc":"hk","latitude":22.302711,"longitude":114.177216,"reserved":0,"last_update":"0001-01-01T00:00:00Z","name_a2s":"Uncletopia | Hong Kong | 1 | All Maps","protocol":17,"map":"pl_pier","folder":"tf","game":"Team Fortress","app_id":440,"player_count":24,"max_players":24,"Bots":0,"server_type":"Dedicated","server_os":"Linux","password":true,"vac":true,"version":"7757534","steam_id":85568392924494504,"keywords":["nocrits","nodmgspread","payload","uncletopia"],"game_id":440,"stv_port":27016,"stv_name":"Uncletopia | Hong Kong | 1 | All Maps | STV","players":[{"user_id":21,"name":"screaming sniper","steam_id":76561199085568674,"connected_time":8720000000000,"state":"active","ping":72},{"user_id":113,"name":"MySejahtera","steam_id":76561198331763015,"connected_time":2030000000000,"state":"active","ping":79},{"user_id":143,"name":"Milk❤ (First Scope Enjoyer)","steam_id":76561198163911560,"connected_time":606000000000,"state":"active","ping":132},{"user_id":145,"name":"hasi","steam_id":76561199186771164,"connected_time":573000000000,"state":"active","ping":81},{"user_id":25,"name":"spinach (old mouse)","steam_id":76561198042539541,"connected_time":8313000000000,"state":"active","ping":77},{"user_id":72,"name":"Michael Scott","steam_id":76561198023082794,"connected_time":3509000000000,"state":"active","ping":55},{"user_id":109,"name":"rtgod","steam_id":76561198125363469,"connected_time":2291000000000,"state":"active","ping":84},{"user_id":30,"name":"Aiko Kanata Zhenco","steam_id":76561199262955185,"connected_time":7655000000000,"state":"active","ping":119},{"user_id":31,"name":"vintage","steam_id":76561198230213828,"connected_time":7631000000000,"state":"active","ping":61},{"user_id":149,"name":"Miku831","steam_id":76561198162232044,"connected_time":80000000000,"state":"active","ping":50},{"user_id":142,"name":"spagsauce","steam_id":76561198999511239,"connected_time":638000000000,"state":"active","ping":67},{"user_id":111,"name":"Buttman","steam_id":76561198044693388,"connected_time":2268000000000,"state":"active","ping":52},{"user_id":56,"name":"Bertengkar","steam_id":76561198213031155,"connected_time":6403000000000,"state":"active","ping":98},{"user_id":42,"name":"LEGS","steam_id":76561199111623890,"connected_time":7009000000000,"state":"active","ping":96},{"user_id":43,"name":"thought crime hotline","steam_id":76561198054545683,"connected_time":6982000000000,"state":"active","ping":83},{"user_id":144,"name":"Cod0fDuty","steam_id":76561198958062892,"connected_time":606000000000,"state":"active","ping":44},{"user_id":76,"name":"qb","steam_id":76561198412329672,"connected_time":3433000000000,"state":"active","ping":102},{"user_id":73,"name":"jjjjjjjjjjjjjjjjjjjjjjjj","steam_id":76561198324008555,"connected_time":3464000000000,"state":"active","ping":54},{"user_id":148,"name":"SunShine","steam_id":76561198323642446,"connected_time":251000000000,"state":"active","ping":105},{"user_id":60,"name":"anemoia","steam_id":76561198074339034,"connected_time":5957000000000,"state":"active","ping":81},{"user_id":115,"name":"moguizhong","steam_id":76561198152588681,"connected_time":1972000000000,"state":"active","ping":85},{"user_id":118,"name":"water tastes good","steam_id":76561199375947670,"connected_time":1707000000000,"state":"active","ping":82},{"user_id":66,"name":"JDH9000","steam_id":76561198072247053,"connected_time":4266000000000,"state":"active","ping":42},{"user_id":75,"name":"3wfFbdrjEze5d2G","steam_id":76561198435900451,"connected_time":3451000000000,"state":"active","ping":156}]},{"server_id":1,"name":"Uncletopia | Los Angeles | 1 | All Maps","name_short":"lax-1","host":"lax-1.us.uncletopia.com","port":27015,"enabled":true,"region":"us-west","cc":"us","latitude":33.94279,"longitude":-118.41004,"reserved":0,"last_update":"0001-01-01T00:00:00Z","name_a2s":"Uncletopia | Los Angeles | 1 | All Maps","protocol":17,"map":"pl_pier","folder":"tf","game":"Team Fortress","app_id":440,"player_count":0,"max_players":24,"Bots":0,"server_type":"Dedicated","server_os":"Linux","password":true,"vac":true,"version":"7757534","steam_id":85568392924469991,"keywords":["nocrits","nodmgspread","payload","uncletopia"],"game_id":440,"stv_port":27016,"stv_name":"Uncletopia | Los Angeles | 1 | All Maps | STV","players":null},{"server_id":112,"name":"Uncletopia | Los Angeles | 2 | All Maps","name_short":"lax-2","host":"lax-1.us.uncletopia.com","port":27025,"enabled":true,"region":"us-west","cc":"us","latitude":33.94279,"longitude":-118.41004,"reserved":0,"last_update":"0001-01-01T00:00:00Z","name_a2s":"Uncletopia | Los Angeles | 2 | All Maps","protocol":17,"map":"koth_viaduct","folder":"tf","game":"Team Fortress","app_id":440,"player_count":23,"max_players":24,"Bots":0,"server_type":"Dedicated","server_os":"Linux","password":true,"vac":true,"version":"7757534","steam_id":85568392924469992,"keywords":["cp","nocrits","nodmgspread","uncletopia"],"game_id":440,"stv_port":27026,"stv_name":"Uncletopia | Los Angeles | 2 | All Maps | STV","players":[{"user_id":884,"name":"Rexeo035","steam_id":76561198262859725,"connected_time":292000000000,"state":"active","ping":45},{"user_id":795,"name":"Nugakku","steam_id":76561198082346219,"connected_time":8756000000000,"state":"active","ping":57},{"user_id":873,"name":"goofy gus","steam_id":76561198234581744,"connected_time":791000000000,"state":"active","ping":69},{"user_id":874,"name":"PinguEnjoyer6","steam_id":76561199186723516,"connected_time":750000000000,"state":"active","ping":36},{"user_id":854,"name":"Odd Life","steam_id":76561198244979998,"connected_time":2170000000000,"state":"active","ping":45},{"user_id":813,"name":"vioxynteris","steam_id":76561198161428666,"connected_time":7228000000000,"state":"active","ping":42},{"user_id":882,"name":"M4 Sherman","steam_id":76561198126990820,"connected_time":335000000000,"state":"active","ping":98},{"user_id":886,"name":"Flamin' Hot™ Limon Cheetos™","steam_id":76561198157033594,"connected_time":251000000000,"state":"active","ping":63},{"user_id":875,"name":"Testicular Torsion","steam_id":76561197968179862,"connected_time":745000000000,"state":"active","ping":80},{"user_id":876,"name":"oil","steam_id":76561198099980149,"connected_time":733000000000,"state":"active","ping":45},{"user_id":883,"name":"tie dye die guy","steam_id":76561198049845337,"connected_time":326000000000,"state":"active","ping":60},{"user_id":887,"name":"le fishe","steam_id":76561198195689961,"connected_time":222000000000,"state":"active","ping":68},{"user_id":846,"name":"David","steam_id":76561198008157353,"connected_time":3546000000000,"state":"active","ping":76},{"user_id":845,"name":"Lead Pipe","steam_id":76561198012187322,"connected_time":3923000000000,"state":"active","ping":48},{"user_id":850,"name":"MrMeister","steam_id":76561198307194213,"connected_time":3016000000000,"state":"active","ping":89},{"user_id":888,"name":"FriskyDemon","steam_id":76561198043684646,"connected_time":186000000000,"state":"active","ping":70},{"user_id":889,"name":"party chip","steam_id":76561198277153335,"connected_time":181000000000,"state":"active","ping":53},{"user_id":890,"name":"MeatBag","steam_id":76561198010204565,"connected_time":150000000000,"state":"active","ping":72},{"user_id":891,"name":"Death Bird","steam_id":76561198041329791,"connected_time":123000000000,"state":"active","ping":46},{"user_id":869,"name":"Axelfreeze14","steam_id":76561198436383913,"connected_time":853000000000,"state":"active","ping":43},{"user_id":868,"name":"DuckyCC","steam_id":76561198204224427,"connected_time":1020000000000,"state":"active","ping":72},{"user_id":892,"name":"Boredom fighter","steam_id":76561199153021601,"connected_time":36000000000,"state":"spawning","ping":225},{"user_id":848,"name":"rmbl","steam_id":76561198150137369,"connected_time":3383000000000,"state":"active","ping":45}]},{"server_id":324,"name":"Uncletopia | Los Angeles | 3 | All Maps","name_short":"lax-3","host":"lax-1.us.uncletopia.com","port":27035,"enabled":true,"region":"us-west","cc":"us","latitude":33.94279,"longitude":-118.41004,"reserved":0,"last_update":"0001-01-01T00:00:00Z","name_a2s":"Uncletopia | Los Angeles | 3 | All Maps","protocol":17,"map":"pl_swiftwater_final1","folder":"tf","game":"Team Fortress","app_id":440,"player_count":23,"max_players":24,"Bots":0,"server_type":"Dedicated","server_os":"Linux","password":true,"vac":true,"version":"7757534","steam_id":85568392924510198,"keywords":["nocrits","nodmgspread","payload","uncletopia"],"game_id":440,"stv_port":27036,"stv_name":"Uncletopia | Los Angeles | 3 | All Maps | STV","players":[{"user_id":141,"name":"Wolowolowolowolowolowolowolowol","steam_id":76561199217207233,"connected_time":1042000000000,"state":"active","ping":60},{"user_id":152,"name":"Omega-Kiba","steam_id":76561198154594523,"connected_time":776000000000,"state":"active","ping":71},{"user_id":150,"name":"hakken","steam_id":76561199102391736,"connected_time":825000000000,"state":"active","ping":47},{"user_id":154,"name":"AStarryEyedPlayer","steam_id":76561199069003499,"connected_time":727000000000,"state":"active","ping":60},{"user_id":155,"name":"TeCon","steam_id":76561198049127236,"connected_time":715000000000,"state":"active","ping":55},{"user_id":151,"name":"Axelonemillion15","steam_id":76561198421342282,"connected_time":824000000000,"state":"active","ping":64},{"user_id":156,"name":"mewyies","steam_id":76561199435534598,"connected_time":715000000000,"state":"active","ping":62},{"user_id":97,"name":"Grim","steam_id":76561198158911860,"connected_time":4746000000000,"state":"active","ping":93},{"user_id":167,"name":"The Population of Sweden","steam_id":76561198202201644,"connected_time":288000000000,"state":"active","ping":75},{"user_id":157,"name":"Sir Severus","steam_id":76561198061295188,"connected_time":698000000000,"state":"active","ping":88},{"user_id":170,"name":"Team Fartpiss Poo","steam_id":76561199163591880,"connected_time":79000000000,"state":"active","ping":141},{"user_id":168,"name":"10 rule","steam_id":76561198125261443,"connected_time":217000000000,"state":"active","ping":88},{"user_id":165,"name":"LiterallyRyanGosling","steam_id":76561199017856691,"connected_time":529000000000,"state":"active","ping":193},{"user_id":158,"name":"Cobalt Ronin","steam_id":76561198148418447,"connected_time":685000000000,"state":"active","ping":94},{"user_id":149,"name":"werolat","steam_id":76561197960544784,"connected_time":834000000000,"state":"active","ping":52},{"user_id":126,"name":"ghostglitch","steam_id":76561197991608573,"connected_time":2854000000000,"state":"active","ping":55},{"user_id":159,"name":"Spaghetti Yeti","steam_id":76561198984029335,"connected_time":675000000000,"state":"active","ping":82},{"user_id":160,"name":"johnwickneeds","steam_id":76561198985513207,"connected_time":670000000000,"state":"active","ping":89},{"user_id":161,"name":"Altyn Man","steam_id":76561198378714811,"connected_time":659000000000,"state":"active","ping":83},{"user_id":162,"name":"SHADOW (he/him)","steam_id":76561198207768148,"connected_time":656000000000,"state":"active","ping":80},{"user_id":137,"name":"Vapeinhand","steam_id":76561198134439943,"connected_time":1768000000000,"state":"active","ping":113},{"user_id":169,"name":"wesker can hit it tbh","steam_id":76561197968351430,"connected_time":210000000000,"state":"active","ping":45},{"user_id":163,"name":"Majin Obama","steam_id":76561198311863471,"connected_time":652000000000,"state":"active","ping":88}]},{"server_id":25,"name":"Uncletopia | Los Angeles | 4 | Stopwatch Beta","name_short":"lax-4","host":"lax-1.us.uncletopia.com","port":27045,"enabled":true,"region":"us-west","cc":"us","latitude":33.94279,"longitude":-118.41004,"reserved":0,"last_update":"0001-01-01T00:00:00Z","name_a2s":"Uncletopia | Los Angeles | 4 | Stopwatch Beta","protocol":17,"map":"pl_borneo","folder":"tf","game":"Team Fortress","app_id":440,"player_count":0,"max_players":24,"Bots":0,"server_type":"Dedicated","server_os":"Linux","password":true,"vac":true,"version":"7757534","steam_id":85568392924510199,"keywords":["nocrits","nodmgspread","payload","uncletopia"],"game_id":440,"stv_port":27046,"stv_name":"Uncletopia | Los Angeles | 4 | Stopwatch Beta | STV","players":null},{"server_id":11,"name":"Uncletopia | London | 1 | All Maps","name_short":"lon-1","host":"lon-1.uk.uncletopia.com","port":27015,"enabled":true,"region":"eu","cc":"gb","latitude":51.509865,"longitude":-0.118092,"reserved":0,"last_update":"0001-01-01T00:00:00Z","name_a2s":"Uncletopia | London | 1 | All Maps","protocol":17,"map":"cp_altitude","folder":"tf","game":"Team Fortress","app_id":440,"player_count":0,"max_players":24,"Bots":0,"server_type":"Dedicated","server_os":"Linux","password":true,"vac":true,"version":"7757534","steam_id":85568392924367362,"keywords":["cp","nocrits","nodmgspread","uncletopia"],"game_id":440,"stv_port":27016,"stv_name":"Uncletopia | London | 1 | All Maps | STV","players":null},{"server_id":114,"name":"Uncletopia | London | 2 | All Maps","name_short":"lon-2","host":"lon-1.uk.uncletopia.com","port":27025,"enabled":true,"region":"eu","cc":"gb","latitude":51.509865,"longitude":-0.118092,"reserved":0,"last_update":"0001-01-01T00:00:00Z","name_a2s":"Uncletopia | London | 2 | All Maps","protocol":17,"map":"pl_pier","folder":"tf","game":"Team Fortress","app_id":440,"player_count":0,"max_players":24,"Bots":0,"server_type":"Dedicated","server_os":"Linux","password":true,"vac":true,"version":"7757534","steam_id":85568392924470941,"keywords":["nocrits","nodmgspread","payload","uncletopia"],"game_id":440,"stv_port":27026,"stv_name":"Uncletopia | London | 2 | All Maps | STV","players":null},{"server_id":320,"name":"Uncletopia | London | 3 | All Maps","name_short":"lon-3","host":"lon-1.uk.uncletopia.com","port":27035,"enabled":true,"region":"eu","cc":"gb","latitude":51.509865,"longitude":-0.118092,"reserved":0,"last_update":"0001-01-01T00:00:00Z","name_a2s":"Uncletopia | London | 3 | All Maps","protocol":17,"map":"pl_upward","folder":"tf","game":"Team Fortress","app_id":440,"player_count":24,"max_players":24,"Bots":0,"server_type":"Dedicated","server_os":"Linux","password":true,"vac":true,"version":"7757534","steam_id":85568392924510192,"keywords":["nocrits","nodmgspread","payload","uncletopia"],"game_id":440,"stv_port":27036,"stv_name":"Uncletopia | London | 3 | All Maps | STV","players":[{"user_id":3,"name":"dorak","steam_id":76561198818037965,"connected_time":3209000000000,"state":"active","ping":105},{"user_id":39,"name":"ciliorkun18","steam_id":76561198228942500,"connected_time":1328000000000,"state":"active","ping":90},{"user_id":17,"name":"Qbus","steam_id":76561198091449593,"connected_time":2627000000000,"state":"active","ping":66},{"user_id":6,"name":"wide appreciator","steam_id":76561198083286511,"connected_time":3187000000000,"state":"active","ping":50},{"user_id":7,"name":"Walle","steam_id":76561197995148937,"connected_time":3183000000000,"state":"active","ping":75},{"user_id":51,"name":"stun","steam_id":76561198276681691,"connected_time":378000000000,"state":"active","ping":45},{"user_id":40,"name":"Disasterday","steam_id":76561198044767090,"connected_time":1314000000000,"state":"active","ping":59},{"user_id":52,"name":"qt wavyz","steam_id":76561199060668138,"connected_time":374000000000,"state":"active","ping":160},{"user_id":15,"name":"Benson","steam_id":76561198865589696,"connected_time":2888000000000,"state":"active","ping":55},{"user_id":50,"name":"Mengle","steam_id":76561198001953684,"connected_time":744000000000,"state":"active","ping":137},{"user_id":20,"name":"🌹Vince🐝","steam_id":76561198983122997,"connected_time":2275000000000,"state":"active","ping":127},{"user_id":53,"name":"GIBus_Scout30","steam_id":76561199272782484,"connected_time":365000000000,"state":"active","ping":72},{"user_id":27,"name":"ImD7omYx","steam_id":76561198984164114,"connected_time":1791000000000,"state":"active","ping":118},{"user_id":33,"name":"realamigomoath","steam_id":76561199091018683,"connected_time":1716000000000,"state":"active","ping":157},{"user_id":42,"name":"OfficialP3","steam_id":76561198060567791,"connected_time":1131000000000,"state":"active","ping":76},{"user_id":30,"name":"Shynii","steam_id":76561198194682105,"connected_time":1741000000000,"state":"active","ping":60},{"user_id":54,"name":"Cringer","steam_id":76561198055480280,"connected_time":300000000000,"state":"active","ping":87},{"user_id":44,"name":"Camisama","steam_id":76561198083074851,"connected_time":1089000000000,"state":"active","ping":58},{"user_id":46,"name":"fortnite2 F2P","steam_id":76561199291484926,"connected_time":909000000000,"state":"active","ping":81},{"user_id":47,"name":"femboy gaming :3","steam_id":76561199044267454,"connected_time":901000000000,"state":"active","ping":74},{"user_id":48,"name":"Kris","steam_id":76561198240638652,"connected_time":895000000000,"state":"active","ping":45},{"user_id":49,"name":"Hiya","steam_id":76561199353418070,"connected_time":829000000000,"state":"active","ping":92},{"user_id":55,"name":"Reast","steam_id":76561198022796927,"connected_time":274000000000,"state":"active","ping":90},{"user_id":56,"name":"Macro","steam_id":76561199442846226,"connected_time":256000000000,"state":"active","ping":171}]},{"server_id":321,"name":"Uncletopia | London | 4 | All Maps","name_short":"lon-4","host":"lon-1.uk.uncletopia.com","port":27045,"enabled":true,"region":"eu","cc":"gb","latitude":51.509865,"longitude":-0.118092,"reserved":0,"last_update":"0001-01-01T00:00:00Z","name_a2s":"Uncletopia | London | 4 | All Maps","protocol":17,"map":"pl_barnblitz","folder":"tf","game":"Team Fortress","app_id":440,"player_count":0,"max_players":24,"Bots":0,"server_type":"Dedicated","server_os":"Linux","password":true,"vac":true,"version":"7757534","steam_id":85568392924510193,"keywords":["nocrits","nodmgspread","payload","uncletopia"],"game_id":440,"stv_port":27046,"stv_name":"Uncletopia | London | 4 | All Maps | STV","players":null},{"server_id":21,"name":"Uncletopia | London | 5 | All Maps","name_short":"lon-5","host":"lon-1.uk.uncletopia.com","port":27055,"enabled":true,"region":"eu","cc":"gb","latitude":51.509865,"longitude":-0.118092,"reserved":0,"last_update":"0001-01-01T00:00:00Z","name_a2s":"Uncletopia | London | 5 | All Maps","protocol":17,"map":"pl_pier","folder":"tf","game":"Team Fortress","app_id":440,"player_count":0,"max_players":24,"Bots":0,"server_type":"Dedicated","server_os":"Linux","password":true,"vac":true,"version":"7757534","steam_id":85568392924742829,"keywords":["nocrits","nodmgspread","payload","uncletopia"],"game_id":440,"stv_port":27056,"stv_name":"Uncletopia | London | 5 | All Maps | STV","players":null},{"server_id":22,"name":"Uncletopia | London | 6 | All Maps","name_short":"lon-6","host":"lon-1.uk.uncletopia.com","port":27065,"enabled":true,"region":"eu","cc":"gb","latitude":51.509865,"longitude":-0.118092,"reserved":0,"last_update":"0001-01-01T00:00:00Z","name_a2s":"Uncletopia | London | 6 | All Maps","protocol":17,"map":"koth_highpass","folder":"tf","game":"Team Fortress","app_id":440,"player_count":0,"max_players":24,"Bots":0,"server_type":"Dedicated","server_os":"Linux","password":true,"vac":true,"version":"7757534","steam_id":85568392924742830,"keywords":["cp","nocrits","nodmgspread","uncletopia"],"game_id":440,"stv_port":27066,"stv_name":"Uncletopia | London | 6 | All Maps | STV","players":null},{"server_id":40,"name":"Uncletopia | London | 7 | No Payload","name_short":"lon-7","host":"lon-1.uk.uncletopia.com","port":27075,"enabled":true,"region":"eu","cc":"gb","latitude":51.509865,"longitude":-0.118092,"reserved":0,"last_update":"0001-01-01T00:00:00Z","name_a2s":"Uncletopia | London | 7 | No Payload","protocol":17,"map":"koth_highpass","folder":"tf","game":"Team Fortress","app_id":440,"player_count":0,"max_players":24,"Bots":0,"server_type":"Dedicated","server_os":"Linux","password":true,"vac":true,"version":"7757534","steam_id":85568392924964314,"keywords":["cp","nocrits","nodmgspread","uncletopia"],"game_id":440,"stv_port":27076,"stv_name":"Uncletopia | London | 7 | No Payload | STV","players":null},{"server_id":41,"name":"Uncletopia | London | 8 | Community","name_short":"lon-8","host":"lon-1.uk.uncletopia.com","port":27085,"enabled":true,"region":"eu","cc":"gb","latitude":51.509865,"longitude":-0.118092,"reserved":0,"last_update":"0001-01-01T00:00:00Z","name_a2s":"Uncletopia | London | 8 | Community","protocol":17,"map":"cp_altitude","folder":"tf","game":"Team Fortress","app_id":440,"player_count":0,"max_players":24,"Bots":0,"server_type":"Dedicated","server_os":"Linux","password":true,"vac":true,"version":"7757534","steam_id":85568392924964315,"keywords":["cp","nocrits","nodmgspread","uncletopia"],"game_id":440,"stv_port":27086,"stv_name":"Uncletopia | London | 8 | Community | STV","players":null},{"server_id":300,"name":"Uncletopia | Montréal | 1 | All Maps","name_short":"mtl-1","host":"mtl-1.ca.uncletopia.com","port":27015,"enabled":true,"region":"us-east","cc":"ca","latitude":45.50889,"longitude":-73.56167,"reserved":0,"last_update":"0001-01-01T00:00:00Z","name_a2s":"Uncletopia | Montréal | 1 | All Maps","protocol":17,"map":"koth_cascade","folder":"tf","game":"Team Fortress","app_id":440,"player_count":0,"max_players":24,"Bots":0,"server_type":"Dedicated","server_os":"Linux","password":true,"vac":true,"version":"7757534","steam_id":85568392924500087,"keywords":["cp","nocrits","nodmgspread","uncletopia"],"game_id":440,"stv_port":27016,"stv_name":"Uncletopia | Montréal | 1 | All Maps | STV","players":null},{"server_id":301,"name":"Uncletopia | Montréal | 2 | All Maps","name_short":"mtl-2","host":"mtl-1.ca.uncletopia.com","port":27025,"enabled":true,"region":"us-east","cc":"ca","latitude":45.50889,"longitude":-73.56167,"reserved":0,"last_update":"0001-01-01T00:00:00Z","name_a2s":"Uncletopia | Montréal | 2 | All Maps","protocol":17,"map":"cp_snakewater_final1","folder":"tf","game":"Team Fortress","app_id":440,"player_count":0,"max_players":24,"Bots":0,"server_type":"Dedicated","server_os":"Linux","password":true,"vac":true,"version":"7757534","steam_id":85568392924500088,"keywords":["cp","nocrits","nodmgspread","uncletopia"],"game_id":440,"stv_port":27026,"stv_name":"Uncletopia | Montréal | 2 | All Maps | STV","players":null},{"server_id":302,"name":"Uncletopia | Montréal | 3 | All Maps","name_short":"mtl-3","host":"mtl-1.ca.uncletopia.com","port":27035,"enabled":true,"region":"us-east","cc":"ca","latitude":45.50889,"longitude":-73.56167,"reserved":0,"last_update":"0001-01-01T00:00:00Z","name_a2s":"Uncletopia | Montréal | 3 | All Maps","protocol":17,"map":"cp_process_final","folder":"tf","game":"Team Fortress","app_id":440,"player_count":0,"max_players":24,"Bots":0,"server_type":"Dedicated","server_os":"Linux","password":true,"vac":true,"version":"7757534","steam_id":85568392924500089,"keywords":["cp","nocrits","nodmgspread","uncletopia"],"game_id":440,"stv_port":27036,"stv_name":"Uncletopia | Montréal | 3 | All Maps | STV","players":null},{"server_id":303,"name":"Uncletopia | Montréal | 4 | No Payload","name_short":"mtl-4","host":"mtl-1.ca.uncletopia.com","port":27045,"enabled":true,"region":"us-east","cc":"ca","latitude":45.50889,"longitude":-73.56167,"reserved":0,"last_update":"0001-01-01T00:00:00Z","name_a2s":"Uncletopia | Montréal | 4 | No Payload","protocol":17,"map":"plr_pipeline","folder":"tf","game":"Team Fortress","app_id":440,"player_count":0,"max_players":24,"Bots":0,"server_type":"Dedicated","server_os":"Linux","password":true,"vac":true,"version":"7757534","steam_id":85568392924500090,"keywords":["nocrits","nodmgspread","payload","uncletopia"],"game_id":440,"stv_port":27046,"stv_name":"Uncletopia | Montréal | 4 | No Payload | STV","players":null},{"server_id":13,"name":"Uncletopia | New York City | 1 | All Maps","name_short":"nyc-1","host":"nyc-1.us.uncletopia.com","port":27015,"enabled":true,"region":"us-east","cc":"us","latitude":40.73061,"longitude":-73.93524,"reserved":0,"last_update":"0001-01-01T00:00:00Z","name_a2s":"Uncletopia | New York City | 1 | All Maps","protocol":17,"map":"pl_upward","folder":"tf","game":"Team Fortress","app_id":440,"player_count":23,"max_players":24,"Bots":0,"server_type":"Dedicated","server_os":"Linux","password":true,"vac":true,"version":"7757534","steam_id":85568392924469993,"keywords":["nocrits","nodmgspread","payload","uncletopia"],"game_id":440,"stv_port":27016,"stv_name":"Uncletopia | New York City | 1 | All Maps | STV","players":[{"user_id":463,"name":"Sheenzys","steam_id":76561198126741957,"connected_time":36000000000,"state":"active","ping":131},{"user_id":462,"name":"Karma's Camera","steam_id":76561198059385185,"connected_time":197000000000,"state":"active","ping":44},{"user_id":448,"name":"Malex","steam_id":76561198012216805,"connected_time":774000000000,"state":"active","ping":58},{"user_id":445,"name":"alexis❤","steam_id":76561198289333345,"connected_time":960000000000,"state":"active","ping":166},{"user_id":447,"name":"bodi","steam_id":76561199062396598,"connected_time":820000000000,"state":"active","ping":65},{"user_id":450,"name":"Piss Champion","steam_id":76561198059362878,"connected_time":767000000000,"state":"active","ping":61},{"user_id":416,"name":"cyborgor","steam_id":76561198040782513,"connected_time":2749000000000,"state":"active","ping":105},{"user_id":438,"name":"Sushi Cookies","steam_id":76561199008634102,"connected_time":1607000000000,"state":"active","ping":81},{"user_id":391,"name":"the girl gamer with IBS","steam_id":76561198029274581,"connected_time":4849000000000,"state":"active","ping":74},{"user_id":452,"name":"kametro4","steam_id":76561198835430429,"connected_time":702000000000,"state":"active","ping":85},{"user_id":446,"name":"^^","steam_id":76561198101993323,"connected_time":854000000000,"state":"active","ping":69},{"user_id":404,"name":"c3RldmVu","steam_id":76561198173047169,"connected_time":3851000000000,"state":"active","ping":45},{"user_id":453,"name":"Cam(era)","steam_id":76561198285054047,"connected_time":698000000000,"state":"active","ping":94},{"user_id":410,"name":"cream soda enjoyer 29","steam_id":76561198222776116,"connected_time":3470000000000,"state":"active","ping":72},{"user_id":454,"name":"flamingcookies","steam_id":76561198280864779,"connected_time":693000000000,"state":"active","ping":69},{"user_id":436,"name":"tacofever","steam_id":76561198010966507,"connected_time":1857000000000,"state":"active","ping":113},{"user_id":458,"name":"Rudy","steam_id":76561198013456828,"connected_time":552000000000,"state":"active","ping":56},{"user_id":412,"name":"Slightly Less Goofy Goober","steam_id":76561198941700660,"connected_time":3186000000000,"state":"active","ping":110},{"user_id":456,"name":"thundah","steam_id":76561199159928133,"connected_time":676000000000,"state":"active","ping":70},{"user_id":407,"name":"nautical nonsense","steam_id":76561198099412571,"connected_time":3814000000000,"state":"active","ping":57},{"user_id":349,"name":"quinn","steam_id":76561199187747394,"connected_time":8225000000000,"state":"active","ping":60},{"user_id":397,"name":"Walter White","steam_id":76561198875469297,"connected_time":4346000000000,"state":"active","ping":75},{"user_id":408,"name":"phily cheese stake","steam_id":76561198180951431,"connected_time":3808000000000,"state":"active","ping":48}]},{"server_id":14,"name":"Uncletopia | New York City | 2 | All Maps","name_short":"nyc-2","host":"nyc-1.us.uncletopia.com","port":27025,"enabled":true,"region":"us-east","cc":"us","latitude":40.73061,"longitude":-73.93524,"reserved":0,"last_update":"0001-01-01T00:00:00Z","name_a2s":"Uncletopia | New York City | 2 | All Maps","protocol":17,"map":"pl_badwater","folder":"tf","game":"Team Fortress","app_id":440,"player_count":0,"max_players":24,"Bots":0,"server_type":"Dedicated","server_os":"Linux","password":true,"vac":true,"version":"7757534","steam_id":85568392924469994,"keywords":["nocrits","nodmgspread","payload","uncletopia"],"game_id":440,"stv_port":27026,"stv_name":"Uncletopia | New York City | 2 | All Maps | STV","players":null},{"server_id":15,"name":"Uncletopia | New York City | 3 | Stopwatch Beta","name_short":"nyc-3","host":"nyc-1.us.uncletopia.com","port":27035,"enabled":true,"region":"us-east","cc":"us","latitude":40.73061,"longitude":-73.93524,"reserved":0,"last_update":"0001-01-01T00:00:00Z","name_a2s":"Uncletopia | New York City | 3 | Stopwatch Beta","protocol":17,"map":"cp_process_final","folder":"tf","game":"Team Fortress","app_id":440,"player_count":0,"max_players":24,"Bots":0,"server_type":"Dedicated","server_os":"Linux","password":true,"vac":true,"version":"7757534","steam_id":85568392924742820,"keywords":["cp","nocrits","nodmgspread","uncletopia"],"game_id":440,"stv_port":27036,"stv_name":"Uncletopia | New York City | 3 | Stopwatch Beta | STV","players":null},{"server_id":16,"name":"Uncletopia | New York City | 4 | Community","name_short":"nyc-4","host":"nyc-1.us.uncletopia.com","port":27045,"enabled":true,"region":"us-east","cc":"us","latitude":40.73061,"longitude":-73.93524,"reserved":0,"last_update":"0001-01-01T00:00:00Z","name_a2s":"Uncletopia | New York City | 4 | Community","protocol":17,"map":"workshop/koth_bagel_rc6.ugc2514036946","folder":"tf","game":"Team Fortress","app_id":440,"player_count":0,"max_players":24,"Bots":0,"server_type":"Dedicated","server_os":"Linux","password":true,"vac":true,"version":"7757534","steam_id":85568392924742821,"keywords":["cp","nocrits","nodmgspread","uncletopia"],"game_id":440,"stv_port":27046,"stv_name":"Uncletopia | New York City | 4 | Community | STV","players":null},{"server_id":142,"name":"Uncletopia | São Paulo | 1 | All Maps","name_short":"sao-1","host":"sao-1.br.uncletopia.com","port":27015,"enabled":true,"region":"sa","cc":"br","latitude":-23.533773,"longitude":-46.62529,"reserved":0,"last_update":"0001-01-01T00:00:00Z","name_a2s":"Uncletopia | São Paulo | 1 | All Maps","protocol":17,"map":"pl_barnblitz","folder":"tf","game":"Team Fortress","app_id":440,"player_count":0,"max_players":24,"Bots":0,"server_type":"Dedicated","server_os":"Linux","password":true,"vac":true,"version":"7757534","steam_id":85568392924469996,"keywords":["nocrits","nodmgspread","payload","uncletopia"],"game_id":440,"stv_port":27016,"stv_name":"Uncletopia | São Paulo | 1 | All Maps | STV","players":null},{"server_id":143,"name":"Uncletopia | São Paulo | 2 | All Maps","name_short":"sao-2","host":"sao-2.br.uncletopia.com","port":27015,"enabled":true,"region":"sa","cc":"br","latitude":-23.533773,"longitude":-46.62529,"reserved":0,"last_update":"0001-01-01T00:00:00Z","name_a2s":"Uncletopia | São Paulo | 2 | All Maps","protocol":17,"map":"pl_frontier_final","folder":"tf","game":"Team Fortress","app_id":440,"player_count":0,"max_players":24,"Bots":0,"server_type":"Dedicated","server_os":"Linux","password":true,"vac":true,"version":"7757534","steam_id":85568392924485349,"keywords":["nocrits","nodmgspread","payload","uncletopia"],"game_id":440,"stv_port":27016,"stv_name":"Uncletopia | São Paulo | 2 | All Maps | STV","players":null},{"server_id":7,"name":"Uncletopia | Seattle | 1 | All Maps","name_short":"sea-1","host":"sea-1.us.uncletopia.com","port":27015,"enabled":true,"region":"us-west","cc":"us","latitude":47.608013,"longitude":-122.33517,"reserved":0,"last_update":"0001-01-01T00:00:00Z","name_a2s":"Uncletopia | Seattle | 1 | All Maps","protocol":17,"map":"pl_frontier_final","folder":"tf","game":"Team Fortress","app_id":440,"player_count":24,"max_players":24,"Bots":0,"server_type":"Dedicated","server_os":"Linux","password":true,"vac":true,"version":"7757534","steam_id":85568392924469997,"keywords":["nocrits","nodmgspread","payload","uncletopia"],"game_id":440,"stv_port":27016,"stv_name":"Uncletopia | Seattle | 1 | All Maps | STV","players":[{"user_id":514,"name":"makcmik2","steam_id":76561198242544518,"connected_time":2938000000000,"state":"active","ping":62},{"user_id":511,"name":"DatFluffyPancake","steam_id":76561198271958697,"connected_time":3149000000000,"state":"active","ping":67},{"user_id":479,"name":"Lambchop","steam_id":76561198043900363,"connected_time":6362000000000,"state":"active","ping":75},{"user_id":542,"name":"flowstate","steam_id":76561198095480838,"connected_time":1175000000000,"state":"active","ping":45},{"user_id":540,"name":"Redposting (she/her)","steam_id":76561199058928262,"connected_time":1290000000000,"state":"active","ping":79},{"user_id":520,"name":"Arsonist Goose","steam_id":76561198147441830,"connected_time":2302000000000,"state":"active","ping":72},{"user_id":546,"name":"CantPlayAtAll","steam_id":76561198132749765,"connected_time":1036000000000,"state":"active","ping":93},{"user_id":548,"name":"Gary, 40, soul sucking 9-5","steam_id":76561198073812888,"connected_time":669000000000,"state":"active","ping":42},{"user_id":541,"name":"sora","steam_id":76561198094256973,"connected_time":1228000000000,"state":"active","ping":64},{"user_id":508,"name":"Erk-Kirk","steam_id":76561198288954914,"connected_time":3746000000000,"state":"active","ping":99},{"user_id":519,"name":"soup","steam_id":76561198043209046,"connected_time":2307000000000,"state":"active","ping":91},{"user_id":524,"name":"AilurosMajor88","steam_id":76561198350900640,"connected_time":2249000000000,"state":"active","ping":58},{"user_id":531,"name":"Thanks Ants","steam_id":76561197966221018,"connected_time":1682000000000,"state":"active","ping":50},{"user_id":510,"name":"exephur","steam_id":76561198135763234,"connected_time":3710000000000,"state":"active","ping":64},{"user_id":504,"name":"Cheezbeargur","steam_id":76561198164702899,"connected_time":4436000000000,"state":"active","ping":71},{"user_id":544,"name":"charm quark","steam_id":76561198098770777,"connected_time":1136000000000,"state":"active","ping":52},{"user_id":516,"name":"mac_cheese","steam_id":76561198071334162,"connected_time":2698000000000,"state":"active","ping":45},{"user_id":539,"name":"Sweets","steam_id":76561198998446307,"connected_time":1362000000000,"state":"active","ping":65},{"user_id":503,"name":"Cob","steam_id":76561198042518365,"connected_time":4446000000000,"state":"active","ping":65},{"user_id":529,"name":"jilga","steam_id":76561198162075431,"connected_time":1963000000000,"state":"active","ping":79},{"user_id":527,"name":"aces","steam_id":76561199038040891,"connected_time":2226000000000,"state":"active","ping":120},{"user_id":528,"name":"House_Maid.YT","steam_id":76561198153333519,"connected_time":2224000000000,"state":"active","ping":73},{"user_id":538,"name":"dimpled","steam_id":76561197983120236,"connected_time":1397000000000,"state":"active","ping":55},{"user_id":545,"name":"George Washington","steam_id":76561198033828615,"connected_time":1136000000000,"state":"active","ping":70}]},{"server_id":119,"name":"Uncletopia | Seattle | 2 | All Maps","name_short":"sea-2","host":"sea-1.us.uncletopia.com","port":27025,"enabled":true,"region":"us-west","cc":"us","latitude":47.608013,"longitude":-122.33517,"reserved":0,"last_update":"0001-01-01T00:00:00Z","name_a2s":"Uncletopia | Seattle | 2 | All Maps","protocol":17,"map":"pl_frontier_final","folder":"tf","game":"Team Fortress","app_id":440,"player_count":23,"max_players":24,"Bots":0,"server_type":"Dedicated","server_os":"Linux","password":true,"vac":true,"version":"7757534","steam_id":85568392924469998,"keywords":["nocrits","nodmgspread","payload","uncletopia"],"game_id":440,"stv_port":27026,"stv_name":"Uncletopia | Seattle | 2 | All Maps | STV","players":[{"user_id":726,"name":"todd","steam_id":76561198096671524,"connected_time":35000000000,"state":"active","ping":62},{"user_id":709,"name":"Psychosis","steam_id":76561198078659070,"connected_time":1186000000000,"state":"active","ping":126},{"user_id":699,"name":"mumbles","steam_id":76561197994528974,"connected_time":2483000000000,"state":"active","ping":79},{"user_id":705,"name":"2 Point Tom","steam_id":76561198087617008,"connected_time":1225000000000,"state":"active","ping":53},{"user_id":727,"name":"gun spy gaming","steam_id":76561198880739963,"connected_time":23000000000,"state":"active","ping":57},{"user_id":708,"name":"That1GuyonPoint","steam_id":76561199368439153,"connected_time":1193000000000,"state":"active","ping":147},{"user_id":707,"name":"Cut Throat Bill","steam_id":76561198170119157,"connected_time":1202000000000,"state":"active","ping":156},{"user_id":720,"name":"armpit fetishist","steam_id":76561199008452637,"connected_time":751000000000,"state":"active","ping":27},{"user_id":725,"name":"Sacrificial Wormy","steam_id":76561198054539200,"connected_time":57000000000,"state":"active","ping":47},{"user_id":728,"name":"Cloudylive","steam_id":76561198870456040,"connected_time":21000000000,"state":"active","ping":52},{"user_id":693,"name":"Keamy","steam_id":76561199471434875,"connected_time":3187000000000,"state":"active","ping":30},{"user_id":697,"name":"The Super Mario Bros. Movie","steam_id":76561198871692156,"connected_time":3090000000000,"state":"active","ping":49},{"user_id":722,"name":"KingToaster","steam_id":76561198007903802,"connected_time":417000000000,"state":"active","ping":30},{"user_id":721,"name":"kodynotcody","steam_id":76561198340685758,"connected_time":538000000000,"state":"active","ping":61},{"user_id":638,"name":"Moth","steam_id":76561198170253694,"connected_time":7021000000000,"state":"active","ping":59},{"user_id":715,"name":"Dezzithediscoduck","steam_id":76561198037043489,"connected_time":1064000000000,"state":"active","ping":61},{"user_id":689,"name":"laggy mcstab","steam_id":76561198106379962,"connected_time":3440000000000,"state":"active","ping":53},{"user_id":701,"name":"Gooner Witch","steam_id":76561198305488625,"connected_time":1932000000000,"state":"active","ping":68},{"user_id":723,"name":"Spek","steam_id":76561198051816190,"connected_time":137000000000,"state":"active","ping":89},{"user_id":704,"name":"Adobe Photoshop","steam_id":76561198840524987,"connected_time":1238000000000,"state":"active","ping":110},{"user_id":719,"name":"watchfull","steam_id":76561198433266742,"connected_time":827000000000,"state":"active","ping":58},{"user_id":724,"name":"Lapis","steam_id":76561198095034966,"connected_time":86000000000,"state":"active","ping":113},{"user_id":687,"name":"frog piss drinker","steam_id":76561198424248616,"connected_time":3744000000000,"state":"active","ping":75}]},{"server_id":406,"name":"Uncletopia | Seattle | 3 | Stopwatch Beta","name_short":"sea-3","host":"sea-1.us.uncletopia.com","port":27035,"enabled":true,"region":"us-west","cc":"us","latitude":47.608013,"longitude":-122.33517,"reserved":0,"last_update":"0001-01-01T00:00:00Z","name_a2s":"Uncletopia | Seattle | 3 | Stopwatch Beta","protocol":17,"map":"workshop/koth_product_final.ugc454272353","folder":"tf","game":"Team Fortress","app_id":440,"player_count":0,"max_players":24,"Bots":0,"server_type":"Dedicated","server_os":"Linux","password":true,"vac":true,"version":"7757534","steam_id":85568392924515217,"keywords":["cp","nocrits","nodmgspread","uncletopia"],"game_id":440,"stv_port":27036,"stv_name":"Uncletopia | Seattle | 3 | Stopwatch Beta | STV","players":null},{"server_id":17,"name":"Uncletopia | San Francisco | 1 | All Maps","name_short":"sfo-1","host":"sfo-1.us.uncletopia.com","port":27015,"enabled":true,"region":"us-west","cc":"us","latitude":37.77397,"longitude":-122.4313,"reserved":0,"last_update":"0001-01-01T00:00:00Z","name_a2s":"Uncletopia | San Francisco | 1 | All Maps","protocol":17,"map":"koth_cascade","folder":"tf","game":"Team Fortress","app_id":440,"player_count":20,"max_players":24,"Bots":0,"server_type":"Dedicated","server_os":"Linux","password":true,"vac":true,"version":"7757534","steam_id":85568392924469999,"keywords":["cp","nocrits","nodmgspread","uncletopia"],"game_id":440,"stv_port":27016,"stv_name":"Uncletopia | San Francisco | 1 | All Maps | STV","players":[{"user_id":584,"name":"resh","steam_id":76561198239598834,"connected_time":2611000000000,"state":"active","ping":113},{"user_id":550,"name":"Blank_Sicon","steam_id":76561198887041407,"connected_time":5035000000000,"state":"active","ping":77},{"user_id":534,"name":"p9 delight","steam_id":76561197980280272,"connected_time":6162000000000,"state":"active","ping":60},{"user_id":569,"name":"WolfMan","steam_id":76561198068681658,"connected_time":3771000000000,"state":"active","ping":73},{"user_id":547,"name":"fire type goblin","steam_id":76561198073269122,"connected_time":5317000000000,"state":"active","ping":106},{"user_id":586,"name":"Sploinky The Frog","steam_id":76561199269700651,"connected_time":2532000000000,"state":"active","ping":53},{"user_id":592,"name":"Flyingcat9000","steam_id":76561198179561797,"connected_time":1454000000000,"state":"active","ping":30},{"user_id":466,"name":"shawarma.lord007","steam_id":76561198115458307,"connected_time":12239000000000,"state":"active","ping":53},{"user_id":539,"name":"Jimmy","steam_id":76561198857959855,"connected_time":5591000000000,"state":"active","ping":60},{"user_id":607,"name":"[Bandit]","steam_id":76561197986919852,"connected_time":67000000000,"state":"active","ping":70},{"user_id":538,"name":"NEBULA","steam_id":76561198086878595,"connected_time":5794000000000,"state":"active","ping":62},{"user_id":598,"name":"THE CAPN","steam_id":76561198170210979,"connected_time":1057000000000,"state":"active","ping":57},{"user_id":591,"name":"DaBeatGoOff?","steam_id":76561198106507400,"connected_time":1469000000000,"state":"active","ping":63},{"user_id":599,"name":"套利者","steam_id":76561198068672882,"connected_time":604000000000,"state":"active","ping":49},{"user_id":548,"name":"Melody","steam_id":76561198407789232,"connected_time":5248000000000,"state":"active","ping":70},{"user_id":529,"name":"esports professional","steam_id":76561198169755734,"connected_time":6647000000000,"state":"active","ping":45},{"user_id":603,"name":"Nuggies","steam_id":76561198272432592,"connected_time":439000000000,"state":"active","ping":58},{"user_id":573,"name":"Leonardo Doujinshi","steam_id":76561198073531273,"connected_time":3631000000000,"state":"active","ping":60},{"user_id":605,"name":"Octo","steam_id":76561198813471705,"connected_time":225000000000,"state":"active","ping":71},{"user_id":492,"name":"p9 jorts FULL of pilk","steam_id":76561199041179985,"connected_time":10384000000000,"state":"active","ping":74}]},{"server_id":18,"name":"Uncletopia | San Francisco | 2 | All Maps","name_short":"sfo-2","host":"sfo-1.us.uncletopia.com","port":27025,"enabled":true,"region":"us-west","cc":"us","latitude":37.77397,"longitude":-122.4313,"reserved":0,"last_update":"0001-01-01T00:00:00Z","name_a2s":"Uncletopia | San Francisco | 2 | All Maps","protocol":17,"map":"pl_upward","folder":"tf","game":"Team Fortress","app_id":440,"player_count":24,"max_players":24,"Bots":0,"server_type":"Dedicated","server_os":"Linux","password":true,"vac":true,"version":"7757534","steam_id":85568392924470000,"keywords":["nocrits","nodmgspread","payload","uncletopia"],"game_id":440,"stv_port":27026,"stv_name":"Uncletopia | San Francisco | 2 | All Maps | STV","players":[{"user_id":231,"name":"Tene","steam_id":76561198067331312,"connected_time":584000000000,"state":"active","ping":107},{"user_id":217,"name":"evril vvizard miku","steam_id":76561198164445414,"connected_time":2568000000000,"state":"active","ping":54},{"user_id":232,"name":"Durazorn","steam_id":76561198096327396,"connected_time":536000000000,"state":"active","ping":113},{"user_id":233,"name":"BasedGod","steam_id":76561198061177973,"connected_time":531000000000,"state":"active","ping":46},{"user_id":230,"name":"Nova Academy of Salmon Action","steam_id":76561198021842526,"connected_time":709000000000,"state":"active","ping":63},{"user_id":175,"name":"Rusty","steam_id":76561198055585129,"connected_time":7782000000000,"state":"active","ping":70},{"user_id":234,"name":"the cheeseler","steam_id":76561198121139811,"connected_time":529000000000,"state":"active","ping":114},{"user_id":179,"name":"Gangsta Spongebob","steam_id":76561198011223438,"connected_time":6913000000000,"state":"active","ping":82},{"user_id":240,"name":"suave","steam_id":76561198294281809,"connected_time":146000000000,"state":"active","ping":61},{"user_id":227,"name":"bonk man","steam_id":76561198386542309,"connected_time":850000000000,"state":"active","ping":133},{"user_id":177,"name":"Merci?","steam_id":76561198096823118,"connected_time":7469000000000,"state":"active","ping":94},{"user_id":181,"name":"big car","steam_id":76561198067082350,"connected_time":5912000000000,"state":"active","ping":56},{"user_id":159,"name":"kaede","steam_id":76561198345528370,"connected_time":8888000000000,"state":"active","ping":45},{"user_id":235,"name":"Chili","steam_id":76561198042942046,"connected_time":525000000000,"state":"active","ping":83},{"user_id":187,"name":"Goobigan","steam_id":76561198072790366,"connected_time":5248000000000,"state":"active","ping":76},{"user_id":133,"name":"jj874181","steam_id":76561199455124144,"connected_time":10271000000000,"state":"active","ping":82},{"user_id":241,"name":"Strausicle","steam_id":76561198983332062,"connected_time":25000000000,"state":"active","ping":373},{"user_id":225,"name":"xlesz","steam_id":76561199020119161,"connected_time":1345000000000,"state":"active","ping":61},{"user_id":236,"name":"Quietsharp","steam_id":76561198277968438,"connected_time":371000000000,"state":"active","ping":68},{"user_id":237,"name":"snby","steam_id":76561198868600487,"connected_time":356000000000,"state":"active","ping":116},{"user_id":238,"name":"Milotic (demo arc day 2)","steam_id":76561198047995713,"connected_time":285000000000,"state":"active","ping":70},{"user_id":222,"name":"dog (real)","steam_id":76561198041770884,"connected_time":2119000000000,"state":"active","ping":55},{"user_id":203,"name":"Dop_Pop_Bop","steam_id":76561198803110941,"connected_time":4125000000000,"state":"active","ping":71},{"user_id":239,"name":"touka","steam_id":76561198171521806,"connected_time":275000000000,"state":"active","ping":78}]},{"server_id":19,"name":"Uncletopia | San Francisco | 3 | Stopwatch Beta","name_short":"sfo-3","host":"sfo-1.us.uncletopia.com","port":27035,"enabled":true,"region":"us-west","cc":"us","latitude":37.77397,"longitude":-122.4313,"reserved":0,"last_update":"0001-01-01T00:00:00Z","name_a2s":"Uncletopia | San Francisco | 3 | Stopwatch Beta","protocol":17,"map":"workshop/koth_ramjam_rc1.ugc459778887","folder":"tf","game":"Team Fortress","app_id":440,"player_count":0,"max_players":24,"Bots":0,"server_type":"Dedicated","server_os":"Linux","password":true,"vac":true,"version":"7757534","steam_id":85568392924742824,"keywords":["cp","nocrits","nodmgspread","uncletopia"],"game_id":440,"stv_port":27036,"stv_name":"Uncletopia | San Francisco | 3 | Stopwatch Beta | STV","players":null},{"server_id":20,"name":"Uncletopia | San Francisco | 4 | Community","name_short":"sfo-4","host":"sfo-1.us.uncletopia.com","port":27045,"enabled":true,"region":"us-west","cc":"us","latitude":37.77397,"longitude":-122.4313,"reserved":0,"last_update":"0001-01-01T00:00:00Z","name_a2s":"Uncletopia | San Francisco | 4 | Community","protocol":17,"map":"workshop/cp_glacier_rc6.ugc2905735376","folder":"tf","game":"Team Fortress","app_id":440,"player_count":1,"max_players":24,"Bots":0,"server_type":"Dedicated","server_os":"Linux","password":true,"vac":true,"version":"7757534","steam_id":85568392924742826,"keywords":["cp","nocrits","nodmgspread","uncletopia"],"game_id":440,"stv_port":27046,"stv_name":"Uncletopia | San Francisco | 4 | Community | STV","players":[{"user_id":245,"name":"Teleport Exit","steam_id":76561198010241662,"connected_time":67000000000,"state":"active","ping":99}]},{"server_id":141,"name":"Uncletopia | Sydney | 1 | All Maps","name_short":"syd-1","host":"syd-1.au.uncletopia.com","port":27015,"enabled":true,"region":"au","cc":"au","latitude":-33.865143,"longitude":151.2099,"reserved":0,"last_update":"0001-01-01T00:00:00Z","name_a2s":"Uncletopia | Sydney | 1 | All Maps","protocol":17,"map":"koth_viaduct","folder":"tf","game":"Team Fortress","app_id":440,"player_count":24,"max_players":24,"Bots":0,"server_type":"Dedicated","server_os":"Linux","password":true,"vac":true,"version":"7757534","steam_id":85568392924470001,"keywords":["cp","nocrits","nodmgspread","uncletopia"],"game_id":440,"stv_port":27016,"stv_name":"Uncletopia | Sydney | 1 | All Maps | STV","players":[{"user_id":449,"name":"Tantei Rotana","steam_id":76561198041204323,"connected_time":395000000000,"state":"active","ping":62},{"user_id":440,"name":"wombraidre","steam_id":76561199375834537,"connected_time":1308000000000,"state":"active","ping":130},{"user_id":450,"name":"Pew pew pew!","steam_id":76561198004120277,"connected_time":368000000000,"state":"active","ping":41},{"user_id":452,"name":"hazz_mcpie -BvM-","steam_id":76561198092450084,"connected_time":269000000000,"state":"active","ping":84},{"user_id":386,"name":"Arbitrage Opportunity","steam_id":76561198031293430,"connected_time":5402000000000,"state":"active","ping":86},{"user_id":431,"name":"IM RETARDED","steam_id":76561198836003115,"connected_time":1546000000000,"state":"active","ping":64},{"user_id":453,"name":"Sinister80s","steam_id":76561198343540472,"connected_time":228000000000,"state":"active","ping":65},{"user_id":407,"name":"skeledaddy","steam_id":76561197993043203,"connected_time":3145000000000,"state":"active","ping":58},{"user_id":444,"name":"Monad (Trans-Girl Arc)","steam_id":76561198895999428,"connected_time":1015000000000,"state":"active","ping":56},{"user_id":451,"name":"Doodles ♛","steam_id":76561198023807247,"connected_time":361000000000,"state":"active","ping":60},{"user_id":397,"name":"doctor morbin' (real)","steam_id":76561199365241695,"connected_time":4023000000000,"state":"active","ping":121},{"user_id":455,"name":"CheeseFlag126","steam_id":76561199262769917,"connected_time":197000000000,"state":"active","ping":71},{"user_id":441,"name":"pecunia","steam_id":76561198334403232,"connected_time":1251000000000,"state":"active","ping":139},{"user_id":388,"name":"Livid","steam_id":76561198060024585,"connected_time":5176000000000,"state":"active","ping":33},{"user_id":454,"name":"zore","steam_id":76561198016233021,"connected_time":227000000000,"state":"active","ping":60},{"user_id":404,"name":"BLORZINGUS","steam_id":76561198063481761,"connected_time":3160000000000,"state":"active","ping":42},{"user_id":434,"name":"Beehive","steam_id":76561199436707447,"connected_time":1494000000000,"state":"active","ping":55},{"user_id":421,"name":"modus","steam_id":76561198025099660,"connected_time":2416000000000,"state":"active","ping":32},{"user_id":442,"name":"JmayTheUnknown","steam_id":76561198217463552,"connected_time":1227000000000,"state":"active","ping":74},{"user_id":446,"name":"Sainator","steam_id":76561198202770490,"connected_time":917000000000,"state":"active","ping":73},{"user_id":426,"name":"soupy","steam_id":76561198073734936,"connected_time":1944000000000,"state":"active","ping":91},{"user_id":443,"name":"Tiger_Tan","steam_id":76561198221733844,"connected_time":1017000000000,"state":"active","ping":64},{"user_id":447,"name":"michael","steam_id":76561198052848358,"connected_time":826000000000,"state":"active","ping":64},{"user_id":457,"name":"Ashes","steam_id":76561198105820742,"connected_time":70000000000,"state":"active","ping":75}]},{"server_id":123,"name":"Uncletopia | Sydney | 2 | All Maps","name_short":"syd-2","host":"syd-1.au.uncletopia.com","port":27025,"enabled":true,"region":"au","cc":"au","latitude":-33.865143,"longitude":151.2099,"reserved":0,"last_update":"0001-01-01T00:00:00Z","name_a2s":"Uncletopia | Sydney | 2 | All Maps","protocol":17,"map":"pl_pier","folder":"tf","game":"Team Fortress","app_id":440,"player_count":0,"max_players":24,"Bots":0,"server_type":"Dedicated","server_os":"Linux","password":true,"vac":true,"version":"7757534","steam_id":85568392924470002,"keywords":["nocrits","nodmgspread","payload","uncletopia"],"game_id":440,"stv_port":27026,"stv_name":"Uncletopia | Sydney | 2 | All Maps | STV","players":null},{"server_id":395,"name":"Uncletopia | Sydney | 3 | All Maps","name_short":"syd-3","host":"syd-1.au.uncletopia.com","port":27035,"enabled":true,"region":"au","cc":"au","latitude":-33.865143,"longitude":151.2099,"reserved":0,"last_update":"0001-01-01T00:00:00Z","name_a2s":"Uncletopia | Sydney | 3 | All Maps","protocol":17,"map":"koth_lakeside_final","folder":"tf","game":"Team Fortress","app_id":440,"player_count":0,"max_players":24,"Bots":0,"server_type":"Dedicated","server_os":"Linux","password":true,"vac":true,"version":"7757534","steam_id":85568392925194467,"keywords":["cp","nocrits","nodmgspread","uncletopia"],"game_id":440,"stv_port":27036,"stv_name":"Uncletopia | Sydney | 3 | All Maps | STV","players":null},{"server_id":396,"name":"Uncletopia | Sydney | 4 | All Maps","name_short":"syd-4","host":"syd-1.au.uncletopia.com","port":27045,"enabled":true,"region":"au","cc":"au","latitude":-33.865143,"longitude":151.2099,"reserved":0,"last_update":"0001-01-01T00:00:00Z","name_a2s":"Uncletopia | Sydney | 4 | All Maps","protocol":17,"map":"koth_lakeside_final","folder":"tf","game":"Team Fortress","app_id":440,"player_count":0,"max_players":24,"Bots":0,"server_type":"Dedicated","server_os":"Linux","password":true,"vac":true,"version":"7757534","steam_id":85568392925397958,"keywords":["cp","nocrits","nodmgspread","uncletopia"],"game_id":440,"stv_port":27046,"stv_name":"Uncletopia | Sydney | 4 | All Maps | STV","players":null},{"server_id":58,"name":"Uncletopia | Sydney | 5 | Stopwatch Beta","name_short":"syd-5","host":"syd-1.au.uncletopia.com","port":27055,"enabled":true,"region":"au","cc":"au","latitude":-33.865143,"longitude":151.2099,"reserved":0,"last_update":"0001-01-01T00:00:00Z","name_a2s":"Uncletopia | Sydney | 5 | Stopwatch Beta","protocol":17,"map":"koth_cascade","folder":"tf","game":"Team Fortress","app_id":440,"player_count":0,"max_players":24,"Bots":0,"server_type":"Dedicated","server_os":"Linux","password":true,"vac":true,"version":"7757534","steam_id":85568392925397959,"keywords":["cp","nocrits","nodmgspread","uncletopia"],"game_id":440,"stv_port":27056,"stv_name":"Uncletopia | Sydney | 5 | Stopwatch Beta | STV","players":null},{"server_id":59,"name":"Uncletopia | Sydney | 6 | Community","name_short":"syd-6","host":"syd-1.au.uncletopia.com","port":27065,"enabled":true,"region":"au","cc":"au","latitude":-33.865143,"longitude":151.2099,"reserved":0,"last_update":"0001-01-01T00:00:00Z","name_a2s":"Uncletopia | Sydney | 6 | Community","protocol":17,"map":"workshop/koth_kemptown_rc1.ugc767410655","folder":"tf","game":"Team Fortress","app_id":440,"player_count":0,"max_players":24,"Bots":0,"server_type":"Dedicated","server_os":"Linux","password":true,"vac":true,"version":"7757534","steam_id":85568392925397960,"keywords":["cp","nocrits","nodmgspread","uncletopia"],"game_id":440,"stv_port":27066,"stv_name":"Uncletopia | Sydney | 6 | Community | STV","players":null},{"server_id":49,"name":"Uncletopia | Warsaw | 1 | All Maps","name_short":"waw-1","host":"waw-1.pl.uncletopia.com","port":27015,"enabled":true,"region":"eu","cc":"pl","latitude":52.2297,"longitude":21.017532,"reserved":0,"last_update":"0001-01-01T00:00:00Z","name_a2s":"","protocol":0,"map":"","folder":"","game":"","app_id":0,"player_count":0,"max_players":0,"Bots":0,"server_type":"","server_os":"","password":false,"vac":false,"version":"","steam_id":0,"keywords":null,"game_id":0,"stv_port":0,"stv_name":"","players":null},{"server_id":50,"name":"Uncletopia | Warsaw | 2 | All Maps","name_short":"waw-2","host":"waw-1.pl.uncletopia.com","port":27025,"enabled":true,"region":"eu","cc":"pl","latitude":52.2297,"longitude":21.017532,"reserved":0,"last_update":"0001-01-01T00:00:00Z","name_a2s":"Uncletopia | Warsaw | 2 | All Maps","protocol":17,"map":"pl_upward","folder":"tf","game":"Team Fortress","app_id":440,"player_count":0,"max_players":24,"Bots":0,"server_type":"Dedicated","server_os":"Linux","password":true,"vac":true,"version":"7757534","steam_id":85568392925397851,"keywords":["nocrits","nodmgspread","payload","uncletopia"],"game_id":440,"stv_port":27026,"stv_name":"Uncletopia | Warsaw | 2 | All Maps | STV","players":null},{"server_id":51,"name":"Uncletopia | Warsaw | 3 | All Maps","name_short":"waw-3","host":"waw-1.pl.uncletopia.com","port":27035,"enabled":true,"region":"eu","cc":"pl","latitude":52.2297,"longitude":21.017532,"reserved":0,"last_update":"0001-01-01T00:00:00Z","name_a2s":"Uncletopia | Warsaw | 3 | All Maps","protocol":17,"map":"pl_barnblitz","folder":"tf","game":"Team Fortress","app_id":440,"player_count":0,"max_players":24,"Bots":0,"server_type":"Dedicated","server_os":"Linux","password":true,"vac":true,"version":"7757534","steam_id":85568392925397852,"keywords":["nocrits","nodmgspread","payload","uncletopia"],"game_id":440,"stv_port":27036,"stv_name":"Uncletopia | Warsaw | 3 | All Maps | STV","players":null},{"server_id":52,"name":"Uncletopia | Warsaw | 4 | All Maps","name_short":"waw-4","host":"waw-1.pl.uncletopia.com","port":27045,"enabled":true,"region":"eu","cc":"pl","latitude":52.2297,"longitude":21.017532,"reserved":0,"last_update":"0001-01-01T00:00:00Z","name_a2s":"Uncletopia | Warsaw | 4 | All Maps","protocol":17,"map":"cp_altitude","folder":"tf","game":"Team Fortress","app_id":440,"player_count":0,"max_players":24,"Bots":0,"server_type":"Dedicated","server_os":"Linux","password":true,"vac":true,"version":"7757534","steam_id":85568392925397853,"keywords":["cp","nocrits","nodmgspread","uncletopia"],"game_id":440,"stv_port":27046,"stv_name":"Uncletopia | Warsaw | 4 | All Maps | STV","players":null},{"server_id":53,"name":"Uncletopia | Warsaw | 5 | Stopwatch Beta","name_short":"waw-5","host":"waw-1.pl.uncletopia.com","port":27055,"enabled":true,"region":"eu","cc":"pl","latitude":52.2297,"longitude":21.017532,"reserved":0,"last_update":"0001-01-01T00:00:00Z","name_a2s":"Uncletopia | Warsaw | 5 | Stopwatch Beta","protocol":17,"map":"pl_pier","folder":"tf","game":"Team Fortress","app_id":440,"player_count":0,"max_players":24,"Bots":0,"server_type":"Dedicated","server_os":"Linux","password":true,"vac":true,"version":"7757534","steam_id":85568392925397854,"keywords":["nocrits","nodmgspread","payload","uncletopia"],"game_id":440,"stv_port":27056,"stv_name":"Uncletopia | Warsaw | 5 | Stopwatch Beta | STV","players":null},{"server_id":54,"name":"Uncletopia | Warsaw | 6 | Community","name_short":"waw-6","host":"waw-1.pl.uncletopia.com","port":27065,"enabled":true,"region":"eu","cc":"pl","latitude":52.2297,"longitude":21.017532,"reserved":0,"last_update":"0001-01-01T00:00:00Z","name_a2s":"Uncletopia | Warsaw | 6 | Community","protocol":17,"map":"koth_highpass","folder":"tf","game":"Team Fortress","app_id":440,"player_count":0,"max_players":24,"Bots":0,"server_type":"Dedicated","server_os":"Linux","password":true,"vac":true,"version":"7757534","steam_id":85568392925397856,"keywords":["cp","nocrits","nodmgspread","uncletopia"],"game_id":440,"stv_port":27066,"stv_name":"Uncletopia | Warsaw | 6 | Community | STV","players":null}]}