{"status":true,"message":"","result":[{"server_id":9,"name":"Uncletopia | Atlanta | 1 | All Maps","name_short":"atl-1","host":"atl-1.us.uncletopia.com","port":27015,"enabled":true,"region":"us-east","cc":"us","latitude":33.753746,"longitude":-84.38633,"reserved":0,"last_update":"0001-01-01T00:00:00Z","name_a2s":"Uncletopia | Atlanta | 1 | All Maps","protocol":17,"map":"pl_snowycoast","folder":"tf","game":"Team Fortress","app_id":440,"player_count":23,"max_players":24,"Bots":0,"server_type":"Dedicated","server_os":"Linux","password":true,"vac":true,"version":"7742253","steam_id":85568392924469982,"keywords":["nocrits","nodmgspread","payload","uncletopia"],"game_id":440,"stv_port":27016,"stv_name":"Uncletopia | Atlanta | 1 | All Maps | STV","players":[{"user_id":275,"name":"Johnny Lawrence #JohnnyMaxxing","steam_id":76561199367141671,"connected_time":292000000000,"state":"active","ping":62},{"user_id":276,"name":"christmastreebee","steam_id":76561199217507591,"connected_time":202000000000,"state":"active","ping":66},{"user_id":266,"name":"TheRealFezz","steam_id":76561198023644271,"connected_time":1019000000000,"state":"active","ping":66},{"user_id":182,"name":"Tonie","steam_id":76561198022261119,"connected_time":7627000000000,"state":"active","ping":121},{"user_id":258,"name":"ndvr","steam_id":76561199379200102,"connected_time":1761000000000,"state":"active","ping":62},{"user_id":274,"name":"Louis","steam_id":76561198152010204,"connected_time":310000000000,"state":"active","ping":69},{"user_id":260,"name":"will b. gaming","steam_id":76561198101707249,"connected_time":1138000000000,"state":"active","ping":54},{"user_id":277,"name":"xyt0nix","steam_id":76561199437938235,"connected_time":140000000000,"state":"active","ping":59},{"user_id":270,"name":"David De Bergerac","steam_id":76561198010306294,"connected_time":687000000000,"state":"active","ping":76},{"user_id":247,"name":"crit","steam_id":76561198813574552,"connected_time":2681000000000,"state":"active","ping":46},{"user_id":220,"name":"Daniel","steam_id":76561199086060699,"connected_time":4006000000000,"state":"active","ping":56},{"user_id":278,"name":"David The Gamer Boy","steam_id":76561198170036259,"connected_time":106000000000,"state":"active","ping":60},{"user_id":203,"name":"Bunt","steam_id":76561198124477567,"connected_time":5720000000000,"state":"active","ping":41},{"user_id":215,"name":"lost in the sauce","steam_id":76561199043827112,"connected_time":4615000000000,"state":"active","ping":76},{"user_id":273,"name":"thomasdee725","steam_id":76561199189526173,"connected_time":498000000000,"state":"active","ping":76},{"user_id":222,"name":"SomeRandomPerson (f2p)","steam_id":76561198977045933,"connected_time":3864000000000,"state":"active","ping":73},{"user_id":125,"name":"--_Cook_--","steam_id":76561198080855748,"connected_time":12956000000000,"state":"active","ping":63},{"user_id":279,"name":"Room","steam_id":76561199174579733,"connected_time":102000000000,"state":"active","ping":70},{"user_id":262,"name":"chexo4","steam_id":76561198150532531,"connected_time":1130000000000,"state":"active","ping":57},{"user_id":223,"name":"meghan trainor's bass","steam_id":76561198075858067,"connected_time":3813000000000,"state":"active","ping":62},{"user_id":263,"name":"Frajer","steam_id":76561198059129680,"connected_time":1121000000000,"state":"active","ping":79},{"user_id":224,"name":"I_Ate_John_F_Kennedy","steam_id":76561199386157451,"connected_time":3806000000000,"state":"active","ping":65},{"user_id":159,"name":"knotsofunny","steam_id":76561198071336304,"connected_time":10189000000000,"state":"active","ping":71}]},{"server_id":400,"name":"Uncletopia | Atlanta | 3 | Stopwatch Beta","name_short":"atl-3","host":"atl-1.us.uncletopia.com","port":27035,"enabled":true,"region":"us-east","cc":"us","latitude":33.753746,"longitude":-84.38633,"reserved":0,"last_update":"0001-01-01T00:00:00Z","name_a2s":"Uncletopia | Atlanta | 3 | Stopwatch Beta","protocol":17,"map":"pl_pier","folder":"tf","game":"Team Fortress","app_id":440,"player_count":0,"max_players":24,"Bots":0,"server_type":"Dedicated","server_os":"Linux","password":true,"vac":true,"version":"7742253","steam_id":85568392924515187,"keywords":["nocrits","nodmgspread","payload","uncletopia"],"game_id":440,"stv_port":27036,"stv_name":"Uncletopia | Atlanta | 3 | Stopwatch Beta | STV","players":null},{"server_id":401,"name":"Uncletopia | Atlanta | 4 | No Payload","name_short":"atl-4","host":"atl-1.us.uncletopia.com","port":27045,"enabled":true,"region":"us-east","cc":"us","latitude":33.753746,"longitude":-84.38633,"reserved":0,"last_update":"0001-01-01T00:00:00Z","name_a2s":"Uncletopia | Atlanta | 4 | No Payload","protocol":17,"map":"pl_pier","folder":"tf","game":"Team Fortress","app_id":440,"player_count":0,"max_players":24,"Bots":0,"server_type":"Dedicated","server_os":"Linux","password":true,"vac":true,"version":"7723704","steam_id":85568392924515188,"keywords":["nocrits","nodmgspread","payload","uncletopia"],"game_id":440,"stv_port":27046,"stv_name":"Uncletopia | Atlanta | 4 | No Payload | STV","players":null},{"server_id":2,"name":"Uncletopia | Chicago | 1 | All Maps","name_short":"chi-1","host":"chi-1.us.uncletopia.com","port":27015,"enabled":true,"region":"us-central","cc":"us","latitude":41.881832,"longitude":-87.62318,"reserved":0,"last_update":"0001-01-01T00:00:00Z","name_a2s":"Uncletopia | Chicago | 1 | All Maps","protocol":17,"map":"koth_highpass","folder":"tf","game":"Team Fortress","app_id":440,"player_count":22,"max_players":24,"Bots":0,"server_type":"Dedicated","server_os":"Linux","password":true,"vac":true,"version":"7742253","steam_id":85568392924469984,"keywords":["cp","nocrits","nodmgspread","uncletopia"],"game_id":440,"stv_port":27016,"stv_name":"Uncletopia | Chicago | 1 | All Maps | STV","players":[{"user_id":156,"name":"Freewave","steam_id":76561198156282541,"connected_time":1591000000000,"state":"active","ping":51},{"user_id":103,"name":"Average Gibus Enjoyer","steam_id":76561198300953867,"connected_time":6327000000000,"state":"active","ping":80},{"user_id":177,"name":"matchstick","steam_id":76561198190100027,"connected_time":161000000000,"state":"active","ping":59},{"user_id":129,"name":"Astori√¶!","steam_id":76561199090168858,"connected_time":3957000000000,"state":"active","ping":64},{"user_id":171,"name":"crs22","steam_id":76561198120149196,"connected_time":647000000000,"state":"active","ping":51},{"user_id":178,"name":"ŸàŸàŸÉÿ± ÿßŸÑÿ¨ÿ≠ŸäŸÖ","steam_id":76561198815385916,"connected_time":149000000000,"state":"active","ping":143},{"user_id":172,"name":"I will end thee","steam_id":76561198258126130,"connected_time":628000000000,"state":"active","ping":71},{"user_id":174,"name":"arashsmash","steam_id":76561198277649058,"connected_time":458000000000,"state":"active","ping":62},{"user_id":170,"name":"Heisengirth","steam_id":76561198321521526,"connected_time":731000000000,"state":"active","ping":82},{"user_id":97,"name":"debin","steam_id":76561198070711217,"connected_time":6971000000000,"state":"active","ping":51},{"user_id":150,"name":"three three","steam_id":76561198177354155,"connected_time":2410000000000,"state":"active","ping":45},{"user_id":183,"name":"Sky Tree","steam_id":76561198027103242,"connected_time":18000000000,"state":"active","ping":97},{"user_id":139,"name":"Ferguson (Airblast Hater)","steam_id":76561198121349387,"connected_time":2837000000000,"state":"active","ping":52},{"user_id":149,"name":"Legion","steam_id":76561199036242643,"connected_time":2470000000000,"state":"active","ping":60},{"user_id":167,"name":"unethical rizzness practices","steam_id":76561198167207112,"connected_time":984000000000,"state":"active","ping":73},{"user_id":180,"name":"Bird watcher","steam_id":76561199201098634,"connected_time":135000000000,"state":"active","ping":49},{"user_id":86,"name":"ccat","steam_id":76561198281773224,"connected_time":7793000000000,"state":"active","ping":93},{"user_id":136,"name":"stop","steam_id":76561198268686419,"connected_time":3458000000000,"state":"active","ping":67},{"user_id":154,"name":"Novanator","steam_id":76561198060768843,"connected_time":1931000000000,"state":"active","ping":79},{"user_id":168,"name":"Printypro","steam_id":76561199063254804,"connected_time":968000000000,"state":"active","ping":74},{"user_id":182,"name":"chevy chevington","steam_id":76561198995705248,"connected_time":96000000000,"state":"active","ping":84},{"user_id":153,"name":"touca","steam_id":76561198986534519,"connected_time":2040000000000,"state":"active","ping":90}]},{"server_id":106,"name":"Uncletopia | Chicago | 2 | All Maps","name_short":"chi-2","host":"chi-1.us.uncletopia.com","port":27025,"enabled":true,"region":"us-central","cc":"us","latitude":41.881832,"longitude":-87.62318,"reserved":0,"last_update":"0001-01-01T00:00:00Z","name_a2s":"Uncletopia | Chicago | 2 | All Maps","protocol":17,"map":"cp_snakewater_final1","folder":"tf","game":"Team Fortress","app_id":440,"player_count":24,"max_players":24,"Bots":0,"server_type":"Dedicated","server_os":"Linux","password":true,"vac":true,"version":"7742253","steam_id":85568392924469985,"keywords":["cp","nocrits","nodmgspread","uncletopia"],"game_id":440,"stv_port":27026,"stv_name":"Uncletopia | Chicago | 2 | All Maps | STV","players":[{"user_id":275,"name":"Samus","steam_id":76561198121933439,"connected_time":2589000000000,"state":"active","ping":69},{"user_id":293,"name":"Depresso Amber","steam_id":76561198074209737,"connected_time":1228000000000,"state":"active","ping":60},{"user_id":277,"name":"the dingler man","steam_id":76561199099203623,"connected_time":2407000000000,"state":"active","ping":107},{"user_id":305,"name":"giant_dork","steam_id":76561199105606956,"connected_time":146000000000,"state":"active","ping":70},{"user_id":241,"name":"robbob","steam_id":76561198137375391,"connected_time":4714000000000,"state":"active","ping":175},{"user_id":290,"name":"Antiparticle #SaveTF2","steam_id":76561197990545681,"connected_time":1391000000000,"state":"active","ping":135},{"user_id":243,"name":"McNamJam","steam_id":76561198028128686,"connected_time":4691000000000,"state":"active","ping":93},{"user_id":299,"name":"Terium","steam_id":76561198331234327,"connected_time":1073000000000,"state":"active","ping":56},{"user_id":304,"name":"FitzyBear","steam_id":76561198409189585,"connected_time":175000000000,"state":"active","ping":57},{"user_id":301,"name":"Geloman","steam_id":76561198005501322,"connected_time":937000000000,"state":"active","ping":72},{"user_id":296,"name":"guh","steam_id":76561197972342286,"connected_time":1174000000000,"state":"active","ping":74},{"user_id":280,"name":"Pills","steam_id":76561198799440163,"connected_time":2388000000000,"state":"active","ping":102},{"user_id":276,"name":"denzy_","steam_id":76561198873788683,"connected_time":2455000000000,"state":"active","ping":70},{"user_id":282,"name":"Froman Joe","steam_id":76561197991243253,"connected_time":2346000000000,"state":"active","ping":79},{"user_id":303,"name":"DiHMO","steam_id":76561198030130169,"connected_time":200000000000,"state":"active","ping":45},{"user_id":302,"name":"LukeLeal","steam_id":76561198049822995,"connected_time":728000000000,"state":"active","ping":167},{"user_id":281,"name":"Poop Deck Joe","steam_id":76561198271397568,"connected_time":2376000000000,"state":"active","ping":90},{"user_id":297,"name":"Connnnair","steam_id":76561198156075754,"connected_time":1163000000000,"state":"active","ping":76},{"user_id":283,"name":"Amisonist","steam_id":76561199027395054,"connected_time":2342000000000,"state":"active","ping":58},{"user_id":269,"name":"Windmills","steam_id":76561198035299715,"connected_time":3018000000000,"state":"active","ping":60},{"user_id":298,"name":"Viking Seagull","steam_id":76561198806994127,"connected_time":1126000000000,"state":"active","ping":77},{"user_id":266,"name":"◊°‚Ç™‚Ç™¬ß|ŒûŒûŒûŒûŒûŒûŒûŒû\u003e","steam_id":76561198328109873,"connected_time":3166000000000,"state":"active","ping":84},{"user_id":300,"name":"crippling fumo addiction","steam_id":76561198115874625,"connected_time":1066000000000,"state":"active","ping":67},{"user_id":292,"name":"Zero-Five","steam_id":76561198046468600,"connected_time":1357000000000,"state":"active","ping":72}]},{"server_id":402,"name":"Uncletopia | Chicago | 3 | All Maps","name_short":"chi-3","host":"chi-1.us.uncletopia.com","port":27035,"enabled":true,"region":"us-central","cc":"us","latitude":41.881832,"longitude":-87.62318,"reserved":0,"last_update":"0001-01-01T00:00:00Z","name_a2s":"Uncletopia | Chicago | 3 | All Maps","protocol":17,"map":"ctf_2fort","folder":"tf","game":"Team Fortress","app_id":440,"player_count":1,"max_players":24,"Bots":0,"server_type":"Dedicated","server_os":"Linux","password":true,"vac":true,"version":"7742253","steam_id":85568392924515191,"keywords":["ctf","nocrits","nodmgspread","uncletopia"],"game_id":440,"stv_port":27036,"stv_name":"Uncletopia | Chicago | 3 | All Maps | STV","players":[{"user_id":38,"name":"aphexjh","steam_id":76561197985854658,"connected_time":317000000000,"state":"active","ping":48}]},{"server_id":403,"name":"Uncletopia | Chicago | 4 | All Maps","name_short":"chi-4","host":"chi-1.us.uncletopia.com","port":27045,"enabled":true,"region":"us-central","cc":"us","latitude":41.881832,"longitude":-87.62318,"reserved":0,"last_update":"0001-01-01T00:00:00Z","name_a2s":"Uncletopia | Chicago | 4 | All Maps","protocol":17,"map":"pl_badwater","folder":"tf","game":"Team Fortress","app_id":440,"player_count":24,"max_players":24,"Bots":0,"server_type":"Dedicated","server_os":"Linux","password":true,"vac":true,"version":"7742253","steam_id":85568392924515193,"keywords":["nocrits","nodmgspread","payload","uncletopia"],"game_id":440,"stv_port":27046,"stv_name":"Uncletopia | Chicago | 4 | All Maps | STV","players":[{"user_id":198,"name":"Post nut clarity","steam_id":76561198060246831,"connected_time":3921000000000,"state":"active","ping":90},{"user_id":246,"name":"Halo","steam_id":76561198144909435,"connected_time":891000000000,"state":"active","ping":105},{"user_id":230,"name":"ash monte","steam_id":76561198382343820,"connected_time":2125000000000,"state":"active","ping":60},{"user_id":224,"name":"DoorMan","steam_id":76561199028039753,"connected_time":2191000000000,"state":"active","ping":77},{"user_id":247,"name":"cop disliker","steam_id":76561198026297963,"connected_time":859000000000,"state":"active","ping":68},{"user_id":177,"name":"Razz","steam_id":76561198158027533,"connected_time":5175000000000,"state":"active","ping":50},{"user_id":257,"name":"Minegamer105","steam_id":76561198253320644,"connected_time":99000000000,"state":"active","ping":69},{"user_id":227,"name":"Cthulwho?","steam_id":76561198165550810,"connected_time":2140000000000,"state":"active","ping":69},{"user_id":258,"name":"Critscare","steam_id":76561198087712508,"connected_time":82000000000,"state":"active","ping":45},{"user_id":229,"name":"Rikuus","steam_id":76561198093799835,"connected_time":2133000000000,"state":"active","ping":63},{"user_id":253,"name":"Arm","steam_id":76561198116535637,"connected_time":677000000000,"state":"active","ping":61},{"user_id":217,"name":"CFDv20","steam_id":76561198450073779,"connected_time":2856000000000,"state":"active","ping":105},{"user_id":248,"name":"Cosmo","steam_id":76561198320197684,"connected_time":857000000000,"state":"active","ping":45},{"user_id":238,"name":"Rainbow","steam_id":76561199036658795,"connected_time":1954000000000,"state":"active","ping":103},{"user_id":159,"name":"Wilhelmktx","steam_id":76561198158102295,"connected_time":6731000000000,"state":"active","ping":75},{"user_id":231,"name":"Jax_Senn","steam_id":76561199092522972,"connected_time":2124000000000,"state":"active","ping":79},{"user_id":203,"name":"noot noot","steam_id":76561198318446417,"connected_time":3609000000000,"state":"active","ping":80},{"user_id":242,"name":"big goku","steam_id":76561198206864612,"connected_time":1744000000000,"state":"active","ping":87},{"user_id":259,"name":"Tywhip","steam_id":76561199207545191,"connected_time":77000000000,"state":"active","ping":161},{"user_id":237,"name":"CasualDorayaki","steam_id":76561198181075019,"connected_time":2007000000000,"state":"active","ping":63},{"user_id":245,"name":"GuyGoom","steam_id":76561198254522178,"connected_time":1561000000000,"state":"active","ping":65},{"user_id":235,"name":"Panda","steam_id":76561199071183008,"connected_time":2078000000000,"state":"active","ping":72},{"user_id":254,"name":"-flagellum","steam_id":76561198006297974,"connected_time":376000000000,"state":"active","ping":55},{"user_id":252,"name":"powerslide","steam_id":76561198288491241,"connected_time":739000000000,"state":"active","ping":67}]},{"server_id":36,"name":"Uncletopia | Chicago | 5 | All Maps","name_short":"chi-5","host":"chi-2.us.uncletopia.com","port":27015,"enabled":true,"region":"us-central","cc":"us","latitude":41.881832,"longitude":-87.62318,"reserved":0,"last_update":"0001-01-01T00:00:00Z","name_a2s":"Uncletopia | Chicago | 5 | All Maps","protocol":17,"map":"pl_pier","folder":"tf","game":"Team Fortress","app_id":440,"player_count":21,"max_players":24,"Bots":0,"server_type":"Dedicated","server_os":"Linux","password":true,"vac":true,"version":"7742253","steam_id":85568392924866362,"keywords":["nocrits","nodmgspread","payload","uncletopia"],"game_id":440,"stv_port":27016,"stv_name":"Uncletopia | Chicago | 5 | All Maps | STV","players":[{"user_id":485,"name":"Owl Pacino","steam_id":76561197979970666,"connected_time":556000000000,"state":"active","ping":58},{"user_id":451,"name":"CURB YOUR ENTHUSIASM","steam_id":76561198177893343,"connected_time":4030000000000,"state":"active","ping":77},{"user_id":478,"name":"The Scorcher","steam_id":76561198804901722,"connected_time":740000000000,"state":"active","ping":77},{"user_id":473,"name":"Turbo Sun Geyser","steam_id":76561198013975080,"connected_time":1165000000000,"state":"active","ping":93},{"user_id":433,"name":"Discount","steam_id":76561198228825336,"connected_time":5129000000000,"state":"active","ping":90},{"user_id":443,"name":"Notorious_Pat","steam_id":76561198092348214,"connected_time":4220000000000,"state":"active","ping":52},{"user_id":458,"name":"tsaide","steam_id":76561198384120999,"connected_time":2420000000000,"state":"active","ping":75},{"user_id":420,"name":"vandeer","steam_id":76561198120124007,"connected_time":5490000000000,"state":"active","ping":72},{"user_id":476,"name":"jack merridew","steam_id":76561199206622559,"connected_time":787000000000,"state":"active","ping":58},{"user_id":468,"name":"WAFFLES 1billion","steam_id":76561199447136573,"connected_time":1576000000000,"state":"active","ping":63},{"user_id":489,"name":"sky.to16","steam_id":76561199211313763,"connected_time":415000000000,"state":"active","ping":63},{"user_id":496,"name":"GOD of SEX","steam_id":76561198209689295,"connected_time":85000000000,"state":"active","ping":79},{"user_id":490,"name":"ADHDking","steam_id":76561198116099017,"connected_time":409000000000,"state":"active","ping":59},{"user_id":472,"name":"den","steam_id":76561198323514812,"connected_time":1285000000000,"state":"active","ping":45},{"user_id":456,"name":"phx74golden","steam_id":76561199036201022,"connected_time":3281000000000,"state":"active","ping":56},{"user_id":494,"name":"Ecliptica","steam_id":76561198171951333,"connected_time":185000000000,"state":"active","ping":93},{"user_id":491,"name":"$50 amazon gift card","steam_id":76561198978797171,"connected_time":375000000000,"state":"active","ping":78},{"user_id":477,"name":"Do not [REDACTED] the Fox","steam_id":76561198081971317,"connected_time":786000000000,"state":"active","ping":51},{"user_id":486,"name":"donk","steam_id":76561199202761955,"connected_time":555000000000,"state":"active","ping":48},{"user_id":487,"name":"KlintEastHood","steam_id":76561198126356829,"connected_time":545000000000,"state":"active","ping":112},{"user_id":483,"name":"Samsiel","steam_id":76561198094134951,"connected_time":702000000000,"state":"active","ping":88}]},{"server_id":37,"name":"Uncletopia | Chicago | 6 | All Maps","name_short":"chi-6","host":"chi-2.us.uncletopia.com","port":27025,"enabled":true,"region":"us-central","cc":"us","latitude":41.881832,"longitude":-87.62318,"reserved":0,"last_update":"0001-01-01T00:00:00Z","name_a2s":"Uncletopia | Chicago | 6 | All Maps","protocol":17,"map":"cp_mountainlab","folder":"tf","game":"Team Fortress","app_id":440,"player_count":0,"max_players":24,"Bots":0,"server_type":"Dedicated","server_os":"Linux","password":true,"vac":true,"version":"7742253","steam_id":85568392924866363,"keywords":["cp","nocrits","nodmgspread","uncletopia"],"game_id":440,"stv_port":27026,"stv_name":"Uncletopia | Chicago | 6 | All Maps | STV","players":null},{"server_id":38,"name":"Uncletopia | Chicago | 7 | Stopwatch Beta","name_short":"chi-7","host":"chi-2.us.uncletopia.com","port":27035,"enabled":true,"region":"us-central","cc":"us","latitude":41.881832,"longitude":-87.62318,"reserved":0,"last_update":"0001-01-01T00:00:00Z","name_a2s":"Uncletopia | Chicago | 7 | Stopwatch Beta","protocol":17,"map":"koth_lakeside_final","folder":"tf","game":"Team Fortress","app_id":440,"player_count":0,"max_players":24,"Bots":0,"server_type":"Dedicated","server_os":"Linux","password":true,"vac":true,"version":"7742253","steam_id":85568392924866364,"keywords":["cp","nocrits","nodmgspread","uncletopia"],"game_id":440,"stv_port":27036,"stv_name":"Uncletopia | Chicago | 7 | Stopwatch Beta | STV","players":null},{"server_id":39,"name":"Uncletopia | Chicago | 8 | Community","name_short":"chi-8","host":"chi-2.us.uncletopia.com","port":27045,"enabled":true,"region":"us-central","cc":"us","latitude":41.881832,"longitude":-87.62318,"reserved":0,"last_update":"0001-01-01T00:00:00Z","name_a2s":"Uncletopia | Chicago | 8 | Community","protocol":17,"map":"koth_lakeside_final","folder":"tf","game":"Team Fortress","app_id":440,"player_count":0,"max_players":24,"Bots":0,"server_type":"Dedicated","server_os":"Linux","password":true,"vac":true,"version":"7742253","steam_id":85568392924866365,"keywords":["cp","nocrits","nodmgspread","uncletopia"],"game_id":440,"stv_port":27046,"stv_name":"Uncletopia | Chicago | 8 | Community | STV","players":null},{"server_id":8,"name":"Uncletopia | Dallas | 1 | All Maps","name_short":"dal-1","host":"dal-1.us.uncletopia.com","port":27015,"enabled":true,"region":"us-central","cc":"us","latitude":32.779167,"longitude":-96.80889,"reserved":0,"last_update":"0001-01-01T00:00:00Z","name_a2s":"Uncletopia | Dallas | 1 | All Maps","protocol":17,"map":"pl_barnblitz","folder":"tf","game":"Team Fortress","app_id":440,"player_count":20,"max_players":24,"Bots":0,"server_type":"Dedicated","server_os":"Linux","password":true,"vac":true,"version":"7742253","steam_id":85568392924469986,"keywords":["nocrits","nodmgspread","payload","uncletopia"],"game_id":440,"stv_port":27016,"stv_name":"Uncletopia | Dallas | 1 | All Maps | STV","players":[{"user_id":147,"name":"‚ô•Mossbuckets‚ô•","steam_id":76561198365188929,"connected_time":4159000000000,"state":"active","ping":77},{"user_id":181,"name":"*Chilly*","steam_id":76561199042228163,"connected_time":1083000000000,"state":"active","ping":58},{"user_id":186,"name":"Alberto2104","steam_id":76561198094968873,"connected_time":407000000000,"state":"active","ping":89},{"user_id":175,"name":"Gugus, Glutton of Crayons","steam_id":76561198101570471,"connected_time":1374000000000,"state":"active","ping":78},{"user_id":176,"name":"Squid121","steam_id":76561198038832034,"connected_time":1364000000000,"state":"active","ping":104},{"user_id":168,"name":"cup","steam_id":76561198121245586,"connected_time":2235000000000,"state":"active","ping":79},{"user_id":174,"name":"Pork44","steam_id":76561198005773170,"connected_time":1398000000000,"state":"active","ping":39},{"user_id":191,"name":"HyruleOrphan","steam_id":76561198028025608,"connected_time":5000000000,"state":"spawning","ping":189},{"user_id":178,"name":"Squiliam","steam_id":76561198025278006,"connected_time":1353000000000,"state":"active","ping":44},{"user_id":139,"name":"Riff","steam_id":76561198066921423,"connected_time":4520000000000,"state":"active","ping":59},{"user_id":183,"name":"coal","steam_id":76561198027252280,"connected_time":780000000000,"state":"active","ping":57},{"user_id":157,"name":"Drowse","steam_id":76561198029794548,"connected_time":3626000000000,"state":"active","ping":76},{"user_id":108,"name":"digital love","steam_id":76561198265633146,"connected_time":7392000000000,"state":"active","ping":67},{"user_id":187,"name":"Dr. Ludwig","steam_id":76561198110246392,"connected_time":370000000000,"state":"active","ping":54},{"user_id":173,"name":"Motorol¬™","steam_id":76561198358119669,"connected_time":1569000000000,"state":"active","ping":122},{"user_id":185,"name":"KaiaDoggy","steam_id":76561197997096301,"connected_time":473000000000,"state":"active","ping":47},{"user_id":170,"name":"DUCKS DUCKS DUCKS DUCKS","steam_id":76561198107486812,"connected_time":2046000000000,"state":"active","ping":65},{"user_id":154,"name":"Phat_nibba29","steam_id":76561198165661855,"connected_time":3911000000000,"state":"active","ping":64},{"user_id":172,"name":"HexT","steam_id":76561199085359931,"connected_time":1705000000000,"state":"active","ping":39},{"user_id":47,"name":"NovaMonkey","steam_id":76561198157828317,"connected_time":11481000000000,"state":"active","ping":80}]},{"server_id":108,"name":"Uncletopia | Dallas | 2 | All Maps","name_short":"dal-2","host":"dal-1.us.uncletopia.com","port":27025,"enabled":true,"region":"us-central","cc":"us","latitude":32.779167,"longitude":-96.80889,"reserved":0,"last_update":"0001-01-01T00:00:00Z","name_a2s":"Uncletopia | Dallas | 2 | All Maps","protocol":17,"map":"pl_borneo","folder":"tf","game":"Team Fortress","app_id":440,"player_count":16,"max_players":24,"Bots":0,"server_type":"Dedicated","server_os":"Linux","password":true,"vac":true,"version":"7742253","steam_id":85568392924469988,"keywords":["nocrits","nodmgspread","payload","uncletopia"],"game_id":440,"stv_port":27026,"stv_name":"Uncletopia | Dallas | 2 | All Maps | STV","players":[{"user_id":265,"name":"Doc_Eevee","steam_id":76561199289204820,"connected_time":114000000000,"state":"active","ping":50},{"user_id":251,"name":"SecondCarpet","steam_id":76561199008323078,"connected_time":1302000000000,"state":"active","ping":83},{"user_id":221,"name":"FreshlyBrewed","steam_id":76561198181099881,"connected_time":3392000000000,"state":"active","ping":69},{"user_id":124,"name":"Yiff Police","steam_id":76561198103938356,"connected_time":10878000000000,"state":"active","ping":58},{"user_id":257,"name":"Loud Mack + Tank Buster","steam_id":76561198011675372,"connected_time":578000000000,"state":"active","ping":107},{"user_id":258,"name":"t h e n a","steam_id":76561198169736062,"connected_time":438000000000,"state":"active","ping":60},{"user_id":259,"name":"Sacred Relic","steam_id":76561198140341533,"connected_time":411000000000,"state":"active","ping":57},{"user_id":261,"name":"TacoDragon","steam_id":76561198215345581,"connected_time":330000000000,"state":"active","ping":152},{"user_id":229,"name":"Scout (Bulking season)","steam_id":76561198362318243,"connected_time":2658000000000,"state":"active","ping":105},{"user_id":262,"name":"beefsquatchthenub","steam_id":76561197990059948,"connected_time":317000000000,"state":"active","ping":92},{"user_id":196,"name":"eBay","steam_id":76561198061214569,"connected_time":6011000000000,"state":"active","ping":79},{"user_id":263,"name":"DuckyDave","steam_id":76561199080644355,"connected_time":306000000000,"state":"active","ping":70},{"user_id":236,"name":"Marc Antony","steam_id":76561198011366517,"connected_time":2260000000000,"state":"active","ping":73},{"user_id":240,"name":"Waddlydee","steam_id":76561197978943436,"connected_time":2076000000000,"state":"active","ping":46},{"user_id":232,"name":"spot (paradise edition)","steam_id":76561198151135298,"connected_time":2651000000000,"state":"active","ping":60},{"user_id":246,"name":"ÔºîÔºê Ôº¶Ôº∞Ôº≥","steam_id":76561198272394965,"connected_time":1541000000000,"state":"active","ping":164}]},{"server_id":5,"name":"Uncletopia | Frankfurt | 1 | All Maps","name_short":"frk-1","host":"frk-1.de.uncletopia.com","port":27015,"enabled":true,"region":"eu","cc":"de","latitude":50.110924,"longitude":8.682127,"reserved":0,"last_update":"0001-01-01T00:00:00Z","name_a2s":"Uncletopia | Frankfurt | 1 | All Maps","protocol":17,"map":"pl_swiftwater_final1","folder":"tf","game":"Team Fortress","app_id":440,"player_count":20,"max_players":24,"Bots":0,"server_type":"Dedicated","server_os":"Linux","password":true,"vac":true,"version":"7742253","steam_id":85568392924469989,"keywords":["nocrits","nodmgspread","payload","uncletopia"],"game_id":440,"stv_port":27016,"stv_name":"Uncletopia | Frankfurt | 1 | All Maps | STV","players":[{"user_id":809,"name":"viddy","steam_id":76561198004383856,"connected_time":2564000000000,"state":"connecting","ping":120},{"user_id":815,"name":"Butt Hurling","steam_id":76561198093229786,"connected_time":1902000000000,"state":"connecting","ping":83},{"user_id":813,"name":"ShawnDawn2","steam_id":76561198165013522,"connected_time":2257000000000,"state":"spawning","ping":59},{"user_id":822,"name":"Zateske","steam_id":76561198047446276,"connected_time":1056000000000,"state":"connecting","ping":64},{"user_id":819,"name":"YEEET","steam_id":76561198914938199,"connected_time":1099000000000,"state":"connecting","ping":98},{"user_id":826,"name":"üòà COCKDESTROYER üòà","steam_id":76561198042846999,"connected_time":388000000000,"state":"spawning","ping":93},{"user_id":823,"name":"After8","steam_id":76561198090750865,"connected_time":1052000000000,"state":"connecting","ping":86},{"user_id":756,"name":"NiNY√É","steam_id":76561197995685294,"connected_time":6035000000000,"state":"connecting","ping":81},{"user_id":816,"name":"ToniGAM3S","steam_id":76561198128605351,"connected_time":1882000000000,"state":"connecting","ping":77},{"user_id":767,"name":"Carrotcracker","steam_id":76561198034862396,"connected_time":5482000000000,"state":"connecting","ping":59},{"user_id":698,"name":"Cippo95","steam_id":76561198255311582,"connected_time":9611000000000,"state":"connecting","ping":101},{"user_id":820,"name":"Penis Contortionist","steam_id":76561198073663784,"connected_time":1098000000000,"state":"spawning","ping":66},{"user_id":787,"name":"Sneakykindaham","steam_id":76561198158743287,"connected_time":3594000000000,"state":"connecting","ping":77},{"user_id":814,"name":"VWave","steam_id":76561198123841262,"connected_time":1914000000000,"state":"connecting","ping":83},{"user_id":752,"name":"Mr.Bread","steam_id":76561199228345718,"connected_time":6134000000000,"state":"connecting","ping":183},{"user_id":784,"name":"BeS","steam_id":76561198045752247,"connected_time":4104000000000,"state":"connecting","ping":76},{"user_id":824,"name":"Blo","steam_id":76561198161651469,"connected_time":895000000000,"state":"connecting","ping":71},{"user_id":825,"name":"MarioThePlumber","steam_id":76561198314229530,"connected_time":695000000000,"state":"spawning","ping":98},{"user_id":827,"name":"EEEEEH","steam_id":76561198126717413,"connected_time":33000000000,"state":"connecting","ping":87},{"user_id":807,"name":"Allergic to women","steam_id":76561198449261973,"connected_time":2685000000000,"state":"connecting","ping":74}]},{"server_id":110,"name":"Uncletopia | Frankfurt | 2 | All Maps","name_short":"frk-2","host":"frk-1.de.uncletopia.com","port":27025,"enabled":true,"region":"eu","cc":"de","latitude":50.110924,"longitude":8.682127,"reserved":0,"last_update":"0001-01-01T00:00:00Z","name_a2s":"Uncletopia | Frankfurt | 2 | All Maps","protocol":17,"map":"cp_sunshine","folder":"tf","game":"Team Fortress","app_id":440,"player_count":2,"max_players":24,"Bots":0,"server_type":"Dedicated","server_os":"Linux","password":true,"vac":true,"version":"7742253","steam_id":85568392924469990,"keywords":["cp","nocrits","nodmgspread","uncletopia"],"game_id":440,"stv_port":27026,"stv_name":"Uncletopia | Frankfurt | 2 | All Maps | STV","players":[{"user_id":563,"name":"alex","steam_id":76561199193938910,"connected_time":2391000000000,"state":"active","ping":59},{"user_id":569,"name":"KatTheCookiCat","steam_id":76561199054643392,"connected_time":995000000000,"state":"active","ping":45}]},{"server_id":308,"name":"Uncletopia | Frankfurt | 3 | All Maps","name_short":"frk-3","host":"frk-1.de.uncletopia.com","port":27035,"enabled":true,"region":"eu","cc":"de","latitude":50.110924,"longitude":8.682127,"reserved":0,"last_update":"0001-01-01T00:00:00Z","name_a2s":"Uncletopia | Frankfurt | 3 | All Maps","protocol":17,"map":"pl_barnblitz","folder":"tf","game":"Team Fortress","app_id":440,"player_count":24,"max_players":24,"Bots":0,"server_type":"Dedicated","server_os":"Linux","password":true,"vac":true,"version":"7742253","steam_id":85568392924504274,"keywords":["nocrits","nodmgspread","payload","uncletopia"],"game_id":440,"stv_port":27036,"stv_name":"Uncletopia | Frankfurt | 3 | All Maps | STV","players":[{"user_id":195,"name":"00","steam_id":76561198306724854,"connected_time":2894000000000,"state":"active","ping":89},{"user_id":234,"name":"allegro","steam_id":76561198971389390,"connected_time":323000000000,"state":"active","ping":70},{"user_id":154,"name":"Kaero","steam_id":76561197998641279,"connected_time":7695000000000,"state":"active","ping":57},{"user_id":231,"name":"barrystotle","steam_id":76561198044709648,"connected_time":440000000000,"state":"active","ping":56},{"user_id":232,"name":"murderfucker","steam_id":76561198038753296,"connected_time":420000000000,"state":"active","ping":75},{"user_id":208,"name":"Meladoom2","steam_id":76561198086845387,"connected_time":1792000000000,"state":"active","ping":86},{"user_id":211,"name":"SIGMA BALLS","steam_id":76561198302623594,"connected_time":1744000000000,"state":"active","ping":93},{"user_id":212,"name":"Subnet001","steam_id":76561198029163028,"connected_time":1740000000000,"state":"active","ping":59},{"user_id":204,"name":"foergel","steam_id":76561197996542195,"connected_time":1857000000000,"state":"active","ping":62},{"user_id":219,"name":"Hexabit","steam_id":76561198028625661,"connected_time":1621000000000,"state":"active","ping":63},{"user_id":227,"name":"dn4k","steam_id":76561199221755690,"connected_time":1163000000000,"state":"active","ping":76},{"user_id":230,"name":"Mads Mikkelsen","steam_id":76561198083482001,"connected_time":729000000000,"state":"active","ping":59},{"user_id":169,"name":"MAKENTAKEN","steam_id":76561199127359587,"connected_time":6612000000000,"state":"active","ping":92},{"user_id":70,"name":"X-tis","steam_id":76561198043837480,"connected_time":13421000000000,"state":"active","ping":75},{"user_id":71,"name":"Fat Pigeon","steam_id":76561198817940142,"connected_time":13401000000000,"state":"active","ping":53},{"user_id":220,"name":"just jimmy","steam_id":76561198329056035,"connected_time":1618000000000,"state":"active","ping":60},{"user_id":221,"name":"Truck-Sama's Victim","steam_id":76561198826861582,"connected_time":1617000000000,"state":"active","ping":78},{"user_id":222,"name":"Sedoy","steam_id":76561198390666516,"connected_time":1605000000000,"state":"active","ping":89},{"user_id":223,"name":"Burpman","steam_id":76561198022897937,"connected_time":1577000000000,"state":"active","ping":61},{"user_id":224,"name":"Micha≈Ç","steam_id":76561198320346362,"connected_time":1567000000000,"state":"active","ping":57},{"user_id":225,"name":"tealoverr.190","steam_id":76561199028497703,"connected_time":1565000000000,"state":"active","ping":101},{"user_id":226,"name":"Umbro","steam_id":76561198087930438,"connected_time":1177000000000,"state":"active","ping":76},{"user_id":184,"name":"Luca Nervi","steam_id":76561198015871883,"connected_time":4119000000000,"state":"active","ping":66},{"user_id":201,"name":"Milosz52","steam_id":76561199060940204,"connected_time":1935000000000,"state":"active","ping":77}]},{"server_id":309,"name":"Uncletopia | Frankfurt | 4 | All Maps","name_short":"frk-4","host":"frk-1.de.uncletopia.com","port":27045,"enabled":true,"region":"eu","cc":"de","latitude":50.110924,"longitude":8.682127,"reserved":0,"last_update":"0001-01-01T00:00:00Z","name_a2s":"Uncletopia | Frankfurt | 4 | All Maps","protocol":17,"map":"plr_nightfall_final","folder":"tf","game":"Team Fortress","app_id":440,"player_count":23,"max_players":24,"Bots":0,"server_type":"Dedicated","server_os":"Linux","password":true,"vac":true,"version":"7742253","steam_id":85568392924504275,"keywords":["nocrits","nodmgspread","payload","uncletopia"],"game_id":440,"stv_port":27046,"stv_name":"Uncletopia | Frankfurt | 4 | All Maps | STV","players":[{"user_id":173,"name":"Yony","steam_id":76561199070569941,"connected_time":3692000000000,"state":"active","ping":59},{"user_id":197,"name":"mt","steam_id":76561197961319303,"connected_time":2151000000000,"state":"active","ping":45},{"user_id":198,"name":"GAZZOLX","steam_id":76561199239470712,"connected_time":2140000000000,"state":"active","ping":65},{"user_id":238,"name":"soccerf372e","steam_id":76561199012086284,"connected_time":223000000000,"state":"active","ping":79},{"user_id":226,"name":"stoke the fire","steam_id":76561198050800550,"connected_time":608000000000,"state":"active","ping":49},{"user_id":202,"name":"dddd","steam_id":76561198120894372,"connected_time":2034000000000,"state":"active","ping":109},{"user_id":239,"name":"Wolvithe","steam_id":76561198142555612,"connected_time":168000000000,"state":"active","ping":47},{"user_id":194,"name":"a gangsta","steam_id":76561198086709652,"connected_time":2227000000000,"state":"active","ping":62},{"user_id":230,"name":"MetalBand_Enjoyer","steam_id":76561199196988042,"connected_time":475000000000,"state":"active","ping":70},{"user_id":184,"name":"ivanmixo","steam_id":76561198160213989,"connected_time":3082000000000,"state":"active","ping":63},{"user_id":242,"name":"fruit bowl","steam_id":76561198232398568,"connected_time":71000000000,"state":"active","ping":76},{"user_id":233,"name":"frikandel speciaal","steam_id":76561198137997056,"connected_time":386000000000,"state":"active","ping":61},{"user_id":228,"name":"Skiziko","steam_id":76561198188930797,"connected_time":578000000000,"state":"active","ping":85},{"user_id":234,"name":"smell_my_cheese","steam_id":76561198008517427,"connected_time":377000000000,"state":"active","ping":60},{"user_id":223,"name":"Welder","steam_id":76561198355300561,"connected_time":897000000000,"state":"active","ping":71},{"user_id":209,"name":"BSantos57","steam_id":76561198000597094,"connected_time":1839000000000,"state":"active","ping":85},{"user_id":214,"name":"YILK","steam_id":76561198077913307,"connected_time":1408000000000,"state":"active","ping":46},{"user_id":203,"name":"Crab that ate amelia earhart","steam_id":76561198103175187,"connected_time":2032000000000,"state":"active","ping":64},{"user_id":240,"name":"pizzahawaiiEnjoyerwithbigdick","steam_id":76561198079752629,"connected_time":117000000000,"state":"active","ping":64},{"user_id":235,"name":"etc","steam_id":76561197998394797,"connected_time":370000000000,"state":"active","ping":59},{"user_id":237,"name":"Mimo","steam_id":76561197974221343,"connected_time":336000000000,"state":"active","ping":103},{"user_id":187,"name":"Dr. Mario","steam_id":76561199125182282,"connected_time":2967000000000,"state":"active","ping":65},{"user_id":206,"name":"Misha12_05","steam_id":76561199097487701,"connected_time":1998000000000,"state":"active","ping":81}]},{"server_id":310,"name":"Uncletopia | Frankfurt | 5 | All Maps","name_short":"frk-5","host":"frk-1.de.uncletopia.com","port":27055,"enabled":true,"region":"eu","cc":"de","latitude":50.110924,"longitude":8.682127,"reserved":0,"last_update":"0001-01-01T00:00:00Z","name_a2s":"Uncletopia | Frankfurt | 5 | All Maps","protocol":17,"map":"cp_altitude","folder":"tf","game":"Team Fortress","app_id":440,"player_count":17,"max_players":24,"Bots":0,"server_type":"Dedicated","server_os":"Linux","password":true,"vac":true,"version":"7742253","steam_id":85568392924504277,"keywords":["cp","nocrits","nodmgspread","uncletopia"],"game_id":440,"stv_port":27056,"stv_name":"Uncletopia | Frankfurt | 5 | All Maps | STV","players":[{"user_id":460,"name":"Barbatruc","steam_id":76561198119019916,"connected_time":230000000000,"state":"active","ping":65},{"user_id":435,"name":"The Pyro Chef","steam_id":76561198069610259,"connected_time":2050000000000,"state":"active","ping":48},{"user_id":433,"name":"Big Time Bobby","steam_id":76561198935266162,"connected_time":2154000000000,"state":"active","ping":146},{"user_id":436,"name":"Tresnov","steam_id":76561198068106802,"connected_time":2039000000000,"state":"active","ping":60},{"user_id":437,"name":"Keelan","steam_id":76561198013665543,"connected_time":1969000000000,"state":"active","ping":78},{"user_id":461,"name":"big man","steam_id":76561198349062110,"connected_time":71000000000,"state":"active","ping":72},{"user_id":458,"name":"Aesthetic Alcoholism","steam_id":76561198044418968,"connected_time":561000000000,"state":"active","ping":50},{"user_id":462,"name":"Roland","steam_id":76561198189491925,"connected_time":59000000000,"state":"active","ping":89},{"user_id":392,"name":"Raxor","steam_id":76561198239927434,"connected_time":4582000000000,"state":"active","ping":89},{"user_id":431,"name":"quack","steam_id":76561198121003465,"connected_time":2354000000000,"state":"active","ping":62},{"user_id":393,"name":"Miiukade","steam_id":76561198089157860,"connected_time":4529000000000,"state":"active","ping":136},{"user_id":453,"name":"The Last Username Left","steam_id":76561198121432981,"connected_time":753000000000,"state":"active","ping":64},{"user_id":463,"name":"lore","steam_id":76561198120984188,"connected_time":48000000000,"state":"active","ping":65},{"user_id":464,"name":"R00","steam_id":76561198414171489,"connected_time":14000000000,"state":"spawning","ping":69},{"user_id":454,"name":"Stoneley","steam_id":76561199182443625,"connected_time":744000000000,"state":"active","ping":54},{"user_id":403,"name":"simn","steam_id":76561198159182269,"connected_time":3890000000000,"state":"active","ping":56},{"user_id":447,"name":"Potato","steam_id":76561198883934935,"connected_time":1874000000000,"state":"active","ping":53}]},{"server_id":311,"name":"Uncletopia | Frankfurt | 6 | All Maps","name_short":"frk-6","host":"frk-1.de.uncletopia.com","port":27065,"enabled":true,"region":"eu","cc":"de","latitude":50.110924,"longitude":8.682127,"reserved":0,"last_update":"0001-01-01T00:00:00Z","name_a2s":"Uncletopia | Frankfurt | 6 | All Maps","protocol":17,"map":"pl_upward","folder":"tf","game":"Team Fortress","app_id":440,"player_count":23,"max_players":24,"Bots":0,"server_type":"Dedicated","server_os":"Linux","password":true,"vac":true,"version":"7742253","steam_id":85568392924504278,"keywords":["nocrits","nodmgspread","payload","uncletopia"],"game_id":440,"stv_port":27066,"stv_name":"Uncletopia | Frankfurt | 6 | All Maps | STV","players":[{"user_id":491,"name":"AforeKingDwarf","steam_id":76561198043562926,"connected_time":1013000000000,"state":"active","ping":46},{"user_id":485,"name":"punchmypotatoes","steam_id":76561198091255731,"connected_time":1500000000000,"state":"active","ping":67},{"user_id":492,"name":"Lukero","steam_id":76561198301594341,"connected_time":1006000000000,"state":"active","ping":122},{"user_id":511,"name":"Bones","steam_id":76561198065081225,"connected_time":215000000000,"state":"active","ping":183},{"user_id":455,"name":"zinzyk","steam_id":76561198128011822,"connected_time":3590000000000,"state":"active","ping":52},{"user_id":475,"name":"Speibsackerl","steam_id":76561198058135257,"connected_time":2216000000000,"state":"active","ping":61},{"user_id":514,"name":"√âs muita maricas","steam_id":76561198043515389,"connected_time":13000000000,"state":"active","ping":102},{"user_id":493,"name":"R3inis","steam_id":76561199030393569,"connected_time":999000000000,"state":"active","ping":75},{"user_id":508,"name":"John_TEafOrT2","steam_id":76561198355520616,"connected_time":457000000000,"state":"active","ping":50},{"user_id":506,"name":"Tomfool","steam_id":76561197993256481,"connected_time":469000000000,"state":"active","ping":73},{"user_id":354,"name":"Vershal Smershal","steam_id":76561198116223995,"connected_time":10335000000000,"state":"active","ping":58},{"user_id":496,"name":"dogfush79","steam_id":76561198013612846,"connected_time":951000000000,"state":"active","ping":74},{"user_id":513,"name":"PlebCord","steam_id":76561198120685803,"connected_time":40000000000,"state":"active","ping":76},{"user_id":502,"name":"Sto√Øcisme","steam_id":76561198127441800,"connected_time":670000000000,"state":"active","ping":67},{"user_id":478,"name":"L√∂ys√§ Masa","steam_id":76561198343396172,"connected_time":2137000000000,"state":"active","ping":79},{"user_id":499,"name":"Gandalf","steam_id":76561199072668363,"connected_time":773000000000,"state":"active","ping":88},{"user_id":477,"name":"Din Javel","steam_id":76561198043018352,"connected_time":2176000000000,"state":"active","ping":67},{"user_id":503,"name":"Taha","steam_id":76561199259524970,"connected_time":669000000000,"state":"active","ping":95},{"user_id":482,"name":"Bing Soy Fanpage","steam_id":76561198399674779,"connected_time":2056000000000,"state":"active","ping":86},{"user_id":500,"name":"Wildfap","steam_id":76561198075816743,"connected_time":752000000000,"state":"active","ping":64},{"user_id":498,"name":"Mule","steam_id":76561198127428585,"connected_time":938000000000,"state":"active","ping":103},{"user_id":510,"name":"VioBeeyo ‚ô•","steam_id":76561198066258544,"connected_time":363000000000,"state":"active","ping":48}]},{"server_id":23,"name":"Uncletopia | Frankfurt | 7 | Stopwatch Beta","name_short":"frk-7","host":"frk-1.de.uncletopia.com","port":27075,"enabled":true,"region":"eu","cc":"de","latitude":50.110924,"longitude":8.682127,"reserved":0,"last_update":"0001-01-01T00:00:00Z","name_a2s":"Uncletopia | Frankfurt | 7 | Stopwatch Beta","protocol":17,"map":"pl_badwater","folder":"tf","game":"Team Fortress","app_id":440,"player_count":0,"max_players":24,"Bots":0,"server_type":"Dedicated","server_os":"Linux","password":true,"vac":true,"version":"7742253","steam_id":85568392924742827,"keywords":["nocrits","nodmgspread","payload","uncletopia"],"game_id":440,"stv_port":27076,"stv_name":"Uncletopia | Frankfurt | 7 | Stopwatch Beta | STV","players":null},{"server_id":24,"name":"Uncletopia | Frankfurt | 8 | Community","name_short":"frk-8","host":"frk-1.de.uncletopia.com","port":27085,"enabled":true,"region":"eu","cc":"de","latitude":50.110924,"longitude":8.682127,"reserved":0,"last_update":"0001-01-01T00:00:00Z","name_a2s":"Uncletopia | Frankfurt | 8 | Community","protocol":17,"map":"workshop/pl_eruption_b9a.ugc2807898013","folder":"tf","game":"Team Fortress","app_id":440,"player_count":23,"max_players":24,"Bots":0,"server_type":"Dedicated","server_os":"Linux","password":true,"vac":true,"version":"7742253","steam_id":85568392924742828,"keywords":["nocrits","nodmgspread","payload","uncletopia"],"game_id":440,"stv_port":27086,"stv_name":"Uncletopia | Frankfurt | 8 | Community | STV","players":[{"user_id":168,"name":"K'aax Itzam","steam_id":76561198044024509,"connected_time":103000000000,"state":"spawning","ping":259},{"user_id":150,"name":"Protector.CZ","steam_id":76561197972341084,"connected_time":1253000000000,"state":"active","ping":69},{"user_id":159,"name":"Hamst123","steam_id":76561198957312452,"connected_time":757000000000,"state":"active","ping":52},{"user_id":163,"name":"Giorgis","steam_id":76561199113708837,"connected_time":500000000000,"state":"active","ping":117},{"user_id":98,"name":"Fortezza","steam_id":76561198972539903,"connected_time":4390000000000,"state":"active","ping":45},{"user_id":97,"name":"le big mac","steam_id":76561199026378253,"connected_time":4563000000000,"state":"active","ping":52},{"user_id":153,"name":"Carol Olston","steam_id":76561198080257273,"connected_time":926000000000,"state":"active","ping":57},{"user_id":154,"name":"Joe","steam_id":76561198061717026,"connected_time":920000000000,"state":"active","ping":62},{"user_id":137,"name":"RevoNine","steam_id":76561198163866206,"connected_time":1985000000000,"state":"active","ping":58},{"user_id":116,"name":"R8N - Obismal","steam_id":76561198007482714,"connected_time":2635000000000,"state":"active","ping":75},{"user_id":126,"name":"randompixel","steam_id":76561198003941207,"connected_time":2430000000000,"state":"active","ping":67},{"user_id":104,"name":"Sentry Gun (mun)","steam_id":76561199042470246,"connected_time":3556000000000,"state":"active","ping":64},{"user_id":164,"name":"Max","steam_id":76561198138959361,"connected_time":428000000000,"state":"active","ping":58},{"user_id":155,"name":"waddle dork","steam_id":76561198297349985,"connected_time":849000000000,"state":"active","ping":51},{"user_id":148,"name":"roblan11","steam_id":76561198066839258,"connected_time":1276000000000,"state":"active","ping":54},{"user_id":165,"name":"Chad Demo","steam_id":76561198314817663,"connected_time":324000000000,"state":"active","ping":93},{"user_id":118,"name":"Cloudtrotter","steam_id":76561198141975528,"connected_time":2610000000000,"state":"active","ping":163},{"user_id":156,"name":"hatsune mike","steam_id":76561198051582865,"connected_time":845000000000,"state":"active","ping":65},{"user_id":169,"name":"JugoTopia","steam_id":76561197996067209,"connected_time":70000000000,"state":"active","ping":123},{"user_id":142,"name":"mat987","steam_id":76561198152125214,"connected_time":1660000000000,"state":"active","ping":53},{"user_id":158,"name":"ricorno","steam_id":76561199441603388,"connected_time":791000000000,"state":"active","ping":81},{"user_id":160,"name":"Harmacist","steam_id":76561198385673522,"connected_time":737000000000,"state":"active","ping":62},{"user_id":161,"name":"Vince","steam_id":76561199103000131,"connected_time":732000000000,"state":"active","ping":69}]},{"server_id":202,"name":"Uncletopia | Hong Kong | 1 | All Maps","name_short":"hgk-1","host":"hgk-1.hk.uncletopia.com","port":27015,"enabled":true,"region":"asia","cc":"hk","latitude":22.302711,"longitude":114.177216,"reserved":0,"last_update":"0001-01-01T00:00:00Z","name_a2s":"Uncletopia | Hong Kong | 1 | All Maps","protocol":17,"map":"cp_mountainlab","folder":"tf","game":"Team Fortress","app_id":440,"player_count":0,"max_players":24,"Bots":0,"server_type":"Dedicated","server_os":"Linux","password":true,"vac":true,"version":"7742253","steam_id":85568392924494504,"keywords":["cp","nocrits","nodmgspread","uncletopia"],"game_id":440,"stv_port":27016,"stv_name":"Uncletopia | Hong Kong | 1 | All Maps | STV","players":null},{"server_id":1,"name":"Uncletopia | Los Angeles | 1 | All Maps","name_short":"lax-1","host":"lax-1.us.uncletopia.com","port":27015,"enabled":true,"region":"us-west","cc":"us","latitude":33.94279,"longitude":-118.41004,"reserved":0,"last_update":"0001-01-01T00:00:00Z","name_a2s":"Uncletopia | Los Angeles | 1 | All Maps","protocol":17,"map":"pl_upward","folder":"tf","game":"Team Fortress","app_id":440,"player_count":22,"max_players":24,"Bots":0,"server_type":"Dedicated","server_os":"Linux","password":true,"vac":true,"version":"7742253","steam_id":85568392924469991,"keywords":["nocrits","nodmgspread","payload","uncletopia"],"game_id":440,"stv_port":27016,"stv_name":"Uncletopia | Los Angeles | 1 | All Maps | STV","players":[{"user_id":167,"name":"vozz","steam_id":76561198242065410,"connected_time":31000000000,"state":"active","ping":46},{"user_id":142,"name":"cder3","steam_id":76561198053912703,"connected_time":1949000000000,"state":"active","ping":44},{"user_id":148,"name":"Gary Sinfeld","steam_id":76561198042274074,"connected_time":1452000000000,"state":"active","ping":67},{"user_id":132,"name":"TapKetchup","steam_id":76561198307946533,"connected_time":2888000000000,"state":"active","ping":108},{"user_id":161,"name":"king in the north!","steam_id":76561198035780415,"connected_time":484000000000,"state":"active","ping":53},{"user_id":143,"name":"solveig","steam_id":76561198271713106,"connected_time":1906000000000,"state":"active","ping":122},{"user_id":155,"name":"Yoozer","steam_id":76561198420257694,"connected_time":1264000000000,"state":"active","ping":51},{"user_id":166,"name":"dominosgangster","steam_id":76561199095680478,"connected_time":114000000000,"state":"active","ping":65},{"user_id":168,"name":"TheBold","steam_id":76561199194787298,"connected_time":28000000000,"state":"active","ping":51},{"user_id":147,"name":"Schnitz","steam_id":76561198265484253,"connected_time":1490000000000,"state":"active","ping":65},{"user_id":128,"name":"Cosmiccz","steam_id":76561198073232442,"connected_time":2955000000000,"state":"active","ping":98},{"user_id":169,"name":"Lithuanian Newbie","steam_id":76561199438993845,"connected_time":14000000000,"state":"spawning","ping":202},{"user_id":163,"name":"hamdrinker985","steam_id":76561199241807676,"connected_time":337000000000,"state":"active","ping":81},{"user_id":170,"name":"sock","steam_id":76561199117597830,"connected_time":0,"state":"connecting","ping":0},{"user_id":162,"name":"kebo","steam_id":76561198237159430,"connected_time":359000000000,"state":"active","ping":60},{"user_id":160,"name":"Sewer","steam_id":76561198803732690,"connected_time":629000000000,"state":"active","ping":63},{"user_id":159,"name":"Strong Milk","steam_id":76561198089715954,"connected_time":987000000000,"state":"active","ping":83},{"user_id":120,"name":"Wolf King Productions","steam_id":76561198295269000,"connected_time":3294000000000,"state":"active","ping":114},{"user_id":139,"name":"overgrown teakettle","steam_id":76561198059041027,"connected_time":2295000000000,"state":"active","ping":80},{"user_id":106,"name":"Lucy Got Fired","steam_id":76561198149063013,"connected_time":4464000000000,"state":"active","ping":91},{"user_id":154,"name":"Actual Gamer Girl Named Skel","steam_id":76561199442181566,"connected_time":1333000000000,"state":"active","ping":140},{"user_id":158,"name":"Arbiter Soul","steam_id":76561198067798973,"connected_time":1037000000000,"state":"active","ping":59}]},{"server_id":112,"name":"Uncletopia | Los Angeles | 2 | All Maps","name_short":"lax-2","host":"lax-1.us.uncletopia.com","port":27025,"enabled":true,"region":"us-west","cc":"us","latitude":33.94279,"longitude":-118.41004,"reserved":0,"last_update":"0001-01-01T00:00:00Z","name_a2s":"Uncletopia | Los Angeles | 2 | All Maps","protocol":17,"map":"koth_highpass","folder":"tf","game":"Team Fortress","app_id":440,"player_count":0,"max_players":24,"Bots":0,"server_type":"Dedicated","server_os":"Linux","password":true,"vac":true,"version":"7742253","steam_id":85568392924469992,"keywords":["cp","nocrits","nodmgspread","uncletopia"],"game_id":440,"stv_port":27026,"stv_name":"Uncletopia | Los Angeles | 2 | All Maps | STV","players":null},{"server_id":324,"name":"Uncletopia | Los Angeles | 3 | All Maps","name_short":"lax-3","host":"lax-1.us.uncletopia.com","port":27035,"enabled":true,"region":"us-west","cc":"us","latitude":33.94279,"longitude":-118.41004,"reserved":0,"last_update":"0001-01-01T00:00:00Z","name_a2s":"Uncletopia | Los Angeles | 3 | All Maps","protocol":17,"map":"koth_viaduct","folder":"tf","game":"Team Fortress","app_id":440,"player_count":0,"max_players":24,"Bots":0,"server_type":"Dedicated","server_os":"Linux","password":true,"vac":true,"version":"7742253","steam_id":85568392924510198,"keywords":["cp","nocrits","nodmgspread","uncletopia"],"game_id":440,"stv_port":27036,"stv_name":"Uncletopia | Los Angeles | 3 | All Maps | STV","players":null},{"server_id":25,"name":"Uncletopia | Los Angeles | 4 | Stopwatch Beta","name_short":"lax-4","host":"lax-1.us.uncletopia.com","port":27045,"enabled":true,"region":"us-west","cc":"us","latitude":33.94279,"longitude":-118.41004,"reserved":0,"last_update":"0001-01-01T00:00:00Z","name_a2s":"Uncletopia | Los Angeles | 4 | Stopwatch Beta","protocol":17,"map":"cp_snakewater_final1","folder":"tf","game":"Team Fortress","app_id":440,"player_count":0,"max_players":24,"Bots":0,"server_type":"Dedicated","server_os":"Linux","password":true,"vac":true,"version":"7742253","steam_id":85568392924510199,"keywords":["cp","nocrits","nodmgspread","uncletopia"],"game_id":440,"stv_port":27046,"stv_name":"Uncletopia | Los Angeles | 4 | Stopwatch Beta | STV","players":null},{"server_id":11,"name":"Uncletopia | London | 1 | All Maps","name_short":"lon-1","host":"lon-1.uk.uncletopia.com","port":27015,"enabled":true,"region":"eu","cc":"gb","latitude":51.509865,"longitude":-0.118092,"reserved":0,"last_update":"0001-01-01T00:00:00Z","name_a2s":"Uncletopia | London | 1 | All Maps","protocol":17,"map":"pl_snowycoast","folder":"tf","game":"Team Fortress","app_id":440,"player_count":25,"max_players":24,"Bots":0,"server_type":"Dedicated","server_os":"Linux","password":true,"vac":true,"version":"7742253","steam_id":85568392924367362,"keywords":["nocrits","nodmgspread","payload","uncletopia"],"game_id":440,"stv_port":27016,"stv_name":"Uncletopia | London | 1 | All Maps | STV","players":[{"user_id":476,"name":"Rocadinis","steam_id":76561198095910616,"connected_time":918000000000,"state":"active","ping":94},{"user_id":445,"name":"ScarredPixel123","steam_id":76561199165112703,"connected_time":2587000000000,"state":"active","ping":79},{"user_id":482,"name":"lant420","steam_id":76561198206673920,"connected_time":728000000000,"state":"active","ping":78},{"user_id":484,"name":"InsectKing","steam_id":76561199013519071,"connected_time":652000000000,"state":"active","ping":39},{"user_id":473,"name":"NotFionn","steam_id":76561198890525176,"connected_time":1172000000000,"state":"active","ping":69},{"user_id":485,"name":"p!ke","steam_id":76561198416081952,"connected_time":640000000000,"state":"active","ping":61},{"user_id":486,"name":"Finger named Kid","steam_id":76561199007730551,"connected_time":638000000000,"state":"active","ping":52},{"user_id":487,"name":"Stragnov‚òÜ","steam_id":76561198074702465,"connected_time":638000000000,"state":"active","ping":65},{"user_id":442,"name":"GunGuy","steam_id":76561198124510978,"connected_time":3018000000000,"state":"active","ping":34},{"user_id":470,"name":"Tort","steam_id":76561198329646769,"connected_time":1354000000000,"state":"active","ping":53},{"user_id":488,"name":"ViktorYoshi","steam_id":76561199157555246,"connected_time":633000000000,"state":"active","ping":57},{"user_id":392,"name":"dairy","steam_id":76561198117033273,"connected_time":7180000000000,"state":"active","ping":49},{"user_id":489,"name":"Tortoise Guy","steam_id":76561199047825610,"connected_time":600000000000,"state":"active","ping":71},{"user_id":483,"name":"‚Ñ¢‚Åß‚Åß‰πÉ»ΩOOD PRINCŒû","steam_id":76561198137835796,"connected_time":722000000000,"state":"active","ping":54},{"user_id":493,"name":"Geab","steam_id":76561198198998973,"connected_time":559000000000,"state":"active","ping":84},{"user_id":448,"name":"Lyell","steam_id":76561198350329389,"connected_time":2525000000000,"state":"active","ping":76},{"user_id":500,"name":"SOPHIIEE","steam_id":76561198443798981,"connected_time":444000000000,"state":"active","ping":52},{"user_id":501,"name":"BitterStep","steam_id":76561199103959197,"connected_time":428000000000,"state":"active","ping":105},{"user_id":474,"name":"Gryoss","steam_id":76561197999837111,"connected_time":1140000000000,"state":"active","ping":108},{"user_id":455,"name":"The Sunnyshot","steam_id":76561198086787499,"connected_time":2186000000000,"state":"active","ping":54},{"user_id":496,"name":"19raic","steam_id":76561199093514786,"connected_time":543000000000,"state":"active","ping":72},{"user_id":456,"name":"Vitamin Weee","steam_id":76561199183937747,"connected_time":2166000000000,"state":"active","ping":97},{"user_id":494,"name":"LOBZIK","steam_id":76561198114830120,"connected_time":553000000000,"state":"active","ping":81},{"user_id":405,"name":".quickfast.","steam_id":76561199438900919,"connected_time":6455000000000,"state":"active","ping":43},{"user_id":513,"name":"glyph","steam_id":76561197980736364,"connected_time":4000000000,"state":"spawning","ping":89}]},{"server_id":114,"name":"Uncletopia | London | 2 | All Maps","name_short":"lon-2","host":"lon-1.uk.uncletopia.com","port":27025,"enabled":true,"region":"eu","cc":"gb","latitude":51.509865,"longitude":-0.118092,"reserved":0,"last_update":"0001-01-01T00:00:00Z","name_a2s":"Uncletopia | London | 2 | All Maps","protocol":17,"map":"pl_pier","folder":"tf","game":"Team Fortress","app_id":440,"player_count":17,"max_players":24,"Bots":0,"server_type":"Dedicated","server_os":"Linux","password":true,"vac":true,"version":"7742253","steam_id":85568392924470941,"keywords":["nocrits","nodmgspread","payload","uncletopia"],"game_id":440,"stv_port":27026,"stv_name":"Uncletopia | London | 2 | All Maps | STV","players":[{"user_id":651,"name":"Old Man Winter","steam_id":76561198007653168,"connected_time":2088000000000,"state":"active","ping":47},{"user_id":665,"name":"FoOzTV","steam_id":76561197998636728,"connected_time":706000000000,"state":"active","ping":53},{"user_id":666,"name":"Joguzz","steam_id":76561198046983676,"connected_time":690000000000,"state":"active","ping":75},{"user_id":675,"name":"tamz","steam_id":76561198146873972,"connected_time":26000000000,"state":"active","ping":30},{"user_id":549,"name":"Mike Ehrmantraut","steam_id":76561197998338481,"connected_time":8899000000000,"state":"active","ping":62},{"user_id":541,"name":"Dr. Funkenstein","steam_id":76561197977816210,"connected_time":9244000000000,"state":"active","ping":64},{"user_id":648,"name":"snowi","steam_id":76561198006502679,"connected_time":2298000000000,"state":"active","ping":48},{"user_id":667,"name":"C DAT SAW!?","steam_id":76561198117247903,"connected_time":685000000000,"state":"active","ping":30},{"user_id":623,"name":"‚òÖ sat1ra","steam_id":76561198011382701,"connected_time":5187000000000,"state":"active","ping":82},{"user_id":660,"name":"TheBeardedM1G","steam_id":76561198040208946,"connected_time":1401000000000,"state":"active","ping":55},{"user_id":613,"name":"unkel dan","steam_id":76561199188332023,"connected_time":5355000000000,"state":"spawning","ping":45},{"user_id":671,"name":"nes","steam_id":76561198037938833,"connected_time":596000000000,"state":"active","ping":53},{"user_id":673,"name":"dec","steam_id":76561198009660168,"connected_time":379000000000,"state":"active","ping":45},{"user_id":543,"name":"Lightbulb Monkey","steam_id":76561198045033173,"connected_time":9216000000000,"state":"active","ping":47},{"user_id":633,"name":"sigma female","steam_id":76561198298576765,"connected_time":4463000000000,"state":"active","ping":59},{"user_id":674,"name":"ShoobyDooby","steam_id":76561198118473910,"connected_time":302000000000,"state":"active","ping":53},{"user_id":670,"name":"Klonky","steam_id":76561199068329886,"connected_time":629000000000,"state":"active","ping":74}]},{"server_id":320,"name":"Uncletopia | London | 3 | All Maps","name_short":"lon-3","host":"lon-1.uk.uncletopia.com","port":27035,"enabled":true,"region":"eu","cc":"gb","latitude":51.509865,"longitude":-0.118092,"reserved":0,"last_update":"0001-01-01T00:00:00Z","name_a2s":"Uncletopia | London | 3 | All Maps","protocol":17,"map":"pl_snowycoast","folder":"tf","game":"Team Fortress","app_id":440,"player_count":0,"max_players":24,"Bots":0,"server_type":"Dedicated","server_os":"Linux","password":true,"vac":true,"version":"7742253","steam_id":85568392924510192,"keywords":["nocrits","nodmgspread","payload","uncletopia"],"game_id":440,"stv_port":27036,"stv_name":"Uncletopia | London | 3 | All Maps | STV","players":null},{"server_id":321,"name":"Uncletopia | London | 4 | All Maps","name_short":"lon-4","host":"lon-1.uk.uncletopia.com","port":27045,"enabled":true,"region":"eu","cc":"gb","latitude":51.509865,"longitude":-0.118092,"reserved":0,"last_update":"0001-01-01T00:00:00Z","name_a2s":"Uncletopia | London | 4 | All Maps","protocol":17,"map":"cp_process_final","folder":"tf","game":"Team Fortress","app_id":440,"player_count":24,"max_players":24,"Bots":0,"server_type":"Dedicated","server_os":"Linux","password":true,"vac":true,"version":"7742253","steam_id":85568392924510193,"keywords":["cp","nocrits","nodmgspread","uncletopia"],"game_id":440,"stv_port":27046,"stv_name":"Uncletopia | London | 4 | All Maps | STV","players":[{"user_id":661,"name":"Baron","steam_id":76561198021901783,"connected_time":745000000000,"state":"active","ping":46},{"user_id":673,"name":"Haircut Police","steam_id":76561198084197772,"connected_time":150000000000,"state":"active","ping":59},{"user_id":663,"name":"Horo","steam_id":76561198009504508,"connected_time":579000000000,"state":"active","ping":58},{"user_id":677,"name":"Flyffmario","steam_id":76561198044770177,"connected_time":45000000000,"state":"active","ping":80},{"user_id":656,"name":"Foxyz","steam_id":76561198040642992,"connected_time":1493000000000,"state":"active","ping":98},{"user_id":640,"name":"my m*rge","steam_id":76561198106049954,"connected_time":2154000000000,"state":"active","ping":143},{"user_id":664,"name":"Lubrsi","steam_id":76561198040208195,"connected_time":497000000000,"state":"active","ping":46},{"user_id":605,"name":"I Don't Know","steam_id":76561198841011430,"connected_time":4346000000000,"state":"active","ping":69},{"user_id":648,"name":"Kurage","steam_id":76561198021221288,"connected_time":1684000000000,"state":"active","ping":66},{"user_id":586,"name":"f√©nix","steam_id":76561198083199151,"connected_time":5711000000000,"state":"active","ping":53},{"user_id":639,"name":"Bgm_","steam_id":76561198056452044,"connected_time":2546000000000,"state":"active","ping":71},{"user_id":672,"name":"Rizzy","steam_id":76561198164237267,"connected_time":300000000000,"state":"active","ping":71},{"user_id":637,"name":"homer conundrum","steam_id":76561198043601838,"connected_time":2625000000000,"state":"active","ping":64},{"user_id":676,"name":"LasagnaLarry22","steam_id":76561198089478290,"connected_time":69000000000,"state":"active","ping":37},{"user_id":662,"name":"Teecho","steam_id":76561197995269610,"connected_time":735000000000,"state":"active","ping":51},{"user_id":631,"name":"Parapluie","steam_id":76561197971640301,"connected_time":2902000000000,"state":"active","ping":38},{"user_id":632,"name":"9999 elo","steam_id":76561198155108452,"connected_time":2873000000000,"state":"active","ping":60},{"user_id":665,"name":"Immovable Gonzalez","steam_id":76561198072233046,"connected_time":480000000000,"state":"active","ping":81},{"user_id":671,"name":"Kaypher","steam_id":76561198858124606,"connected_time":310000000000,"state":"active","ping":78},{"user_id":590,"name":"Slowbro","steam_id":76561198010779146,"connected_time":5651000000000,"state":"active","ping":86},{"user_id":652,"name":"kogned","steam_id":76561198089285145,"connected_time":1615000000000,"state":"active","ping":95},{"user_id":660,"name":"Posture Check","steam_id":76561198053897197,"connected_time":1166000000000,"state":"active","ping":44},{"user_id":669,"name":"SuntanPikachu","steam_id":76561198121242476,"connected_time":380000000000,"state":"active","ping":94},{"user_id":674,"name":"Oxer","steam_id":76561198055942412,"connected_time":149000000000,"state":"active","ping":95}]},{"server_id":21,"name":"Uncletopia | London | 5 | All Maps","name_short":"lon-5","host":"lon-1.uk.uncletopia.com","port":27055,"enabled":true,"region":"eu","cc":"gb","latitude":51.509865,"longitude":-0.118092,"reserved":0,"last_update":"0001-01-01T00:00:00Z","name_a2s":"Uncletopia | London | 5 | All Maps","protocol":17,"map":"cp_badlands","folder":"tf","game":"Team Fortress","app_id":440,"player_count":19,"max_players":24,"Bots":0,"server_type":"Dedicated","server_os":"Linux","password":true,"vac":true,"version":"7742253","steam_id":85568392924742829,"keywords":["cp","nocrits","nodmgspread","uncletopia"],"game_id":440,"stv_port":27056,"stv_name":"Uncletopia | London | 5 | All Maps | STV","players":[{"user_id":181,"name":"QR-M5TR","steam_id":76561198197626135,"connected_time":130000000000,"state":"active","ping":60},{"user_id":178,"name":"CapnFang","steam_id":76561198042687780,"connected_time":222000000000,"state":"active","ping":75},{"user_id":165,"name":"Hamsti","steam_id":76561198274413808,"connected_time":1684000000000,"state":"active","ping":70},{"user_id":163,"name":"IX","steam_id":76561198039589783,"connected_time":1904000000000,"state":"active","ping":48},{"user_id":179,"name":"Hot Coffee","steam_id":76561198106868468,"connected_time":217000000000,"state":"active","ping":58},{"user_id":180,"name":"Chester","steam_id":76561198039253727,"connected_time":214000000000,"state":"active","ping":77},{"user_id":161,"name":"Plum","steam_id":76561198087179029,"connected_time":1933000000000,"state":"active","ping":60},{"user_id":148,"name":"Illecillewaet","steam_id":76561198005935655,"connected_time":3169000000000,"state":"active","ping":90},{"user_id":188,"name":"GodOfGobboz","steam_id":76561198154677956,"connected_time":48000000000,"state":"active","ping":66},{"user_id":184,"name":"Hunter64","steam_id":76561199121947938,"connected_time":107000000000,"state":"active","ping":71},{"user_id":166,"name":"Joseph Stalin LFT","steam_id":76561198033199746,"connected_time":1630000000000,"state":"active","ping":47},{"user_id":189,"name":"Dexi","steam_id":76561198056130461,"connected_time":10000000000,"state":"connecting","ping":0},{"user_id":185,"name":"robotiq","steam_id":76561198084218622,"connected_time":73000000000,"state":"active","ping":149},{"user_id":141,"name":"Finder - God's best alcoholic","steam_id":76561198056794088,"connected_time":3754000000000,"state":"active","ping":70},{"user_id":186,"name":"BILL THE THUG HUNTER","steam_id":76561198995741254,"connected_time":58000000000,"state":"active","ping":61},{"user_id":187,"name":"Lag","steam_id":76561198159360376,"connected_time":50000000000,"state":"active","ping":40},{"user_id":171,"name":"Andes","steam_id":76561198349744069,"connected_time":820000000000,"state":"active","ping":70},{"user_id":79,"name":"Dan","steam_id":76561198314800357,"connected_time":8216000000000,"state":"active","ping":106},{"user_id":158,"name":"subway vergil","steam_id":76561199110064166,"connected_time":2573000000000,"state":"active","ping":123}]},{"server_id":22,"name":"Uncletopia | London | 6 | All Maps","name_short":"lon-6","host":"lon-1.uk.uncletopia.com","port":27065,"enabled":true,"region":"eu","cc":"gb","latitude":51.509865,"longitude":-0.118092,"reserved":0,"last_update":"0001-01-01T00:00:00Z","name_a2s":"Uncletopia | London | 6 | All Maps","protocol":17,"map":"koth_lakeside_final","folder":"tf","game":"Team Fortress","app_id":440,"player_count":0,"max_players":24,"Bots":0,"server_type":"Dedicated","server_os":"Linux","password":true,"vac":true,"version":"7742253","steam_id":85568392924742830,"keywords":["cp","nocrits","nodmgspread","uncletopia"],"game_id":440,"stv_port":27066,"stv_name":"Uncletopia | London | 6 | All Maps | STV","players":null},{"server_id":40,"name":"Uncletopia | London | 7 | No Payload","name_short":"lon-7","host":"lon-1.uk.uncletopia.com","port":27075,"enabled":true,"region":"eu","cc":"gb","latitude":51.509865,"longitude":-0.118092,"reserved":0,"last_update":"0001-01-01T00:00:00Z","name_a2s":"Uncletopia | London | 7 | No Payload","protocol":17,"map":"plr_bananabay","folder":"tf","game":"Team Fortress","app_id":440,"player_count":0,"max_players":24,"Bots":0,"server_type":"Dedicated","server_os":"Linux","password":true,"vac":true,"version":"7742253","steam_id":85568392924964314,"keywords":["nocrits","nodmgspread","payload","uncletopia"],"game_id":440,"stv_port":27076,"stv_name":"Uncletopia | London | 7 | No Payload | STV","players":null},{"server_id":41,"name":"Uncletopia | London | 8 | Community","name_short":"lon-8","host":"lon-1.uk.uncletopia.com","port":27085,"enabled":true,"region":"eu","cc":"gb","latitude":51.509865,"longitude":-0.118092,"reserved":0,"last_update":"0001-01-01T00:00:00Z","name_a2s":"Uncletopia | London | 8 | Community","protocol":17,"map":"workshop/koth_ramjam_rc1.ugc459778887","folder":"tf","game":"Team Fortress","app_id":440,"player_count":0,"max_players":24,"Bots":0,"server_type":"Dedicated","server_os":"Linux","password":true,"vac":true,"version":"7742253","steam_id":85568392924964315,"keywords":["cp","nocrits","nodmgspread","uncletopia"],"game_id":440,"stv_port":27086,"stv_name":"Uncletopia | London | 8 | Community | STV","players":null},{"server_id":300,"name":"Uncletopia | Montr√©al | 1 | All Maps","name_short":"mtl-1","host":"mtl-1.ca.uncletopia.com","port":27015,"enabled":true,"region":"us-east","cc":"ca","latitude":45.50889,"longitude":-73.56167,"reserved":0,"last_update":"0001-01-01T00:00:00Z","name_a2s":"Uncletopia | Montr√©al | 1 | All Maps","protocol":17,"map":"pl_swiftwater_final1","folder":"tf","game":"Team Fortress","app_id":440,"player_count":0,"max_players":24,"Bots":0,"server_type":"Dedicated","server_os":"Linux","password":true,"vac":true,"version":"7742253","steam_id":85568392924500087,"keywords":["nocrits","nodmgspread","payload","uncletopia"],"game_id":440,"stv_port":27016,"stv_name":"Uncletopia | Montr√©al | 1 | All Maps | STV","players":null},{"server_id":301,"name":"Uncletopia | Montr√©al | 2 | All Maps","name_short":"mtl-2","host":"mtl-1.ca.uncletopia.com","port":27025,"enabled":true,"region":"us-east","cc":"ca","latitude":45.50889,"longitude":-73.56167,"reserved":0,"last_update":"0001-01-01T00:00:00Z","name_a2s":"Uncletopia | Montr√©al | 2 | All Maps","protocol":17,"map":"cp_dustbowl","folder":"tf","game":"Team Fortress","app_id":440,"player_count":13,"max_players":24,"Bots":0,"server_type":"Dedicated","server_os":"Linux","password":true,"vac":true,"version":"7742253","steam_id":85568392924500088,"keywords":["cp","nocrits","nodmgspread","uncletopia"],"game_id":440,"stv_port":27026,"stv_name":"Uncletopia | Montr√©al | 2 | All Maps | STV","players":[{"user_id":24,"name":"Enderpanda24","steam_id":76561199461170521,"connected_time":3455000000000,"state":"active","ping":149},{"user_id":37,"name":"Japanese Rabbit Enthusiast","steam_id":76561199134895220,"connected_time":979000000000,"state":"active","ping":67},{"user_id":25,"name":"mega giga payload hater!","steam_id":76561198039727616,"connected_time":3226000000000,"state":"active","ping":76},{"user_id":36,"name":"silentpieceofbacon","steam_id":76561198869323351,"connected_time":1206000000000,"state":"active","ping":59},{"user_id":45,"name":"GangsterSobble","steam_id":76561199208323196,"connected_time":3000000000,"state":"spawning","ping":99},{"user_id":38,"name":"Exit Sandman","steam_id":76561199046497884,"connected_time":928000000000,"state":"active","ping":60},{"user_id":9,"name":"Stop Tryharding :(","steam_id":76561199130074444,"connected_time":4700000000000,"state":"active","ping":89},{"user_id":39,"name":"Floofy Femboy","steam_id":76561198872384806,"connected_time":647000000000,"state":"active","ping":66},{"user_id":40,"name":"Sprit ‚ô•","steam_id":76561198268780781,"connected_time":542000000000,"state":"active","ping":65},{"user_id":41,"name":"CZS (abbreviation)","steam_id":76561199020233296,"connected_time":393000000000,"state":"active","ping":128},{"user_id":42,"name":"yama","steam_id":76561198055544216,"connected_time":288000000000,"state":"active","ping":73},{"user_id":43,"name":"Fat Genji","steam_id":76561198006935332,"connected_time":275000000000,"state":"active","ping":109},{"user_id":44,"name":"Sire Salty","steam_id":76561198079639072,"connected_time":80000000000,"state":"active","ping":59}]},{"server_id":302,"name":"Uncletopia | Montr√©al | 3 | All Maps","name_short":"mtl-3","host":"mtl-1.ca.uncletopia.com","port":27035,"enabled":true,"region":"us-east","cc":"ca","latitude":45.50889,"longitude":-73.56167,"reserved":0,"last_update":"0001-01-01T00:00:00Z","name_a2s":"Uncletopia | Montr√©al | 3 | All Maps","protocol":17,"map":"koth_highpass","folder":"tf","game":"Team Fortress","app_id":440,"player_count":4,"max_players":24,"Bots":0,"server_type":"Dedicated","server_os":"Linux","password":true,"vac":true,"version":"7742253","steam_id":85568392924500089,"keywords":["cp","nocrits","nodmgspread","uncletopia"],"game_id":440,"stv_port":27036,"stv_name":"Uncletopia | Montr√©al | 3 | All Maps | STV","players":[{"user_id":9,"name":"cool beans","steam_id":76561198321591685,"connected_time":1109000000000,"state":"active","ping":91},{"user_id":5,"name":"lolzfrdawin21","steam_id":76561199006665979,"connected_time":3008000000000,"state":"active","ping":72},{"user_id":6,"name":"Monsterjessy","steam_id":76561198035630985,"connected_time":2930000000000,"state":"active","ping":49},{"user_id":8,"name":"themadlad67","steam_id":76561199309554436,"connected_time":1212000000000,"state":"active","ping":114}]},{"server_id":303,"name":"Uncletopia | Montr√©al | 4 | No Payload","name_short":"mtl-4","host":"mtl-1.ca.uncletopia.com","port":27045,"enabled":true,"region":"us-east","cc":"ca","latitude":45.50889,"longitude":-73.56167,"reserved":0,"last_update":"0001-01-01T00:00:00Z","name_a2s":"Uncletopia | Montr√©al | 4 | No Payload","protocol":17,"map":"cp_snakewater_final1","folder":"tf","game":"Team Fortress","app_id":440,"player_count":0,"max_players":24,"Bots":0,"server_type":"Dedicated","server_os":"Linux","password":true,"vac":true,"version":"7742253","steam_id":85568392924500090,"keywords":["cp","nocrits","nodmgspread","uncletopia"],"game_id":440,"stv_port":27046,"stv_name":"Uncletopia | Montr√©al | 4 | No Payload | STV","players":null},{"server_id":13,"name":"Uncletopia | New York City | 1 | All Maps","name_short":"nyc-1","host":"nyc-1.us.uncletopia.com","port":27015,"enabled":true,"region":"us-east","cc":"us","latitude":40.73061,"longitude":-73.93524,"reserved":0,"last_update":"0001-01-01T00:00:00Z","name_a2s":"Uncletopia | New York City | 1 | All Maps","protocol":17,"map":"cp_mountainlab","folder":"tf","game":"Team Fortress","app_id":440,"player_count":20,"max_players":24,"Bots":0,"server_type":"Dedicated","server_os":"Linux","password":true,"vac":true,"version":"7742253","steam_id":85568392924469993,"keywords":["cp","nocrits","nodmgspread","uncletopia"],"game_id":440,"stv_port":27016,"stv_name":"Uncletopia | New York City | 1 | All Maps | STV","players":[{"user_id":318,"name":"oak","steam_id":76561198092135570,"connected_time":1855000000000,"state":"active","ping":74},{"user_id":319,"name":"lloydc99","steam_id":76561198024999815,"connected_time":1845000000000,"state":"active","ping":44},{"user_id":341,"name":"Inevitable","steam_id":76561198210050169,"connected_time":145000000000,"state":"active","ping":45},{"user_id":342,"name":"violetcassette","steam_id":76561199028224555,"connected_time":112000000000,"state":"active","ping":112},{"user_id":315,"name":"True American Hero","steam_id":76561198025473302,"connected_time":2124000000000,"state":"active","ping":86},{"user_id":283,"name":"Endy","steam_id":76561199031301177,"connected_time":5047000000000,"state":"active","ping":55},{"user_id":334,"name":"DuckKey","steam_id":76561198904477889,"connected_time":555000000000,"state":"active","ping":39},{"user_id":302,"name":"BlazeHX","steam_id":76561198827408017,"connected_time":3194000000000,"state":"active","ping":76},{"user_id":317,"name":"Qinxnix","steam_id":76561198091538771,"connected_time":1954000000000,"state":"active","ping":122},{"user_id":343,"name":"TheTomatoWizard","steam_id":76561199123567989,"connected_time":35000000000,"state":"active","ping":56},{"user_id":335,"name":"ethan","steam_id":76561199090107877,"connected_time":538000000000,"state":"active","ping":48},{"user_id":338,"name":"Snugboo","steam_id":76561198147970327,"connected_time":460000000000,"state":"active","ping":40},{"user_id":314,"name":"Back with the milk","steam_id":76561199020105501,"connected_time":2293000000000,"state":"active","ping":52},{"user_id":322,"name":"OneLetterShor","steam_id":76561198989165242,"connected_time":1821000000000,"state":"active","ping":48},{"user_id":308,"name":"the deadliest pyroshark","steam_id":76561198374227766,"connected_time":2556000000000,"state":"active","ping":60},{"user_id":117,"name":"PizzaPasta","steam_id":76561199125109082,"connected_time":12913000000000,"state":"active","ping":63},{"user_id":333,"name":"Ronin Grinch","steam_id":76561198041439581,"connected_time":568000000000,"state":"active","ping":60},{"user_id":337,"name":"Hunt_er#SaveTf2","steam_id":76561198325350546,"connected_time":530000000000,"state":"active","ping":78},{"user_id":328,"name":"blob","steam_id":76561198122375328,"connected_time":1133000000000,"state":"active","ping":64},{"user_id":267,"name":"„ÄåDaws_Dudeguy„Äç","steam_id":76561198205838645,"connected_time":6560000000000,"state":"active","ping":84}]},{"server_id":14,"name":"Uncletopia | New York City | 2 | All Maps","name_short":"nyc-2","host":"nyc-1.us.uncletopia.com","port":27025,"enabled":true,"region":"us-east","cc":"us","latitude":40.73061,"longitude":-73.93524,"reserved":0,"last_update":"0001-01-01T00:00:00Z","name_a2s":"Uncletopia | New York City | 2 | All Maps","protocol":17,"map":"koth_cascade","folder":"tf","game":"Team Fortress","app_id":440,"player_count":0,"max_players":24,"Bots":0,"server_type":"Dedicated","server_os":"Linux","password":true,"vac":true,"version":"7742253","steam_id":85568392924469994,"keywords":["cp","nocrits","nodmgspread","uncletopia"],"game_id":440,"stv_port":27026,"stv_name":"Uncletopia | New York City | 2 | All Maps | STV","players":null},{"server_id":15,"name":"Uncletopia | New York City | 3 | Stopwatch Beta","name_short":"nyc-3","host":"nyc-1.us.uncletopia.com","port":27035,"enabled":true,"region":"us-east","cc":"us","latitude":40.73061,"longitude":-73.93524,"reserved":0,"last_update":"0001-01-01T00:00:00Z","name_a2s":"Uncletopia | New York City | 3 | Stopwatch Beta","protocol":17,"map":"pl_pier","folder":"tf","game":"Team Fortress","app_id":440,"player_count":0,"max_players":24,"Bots":0,"server_type":"Dedicated","server_os":"Linux","password":true,"vac":true,"version":"7742253","steam_id":85568392924742820,"keywords":["nocrits","nodmgspread","payload","uncletopia"],"game_id":440,"stv_port":27036,"stv_name":"Uncletopia | New York City | 3 | Stopwatch Beta | STV","players":null},{"server_id":16,"name":"Uncletopia | New York City | 4 | Community","name_short":"nyc-4","host":"nyc-1.us.uncletopia.com","port":27045,"enabled":true,"region":"us-east","cc":"us","latitude":40.73061,"longitude":-73.93524,"reserved":0,"last_update":"0001-01-01T00:00:00Z","name_a2s":"Uncletopia | New York City | 4 | Community","protocol":17,"map":"koth_viaduct","folder":"tf","game":"Team Fortress","app_id":440,"player_count":0,"max_players":24,"Bots":0,"server_type":"Dedicated","server_os":"Linux","password":true,"vac":true,"version":"7742253","steam_id":85568392924742821,"keywords":["cp","nocrits","nodmgspread","uncletopia"],"game_id":440,"stv_port":27046,"stv_name":"Uncletopia | New York City | 4 | Community | STV","players":null},{"server_id":142,"name":"Uncletopia | S√£o Paulo | 1 | All Maps","name_short":"sao-1","host":"sao-1.br.uncletopia.com","port":27015,"enabled":true,"region":"sa","cc":"br","latitude":-23.533773,"longitude":-46.62529,"reserved":0,"last_update":"0001-01-01T00:00:00Z","name_a2s":"Uncletopia | S√£o Paulo | 1 | All Maps","protocol":17,"map":"koth_viaduct","folder":"tf","game":"Team Fortress","app_id":440,"player_count":0,"max_players":24,"Bots":0,"server_type":"Dedicated","server_os":"Linux","password":true,"vac":true,"version":"7742253","steam_id":85568392924469996,"keywords":["cp","nocrits","nodmgspread","uncletopia"],"game_id":440,"stv_port":27016,"stv_name":"Uncletopia | S√£o Paulo | 1 | All Maps | STV","players":null},{"server_id":143,"name":"Uncletopia | S√£o Paulo | 2 | All Maps","name_short":"sao-2","host":"sao-2.br.uncletopia.com","port":27015,"enabled":true,"region":"sa","cc":"br","latitude":-23.533773,"longitude":-46.62529,"reserved":0,"last_update":"0001-01-01T00:00:00Z","name_a2s":"Uncletopia | S√£o Paulo | 2 | All Maps","protocol":17,"map":"koth_cascade","folder":"tf","game":"Team Fortress","app_id":440,"player_count":0,"max_players":24,"Bots":0,"server_type":"Dedicated","server_os":"Linux","password":true,"vac":true,"version":"7742253","steam_id":85568392924485349,"keywords":["cp","nocrits","nodmgspread","uncletopia"],"game_id":440,"stv_port":27016,"stv_name":"Uncletopia | S√£o Paulo | 2 | All Maps | STV","players":null},{"server_id":7,"name":"Uncletopia | Seattle | 1 | All Maps","name_short":"sea-1","host":"sea-1.us.uncletopia.com","port":27015,"enabled":true,"region":"us-west","cc":"us","latitude":47.608013,"longitude":-122.33517,"reserved":0,"last_update":"0001-01-01T00:00:00Z","name_a2s":"Uncletopia | Seattle | 1 | All Maps","protocol":17,"map":"pl_snowycoast","folder":"tf","game":"Team Fortress","app_id":440,"player_count":20,"max_players":24,"Bots":0,"server_type":"Dedicated","server_os":"Linux","password":true,"vac":true,"version":"7742253","steam_id":85568392924469997,"keywords":["nocrits","nodmgspread","payload","uncletopia"],"game_id":440,"stv_port":27016,"stv_name":"Uncletopia | Seattle | 1 | All Maps | STV","players":[{"user_id":409,"name":"truck freak (festive)","steam_id":76561198062712676,"connected_time":476000000000,"state":"active","ping":46},{"user_id":389,"name":"ORANGE","steam_id":76561198000401769,"connected_time":1713000000000,"state":"active","ping":46},{"user_id":415,"name":"bass97","steam_id":76561198849018884,"connected_time":336000000000,"state":"active","ping":111},{"user_id":423,"name":"oxbudy","steam_id":76561198022120207,"connected_time":200000000000,"state":"active","ping":72},{"user_id":416,"name":"Iggy_Isailiah","steam_id":76561199182838313,"connected_time":320000000000,"state":"active","ping":134},{"user_id":418,"name":"Mr. Electric","steam_id":76561198071962415,"connected_time":278000000000,"state":"active","ping":130},{"user_id":390,"name":"Xin-xi Warrior","steam_id":76561198978418260,"connected_time":1684000000000,"state":"active","ping":73},{"user_id":425,"name":"thunderous prophet","steam_id":76561198131166135,"connected_time":138000000000,"state":"active","ping":44},{"user_id":408,"name":"oil","steam_id":76561198099980149,"connected_time":707000000000,"state":"active","ping":74},{"user_id":424,"name":"EduardoLopez2005","steam_id":76561198188481309,"connected_time":188000000000,"state":"active","ping":60},{"user_id":426,"name":"ChickenManPhil","steam_id":76561199139508332,"connected_time":31000000000,"state":"spawning","ping":157},{"user_id":420,"name":"drf","steam_id":76561198063322988,"connected_time":237000000000,"state":"active","ping":45},{"user_id":421,"name":"a chicken","steam_id":76561198313121580,"connected_time":220000000000,"state":"active","ping":76},{"user_id":407,"name":"Zee‚ù§","steam_id":76561198274550638,"connected_time":947000000000,"state":"active","ping":113},{"user_id":384,"name":"oo","steam_id":76561198119626492,"connected_time":1781000000000,"state":"active","ping":91},{"user_id":385,"name":"BLU3","steam_id":76561198059652670,"connected_time":1780000000000,"state":"active","ping":47},{"user_id":382,"name":"Frank","steam_id":76561198126681511,"connected_time":2110000000000,"state":"active","ping":79},{"user_id":327,"name":"Piper","steam_id":76561198059054032,"connected_time":5058000000000,"state":"active","ping":141},{"user_id":398,"name":"Square Square","steam_id":76561198070481423,"connected_time":1535000000000,"state":"active","ping":85},{"user_id":399,"name":"Google","steam_id":76561198857237473,"connected_time":1534000000000,"state":"active","ping":56}]},{"server_id":119,"name":"Uncletopia | Seattle | 2 | All Maps","name_short":"sea-2","host":"sea-1.us.uncletopia.com","port":27025,"enabled":true,"region":"us-west","cc":"us","latitude":47.608013,"longitude":-122.33517,"reserved":0,"last_update":"0001-01-01T00:00:00Z","name_a2s":"Uncletopia | Seattle | 2 | All Maps","protocol":17,"map":"pl_swiftwater_final1","folder":"tf","game":"Team Fortress","app_id":440,"player_count":19,"max_players":24,"Bots":0,"server_type":"Dedicated","server_os":"Linux","password":true,"vac":true,"version":"7742253","steam_id":85568392924469998,"keywords":["nocrits","nodmgspread","payload","uncletopia"],"game_id":440,"stv_port":27026,"stv_name":"Uncletopia | Seattle | 2 | All Maps | STV","players":[{"user_id":130,"name":"Lobster M.K. II","steam_id":76561198872839097,"connected_time":278000000000,"state":"active","ping":121},{"user_id":118,"name":"chief sosa","steam_id":76561198095495769,"connected_time":1020000000000,"state":"active","ping":52},{"user_id":133,"name":"TastyWheat","steam_id":76561198855061918,"connected_time":175000000000,"state":"active","ping":52},{"user_id":119,"name":"Clay Pot","steam_id":76561199030644557,"connected_time":987000000000,"state":"active","ping":125},{"user_id":17,"name":"Critkey","steam_id":76561198450820435,"connected_time":7594000000000,"state":"active","ping":152},{"user_id":117,"name":"MFIN HOG CRANKER","steam_id":76561198046073848,"connected_time":1223000000000,"state":"active","ping":47},{"user_id":112,"name":"Nirvana","steam_id":76561198293556549,"connected_time":1663000000000,"state":"active","ping":47},{"user_id":120,"name":"PapaFrita","steam_id":76561199071983367,"connected_time":979000000000,"state":"active","ping":131},{"user_id":102,"name":"123","steam_id":76561198117342640,"connected_time":2576000000000,"state":"active","ping":81},{"user_id":121,"name":"SuaveFrenchman","steam_id":76561198043762683,"connected_time":955000000000,"state":"active","ping":60},{"user_id":94,"name":"gay porn","steam_id":76561198102454261,"connected_time":3061000000000,"state":"active","ping":78},{"user_id":81,"name":"Cambonieboo","steam_id":76561198139174433,"connected_time":4220000000000,"state":"active","ping":83},{"user_id":95,"name":"Magik","steam_id":76561198200169706,"connected_time":3029000000000,"state":"active","ping":108},{"user_id":122,"name":"Dosario","steam_id":76561198298095535,"connected_time":923000000000,"state":"active","ping":53},{"user_id":77,"name":"‡∂û","steam_id":76561198256701755,"connected_time":4443000000000,"state":"active","ping":61},{"user_id":128,"name":"exocept","steam_id":76561198969813893,"connected_time":476000000000,"state":"active","ping":51},{"user_id":123,"name":"HUIEI","steam_id":76561198073763735,"connected_time":897000000000,"state":"active","ping":65},{"user_id":129,"name":"incineratedbread","steam_id":76561198133619079,"connected_time":474000000000,"state":"active","ping":41},{"user_id":82,"name":"Dr. Hurrible","steam_id":76561198080070400,"connected_time":4155000000000,"state":"active","ping":119}]},{"server_id":406,"name":"Uncletopia | Seattle | 3 | Stopwatch Beta","name_short":"sea-3","host":"sea-1.us.uncletopia.com","port":27035,"enabled":true,"region":"us-west","cc":"us","latitude":47.608013,"longitude":-122.33517,"reserved":0,"last_update":"0001-01-01T00:00:00Z","name_a2s":"Uncletopia | Seattle | 3 | Stopwatch Beta","protocol":17,"map":"workshop/koth_bagel_rc5.ugc2514036946","folder":"tf","game":"Team Fortress","app_id":440,"player_count":0,"max_players":24,"Bots":0,"server_type":"Dedicated","server_os":"Linux","password":true,"vac":true,"version":"7742253","steam_id":85568392924515217,"keywords":["cp","nocrits","nodmgspread","uncletopia"],"game_id":440,"stv_port":27036,"stv_name":"Uncletopia | Seattle | 3 | Stopwatch Beta | STV","players":null},{"server_id":17,"name":"Uncletopia | San Francisco | 1 | All Maps","name_short":"sfo-1","host":"sfo-1.us.uncletopia.com","port":27015,"enabled":true,"region":"us-west","cc":"us","latitude":37.77397,"longitude":-122.4313,"reserved":0,"last_update":"0001-01-01T00:00:00Z","name_a2s":"Uncletopia | San Francisco | 1 | All Maps","protocol":17,"map":"cp_snakewater_final1","folder":"tf","game":"Team Fortress","app_id":440,"player_count":0,"max_players":24,"Bots":0,"server_type":"Dedicated","server_os":"Linux","password":true,"vac":true,"version":"7742253","steam_id":85568392924469999,"keywords":["cp","nocrits","nodmgspread","uncletopia"],"game_id":440,"stv_port":27016,"stv_name":"Uncletopia | San Francisco | 1 | All Maps | STV","players":null},{"server_id":18,"name":"Uncletopia | San Francisco | 2 | All Maps","name_short":"sfo-2","host":"sfo-1.us.uncletopia.com","port":27025,"enabled":true,"region":"us-west","cc":"us","latitude":37.77397,"longitude":-122.4313,"reserved":0,"last_update":"0001-01-01T00:00:00Z","name_a2s":"Uncletopia | San Francisco | 2 | All Maps","protocol":17,"map":"koth_viaduct","folder":"tf","game":"Team Fortress","app_id":440,"player_count":0,"max_players":24,"Bots":0,"server_type":"Dedicated","server_os":"Linux","password":true,"vac":true,"version":"7742253","steam_id":85568392924470000,"keywords":["cp","nocrits","nodmgspread","uncletopia"],"game_id":440,"stv_port":27026,"stv_name":"Uncletopia | San Francisco | 2 | All Maps | STV","players":null},{"server_id":19,"name":"Uncletopia | San Francisco | 3 | Stopwatch Beta","name_short":"sfo-3","host":"sfo-1.us.uncletopia.com","port":27035,"enabled":true,"region":"us-west","cc":"us","latitude":37.77397,"longitude":-122.4313,"reserved":0,"last_update":"0001-01-01T00:00:00Z","name_a2s":"Uncletopia | San Francisco | 3 | Stopwatch Beta","protocol":17,"map":"koth_highpass","folder":"tf","game":"Team Fortress","app_id":440,"player_count":0,"max_players":24,"Bots":0,"server_type":"Dedicated","server_os":"Linux","password":true,"vac":true,"version":"7742253","steam_id":85568392924742824,"keywords":["cp","nocrits","nodmgspread","uncletopia"],"game_id":440,"stv_port":27036,"stv_name":"Uncletopia | San Francisco | 3 | Stopwatch Beta | STV","players":null},{"server_id":20,"name":"Uncletopia | San Francisco | 4 | Community","name_short":"sfo-4","host":"sfo-1.us.uncletopia.com","port":27045,"enabled":true,"region":"us-west","cc":"us","latitude":37.77397,"longitude":-122.4313,"reserved":0,"last_update":"0001-01-01T00:00:00Z","name_a2s":"Uncletopia | San Francisco | 4 | Community","protocol":17,"map":"workshop/rd_asteroid_redux_rc9.ugc2154902912","folder":"tf","game":"Team Fortress","app_id":440,"player_count":0,"max_players":24,"Bots":0,"server_type":"Dedicated","server_os":"Linux","password":true,"vac":true,"version":"7742253","steam_id":85568392924742826,"keywords":["beta","nocrits","nodmgspread","rd","uncletopia"],"game_id":440,"stv_port":27046,"stv_name":"Uncletopia | San Francisco | 4 | Community | STV","players":null},{"server_id":141,"name":"Uncletopia | Sydney | 1 | All Maps","name_short":"syd-1","host":"syd-1.au.uncletopia.com","port":27015,"enabled":true,"region":"au","cc":"au","latitude":-33.865143,"longitude":151.2099,"reserved":0,"last_update":"0001-01-01T00:00:00Z","name_a2s":"Uncletopia | Sydney | 1 | All Maps","protocol":17,"map":"koth_lakeside_final","folder":"tf","game":"Team Fortress","app_id":440,"player_count":0,"max_players":24,"Bots":0,"server_type":"Dedicated","server_os":"Linux","password":true,"vac":true,"version":"7742253","steam_id":85568392924470001,"keywords":["cp","nocrits","nodmgspread","uncletopia"],"game_id":440,"stv_port":27016,"stv_name":"Uncletopia | Sydney | 1 | All Maps | STV","players":null},{"server_id":123,"name":"Uncletopia | Sydney | 2 | All Maps","name_short":"syd-2","host":"syd-1.au.uncletopia.com","port":27025,"enabled":true,"region":"au","cc":"au","latitude":-33.865143,"longitude":151.2099,"reserved":0,"last_update":"0001-01-01T00:00:00Z","name_a2s":"Uncletopia | Sydney | 2 | All Maps","protocol":17,"map":"cp_mountainlab","folder":"tf","game":"Team Fortress","app_id":440,"player_count":2,"max_players":24,"Bots":0,"server_type":"Dedicated","server_os":"Linux","password":true,"vac":true,"version":"7742253","steam_id":85568392924470002,"keywords":["cp","nocrits","nodmgspread","uncletopia"],"game_id":440,"stv_port":27026,"stv_name":"Uncletopia | Sydney | 2 | All Maps | STV","players":[{"user_id":27,"name":"squrrel","steam_id":76561198083429611,"connected_time":1234000000000,"state":"active","ping":68},{"user_id":17,"name":"carrot monster","steam_id":76561199056025092,"connected_time":2764000000000,"state":"active","ping":42}]},{"server_id":395,"name":"Uncletopia | Sydney | 3 | All Maps","name_short":"syd-3","host":"syd-1.au.uncletopia.com","port":27035,"enabled":true,"region":"au","cc":"au","latitude":-33.865143,"longitude":151.2099,"reserved":0,"last_update":"0001-01-01T00:00:00Z","name_a2s":"Uncletopia | Sydney | 3 | All Maps","protocol":17,"map":"koth_viaduct","folder":"tf","game":"Team Fortress","app_id":440,"player_count":0,"max_players":24,"Bots":0,"server_type":"Dedicated","server_os":"Linux","password":true,"vac":true,"version":"7742253","steam_id":85568392925194467,"keywords":["cp","nocrits","nodmgspread","uncletopia"],"game_id":440,"stv_port":27036,"stv_name":"Uncletopia | Sydney | 3 | All Maps | STV","players":null},{"server_id":396,"name":"Uncletopia | Sydney | 4 | All Maps","name_short":"syd-4","host":"syd-1.au.uncletopia.com","port":27045,"enabled":true,"region":"au","cc":"au","latitude":-33.865143,"longitude":151.2099,"reserved":0,"last_update":"0001-01-01T00:00:00Z","name_a2s":"Uncletopia | Sydney | 4 | All Maps","protocol":17,"map":"pl_frontier_final","folder":"tf","game":"Team Fortress","app_id":440,"player_count":0,"max_players":24,"Bots":0,"server_type":"Dedicated","server_os":"Linux","password":true,"vac":true,"version":"7742253","steam_id":85568392925397958,"keywords":["nocrits","nodmgspread","payload","uncletopia"],"game_id":440,"stv_port":27046,"stv_name":"Uncletopia | Sydney | 4 | All Maps | STV","players":null},{"server_id":58,"name":"Uncletopia | Sydney | 5 | Stopwatch Beta","name_short":"syd-5","host":"syd-1.au.uncletopia.com","port":27055,"enabled":true,"region":"au","cc":"au","latitude":-33.865143,"longitude":151.2099,"reserved":0,"last_update":"0001-01-01T00:00:00Z","name_a2s":"Uncletopia | Sydney | 5 | Stopwatch Beta","protocol":17,"map":"cp_sunshine","folder":"tf","game":"Team Fortress","app_id":440,"player_count":0,"max_players":24,"Bots":0,"server_type":"Dedicated","server_os":"Linux","password":true,"vac":true,"version":"7742253","steam_id":85568392925397959,"keywords":["cp","nocrits","nodmgspread","uncletopia"],"game_id":440,"stv_port":27056,"stv_name":"Uncletopia | Sydney | 5 | Stopwatch Beta | STV","players":null},{"server_id":59,"name":"Uncletopia | Sydney | 6 | Community","name_short":"syd-6","host":"syd-1.au.uncletopia.com","port":27065,"enabled":true,"region":"au","cc":"au","latitude":-33.865143,"longitude":151.2099,"reserved":0,"last_update":"0001-01-01T00:00:00Z","name_a2s":"Uncletopia | Sydney | 6 | Community","protocol":17,"map":"cp_dustbowl","folder":"tf","game":"Team Fortress","app_id":440,"player_count":0,"max_players":24,"Bots":0,"server_type":"Dedicated","server_os":"Linux","password":true,"vac":true,"version":"7742253","steam_id":85568392925397960,"keywords":["cp","nocrits","nodmgspread","uncletopia"],"game_id":440,"stv_port":27066,"stv_name":"Uncletopia | Sydney | 6 | Community | STV","players":null},{"server_id":49,"name":"Uncletopia | Warsaw | 1 | All Maps","name_short":"waw-1","host":"waw-1.pl.uncletopia.com","port":27015,"enabled":true,"region":"eu","cc":"pl","latitude":52.2297,"longitude":21.017532,"reserved":0,"last_update":"0001-01-01T00:00:00Z","name_a2s":"","protocol":0,"map":"","folder":"","game":"","app_id":0,"player_count":0,"max_players":0,"Bots":0,"server_type":"","server_os":"","password":false,"vac":false,"version":"","steam_id":0,"keywords":null,"game_id":0,"stv_port":0,"stv_name":"","players":null},{"server_id":50,"name":"Uncletopia | Warsaw | 2 | All Maps","name_short":"waw-2","host":"waw-1.pl.uncletopia.com","port":27025,"enabled":true,"region":"eu","cc":"pl","latitude":52.2297,"longitude":21.017532,"reserved":0,"last_update":"0001-01-01T00:00:00Z","name_a2s":"Uncletopia | Warsaw | 2 | All Maps","protocol":17,"map":"koth_lakeside_final","folder":"tf","game":"Team Fortress","app_id":440,"player_count":0,"max_players":24,"Bots":0,"server_type":"Dedicated","server_os":"Linux","password":true,"vac":true,"version":"7742253","steam_id":85568392925397851,"keywords":["cp","nocrits","nodmgspread","uncletopia"],"game_id":440,"stv_port":27026,"stv_name":"Uncletopia | Warsaw | 2 | All Maps | STV","players":null},{"server_id":51,"name":"Uncletopia | Warsaw | 3 | All Maps","name_short":"waw-3","host":"waw-1.pl.uncletopia.com","port":27035,"enabled":true,"region":"eu","cc":"pl","latitude":52.2297,"longitude":21.017532,"reserved":0,"last_update":"0001-01-01T00:00:00Z","name_a2s":"Uncletopia | Warsaw | 3 | All Maps","protocol":17,"map":"koth_lakeside_final","folder":"tf","game":"Team Fortress","app_id":440,"player_count":0,"max_players":24,"Bots":0,"server_type":"Dedicated","server_os":"Linux","password":true,"vac":true,"version":"7742253","steam_id":85568392925397852,"keywords":["cp","nocrits","nodmgspread","uncletopia"],"game_id":440,"stv_port":27036,"stv_name":"Uncletopia | Warsaw | 3 | All Maps | STV","players":null},{"server_id":52,"name":"Uncletopia | Warsaw | 4 | All Maps","name_short":"waw-4","host":"waw-1.pl.uncletopia.com","port":27045,"enabled":true,"region":"eu","cc":"pl","latitude":52.2297,"longitude":21.017532,"reserved":0,"last_update":"0001-01-01T00:00:00Z","name_a2s":"Uncletopia | Warsaw | 4 | All Maps","protocol":17,"map":"pl_snowycoast","folder":"tf","game":"Team Fortress","app_id":440,"player_count":24,"max_players":24,"Bots":0,"server_type":"Dedicated","server_os":"Linux","password":true,"vac":true,"version":"7742253","steam_id":85568392925397853,"keywords":["nocrits","nodmgspread","payload","uncletopia"],"game_id":440,"stv_port":27046,"stv_name":"Uncletopia | Warsaw | 4 | All Maps | STV","players":[{"user_id":524,"name":"gaming for jesus","steam_id":76561199236428794,"connected_time":457000000000,"state":"active","ping":97},{"user_id":516,"name":"Babylons plonkin'","steam_id":76561198314919758,"connected_time":1327000000000,"state":"active","ping":85},{"user_id":534,"name":"jovi_","steam_id":76561198449280552,"connected_time":60000000000,"state":"active","ping":87},{"user_id":525,"name":"Dee","steam_id":76561198257836694,"connected_time":301000000000,"state":"active","ping":69},{"user_id":533,"name":"dissatisfaction","steam_id":76561198132004093,"connected_time":143000000000,"state":"active","ping":51},{"user_id":517,"name":"kbbq","steam_id":76561198346638308,"connected_time":1253000000000,"state":"active","ping":76},{"user_id":535,"name":"ScampSixteen","steam_id":76561198021771000,"connected_time":25000000000,"state":"spawning","ping":80},{"user_id":527,"name":"Borat","steam_id":76561198122226417,"connected_time":290000000000,"state":"active","ping":74},{"user_id":509,"name":"Minimi","steam_id":76561198873850443,"connected_time":1772000000000,"state":"active","ping":75},{"user_id":528,"name":"lofi hip hop beats","steam_id":76561198348048790,"connected_time":272000000000,"state":"active","ping":107},{"user_id":435,"name":"Rubi","steam_id":76561198139410003,"connected_time":5121000000000,"state":"active","ping":81},{"user_id":529,"name":"weaselmeister","steam_id":76561199059841173,"connected_time":258000000000,"state":"active","ping":82},{"user_id":436,"name":"DrauconeTMDS","steam_id":76561198083510257,"connected_time":5116000000000,"state":"active","ping":62},{"user_id":468,"name":"Redmailbox","steam_id":76561198042930322,"connected_time":3201000000000,"state":"active","ping":83},{"user_id":531,"name":"Rezkey","steam_id":76561198206079048,"connected_time":172000000000,"state":"active","ping":83},{"user_id":514,"name":"Reece","steam_id":76561198148030229,"connected_time":1564000000000,"state":"active","ping":100},{"user_id":511,"name":"Purplenoogie","steam_id":76561198081872160,"connected_time":1642000000000,"state":"active","ping":73},{"user_id":521,"name":"frosty","steam_id":76561198094560834,"connected_time":845000000000,"state":"active","ping":89},{"user_id":457,"name":"DVous","steam_id":76561198121737111,"connected_time":3759000000000,"state":"active","ping":56},{"user_id":479,"name":"Qnoœás","steam_id":76561198235739036,"connected_time":2788000000000,"state":"active","ping":90},{"user_id":420,"name":"[P-roc] Cmm Bert","steam_id":76561198016658674,"connected_time":7131000000000,"state":"active","ping":89},{"user_id":520,"name":"cinny","steam_id":76561198832112629,"connected_time":955000000000,"state":"active","ping":98},{"user_id":421,"name":"[P-roc] Lovely","steam_id":76561198074361075,"connected_time":7103000000000,"state":"active","ping":85},{"user_id":507,"name":"Julez","steam_id":76561198045505082,"connected_time":1818000000000,"state":"active","ping":52}]},{"server_id":53,"name":"Uncletopia | Warsaw | 5 | Stopwatch Beta","name_short":"waw-5","host":"waw-1.pl.uncletopia.com","port":27055,"enabled":true,"region":"eu","cc":"pl","latitude":52.2297,"longitude":21.017532,"reserved":0,"last_update":"0001-01-01T00:00:00Z","name_a2s":"Uncletopia | Warsaw | 5 | Stopwatch Beta","protocol":17,"map":"pl_swiftwater_final1","folder":"tf","game":"Team Fortress","app_id":440,"player_count":0,"max_players":24,"Bots":0,"server_type":"Dedicated","server_os":"Linux","password":true,"vac":true,"version":"7742253","steam_id":85568392925397854,"keywords":["nocrits","nodmgspread","payload","uncletopia"],"game_id":440,"stv_port":27056,"stv_name":"Uncletopia | Warsaw | 5 | Stopwatch Beta | STV","players":null},{"server_id":54,"name":"Uncletopia | Warsaw | 6 | Community","name_short":"waw-6","host":"waw-1.pl.uncletopia.com","port":27065,"enabled":true,"region":"eu","cc":"pl","latitude":52.2297,"longitude":21.017532,"reserved":0,"last_update":"0001-01-01T00:00:00Z","name_a2s":"Uncletopia | Warsaw | 6 | Community","protocol":17,"map":"koth_highpass","folder":"tf","game":"Team Fortress","app_id":440,"player_count":0,"max_players":24,"Bots":0,"server_type":"Dedicated","server_os":"Linux","password":true,"vac":true,"version":"7742253","steam_id":85568392925397856,"keywords":["cp","nocrits","nodmgspread","uncletopia"],"game_id":440,"stv_port":27066,"stv_name":"Uncletopia | Warsaw | 6 | Community | STV","players":null}]}