{"status":true,"message":"","result":[{"server_id":9,"name":"Uncletopia | Atlanta | 1 | All Maps","name_short":"atl-1","host":"atl-1.us.uncletopia.com","port":27015,"enabled":true,"region":"us-east","cc":"us","latitude":33.753746,"longitude":-84.38633,"reserved":0,"last_update":"0001-01-01T00:00:00Z","name_a2s":"Uncletopia | Atlanta | 1 | All Maps","protocol":17,"map":"cp_sunshine","folder":"tf","game":"Team Fortress","app_id":440,"player_count":24,"max_players":24,"Bots":0,"server_type":"Dedicated","server_os":"Linux","password":true,"vac":true,"version":"7757534","steam_id":85568392924469982,"keywords":["cp","nocrits","nodmgspread","uncletopia"],"game_id":440,"stv_port":27016,"stv_name":"Uncletopia | Atlanta | 1 | All Maps | STV","players":[{"user_id":180,"name":"pink","steam_id":76561199123057582,"connected_time":91000000000,"state":"active","ping":157},{"user_id":173,"name":"Towns","steam_id":76561198984662863,"connected_time":326000000000,"state":"active","ping":57},{"user_id":159,"name":"joe","steam_id":76561199102371298,"connected_time":2127000000000,"state":"active","ping":112},{"user_id":181,"name":"Myn","steam_id":76561198055438857,"connected_time":46000000000,"state":"active","ping":73},{"user_id":172,"name":"Boop","steam_id":76561198376703875,"connected_time":437000000000,"state":"active","ping":66},{"user_id":114,"name":"Decolour","steam_id":76561199045608372,"connected_time":7460000000000,"state":"active","ping":73},{"user_id":174,"name":"✿","steam_id":76561198138444785,"connected_time":325000000000,"state":"active","ping":71},{"user_id":109,"name":"floofy","steam_id":76561198389769098,"connected_time":8248000000000,"state":"active","ping":74},{"user_id":154,"name":"Tay1Qr","steam_id":76561198082809935,"connected_time":2683000000000,"state":"active","ping":65},{"user_id":146,"name":"Yoloisnotded","steam_id":76561198995043589,"connected_time":3834000000000,"state":"active","ping":81},{"user_id":165,"name":"Vinnask","steam_id":76561199473081779,"connected_time":1209000000000,"state":"active","ping":75},{"user_id":176,"name":"vandeer","steam_id":76561198120124007,"connected_time":256000000000,"state":"active","ping":89},{"user_id":151,"name":"Lord Dragon","steam_id":76561198310300373,"connected_time":3404000000000,"state":"active","ping":85},{"user_id":119,"name":"BLU1| Inky (Coolest)","steam_id":76561198968337022,"connected_time":7347000000000,"state":"active","ping":54},{"user_id":171,"name":"soultheori","steam_id":76561198065538342,"connected_time":454000000000,"state":"active","ping":80},{"user_id":161,"name":"Kaluka","steam_id":76561198036861445,"connected_time":2071000000000,"state":"active","ping":60},{"user_id":170,"name":"xZackAttack27x","steam_id":76561198035446639,"connected_time":701000000000,"state":"active","ping":59},{"user_id":123,"name":"Mage","steam_id":76561198285026879,"connected_time":6922000000000,"state":"active","ping":82},{"user_id":132,"name":"SCATTER","steam_id":76561198405168492,"connected_time":5204000000000,"state":"active","ping":95},{"user_id":175,"name":"Joey The Goat","steam_id":76561198864691307,"connected_time":311000000000,"state":"active","ping":62},{"user_id":164,"name":"rose","steam_id":76561198048882285,"connected_time":1296000000000,"state":"active","ping":71},{"user_id":162,"name":"Sexy Julian","steam_id":76561198024596083,"connected_time":2060000000000,"state":"active","ping":116},{"user_id":177,"name":"MIDi","steam_id":76561198010708247,"connected_time":239000000000,"state":"active","ping":72},{"user_id":178,"name":"Small tiny feet","steam_id":76561199141538581,"connected_time":221000000000,"state":"active","ping":118}]},{"server_id":400,"name":"Uncletopia | Atlanta | 3 | Community","name_short":"atl-3","host":"atl-1.us.uncletopia.com","port":27035,"enabled":true,"region":"us-east","cc":"us","latitude":33.753746,"longitude":-84.38633,"reserved":0,"last_update":"0001-01-01T00:00:00Z","name_a2s":"Uncletopia | Atlanta | 3 | Community","protocol":17,"map":"workshop/pl_vigil_rc9.ugc1266210012","folder":"tf","game":"Team Fortress","app_id":440,"player_count":0,"max_players":24,"Bots":0,"server_type":"Dedicated","server_os":"Linux","password":true,"vac":true,"version":"7757534","steam_id":85568392924515187,"keywords":["nocrits","nodmgspread","payload","uncletopia"],"game_id":440,"stv_port":27036,"stv_name":"Uncletopia | Atlanta | 3 | Community | STV","players":null},{"server_id":401,"name":"Uncletopia | Atlanta | 4 | No Payload","name_short":"atl-4","host":"atl-1.us.uncletopia.com","port":27045,"enabled":true,"region":"us-east","cc":"us","latitude":33.753746,"longitude":-84.38633,"reserved":0,"last_update":"0001-01-01T00:00:00Z","name_a2s":"","protocol":0,"map":"","folder":"","game":"","app_id":0,"player_count":0,"max_players":0,"Bots":0,"server_type":"","server_os":"","password":false,"vac":false,"version":"","steam_id":0,"keywords":null,"game_id":0,"stv_port":0,"stv_name":"","players":null},{"server_id":2,"name":"Uncletopia | Chicago | 1 | All Maps","name_short":"chi-1","host":"chi-1.us.uncletopia.com","port":27015,"enabled":true,"region":"us-central","cc":"us","latitude":41.881832,"longitude":-87.62318,"reserved":0,"last_update":"0001-01-01T00:00:00Z","name_a2s":"Uncletopia | Chicago | 1 | All Maps","protocol":17,"map":"koth_viaduct","folder":"tf","game":"Team Fortress","app_id":440,"player_count":0,"max_players":24,"Bots":0,"server_type":"Dedicated","server_os":"Linux","password":true,"vac":true,"version":"7757534","steam_id":85568392924469984,"keywords":["cp","nocrits","nodmgspread","uncletopia"],"game_id":440,"stv_port":27016,"stv_name":"Uncletopia | Chicago | 1 | All Maps | STV","players":null},{"server_id":106,"name":"Uncletopia | Chicago | 2 | All Maps","name_short":"chi-2","host":"chi-1.us.uncletopia.com","port":27025,"enabled":true,"region":"us-central","cc":"us","latitude":41.881832,"longitude":-87.62318,"reserved":0,"last_update":"0001-01-01T00:00:00Z","name_a2s":"Uncletopia | Chicago | 2 | All Maps","protocol":17,"map":"cp_sunshine","folder":"tf","game":"Team Fortress","app_id":440,"player_count":24,"max_players":24,"Bots":0,"server_type":"Dedicated","server_os":"Linux","password":true,"vac":true,"version":"7757534","steam_id":85568392924469985,"keywords":["cp","nocrits","nodmgspread","uncletopia"],"game_id":440,"stv_port":27026,"stv_name":"Uncletopia | Chicago | 2 | All Maps | STV","players":[{"user_id":208,"name":"momb","steam_id":76561198142234038,"connected_time":339000000000,"state":"active","ping":88},{"user_id":206,"name":"Hifumi Togo","steam_id":76561198074930636,"connected_time":670000000000,"state":"active","ping":44},{"user_id":157,"name":"Jack The Racc","steam_id":76561198044762365,"connected_time":5154000000000,"state":"active","ping":50},{"user_id":179,"name":"Maxxycat","steam_id":76561198194062681,"connected_time":2657000000000,"state":"active","ping":51},{"user_id":198,"name":"SubZeroDestruction","steam_id":76561198145082209,"connected_time":1148000000000,"state":"active","ping":66},{"user_id":210,"name":"Resistance","steam_id":76561198146782074,"connected_time":278000000000,"state":"active","ping":52},{"user_id":182,"name":"Chemo","steam_id":76561197961308370,"connected_time":2556000000000,"state":"active","ping":131},{"user_id":189,"name":"Thequirka","steam_id":76561198968058652,"connected_time":1545000000000,"state":"active","ping":93},{"user_id":174,"name":"Riske","steam_id":76561198115840568,"connected_time":3364000000000,"state":"active","ping":72},{"user_id":193,"name":"God's Cutest Twink","steam_id":76561198053164901,"connected_time":1423000000000,"state":"active","ping":55},{"user_id":190,"name":"hatchetax","steam_id":76561199013337543,"connected_time":1540000000000,"state":"active","ping":73},{"user_id":191,"name":"bobbyreinman2009","steam_id":76561198804763186,"connected_time":1533000000000,"state":"active","ping":60},{"user_id":197,"name":"ComputeCore167","steam_id":76561198301250353,"connected_time":1236000000000,"state":"active","ping":82},{"user_id":211,"name":"his favorite underpants","steam_id":76561199001979290,"connected_time":107000000000,"state":"active","ping":96},{"user_id":199,"name":"SleepingBrim","steam_id":76561198067650229,"connected_time":1142000000000,"state":"active","ping":99},{"user_id":200,"name":"itsmajestic","steam_id":76561198304790008,"connected_time":1128000000000,"state":"active","ping":64},{"user_id":180,"name":"burger","steam_id":76561198058209703,"connected_time":2653000000000,"state":"active","ping":60},{"user_id":160,"name":"Spike","steam_id":76561198141356571,"connected_time":5120000000000,"state":"active","ping":60},{"user_id":175,"name":"Hydroxianchaos","steam_id":76561198043786828,"connected_time":3321000000000,"state":"active","ping":67},{"user_id":201,"name":"I’m Sleepy","steam_id":76561198879929343,"connected_time":1109000000000,"state":"active","ping":65},{"user_id":202,"name":"mommy","steam_id":76561198129195009,"connected_time":1102000000000,"state":"active","ping":73},{"user_id":153,"name":"Kapitan Bomba","steam_id":76561199102087660,"connected_time":6199000000000,"state":"active","ping":71},{"user_id":207,"name":"Xruffel :3 (gay)","steam_id":76561198067697879,"connected_time":569000000000,"state":"active","ping":55},{"user_id":204,"name":"DoomoPelota","steam_id":76561198326462587,"connected_time":1065000000000,"state":"active","ping":96}]},{"server_id":402,"name":"Uncletopia | Chicago | 3 | All Maps","name_short":"chi-3","host":"chi-1.us.uncletopia.com","port":27035,"enabled":true,"region":"us-central","cc":"us","latitude":41.881832,"longitude":-87.62318,"reserved":0,"last_update":"0001-01-01T00:00:00Z","name_a2s":"Uncletopia | Chicago | 3 | All Maps","protocol":17,"map":"pl_frontier_final","folder":"tf","game":"Team Fortress","app_id":440,"player_count":25,"max_players":24,"Bots":0,"server_type":"Dedicated","server_os":"Linux","password":true,"vac":true,"version":"7757534","steam_id":85568392924515191,"keywords":["nocrits","nodmgspread","payload","uncletopia"],"game_id":440,"stv_port":27036,"stv_name":"Uncletopia | Chicago | 3 | All Maps | STV","players":[{"user_id":219,"name":"gNarNar","steam_id":76561197994505205,"connected_time":796000000000,"state":"active","ping":55},{"user_id":222,"name":"Mara Roo","steam_id":76561198279341789,"connected_time":201000000000,"state":"active","ping":65},{"user_id":208,"name":"Weeb","steam_id":76561198935795395,"connected_time":1855000000000,"state":"active","ping":95},{"user_id":188,"name":"vanta","steam_id":76561198084317504,"connected_time":3505000000000,"state":"active","ping":46},{"user_id":223,"name":"Gary","steam_id":76561198133309753,"connected_time":191000000000,"state":"active","ping":62},{"user_id":217,"name":"creepycrawler","steam_id":76561198352016831,"connected_time":810000000000,"state":"active","ping":60},{"user_id":224,"name":"cassiopeia!","steam_id":76561198052639733,"connected_time":188000000000,"state":"active","ping":77},{"user_id":197,"name":"D0VE","steam_id":76561198151618566,"connected_time":3145000000000,"state":"active","ping":102},{"user_id":191,"name":"Nodin","steam_id":76561198135757376,"connected_time":3430000000000,"state":"active","ping":59},{"user_id":204,"name":"rudy","steam_id":76561198088712799,"connected_time":2260000000000,"state":"active","ping":75},{"user_id":220,"name":"Cleric","steam_id":76561198045887994,"connected_time":780000000000,"state":"active","ping":42},{"user_id":228,"name":"bleh","steam_id":76561198368102618,"connected_time":62000000000,"state":"active","ping":102},{"user_id":210,"name":"kermitcreeper(ZAZA)","steam_id":76561199222829972,"connected_time":1699000000000,"state":"active","ping":55},{"user_id":192,"name":"sodapone","steam_id":76561198065334185,"connected_time":3406000000000,"state":"active","ping":85},{"user_id":193,"name":"dicksouls26","steam_id":76561198838196266,"connected_time":3397000000000,"state":"active","ping":76},{"user_id":225,"name":"Rakk","steam_id":76561198855176174,"connected_time":175000000000,"state":"active","ping":105},{"user_id":176,"name":"Glass Joe","steam_id":76561198317365741,"connected_time":4893000000000,"state":"active","ping":63},{"user_id":227,"name":"womanliker","steam_id":76561198441739585,"connected_time":141000000000,"state":"active","ping":106},{"user_id":194,"name":"JadeMonsuta","steam_id":76561198124011080,"connected_time":3393000000000,"state":"active","ping":117},{"user_id":216,"name":"Mitchu The Bidness Man","steam_id":76561198102494381,"connected_time":1052000000000,"state":"active","ping":62},{"user_id":206,"name":"Krome","steam_id":76561198087317232,"connected_time":1987000000000,"state":"active","ping":76},{"user_id":212,"name":"Lore","steam_id":76561198098407538,"connected_time":1662000000000,"state":"active","ping":48},{"user_id":145,"name":"Brass beast heavy","steam_id":76561198274197623,"connected_time":6453000000000,"state":"active","ping":142},{"user_id":230,"name":"KUBY","steam_id":76561198799533722,"connected_time":3000000000,"state":"spawning","ping":146},{"user_id":214,"name":"reni","steam_id":76561199192183787,"connected_time":1627000000000,"state":"active","ping":118}]},{"server_id":403,"name":"Uncletopia | Chicago | 4 | All Maps","name_short":"chi-4","host":"chi-1.us.uncletopia.com","port":27045,"enabled":true,"region":"us-central","cc":"us","latitude":41.881832,"longitude":-87.62318,"reserved":0,"last_update":"0001-01-01T00:00:00Z","name_a2s":"Uncletopia | Chicago | 4 | All Maps","protocol":17,"map":"pl_snowycoast","folder":"tf","game":"Team Fortress","app_id":440,"player_count":1,"max_players":24,"Bots":0,"server_type":"Dedicated","server_os":"Linux","password":true,"vac":true,"version":"7757534","steam_id":85568392924515193,"keywords":["nocrits","nodmgspread","payload","uncletopia"],"game_id":440,"stv_port":27046,"stv_name":"Uncletopia | Chicago | 4 | All Maps | STV","players":[{"user_id":243,"name":"dinguskun","steam_id":76561199264132508,"connected_time":78000000000,"state":"active","ping":137}]},{"server_id":36,"name":"Uncletopia | Chicago | 5 | All Maps","name_short":"chi-5","host":"chi-2.us.uncletopia.com","port":27015,"enabled":true,"region":"us-central","cc":"us","latitude":41.881832,"longitude":-87.62318,"reserved":0,"last_update":"0001-01-01T00:00:00Z","name_a2s":"Uncletopia | Chicago | 5 | All Maps","protocol":17,"map":"koth_cascade","folder":"tf","game":"Team Fortress","app_id":440,"player_count":14,"max_players":24,"Bots":0,"server_type":"Dedicated","server_os":"Linux","password":true,"vac":true,"version":"7757534","steam_id":85568392924866362,"keywords":["cp","nocrits","nodmgspread","uncletopia"],"game_id":440,"stv_port":27016,"stv_name":"Uncletopia | Chicago | 5 | All Maps | STV","players":[{"user_id":220,"name":"freethinker99","steam_id":76561198125327740,"connected_time":1007000000000,"state":"active","ping":51},{"user_id":214,"name":"HeartlessWinner","steam_id":76561198376336908,"connected_time":2096000000000,"state":"active","ping":72},{"user_id":226,"name":"*****setget","steam_id":76561198118824188,"connected_time":256000000000,"state":"active","ping":112},{"user_id":218,"name":"the keithvinci kode","steam_id":76561198056622157,"connected_time":1385000000000,"state":"active","ping":64},{"user_id":227,"name":"Ediot","steam_id":76561199349494096,"connected_time":45000000000,"state":"active","ping":88},{"user_id":221,"name":"Soundproof","steam_id":76561198133392504,"connected_time":892000000000,"state":"active","ping":69},{"user_id":210,"name":"Sabaman55","steam_id":76561198212267979,"connected_time":3175000000000,"state":"active","ping":48},{"user_id":224,"name":"Waffle","steam_id":76561198248438852,"connected_time":562000000000,"state":"active","ping":91},{"user_id":181,"name":"Funky Buttlovin","steam_id":76561198002807702,"connected_time":4406000000000,"state":"active","ping":64},{"user_id":223,"name":"Rond Gong The Dong Machine","steam_id":76561198283349215,"connected_time":808000000000,"state":"active","ping":93},{"user_id":228,"name":"ChuChu","steam_id":76561199443647976,"connected_time":23000000000,"state":"spawning","ping":178},{"user_id":183,"name":"Akornical","steam_id":76561199171025092,"connected_time":4333000000000,"state":"active","ping":60},{"user_id":185,"name":"Drez47","steam_id":76561198380714058,"connected_time":4321000000000,"state":"active","ping":77},{"user_id":201,"name":"RaccoonTrenchcoat","steam_id":76561198349763652,"connected_time":3757000000000,"state":"active","ping":83}]},{"server_id":37,"name":"Uncletopia | Chicago | 6 | All Maps","name_short":"chi-6","host":"chi-2.us.uncletopia.com","port":27025,"enabled":true,"region":"us-central","cc":"us","latitude":41.881832,"longitude":-87.62318,"reserved":0,"last_update":"0001-01-01T00:00:00Z","name_a2s":"Uncletopia | Chicago | 6 | All Maps","protocol":17,"map":"koth_highpass","folder":"tf","game":"Team Fortress","app_id":440,"player_count":0,"max_players":24,"Bots":0,"server_type":"Dedicated","server_os":"Linux","password":true,"vac":true,"version":"7757534","steam_id":85568392924866363,"keywords":["cp","nocrits","nodmgspread","uncletopia"],"game_id":440,"stv_port":27026,"stv_name":"Uncletopia | Chicago | 6 | All Maps | STV","players":null},{"server_id":38,"name":"Uncletopia | Chicago | 7 | Stopwatch Beta","name_short":"chi-7","host":"chi-2.us.uncletopia.com","port":27035,"enabled":true,"region":"us-central","cc":"us","latitude":41.881832,"longitude":-87.62318,"reserved":0,"last_update":"0001-01-01T00:00:00Z","name_a2s":"Uncletopia | Chicago | 7 | Stopwatch Beta","protocol":17,"map":"koth_viaduct","folder":"tf","game":"Team Fortress","app_id":440,"player_count":0,"max_players":24,"Bots":0,"server_type":"Dedicated","server_os":"Linux","password":true,"vac":true,"version":"7757534","steam_id":85568392924866364,"keywords":["cp","nocrits","nodmgspread","uncletopia"],"game_id":440,"stv_port":27036,"stv_name":"Uncletopia | Chicago | 7 | Stopwatch Beta | STV","players":null},{"server_id":39,"name":"Uncletopia | Chicago | 8 | Community","name_short":"chi-8","host":"chi-2.us.uncletopia.com","port":27045,"enabled":true,"region":"us-central","cc":"us","latitude":41.881832,"longitude":-87.62318,"reserved":0,"last_update":"0001-01-01T00:00:00Z","name_a2s":"Uncletopia | Chicago | 8 | Community","protocol":17,"map":"workshop/koth_trenchfoot_b1a.ugc731436616","folder":"tf","game":"Team Fortress","app_id":440,"player_count":0,"max_players":24,"Bots":0,"server_type":"Dedicated","server_os":"Linux","password":true,"vac":true,"version":"7757534","steam_id":85568392924866365,"keywords":["cp","nocrits","nodmgspread","uncletopia"],"game_id":440,"stv_port":27046,"stv_name":"Uncletopia | Chicago | 8 | Community | STV","players":null},{"server_id":8,"name":"Uncletopia | Dallas | 1 | All Maps","name_short":"dal-1","host":"dal-1.us.uncletopia.com","port":27015,"enabled":true,"region":"us-central","cc":"us","latitude":32.779167,"longitude":-96.80889,"reserved":0,"last_update":"0001-01-01T00:00:00Z","name_a2s":"Uncletopia | Dallas | 1 | All Maps","protocol":17,"map":"pl_badwater","folder":"tf","game":"Team Fortress","app_id":440,"player_count":24,"max_players":24,"Bots":0,"server_type":"Dedicated","server_os":"Linux","password":true,"vac":true,"version":"7757534","steam_id":85568392924469986,"keywords":["nocrits","nodmgspread","payload","uncletopia"],"game_id":440,"stv_port":27016,"stv_name":"Uncletopia | Dallas | 1 | All Maps | STV","players":[{"user_id":459,"name":"demonstrations man","steam_id":76561198362195862,"connected_time":452000000000,"state":"active","ping":89},{"user_id":440,"name":"Gay Cake","steam_id":76561198004388831,"connected_time":2284000000000,"state":"active","ping":86},{"user_id":5,"name":"Limasio","steam_id":76561198198176191,"connected_time":17542000000000,"state":"active","ping":70},{"user_id":441,"name":"Lt. Dan's Legs","steam_id":76561198043851584,"connected_time":2279000000000,"state":"active","ping":132},{"user_id":460,"name":"Ap1hw","steam_id":76561199122883466,"connected_time":376000000000,"state":"active","ping":55},{"user_id":436,"name":"Gezmore Throcchtil","steam_id":76561198065087206,"connected_time":2485000000000,"state":"active","ping":54},{"user_id":442,"name":"BlixyDragon","steam_id":76561198295422834,"connected_time":2272000000000,"state":"active","ping":124},{"user_id":461,"name":"Gelidus","steam_id":76561198817304634,"connected_time":371000000000,"state":"active","ping":71},{"user_id":462,"name":"aarons","steam_id":76561198252430046,"connected_time":366000000000,"state":"active","ping":70},{"user_id":477,"name":"aleksandrdirsa62","steam_id":76561199445938947,"connected_time":9000000000,"state":"spawning","ping":323},{"user_id":458,"name":"BackToSchoolAds","steam_id":76561198870281128,"connected_time":740000000000,"state":"active","ping":106},{"user_id":467,"name":"Kenku","steam_id":76561199086762926,"connected_time":258000000000,"state":"active","ping":64},{"user_id":432,"name":"Techo","steam_id":76561199169405285,"connected_time":2559000000000,"state":"active","ping":115},{"user_id":444,"name":"Featherless Biped","steam_id":76561198034171721,"connected_time":2252000000000,"state":"active","ping":89},{"user_id":469,"name":"Hex","steam_id":76561198161656164,"connected_time":218000000000,"state":"active","ping":85},{"user_id":468,"name":"Flex_Luthor","steam_id":76561198017314670,"connected_time":234000000000,"state":"active","ping":92},{"user_id":470,"name":"Jack from Jack in The Box","steam_id":76561199083594971,"connected_time":218000000000,"state":"active","ping":61},{"user_id":471,"name":"StarManMatt","steam_id":76561198125513574,"connected_time":199000000000,"state":"active","ping":89},{"user_id":472,"name":"Icy","steam_id":76561198125015366,"connected_time":185000000000,"state":"active","ping":118},{"user_id":475,"name":"bladees saddest, realest verse","steam_id":76561198098099826,"connected_time":72000000000,"state":"active","ping":69},{"user_id":474,"name":"Dragonofponies","steam_id":76561199016800803,"connected_time":77000000000,"state":"active","ping":54},{"user_id":476,"name":"vareh","steam_id":76561197993190926,"connected_time":70000000000,"state":"active","ping":109},{"user_id":478,"name":"Smittywerbenjager-manjenson","steam_id":76561198067060742,"connected_time":8000000000,"state":"spawning","ping":59},{"user_id":479,"name":"Cheetose Intolerant","steam_id":76561198013399809,"connected_time":6000000000,"state":"active","ping":112}]},{"server_id":108,"name":"Uncletopia | Dallas | 2 | All Maps","name_short":"dal-2","host":"dal-1.us.uncletopia.com","port":27025,"enabled":true,"region":"us-central","cc":"us","latitude":32.779167,"longitude":-96.80889,"reserved":0,"last_update":"0001-01-01T00:00:00Z","name_a2s":"Uncletopia | Dallas | 2 | All Maps","protocol":17,"map":"koth_highpass","folder":"tf","game":"Team Fortress","app_id":440,"player_count":0,"max_players":24,"Bots":0,"server_type":"Dedicated","server_os":"Linux","password":true,"vac":true,"version":"7757534","steam_id":85568392924469988,"keywords":["cp","nocrits","nodmgspread","uncletopia"],"game_id":440,"stv_port":27026,"stv_name":"Uncletopia | Dallas | 2 | All Maps | STV","players":null},{"server_id":5,"name":"Uncletopia | Frankfurt | 1 | All Maps","name_short":"frk-1","host":"frk-1.de.uncletopia.com","port":27015,"enabled":true,"region":"eu","cc":"de","latitude":50.110924,"longitude":8.682127,"reserved":0,"last_update":"0001-01-01T00:00:00Z","name_a2s":"Uncletopia | Frankfurt | 1 | All Maps","protocol":17,"map":"pl_badwater","folder":"tf","game":"Team Fortress","app_id":440,"player_count":0,"max_players":24,"Bots":0,"server_type":"Dedicated","server_os":"Linux","password":true,"vac":true,"version":"7757534","steam_id":85568392924469989,"keywords":["nocrits","nodmgspread","payload","uncletopia"],"game_id":440,"stv_port":27016,"stv_name":"Uncletopia | Frankfurt | 1 | All Maps | STV","players":null},{"server_id":110,"name":"Uncletopia | Frankfurt | 2 | All Maps","name_short":"frk-2","host":"frk-1.de.uncletopia.com","port":27025,"enabled":true,"region":"eu","cc":"de","latitude":50.110924,"longitude":8.682127,"reserved":0,"last_update":"0001-01-01T00:00:00Z","name_a2s":"Uncletopia | Frankfurt | 2 | All Maps","protocol":17,"map":"pl_pier","folder":"tf","game":"Team Fortress","app_id":440,"player_count":24,"max_players":24,"Bots":0,"server_type":"Dedicated","server_os":"Linux","password":true,"vac":true,"version":"7757534","steam_id":85568392924469990,"keywords":["nocrits","nodmgspread","payload","uncletopia"],"game_id":440,"stv_port":27026,"stv_name":"Uncletopia | Frankfurt | 2 | All Maps | STV","players":[{"user_id":95,"name":"♫★Xriasp★♫","steam_id":76561198104721321,"connected_time":303000000000,"state":"active","ping":74},{"user_id":84,"name":"Begone","steam_id":76561199093369711,"connected_time":1594000000000,"state":"active","ping":84},{"user_id":61,"name":"Enigmus","steam_id":76561197994063627,"connected_time":4195000000000,"state":"active","ping":80},{"user_id":96,"name":"Mr. Pickles #SaveTF2","steam_id":76561199210183560,"connected_time":289000000000,"state":"active","ping":141},{"user_id":34,"name":"glyph","steam_id":76561197980736364,"connected_time":7007000000000,"state":"active","ping":78},{"user_id":104,"name":"󠀡󠀡","steam_id":76561198199523126,"connected_time":13000000000,"state":"active","ping":82},{"user_id":38,"name":"Corpus Christi","steam_id":76561198417999443,"connected_time":6624000000000,"state":"active","ping":96},{"user_id":63,"name":"Lewylow","steam_id":76561198005425686,"connected_time":3777000000000,"state":"active","ping":63},{"user_id":86,"name":"The Crusader","steam_id":76561198301742965,"connected_time":1094000000000,"state":"active","ping":102},{"user_id":87,"name":"Seluos Siren","steam_id":76561198082665647,"connected_time":955000000000,"state":"active","ping":187},{"user_id":88,"name":"witch mommy","steam_id":76561198080571915,"connected_time":923000000000,"state":"active","ping":136},{"user_id":89,"name":"♥♥♥","steam_id":76561198247907744,"connected_time":913000000000,"state":"active","ping":94},{"user_id":81,"name":"Truegr","steam_id":76561198811912339,"connected_time":2200000000000,"state":"active","ping":60},{"user_id":97,"name":"yes i like watching gumball","steam_id":76561198142349119,"connected_time":240000000000,"state":"active","ping":92},{"user_id":99,"name":"Chicker","steam_id":76561198809697283,"connected_time":220000000000,"state":"active","ping":54},{"user_id":91,"name":"FingerMan","steam_id":76561198004040091,"connected_time":595000000000,"state":"active","ping":63},{"user_id":94,"name":"SaSSolino","steam_id":76561198011308018,"connected_time":366000000000,"state":"active","ping":52},{"user_id":100,"name":"ace","steam_id":76561198335329113,"connected_time":205000000000,"state":"active","ping":114},{"user_id":83,"name":"Boy of leisure","steam_id":76561199086196283,"connected_time":2009000000000,"state":"active","ping":117},{"user_id":101,"name":"Striker","steam_id":76561198100173021,"connected_time":205000000000,"state":"active","ping":60},{"user_id":102,"name":"CurseTail","steam_id":76561198318225811,"connected_time":117000000000,"state":"active","ping":79},{"user_id":103,"name":"pekoraali (she/her)","steam_id":76561198112012468,"connected_time":61000000000,"state":"active","ping":72},{"user_id":77,"name":"Dude Time","steam_id":76561198092991160,"connected_time":2615000000000,"state":"active","ping":175},{"user_id":78,"name":"Hoks","steam_id":76561198126442242,"connected_time":2565000000000,"state":"active","ping":116}]},{"server_id":308,"name":"Uncletopia | Frankfurt | 3 | All Maps","name_short":"frk-3","host":"frk-1.de.uncletopia.com","port":27035,"enabled":true,"region":"eu","cc":"de","latitude":50.110924,"longitude":8.682127,"reserved":0,"last_update":"0001-01-01T00:00:00Z","name_a2s":"Uncletopia | Frankfurt | 3 | All Maps","protocol":17,"map":"pl_borneo","folder":"tf","game":"Team Fortress","app_id":440,"player_count":0,"max_players":24,"Bots":0,"server_type":"Dedicated","server_os":"Linux","password":true,"vac":true,"version":"7757534","steam_id":85568392924504274,"keywords":["nocrits","nodmgspread","payload","uncletopia"],"game_id":440,"stv_port":27036,"stv_name":"Uncletopia | Frankfurt | 3 | All Maps | STV","players":null},{"server_id":309,"name":"Uncletopia | Frankfurt | 4 | All Maps","name_short":"frk-4","host":"frk-1.de.uncletopia.com","port":27045,"enabled":true,"region":"eu","cc":"de","latitude":50.110924,"longitude":8.682127,"reserved":0,"last_update":"0001-01-01T00:00:00Z","name_a2s":"Uncletopia | Frankfurt | 4 | All Maps","protocol":17,"map":"pl_pier","folder":"tf","game":"Team Fortress","app_id":440,"player_count":0,"max_players":24,"Bots":0,"server_type":"Dedicated","server_os":"Linux","password":true,"vac":true,"version":"7757534","steam_id":85568392924504275,"keywords":["nocrits","nodmgspread","payload","uncletopia"],"game_id":440,"stv_port":27046,"stv_name":"Uncletopia | Frankfurt | 4 | All Maps | STV","players":null},{"server_id":310,"name":"Uncletopia | Frankfurt | 5 | All Maps","name_short":"frk-5","host":"frk-1.de.uncletopia.com","port":27055,"enabled":true,"region":"eu","cc":"de","latitude":50.110924,"longitude":8.682127,"reserved":0,"last_update":"0001-01-01T00:00:00Z","name_a2s":"Uncletopia | Frankfurt | 5 | All Maps","protocol":17,"map":"cp_altitude","folder":"tf","game":"Team Fortress","app_id":440,"player_count":0,"max_players":24,"Bots":0,"server_type":"Dedicated","server_os":"Linux","password":true,"vac":true,"version":"7757534","steam_id":85568392924504277,"keywords":["cp","nocrits","nodmgspread","uncletopia"],"game_id":440,"stv_port":27056,"stv_name":"Uncletopia | Frankfurt | 5 | All Maps | STV","players":null},{"server_id":311,"name":"Uncletopia | Frankfurt | 6 | All Maps","name_short":"frk-6","host":"frk-1.de.uncletopia.com","port":27065,"enabled":true,"region":"eu","cc":"de","latitude":50.110924,"longitude":8.682127,"reserved":0,"last_update":"0001-01-01T00:00:00Z","name_a2s":"Uncletopia | Frankfurt | 6 | All Maps","protocol":17,"map":"pl_barnblitz","folder":"tf","game":"Team Fortress","app_id":440,"player_count":0,"max_players":24,"Bots":0,"server_type":"Dedicated","server_os":"Linux","password":true,"vac":true,"version":"7757534","steam_id":85568392924504278,"keywords":["nocrits","nodmgspread","payload","uncletopia"],"game_id":440,"stv_port":27066,"stv_name":"Uncletopia | Frankfurt | 6 | All Maps | STV","players":null},{"server_id":23,"name":"Uncletopia | Frankfurt | 7 | Stopwatch Beta","name_short":"frk-7","host":"frk-1.de.uncletopia.com","port":27075,"enabled":true,"region":"eu","cc":"de","latitude":50.110924,"longitude":8.682127,"reserved":0,"last_update":"0001-01-01T00:00:00Z","name_a2s":"Uncletopia | Frankfurt | 7 | Stopwatch Beta","protocol":17,"map":"pl_borneo","folder":"tf","game":"Team Fortress","app_id":440,"player_count":0,"max_players":24,"Bots":0,"server_type":"Dedicated","server_os":"Linux","password":true,"vac":true,"version":"7757534","steam_id":85568392924742827,"keywords":["nocrits","nodmgspread","payload","uncletopia"],"game_id":440,"stv_port":27076,"stv_name":"Uncletopia | Frankfurt | 7 | Stopwatch Beta | STV","players":null},{"server_id":24,"name":"Uncletopia | Frankfurt | 8 | Community","name_short":"frk-8","host":"frk-1.de.uncletopia.com","port":27085,"enabled":true,"region":"eu","cc":"de","latitude":50.110924,"longitude":8.682127,"reserved":0,"last_update":"0001-01-01T00:00:00Z","name_a2s":"Uncletopia | Frankfurt | 8 | Community","protocol":17,"map":"koth_viaduct","folder":"tf","game":"Team Fortress","app_id":440,"player_count":0,"max_players":24,"Bots":0,"server_type":"Dedicated","server_os":"Linux","password":true,"vac":true,"version":"7757534","steam_id":85568392924742828,"keywords":["cp","nocrits","nodmgspread","uncletopia"],"game_id":440,"stv_port":27086,"stv_name":"Uncletopia | Frankfurt | 8 | Community | STV","players":null},{"server_id":202,"name":"Uncletopia | Hong Kong | 1 | All Maps","name_short":"hgk-1","host":"hgk-1.hk.uncletopia.com","port":27015,"enabled":true,"region":"asia","cc":"hk","latitude":22.302711,"longitude":114.177216,"reserved":0,"last_update":"0001-01-01T00:00:00Z","name_a2s":"Uncletopia | Hong Kong | 1 | All Maps","protocol":17,"map":"pl_borneo","folder":"tf","game":"Team Fortress","app_id":440,"player_count":24,"max_players":24,"Bots":0,"server_type":"Dedicated","server_os":"Linux","password":true,"vac":true,"version":"7757534","steam_id":85568392924494504,"keywords":["nocrits","nodmgspread","payload","uncletopia"],"game_id":440,"stv_port":27016,"stv_name":"Uncletopia | Hong Kong | 1 | All Maps | STV","players":[{"user_id":136,"name":"Milk❤ (First Scope Enjoyer)","steam_id":76561198163911560,"connected_time":6788000000000,"state":"active","ping":132},{"user_id":201,"name":"Rephex","steam_id":76561198308185574,"connected_time":1229000000000,"state":"active","ping":106},{"user_id":202,"name":"It's Engineer Gamin'in Time","steam_id":76561199229248492,"connected_time":1206000000000,"state":"active","ping":80},{"user_id":208,"name":"NOPE","steam_id":76561199244543572,"connected_time":82000000000,"state":"spawning","ping":58},{"user_id":150,"name":"Bepo","steam_id":76561198136685157,"connected_time":5649000000000,"state":"active","ping":54},{"user_id":194,"name":"swookang","steam_id":76561198234388288,"connected_time":1885000000000,"state":"active","ping":83},{"user_id":196,"name":"Sover blw.tf","steam_id":76561198136347837,"connected_time":1716000000000,"state":"active","ping":89},{"user_id":203,"name":"Talkk More","steam_id":76561198305424433,"connected_time":894000000000,"state":"active","ping":101},{"user_id":205,"name":"Compressed","steam_id":76561199230196794,"connected_time":490000000000,"state":"active","ping":120},{"user_id":162,"name":"Noyour","steam_id":76561198323259830,"connected_time":5091000000000,"state":"active","ping":111},{"user_id":186,"name":"Light Rainbow","steam_id":76561198118966673,"connected_time":2494000000000,"state":"active","ping":42},{"user_id":147,"name":"linne","steam_id":76561198230213828,"connected_time":5942000000000,"state":"active","ping":61},{"user_id":113,"name":"Seiko Shinohara.png","steam_id":76561198089493039,"connected_time":8310000000000,"state":"active","ping":80},{"user_id":204,"name":"Hallucates","steam_id":76561198872636453,"connected_time":712000000000,"state":"active","ping":84},{"user_id":207,"name":"帕","steam_id":76561198439343999,"connected_time":97000000000,"state":"active","ping":72},{"user_id":206,"name":"Darknight","steam_id":76561199090139287,"connected_time":380000000000,"state":"active","ping":148},{"user_id":198,"name":"Floating Blocks of Death","steam_id":76561198179320563,"connected_time":1653000000000,"state":"active","ping":132},{"user_id":163,"name":"John Chainsaw Man","steam_id":76561198442507642,"connected_time":5067000000000,"state":"active","ping":90},{"user_id":175,"name":"Puddin","steam_id":76561198140052918,"connected_time":4615000000000,"state":"active","ping":94},{"user_id":200,"name":"corpse_cadaver","steam_id":76561199225360457,"connected_time":1240000000000,"state":"active","ping":69},{"user_id":188,"name":"ketsu","steam_id":76561197966171554,"connected_time":2437000000000,"state":"active","ping":114},{"user_id":184,"name":"ConHoshi","steam_id":76561199387718733,"connected_time":2624000000000,"state":"active","ping":76},{"user_id":190,"name":"\"SKS\"","steam_id":76561198187995386,"connected_time":2340000000000,"state":"active","ping":88},{"user_id":143,"name":"how 2 nijika tutorial","steam_id":76561199146847474,"connected_time":6528000000000,"state":"active","ping":55}]},{"server_id":1,"name":"Uncletopia | Los Angeles | 1 | All Maps","name_short":"lax-1","host":"lax-1.us.uncletopia.com","port":27015,"enabled":true,"region":"us-west","cc":"us","latitude":33.94279,"longitude":-118.41004,"reserved":0,"last_update":"0001-01-01T00:00:00Z","name_a2s":"Uncletopia | Los Angeles | 1 | All Maps","protocol":17,"map":"pl_badwater","folder":"tf","game":"Team Fortress","app_id":440,"player_count":23,"max_players":24,"Bots":0,"server_type":"Dedicated","server_os":"Linux","password":true,"vac":true,"version":"7757534","steam_id":85568392924469991,"keywords":["nocrits","nodmgspread","payload","uncletopia"],"game_id":440,"stv_port":27016,"stv_name":"Uncletopia | Los Angeles | 1 | All Maps | STV","players":[{"user_id":206,"name":"kite man","steam_id":76561198156336213,"connected_time":2924000000000,"state":"active","ping":65},{"user_id":189,"name":"FUTURISTIC FRAGGER","steam_id":76561198145669711,"connected_time":3762000000000,"state":"active","ping":32},{"user_id":167,"name":"MatchMatch","steam_id":76561198048925904,"connected_time":5626000000000,"state":"active","ping":57},{"user_id":223,"name":"Amogous Supreme","steam_id":76561198025476774,"connected_time":830000000000,"state":"active","ping":71},{"user_id":214,"name":"okuri","steam_id":76561198388123421,"connected_time":2237000000000,"state":"active","ping":50},{"user_id":192,"name":"Lesoths","steam_id":76561199101060515,"connected_time":3661000000000,"state":"active","ping":66},{"user_id":228,"name":"Phil Collins","steam_id":76561198068868644,"connected_time":24000000000,"state":"active","ping":46},{"user_id":215,"name":"June","steam_id":76561198141803658,"connected_time":1784000000000,"state":"active","ping":65},{"user_id":183,"name":"germba","steam_id":76561198421591995,"connected_time":4400000000000,"state":"active","ping":91},{"user_id":221,"name":"run fast fall down","steam_id":76561198167207112,"connected_time":899000000000,"state":"active","ping":76},{"user_id":224,"name":"Psych03","steam_id":76561198061753667,"connected_time":795000000000,"state":"active","ping":56},{"user_id":225,"name":"soda heater","steam_id":76561198864545608,"connected_time":781000000000,"state":"active","ping":71},{"user_id":132,"name":"Tannenbaum Trotsky","steam_id":76561199101638460,"connected_time":8530000000000,"state":"active","ping":79},{"user_id":155,"name":"PootisLife","steam_id":76561198074400568,"connected_time":6346000000000,"state":"active","ping":62},{"user_id":197,"name":"alpharuby","steam_id":76561198051638462,"connected_time":3558000000000,"state":"active","ping":44},{"user_id":209,"name":"nucket","steam_id":76561198028658527,"connected_time":2783000000000,"state":"active","ping":45},{"user_id":199,"name":"Joshzu","steam_id":76561198200521137,"connected_time":3520000000000,"state":"active","ping":76},{"user_id":187,"name":"waster","steam_id":76561198078395002,"connected_time":3975000000000,"state":"active","ping":106},{"user_id":211,"name":"Unknown2Me","steam_id":76561199049192464,"connected_time":2644000000000,"state":"active","ping":62},{"user_id":226,"name":"Rice Farmer","steam_id":76561198448407150,"connected_time":776000000000,"state":"active","ping":31},{"user_id":227,"name":"4 life","steam_id":76561198175961598,"connected_time":557000000000,"state":"active","ping":56},{"user_id":218,"name":"MinusSoup918","steam_id":76561198060902773,"connected_time":1428000000000,"state":"active","ping":68},{"user_id":220,"name":"a kitchen appliance","steam_id":76561198162838201,"connected_time":1032000000000,"state":"active","ping":60}]},{"server_id":112,"name":"Uncletopia | Los Angeles | 2 | All Maps","name_short":"lax-2","host":"lax-1.us.uncletopia.com","port":27025,"enabled":true,"region":"us-west","cc":"us","latitude":33.94279,"longitude":-118.41004,"reserved":0,"last_update":"0001-01-01T00:00:00Z","name_a2s":"Uncletopia | Los Angeles | 2 | All Maps","protocol":17,"map":"pl_borneo","folder":"tf","game":"Team Fortress","app_id":440,"player_count":16,"max_players":24,"Bots":0,"server_type":"Dedicated","server_os":"Linux","password":true,"vac":true,"version":"7757534","steam_id":85568392924469992,"keywords":["nocrits","nodmgspread","payload","uncletopia"],"game_id":440,"stv_port":27026,"stv_name":"Uncletopia | Los Angeles | 2 | All Maps | STV","players":[{"user_id":195,"name":"Akkawi","steam_id":76561198203159952,"connected_time":1785000000000,"state":"active","ping":65},{"user_id":213,"name":"Joker's Skull","steam_id":76561199185320627,"connected_time":54000000000,"state":"active","ping":102},{"user_id":189,"name":"pmstr","steam_id":76561198039366409,"connected_time":2939000000000,"state":"active","ping":75},{"user_id":140,"name":"FriskyDemon","steam_id":76561198043684646,"connected_time":5938000000000,"state":"active","ping":70},{"user_id":144,"name":"Feel the bern","steam_id":76561198078824519,"connected_time":5806000000000,"state":"active","ping":47},{"user_id":169,"name":"GreasyBoyo","steam_id":76561198927509821,"connected_time":4692000000000,"state":"active","ping":65},{"user_id":206,"name":"Sayori","steam_id":76561198957479336,"connected_time":1451000000000,"state":"active","ping":90},{"user_id":171,"name":"Altruisticailuridae","steam_id":76561198335295596,"connected_time":4670000000000,"state":"active","ping":60},{"user_id":198,"name":"rmbl","steam_id":76561198150137369,"connected_time":1718000000000,"state":"active","ping":45},{"user_id":211,"name":"gorebastard","steam_id":76561198295113883,"connected_time":130000000000,"state":"active","ping":87},{"user_id":199,"name":"Marz","steam_id":76561198799364911,"connected_time":1702000000000,"state":"active","ping":57},{"user_id":209,"name":"CeoVortex","steam_id":76561198035679805,"connected_time":1025000000000,"state":"active","ping":45},{"user_id":156,"name":"mojoe","steam_id":76561198019571194,"connected_time":5112000000000,"state":"active","ping":44},{"user_id":212,"name":"flop","steam_id":76561199230528008,"connected_time":102000000000,"state":"active","ping":60},{"user_id":194,"name":"i push fat kids off bikes","steam_id":76561198106491249,"connected_time":1803000000000,"state":"active","ping":39},{"user_id":205,"name":"Doctor X (Michiko Daemon)","steam_id":76561199106264424,"connected_time":1520000000000,"state":"active","ping":103}]},{"server_id":324,"name":"Uncletopia | Los Angeles | 3 | All Maps","name_short":"lax-3","host":"lax-1.us.uncletopia.com","port":27035,"enabled":true,"region":"us-west","cc":"us","latitude":33.94279,"longitude":-118.41004,"reserved":0,"last_update":"0001-01-01T00:00:00Z","name_a2s":"Uncletopia | Los Angeles | 3 | All Maps","protocol":17,"map":"cp_dustbowl","folder":"tf","game":"Team Fortress","app_id":440,"player_count":0,"max_players":24,"Bots":0,"server_type":"Dedicated","server_os":"Linux","password":true,"vac":true,"version":"7757534","steam_id":85568392924510198,"keywords":["cp","nocrits","nodmgspread","uncletopia"],"game_id":440,"stv_port":27036,"stv_name":"Uncletopia | Los Angeles | 3 | All Maps | STV","players":null},{"server_id":25,"name":"Uncletopia | Los Angeles | 4 | Stopwatch Beta","name_short":"lax-4","host":"lax-1.us.uncletopia.com","port":27045,"enabled":true,"region":"us-west","cc":"us","latitude":33.94279,"longitude":-118.41004,"reserved":0,"last_update":"0001-01-01T00:00:00Z","name_a2s":"Uncletopia | Los Angeles | 4 | Stopwatch Beta","protocol":17,"map":"cp_dustbowl","folder":"tf","game":"Team Fortress","app_id":440,"player_count":0,"max_players":24,"Bots":0,"server_type":"Dedicated","server_os":"Linux","password":true,"vac":true,"version":"7757534","steam_id":85568392924510199,"keywords":["cp","nocrits","nodmgspread","uncletopia"],"game_id":440,"stv_port":27046,"stv_name":"Uncletopia | Los Angeles | 4 | Stopwatch Beta | STV","players":null},{"server_id":11,"name":"Uncletopia | London | 1 | All Maps","name_short":"lon-1","host":"lon-1.uk.uncletopia.com","port":27015,"enabled":true,"region":"eu","cc":"gb","latitude":51.509865,"longitude":-0.118092,"reserved":0,"last_update":"0001-01-01T00:00:00Z","name_a2s":"Uncletopia | London | 1 | All Maps","protocol":17,"map":"pl_pier","folder":"tf","game":"Team Fortress","app_id":440,"player_count":0,"max_players":24,"Bots":0,"server_type":"Dedicated","server_os":"Linux","password":true,"vac":true,"version":"7757534","steam_id":85568392924367362,"keywords":["nocrits","nodmgspread","payload","uncletopia"],"game_id":440,"stv_port":27016,"stv_name":"Uncletopia | London | 1 | All Maps | STV","players":null},{"server_id":114,"name":"Uncletopia | London | 2 | All Maps","name_short":"lon-2","host":"lon-1.uk.uncletopia.com","port":27025,"enabled":true,"region":"eu","cc":"gb","latitude":51.509865,"longitude":-0.118092,"reserved":0,"last_update":"0001-01-01T00:00:00Z","name_a2s":"Uncletopia | London | 2 | All Maps","protocol":17,"map":"pl_pier","folder":"tf","game":"Team Fortress","app_id":440,"player_count":0,"max_players":24,"Bots":0,"server_type":"Dedicated","server_os":"Linux","password":true,"vac":true,"version":"7757534","steam_id":85568392924470941,"keywords":["nocrits","nodmgspread","payload","uncletopia"],"game_id":440,"stv_port":27026,"stv_name":"Uncletopia | London | 2 | All Maps | STV","players":null},{"server_id":320,"name":"Uncletopia | London | 3 | All Maps","name_short":"lon-3","host":"lon-1.uk.uncletopia.com","port":27035,"enabled":true,"region":"eu","cc":"gb","latitude":51.509865,"longitude":-0.118092,"reserved":0,"last_update":"0001-01-01T00:00:00Z","name_a2s":"Uncletopia | London | 3 | All Maps","protocol":17,"map":"pl_swiftwater_final1","folder":"tf","game":"Team Fortress","app_id":440,"player_count":0,"max_players":24,"Bots":0,"server_type":"Dedicated","server_os":"Linux","password":true,"vac":true,"version":"7757534","steam_id":85568392924510192,"keywords":["nocrits","nodmgspread","payload","uncletopia"],"game_id":440,"stv_port":27036,"stv_name":"Uncletopia | London | 3 | All Maps | STV","players":null},{"server_id":321,"name":"Uncletopia | London | 4 | All Maps","name_short":"lon-4","host":"lon-1.uk.uncletopia.com","port":27045,"enabled":true,"region":"eu","cc":"gb","latitude":51.509865,"longitude":-0.118092,"reserved":0,"last_update":"0001-01-01T00:00:00Z","name_a2s":"Uncletopia | London | 4 | All Maps","protocol":17,"map":"pl_barnblitz","folder":"tf","game":"Team Fortress","app_id":440,"player_count":0,"max_players":24,"Bots":0,"server_type":"Dedicated","server_os":"Linux","password":true,"vac":true,"version":"7757534","steam_id":85568392924510193,"keywords":["nocrits","nodmgspread","payload","uncletopia"],"game_id":440,"stv_port":27046,"stv_name":"Uncletopia | London | 4 | All Maps | STV","players":null},{"server_id":21,"name":"Uncletopia | London | 5 | All Maps","name_short":"lon-5","host":"lon-1.uk.uncletopia.com","port":27055,"enabled":true,"region":"eu","cc":"gb","latitude":51.509865,"longitude":-0.118092,"reserved":0,"last_update":"0001-01-01T00:00:00Z","name_a2s":"Uncletopia | London | 5 | All Maps","protocol":17,"map":"pl_pier","folder":"tf","game":"Team Fortress","app_id":440,"player_count":0,"max_players":24,"Bots":0,"server_type":"Dedicated","server_os":"Linux","password":true,"vac":true,"version":"7757534","steam_id":85568392924742829,"keywords":["nocrits","nodmgspread","payload","uncletopia"],"game_id":440,"stv_port":27056,"stv_name":"Uncletopia | London | 5 | All Maps | STV","players":null},{"server_id":22,"name":"Uncletopia | London | 6 | All Maps","name_short":"lon-6","host":"lon-1.uk.uncletopia.com","port":27065,"enabled":true,"region":"eu","cc":"gb","latitude":51.509865,"longitude":-0.118092,"reserved":0,"last_update":"0001-01-01T00:00:00Z","name_a2s":"Uncletopia | London | 6 | All Maps","protocol":17,"map":"koth_highpass","folder":"tf","game":"Team Fortress","app_id":440,"player_count":0,"max_players":24,"Bots":0,"server_type":"Dedicated","server_os":"Linux","password":true,"vac":true,"version":"7757534","steam_id":85568392924742830,"keywords":["cp","nocrits","nodmgspread","uncletopia"],"game_id":440,"stv_port":27066,"stv_name":"Uncletopia | London | 6 | All Maps | STV","players":null},{"server_id":40,"name":"Uncletopia | London | 7 | No Payload","name_short":"lon-7","host":"lon-1.uk.uncletopia.com","port":27075,"enabled":true,"region":"eu","cc":"gb","latitude":51.509865,"longitude":-0.118092,"reserved":0,"last_update":"0001-01-01T00:00:00Z","name_a2s":"Uncletopia | London | 7 | No Payload","protocol":17,"map":"koth_highpass","folder":"tf","game":"Team Fortress","app_id":440,"player_count":0,"max_players":24,"Bots":0,"server_type":"Dedicated","server_os":"Linux","password":true,"vac":true,"version":"7757534","steam_id":85568392924964314,"keywords":["cp","nocrits","nodmgspread","uncletopia"],"game_id":440,"stv_port":27076,"stv_name":"Uncletopia | London | 7 | No Payload | STV","players":null},{"server_id":41,"name":"Uncletopia | London | 8 | Community","name_short":"lon-8","host":"lon-1.uk.uncletopia.com","port":27085,"enabled":true,"region":"eu","cc":"gb","latitude":51.509865,"longitude":-0.118092,"reserved":0,"last_update":"0001-01-01T00:00:00Z","name_a2s":"Uncletopia | London | 8 | Community","protocol":17,"map":"cp_altitude","folder":"tf","game":"Team Fortress","app_id":440,"player_count":0,"max_players":24,"Bots":0,"server_type":"Dedicated","server_os":"Linux","password":true,"vac":true,"version":"7757534","steam_id":85568392924964315,"keywords":["cp","nocrits","nodmgspread","uncletopia"],"game_id":440,"stv_port":27086,"stv_name":"Uncletopia | London | 8 | Community | STV","players":null},{"server_id":300,"name":"Uncletopia | Montréal | 1 | All Maps","name_short":"mtl-1","host":"mtl-1.ca.uncletopia.com","port":27015,"enabled":true,"region":"us-east","cc":"ca","latitude":45.50889,"longitude":-73.56167,"reserved":0,"last_update":"0001-01-01T00:00:00Z","name_a2s":"Uncletopia | Montréal | 1 | All Maps","protocol":17,"map":"koth_highpass","folder":"tf","game":"Team Fortress","app_id":440,"player_count":0,"max_players":24,"Bots":0,"server_type":"Dedicated","server_os":"Linux","password":true,"vac":true,"version":"7757534","steam_id":85568392924500087,"keywords":["cp","nocrits","nodmgspread","uncletopia"],"game_id":440,"stv_port":27016,"stv_name":"Uncletopia | Montréal | 1 | All Maps | STV","players":null},{"server_id":301,"name":"Uncletopia | Montréal | 2 | All Maps","name_short":"mtl-2","host":"mtl-1.ca.uncletopia.com","port":27025,"enabled":true,"region":"us-east","cc":"ca","latitude":45.50889,"longitude":-73.56167,"reserved":0,"last_update":"0001-01-01T00:00:00Z","name_a2s":"Uncletopia | Montréal | 2 | All Maps","protocol":17,"map":"cp_process_final","folder":"tf","game":"Team Fortress","app_id":440,"player_count":0,"max_players":24,"Bots":0,"server_type":"Dedicated","server_os":"Linux","password":true,"vac":true,"version":"7757534","steam_id":85568392924500088,"keywords":["cp","nocrits","nodmgspread","uncletopia"],"game_id":440,"stv_port":27026,"stv_name":"Uncletopia | Montréal | 2 | All Maps | STV","players":null},{"server_id":302,"name":"Uncletopia | Montréal | 3 | All Maps","name_short":"mtl-3","host":"mtl-1.ca.uncletopia.com","port":27035,"enabled":true,"region":"us-east","cc":"ca","latitude":45.50889,"longitude":-73.56167,"reserved":0,"last_update":"0001-01-01T00:00:00Z","name_a2s":"Uncletopia | Montréal | 3 | All Maps","protocol":17,"map":"pl_frontier_final","folder":"tf","game":"Team Fortress","app_id":440,"player_count":0,"max_players":24,"Bots":0,"server_type":"Dedicated","server_os":"Linux","password":true,"vac":true,"version":"7757534","steam_id":85568392924500089,"keywords":["nocrits","nodmgspread","payload","uncletopia"],"game_id":440,"stv_port":27036,"stv_name":"Uncletopia | Montréal | 3 | All Maps | STV","players":null},{"server_id":303,"name":"Uncletopia | Montréal | 4 | No Payload","name_short":"mtl-4","host":"mtl-1.ca.uncletopia.com","port":27045,"enabled":true,"region":"us-east","cc":"ca","latitude":45.50889,"longitude":-73.56167,"reserved":0,"last_update":"0001-01-01T00:00:00Z","name_a2s":"Uncletopia | Montréal | 4 | No Payload","protocol":17,"map":"cp_steel","folder":"tf","game":"Team Fortress","app_id":440,"player_count":0,"max_players":24,"Bots":0,"server_type":"Dedicated","server_os":"Linux","password":true,"vac":true,"version":"7757534","steam_id":85568392924500090,"keywords":["cp","nocrits","nodmgspread","uncletopia"],"game_id":440,"stv_port":27046,"stv_name":"Uncletopia | Montréal | 4 | No Payload | STV","players":null},{"server_id":13,"name":"Uncletopia | New York City | 1 | All Maps","name_short":"nyc-1","host":"nyc-1.us.uncletopia.com","port":27015,"enabled":true,"region":"us-east","cc":"us","latitude":40.73061,"longitude":-73.93524,"reserved":0,"last_update":"0001-01-01T00:00:00Z","name_a2s":"Uncletopia | New York City | 1 | All Maps","protocol":17,"map":"pl_upward","folder":"tf","game":"Team Fortress","app_id":440,"player_count":22,"max_players":24,"Bots":0,"server_type":"Dedicated","server_os":"Linux","password":true,"vac":true,"version":"7757534","steam_id":85568392924469993,"keywords":["nocrits","nodmgspread","payload","uncletopia"],"game_id":440,"stv_port":27016,"stv_name":"Uncletopia | New York City | 1 | All Maps | STV","players":[{"user_id":217,"name":"T-Bo","steam_id":76561198047164455,"connected_time":1157000000000,"state":"active","ping":100},{"user_id":170,"name":"梅博罗夫斯基","steam_id":76561199208549381,"connected_time":5277000000000,"state":"active","ping":114},{"user_id":222,"name":"Nekomata","steam_id":76561198191536489,"connected_time":1056000000000,"state":"active","ping":132},{"user_id":202,"name":"when the oob hits","steam_id":76561198277163301,"connected_time":1890000000000,"state":"active","ping":80},{"user_id":223,"name":"d","steam_id":76561198047173694,"connected_time":1046000000000,"state":"active","ping":102},{"user_id":207,"name":"Howoriginal","steam_id":76561197993701184,"connected_time":1516000000000,"state":"active","ping":34},{"user_id":155,"name":"wool","steam_id":76561198869689933,"connected_time":5849000000000,"state":"active","ping":50},{"user_id":224,"name":"Willy","steam_id":76561198046508940,"connected_time":908000000000,"state":"active","ping":47},{"user_id":233,"name":"Kritzburgh","steam_id":76561198149466938,"connected_time":73000000000,"state":"active","ping":56},{"user_id":200,"name":"Supreme Calamitas","steam_id":76561198035475444,"connected_time":1989000000000,"state":"active","ping":70},{"user_id":196,"name":"big ol' buford","steam_id":76561198290675957,"connected_time":2286000000000,"state":"active","ping":74},{"user_id":174,"name":"instigator extraordinaire","steam_id":76561198860826977,"connected_time":4506000000000,"state":"active","ping":45},{"user_id":221,"name":"bear","steam_id":76561198181716019,"connected_time":1091000000000,"state":"active","ping":103},{"user_id":225,"name":"the rizzard of oz","steam_id":76561198108196753,"connected_time":856000000000,"state":"active","ping":103},{"user_id":209,"name":"Birdhorse Of Course","steam_id":76561198038997485,"connected_time":1503000000000,"state":"active","ping":47},{"user_id":210,"name":"The Demented Dr. Pussy","steam_id":76561198047557533,"connected_time":1497000000000,"state":"active","ping":56},{"user_id":235,"name":"Banio Kaioie","steam_id":76561198153295874,"connected_time":26000000000,"state":"spawning","ping":107},{"user_id":230,"name":"Tyrone","steam_id":76561198189429665,"connected_time":624000000000,"state":"active","ping":75},{"user_id":226,"name":"Tuna","steam_id":76561198129907971,"connected_time":796000000000,"state":"active","ping":129},{"user_id":227,"name":"harrow","steam_id":76561198065040540,"connected_time":795000000000,"state":"active","ping":54},{"user_id":232,"name":"ICED CHAI","steam_id":76561198119556082,"connected_time":213000000000,"state":"active","ping":67},{"user_id":214,"name":"lazyhead","steam_id":76561198044358804,"connected_time":1400000000000,"state":"active","ping":46}]},{"server_id":14,"name":"Uncletopia | New York City | 2 | All Maps","name_short":"nyc-2","host":"nyc-1.us.uncletopia.com","port":27025,"enabled":true,"region":"us-east","cc":"us","latitude":40.73061,"longitude":-73.93524,"reserved":0,"last_update":"0001-01-01T00:00:00Z","name_a2s":"Uncletopia | New York City | 2 | All Maps","protocol":17,"map":"cp_altitude","folder":"tf","game":"Team Fortress","app_id":440,"player_count":0,"max_players":24,"Bots":0,"server_type":"Dedicated","server_os":"Linux","password":true,"vac":true,"version":"7757534","steam_id":85568392924469994,"keywords":["cp","nocrits","nodmgspread","uncletopia"],"game_id":440,"stv_port":27026,"stv_name":"Uncletopia | New York City | 2 | All Maps | STV","players":null},{"server_id":15,"name":"Uncletopia | New York City | 3 | Stopwatch Beta","name_short":"nyc-3","host":"nyc-1.us.uncletopia.com","port":27035,"enabled":true,"region":"us-east","cc":"us","latitude":40.73061,"longitude":-73.93524,"reserved":0,"last_update":"0001-01-01T00:00:00Z","name_a2s":"Uncletopia | New York City | 3 | Stopwatch Beta","protocol":17,"map":"cp_gullywash_final1","folder":"tf","game":"Team Fortress","app_id":440,"player_count":0,"max_players":24,"Bots":0,"server_type":"Dedicated","server_os":"Linux","password":true,"vac":true,"version":"7757534","steam_id":85568392924742820,"keywords":["cp","nocrits","nodmgspread","uncletopia"],"game_id":440,"stv_port":27036,"stv_name":"Uncletopia | New York City | 3 | Stopwatch Beta | STV","players":null},{"server_id":16,"name":"Uncletopia | New York City | 4 | Community","name_short":"nyc-4","host":"nyc-1.us.uncletopia.com","port":27045,"enabled":true,"region":"us-east","cc":"us","latitude":40.73061,"longitude":-73.93524,"reserved":0,"last_update":"0001-01-01T00:00:00Z","name_a2s":"Uncletopia | New York City | 4 | Community","protocol":17,"map":"workshop/koth_ashville_final.ugc2130459942","folder":"tf","game":"Team Fortress","app_id":440,"player_count":0,"max_players":24,"Bots":0,"server_type":"Dedicated","server_os":"Linux","password":true,"vac":true,"version":"7757534","steam_id":85568392924742821,"keywords":["cp","nocrits","nodmgspread","uncletopia"],"game_id":440,"stv_port":27046,"stv_name":"Uncletopia | New York City | 4 | Community | STV","players":null},{"server_id":142,"name":"Uncletopia | São Paulo | 1 | All Maps","name_short":"sao-1","host":"sao-1.br.uncletopia.com","port":27015,"enabled":true,"region":"sa","cc":"br","latitude":-23.533773,"longitude":-46.62529,"reserved":0,"last_update":"0001-01-01T00:00:00Z","name_a2s":"Uncletopia | São Paulo | 1 | All Maps","protocol":17,"map":"cp_altitude","folder":"tf","game":"Team Fortress","app_id":440,"player_count":0,"max_players":24,"Bots":0,"server_type":"Dedicated","server_os":"Linux","password":true,"vac":true,"version":"7757534","steam_id":85568392924469996,"keywords":["cp","nocrits","nodmgspread","uncletopia"],"game_id":440,"stv_port":27016,"stv_name":"Uncletopia | São Paulo | 1 | All Maps | STV","players":null},{"server_id":143,"name":"Uncletopia | São Paulo | 2 | All Maps","name_short":"sao-2","host":"sao-2.br.uncletopia.com","port":27015,"enabled":true,"region":"sa","cc":"br","latitude":-23.533773,"longitude":-46.62529,"reserved":0,"last_update":"0001-01-01T00:00:00Z","name_a2s":"Uncletopia | São Paulo | 2 | All Maps","protocol":17,"map":"koth_viaduct","folder":"tf","game":"Team Fortress","app_id":440,"player_count":0,"max_players":24,"Bots":0,"server_type":"Dedicated","server_os":"Linux","password":true,"vac":true,"version":"7757534","steam_id":85568392924485349,"keywords":["cp","nocrits","nodmgspread","uncletopia"],"game_id":440,"stv_port":27016,"stv_name":"Uncletopia | São Paulo | 2 | All Maps | STV","players":null},{"server_id":7,"name":"Uncletopia | Seattle | 1 | All Maps","name_short":"sea-1","host":"sea-1.us.uncletopia.com","port":27015,"enabled":true,"region":"us-west","cc":"us","latitude":47.608013,"longitude":-122.33517,"reserved":0,"last_update":"0001-01-01T00:00:00Z","name_a2s":"Uncletopia | Seattle | 1 | All Maps","protocol":17,"map":"cp_steel","folder":"tf","game":"Team Fortress","app_id":440,"player_count":24,"max_players":24,"Bots":0,"server_type":"Dedicated","server_os":"Linux","password":true,"vac":true,"version":"7757534","steam_id":85568392924469997,"keywords":["cp","nocrits","nodmgspread","uncletopia"],"game_id":440,"stv_port":27016,"stv_name":"Uncletopia | Seattle | 1 | All Maps | STV","players":[{"user_id":154,"name":"Luca","steam_id":76561198125087140,"connected_time":4800000000000,"state":"active","ping":51},{"user_id":202,"name":"MY LITTLE PONY HVH GROUP MOD","steam_id":76561198343731774,"connected_time":494000000000,"state":"active","ping":122},{"user_id":177,"name":"Vile","steam_id":76561198085615710,"connected_time":2407000000000,"state":"active","ping":98},{"user_id":184,"name":"Cassandra (She/her)","steam_id":76561198094123940,"connected_time":2187000000000,"state":"active","ping":120},{"user_id":203,"name":"rorywashere /ᐠ - ˕ -マ Ⳋ","steam_id":76561198065825165,"connected_time":493000000000,"state":"active","ping":112},{"user_id":176,"name":"bbbbb","steam_id":76561198095480838,"connected_time":2423000000000,"state":"active","ping":45},{"user_id":197,"name":"Tungsten","steam_id":76561198312854342,"connected_time":528000000000,"state":"active","ping":62},{"user_id":194,"name":"bobtheninjaman","steam_id":76561198066424544,"connected_time":1186000000000,"state":"active","ping":81},{"user_id":141,"name":"rat gets the cheese","steam_id":76561198031234032,"connected_time":6080000000000,"state":"active","ping":104},{"user_id":149,"name":"Arsonist Goose","steam_id":76561198147441830,"connected_time":4874000000000,"state":"active","ping":75},{"user_id":178,"name":"Panckakebro","steam_id":76561198106419992,"connected_time":2405000000000,"state":"active","ping":116},{"user_id":172,"name":"Sniff","steam_id":76561198010270922,"connected_time":2804000000000,"state":"active","ping":44},{"user_id":199,"name":"ZEKKER","steam_id":76561197967968980,"connected_time":524000000000,"state":"active","ping":49},{"user_id":162,"name":"Hassium","steam_id":76561198162541373,"connected_time":4127000000000,"state":"active","ping":54},{"user_id":196,"name":"Truffles","steam_id":76561198095868800,"connected_time":533000000000,"state":"active","ping":112},{"user_id":182,"name":"PageBoiSkull","steam_id":76561198237353578,"connected_time":2337000000000,"state":"active","ping":105},{"user_id":200,"name":"Ducks","steam_id":76561198130038345,"connected_time":522000000000,"state":"active","ping":69},{"user_id":191,"name":"JustVinn","steam_id":76561198076181564,"connected_time":1825000000000,"state":"active","ping":75},{"user_id":171,"name":"iwnl monster_","steam_id":76561198059480824,"connected_time":2811000000000,"state":"active","ping":69},{"user_id":198,"name":"p9 delight","steam_id":76561197980280272,"connected_time":527000000000,"state":"active","ping":49},{"user_id":74,"name":"jacix3 [gay wolfgirl]{she/it}","steam_id":76561198205004165,"connected_time":11851000000000,"state":"active","ping":60},{"user_id":204,"name":"クケイ","steam_id":76561198215122444,"connected_time":467000000000,"state":"active","ping":124},{"user_id":201,"name":"Florist","steam_id":76561198009121060,"connected_time":510000000000,"state":"active","ping":53},{"user_id":205,"name":"jorts","steam_id":76561199041179985,"connected_time":412000000000,"state":"active","ping":61}]},{"server_id":119,"name":"Uncletopia | Seattle | 2 | All Maps","name_short":"sea-2","host":"sea-1.us.uncletopia.com","port":27025,"enabled":true,"region":"us-west","cc":"us","latitude":47.608013,"longitude":-122.33517,"reserved":0,"last_update":"0001-01-01T00:00:00Z","name_a2s":"Uncletopia | Seattle | 2 | All Maps","protocol":17,"map":"pl_snowycoast","folder":"tf","game":"Team Fortress","app_id":440,"player_count":24,"max_players":24,"Bots":0,"server_type":"Dedicated","server_os":"Linux","password":true,"vac":true,"version":"7757534","steam_id":85568392924469998,"keywords":["nocrits","nodmgspread","payload","uncletopia"],"game_id":440,"stv_port":27026,"stv_name":"Uncletopia | Seattle | 2 | All Maps | STV","players":[{"user_id":293,"name":"koalsBeast","steam_id":76561198179817423,"connected_time":475000000000,"state":"active","ping":58},{"user_id":245,"name":"FlusteredWolf758","steam_id":76561198119191002,"connected_time":2688000000000,"state":"active","ping":98},{"user_id":272,"name":"MINI CRIT!999","steam_id":76561198027649268,"connected_time":1456000000000,"state":"active","ping":86},{"user_id":280,"name":"Durazorn","steam_id":76561198096327396,"connected_time":1067000000000,"state":"active","ping":118},{"user_id":288,"name":"unchmiri","steam_id":76561199181659125,"connected_time":842000000000,"state":"active","ping":101},{"user_id":295,"name":"Ash!❤","steam_id":76561198070398840,"connected_time":276000000000,"state":"active","ping":73},{"user_id":218,"name":"Straight White Male","steam_id":76561199234350287,"connected_time":5215000000000,"state":"active","ping":113},{"user_id":282,"name":"Yuhh","steam_id":76561199112894955,"connected_time":959000000000,"state":"active","ping":86},{"user_id":221,"name":"Optimore","steam_id":76561198047662990,"connected_time":5074000000000,"state":"active","ping":75},{"user_id":273,"name":"erth:)","steam_id":76561198148439635,"connected_time":1446000000000,"state":"active","ping":53},{"user_id":283,"name":"b10dragon","steam_id":76561198374314985,"connected_time":952000000000,"state":"active","ping":130},{"user_id":291,"name":"Dali","steam_id":76561198077593486,"connected_time":497000000000,"state":"active","ping":86},{"user_id":274,"name":"CEOlifestyle","steam_id":76561198025747866,"connected_time":1441000000000,"state":"active","ping":45},{"user_id":284,"name":"jadeite","steam_id":76561198022298676,"connected_time":951000000000,"state":"active","ping":36},{"user_id":264,"name":"♥Lyra♥","steam_id":76561198092853824,"connected_time":1758000000000,"state":"active","ping":62},{"user_id":289,"name":"C0D","steam_id":76561198340544460,"connected_time":792000000000,"state":"active","ping":57},{"user_id":276,"name":"2 Point Tom","steam_id":76561198087617008,"connected_time":1408000000000,"state":"active","ping":56},{"user_id":292,"name":"brobtlcehc","steam_id":76561198043558709,"connected_time":477000000000,"state":"active","ping":46},{"user_id":286,"name":"M4 Sherman","steam_id":76561198011096132,"connected_time":858000000000,"state":"active","ping":73},{"user_id":255,"name":"rice white","steam_id":76561198320732910,"connected_time":2473000000000,"state":"active","ping":122},{"user_id":296,"name":"Percules 2024","steam_id":76561198195220521,"connected_time":229000000000,"state":"active","ping":76},{"user_id":287,"name":"SvicidalBug","steam_id":76561198221390504,"connected_time":854000000000,"state":"active","ping":74},{"user_id":265,"name":"Deja Vu","steam_id":76561198062090620,"connected_time":1755000000000,"state":"active","ping":92},{"user_id":290,"name":"Licensed Rizzicist","steam_id":76561199019693549,"connected_time":768000000000,"state":"active","ping":61}]},{"server_id":406,"name":"Uncletopia | Seattle | 3 | Stopwatch Beta","name_short":"sea-3","host":"sea-1.us.uncletopia.com","port":27035,"enabled":true,"region":"us-west","cc":"us","latitude":47.608013,"longitude":-122.33517,"reserved":0,"last_update":"0001-01-01T00:00:00Z","name_a2s":"Uncletopia | Seattle | 3 | Stopwatch Beta","protocol":17,"map":"pl_swiftwater_final1","folder":"tf","game":"Team Fortress","app_id":440,"player_count":0,"max_players":24,"Bots":0,"server_type":"Dedicated","server_os":"Linux","password":true,"vac":true,"version":"7757534","steam_id":85568392924515217,"keywords":["nocrits","nodmgspread","payload","uncletopia"],"game_id":440,"stv_port":27036,"stv_name":"Uncletopia | Seattle | 3 | Stopwatch Beta | STV","players":null},{"server_id":17,"name":"Uncletopia | San Francisco | 1 | All Maps","name_short":"sfo-1","host":"sfo-1.us.uncletopia.com","port":27015,"enabled":true,"region":"us-west","cc":"us","latitude":37.77397,"longitude":-122.4313,"reserved":0,"last_update":"0001-01-01T00:00:00Z","name_a2s":"Uncletopia | San Francisco | 1 | All Maps","protocol":17,"map":"cp_dustbowl","folder":"tf","game":"Team Fortress","app_id":440,"player_count":23,"max_players":24,"Bots":0,"server_type":"Dedicated","server_os":"Linux","password":true,"vac":true,"version":"7757534","steam_id":85568392924469999,"keywords":["cp","nocrits","nodmgspread","uncletopia"],"game_id":440,"stv_port":27016,"stv_name":"Uncletopia | San Francisco | 1 | All Maps | STV","players":[{"user_id":334,"name":"amoreland212","steam_id":76561198220166492,"connected_time":728000000000,"state":"active","ping":97},{"user_id":339,"name":"fish stix","steam_id":76561198885217827,"connected_time":626000000000,"state":"active","ping":71},{"user_id":315,"name":"Flare Aethyr","steam_id":76561198104793402,"connected_time":1334000000000,"state":"active","ping":99},{"user_id":343,"name":"TameSugar","steam_id":76561198255258161,"connected_time":510000000000,"state":"active","ping":76},{"user_id":336,"name":"John Johnson","steam_id":76561199015259626,"connected_time":679000000000,"state":"active","ping":73},{"user_id":337,"name":"MEATSLUSHIE","steam_id":76561198216723177,"connected_time":659000000000,"state":"active","ping":85},{"user_id":351,"name":"leminhhieuqwe2","steam_id":76561199044955162,"connected_time":39000000000,"state":"active","ping":249},{"user_id":349,"name":"K4le","steam_id":76561198747668363,"connected_time":206000000000,"state":"active","ping":71},{"user_id":317,"name":"Aleksey Casperelli","steam_id":76561198118316861,"connected_time":1324000000000,"state":"active","ping":71},{"user_id":320,"name":"robot with human hair","steam_id":76561198018691308,"connected_time":1158000000000,"state":"active","ping":128},{"user_id":340,"name":"Soda Pal","steam_id":76561198998858958,"connected_time":600000000000,"state":"active","ping":116},{"user_id":325,"name":"Orange Toaster","steam_id":76561198013397599,"connected_time":1034000000000,"state":"active","ping":55},{"user_id":341,"name":"azureglxy","steam_id":76561198861388315,"connected_time":533000000000,"state":"active","ping":56},{"user_id":342,"name":"Killer Fish From San Diego","steam_id":76561199037594575,"connected_time":528000000000,"state":"active","ping":83},{"user_id":344,"name":"sagekiss","steam_id":76561198038831240,"connected_time":487000000000,"state":"active","ping":69},{"user_id":346,"name":"vesuvianrex","steam_id":76561198840311684,"connected_time":462000000000,"state":"active","ping":56},{"user_id":347,"name":"Lemoharu","steam_id":76561198870913808,"connected_time":455000000000,"state":"active","ping":76},{"user_id":310,"name":"J O S H³²","steam_id":76561198122603779,"connected_time":1573000000000,"state":"active","ping":107},{"user_id":326,"name":"CaptainCrack!","steam_id":76561198042073861,"connected_time":969000000000,"state":"active","ping":108},{"user_id":327,"name":"Fawful's Minion","steam_id":76561198090120779,"connected_time":945000000000,"state":"active","ping":95},{"user_id":348,"name":"Punished Dimitri","steam_id":76561198170918179,"connected_time":392000000000,"state":"active","ping":70},{"user_id":330,"name":"[PSC] ProfessorDoctorHoff","steam_id":76561198072718345,"connected_time":910000000000,"state":"active","ping":101},{"user_id":331,"name":"Sunny","steam_id":76561198261667312,"connected_time":897000000000,"state":"active","ping":71}]},{"server_id":18,"name":"Uncletopia | San Francisco | 2 | All Maps","name_short":"sfo-2","host":"sfo-1.us.uncletopia.com","port":27025,"enabled":true,"region":"us-west","cc":"us","latitude":37.77397,"longitude":-122.4313,"reserved":0,"last_update":"0001-01-01T00:00:00Z","name_a2s":"Uncletopia | San Francisco | 2 | All Maps","protocol":17,"map":"pl_swiftwater_final1","folder":"tf","game":"Team Fortress","app_id":440,"player_count":0,"max_players":24,"Bots":0,"server_type":"Dedicated","server_os":"Linux","password":true,"vac":true,"version":"7757534","steam_id":85568392924470000,"keywords":["nocrits","nodmgspread","payload","uncletopia"],"game_id":440,"stv_port":27026,"stv_name":"Uncletopia | San Francisco | 2 | All Maps | STV","players":null},{"server_id":19,"name":"Uncletopia | San Francisco | 3 | Stopwatch Beta","name_short":"sfo-3","host":"sfo-1.us.uncletopia.com","port":27035,"enabled":true,"region":"us-west","cc":"us","latitude":37.77397,"longitude":-122.4313,"reserved":0,"last_update":"0001-01-01T00:00:00Z","name_a2s":"Uncletopia | San Francisco | 3 | Stopwatch Beta","protocol":17,"map":"workshop/koth_ramjam_rc1.ugc459778887","folder":"tf","game":"Team Fortress","app_id":440,"player_count":0,"max_players":24,"Bots":0,"server_type":"Dedicated","server_os":"Linux","password":true,"vac":true,"version":"7757534","steam_id":85568392924742824,"keywords":["cp","nocrits","nodmgspread","uncletopia"],"game_id":440,"stv_port":27036,"stv_name":"Uncletopia | San Francisco | 3 | Stopwatch Beta | STV","players":null},{"server_id":20,"name":"Uncletopia | San Francisco | 4 | Community","name_short":"sfo-4","host":"sfo-1.us.uncletopia.com","port":27045,"enabled":true,"region":"us-west","cc":"us","latitude":37.77397,"longitude":-122.4313,"reserved":0,"last_update":"0001-01-01T00:00:00Z","name_a2s":"Uncletopia | San Francisco | 4 | Community","protocol":17,"map":"workshop/cp_overgrown_rc7b.ugc503939302","folder":"tf","game":"Team Fortress","app_id":440,"player_count":0,"max_players":24,"Bots":0,"server_type":"Dedicated","server_os":"Linux","password":true,"vac":true,"version":"7757534","steam_id":85568392924742826,"keywords":["cp","nocrits","nodmgspread","uncletopia"],"game_id":440,"stv_port":27046,"stv_name":"Uncletopia | San Francisco | 4 | Community | STV","players":null},{"server_id":141,"name":"Uncletopia | Sydney | 1 | All Maps","name_short":"syd-1","host":"syd-1.au.uncletopia.com","port":27015,"enabled":true,"region":"au","cc":"au","latitude":-33.865143,"longitude":151.2099,"reserved":0,"last_update":"0001-01-01T00:00:00Z","name_a2s":"Uncletopia | Sydney | 1 | All Maps","protocol":17,"map":"pl_frontier_final","folder":"tf","game":"Team Fortress","app_id":440,"player_count":6,"max_players":24,"Bots":0,"server_type":"Dedicated","server_os":"Linux","password":true,"vac":true,"version":"7757534","steam_id":85568392924470001,"keywords":["nocrits","nodmgspread","payload","uncletopia"],"game_id":440,"stv_port":27016,"stv_name":"Uncletopia | Sydney | 1 | All Maps | STV","players":[{"user_id":12,"name":"beth.cubitt","steam_id":76561198454733447,"connected_time":791000000000,"state":"active","ping":85},{"user_id":17,"name":"Rat Pope","steam_id":76561199059450243,"connected_time":574000000000,"state":"active","ping":54},{"user_id":15,"name":"TheTophatterOfTophats","steam_id":76561199142504761,"connected_time":665000000000,"state":"active","ping":43},{"user_id":16,"name":"tommck","steam_id":76561198376969861,"connected_time":639000000000,"state":"active","ping":87},{"user_id":18,"name":"Cyborgcupine","steam_id":76561198257389366,"connected_time":185000000000,"state":"active","ping":91},{"user_id":20,"name":"Putramandela","steam_id":76561199373932400,"connected_time":5000000000,"state":"spawning","ping":209}]},{"server_id":123,"name":"Uncletopia | Sydney | 2 | All Maps","name_short":"syd-2","host":"syd-1.au.uncletopia.com","port":27025,"enabled":true,"region":"au","cc":"au","latitude":-33.865143,"longitude":151.2099,"reserved":0,"last_update":"0001-01-01T00:00:00Z","name_a2s":"Uncletopia | Sydney | 2 | All Maps","protocol":17,"map":"pl_snowycoast","folder":"tf","game":"Team Fortress","app_id":440,"player_count":24,"max_players":24,"Bots":0,"server_type":"Dedicated","server_os":"Linux","password":true,"vac":true,"version":"7757534","steam_id":85568392924470002,"keywords":["nocrits","nodmgspread","payload","uncletopia"],"game_id":440,"stv_port":27026,"stv_name":"Uncletopia | Sydney | 2 | All Maps | STV","players":[{"user_id":257,"name":"Cup","steam_id":76561198038485845,"connected_time":2967000000000,"state":"active","ping":31},{"user_id":281,"name":"DragRiper","steam_id":76561198050917553,"connected_time":1267000000000,"state":"active","ping":59},{"user_id":204,"name":"KnowZero","steam_id":76561198095752015,"connected_time":7045000000000,"state":"active","ping":59},{"user_id":273,"name":"Genuline","steam_id":76561198126426787,"connected_time":1863000000000,"state":"active","ping":46},{"user_id":264,"name":"Frog Friend","steam_id":76561198054505772,"connected_time":2724000000000,"state":"active","ping":59},{"user_id":241,"name":"SUCC MY DUCC","steam_id":76561198127068703,"connected_time":3994000000000,"state":"active","ping":63},{"user_id":275,"name":"Dr Barry Mundy PhD","steam_id":76561198034512686,"connected_time":1652000000000,"state":"active","ping":49},{"user_id":276,"name":"jrg","steam_id":76561197997362731,"connected_time":1490000000000,"state":"active","ping":43},{"user_id":262,"name":"Blazey 伊達 政宗","steam_id":76561197971082275,"connected_time":2822000000000,"state":"active","ping":123},{"user_id":274,"name":"Paula","steam_id":76561198010688399,"connected_time":1818000000000,"state":"active","ping":85},{"user_id":287,"name":"Atheon","steam_id":76561198054096076,"connected_time":865000000000,"state":"active","ping":45},{"user_id":83,"name":"Dr. Hoppity","steam_id":76561197999715646,"connected_time":14988000000000,"state":"active","ping":65},{"user_id":277,"name":"CryoDoctor","steam_id":76561198366865379,"connected_time":1447000000000,"state":"active","ping":50},{"user_id":291,"name":"A KNIFE!","steam_id":76561198160390701,"connected_time":765000000000,"state":"active","ping":59},{"user_id":279,"name":"Doc Scope","steam_id":76561198008861338,"connected_time":1429000000000,"state":"active","ping":69},{"user_id":252,"name":"Asl:3x","steam_id":76561198972095766,"connected_time":2993000000000,"state":"active","ping":38},{"user_id":218,"name":"Zilvera","steam_id":76561198065801850,"connected_time":6612000000000,"state":"active","ping":49},{"user_id":266,"name":"zore","steam_id":76561198016233021,"connected_time":2247000000000,"state":"active","ping":59},{"user_id":280,"name":"Andrew Taint","steam_id":76561198271435803,"connected_time":1425000000000,"state":"active","ping":57},{"user_id":286,"name":"Crimson Aurora","steam_id":76561198157492747,"connected_time":919000000000,"state":"active","ping":99},{"user_id":254,"name":"weeyamumbaweh","steam_id":76561198061960926,"connected_time":2993000000000,"state":"active","ping":92},{"user_id":283,"name":"Mr5cap","steam_id":76561198016583905,"connected_time":1136000000000,"state":"active","ping":58},{"user_id":289,"name":"cunning chris","steam_id":76561197972510204,"connected_time":830000000000,"state":"active","ping":54},{"user_id":249,"name":"Morc","steam_id":76561198244778782,"connected_time":3208000000000,"state":"active","ping":44}]},{"server_id":395,"name":"Uncletopia | Sydney | 3 | All Maps","name_short":"syd-3","host":"syd-1.au.uncletopia.com","port":27035,"enabled":true,"region":"au","cc":"au","latitude":-33.865143,"longitude":151.2099,"reserved":0,"last_update":"0001-01-01T00:00:00Z","name_a2s":"Uncletopia | Sydney | 3 | All Maps","protocol":17,"map":"cp_altitude","folder":"tf","game":"Team Fortress","app_id":440,"player_count":0,"max_players":24,"Bots":0,"server_type":"Dedicated","server_os":"Linux","password":true,"vac":true,"version":"7757534","steam_id":85568392925194467,"keywords":["cp","nocrits","nodmgspread","uncletopia"],"game_id":440,"stv_port":27036,"stv_name":"Uncletopia | Sydney | 3 | All Maps | STV","players":null},{"server_id":396,"name":"Uncletopia | Sydney | 4 | All Maps","name_short":"syd-4","host":"syd-1.au.uncletopia.com","port":27045,"enabled":true,"region":"au","cc":"au","latitude":-33.865143,"longitude":151.2099,"reserved":0,"last_update":"0001-01-01T00:00:00Z","name_a2s":"Uncletopia | Sydney | 4 | All Maps","protocol":17,"map":"koth_viaduct","folder":"tf","game":"Team Fortress","app_id":440,"player_count":0,"max_players":24,"Bots":0,"server_type":"Dedicated","server_os":"Linux","password":true,"vac":true,"version":"7757534","steam_id":85568392925397958,"keywords":["cp","nocrits","nodmgspread","uncletopia"],"game_id":440,"stv_port":27046,"stv_name":"Uncletopia | Sydney | 4 | All Maps | STV","players":null},{"server_id":58,"name":"Uncletopia | Sydney | 5 | Stopwatch Beta","name_short":"syd-5","host":"syd-1.au.uncletopia.com","port":27055,"enabled":true,"region":"au","cc":"au","latitude":-33.865143,"longitude":151.2099,"reserved":0,"last_update":"0001-01-01T00:00:00Z","name_a2s":"Uncletopia | Sydney | 5 | Stopwatch Beta","protocol":17,"map":"koth_cascade","folder":"tf","game":"Team Fortress","app_id":440,"player_count":0,"max_players":24,"Bots":0,"server_type":"Dedicated","server_os":"Linux","password":true,"vac":true,"version":"7757534","steam_id":85568392925397959,"keywords":["cp","nocrits","nodmgspread","uncletopia"],"game_id":440,"stv_port":27056,"stv_name":"Uncletopia | Sydney | 5 | Stopwatch Beta | STV","players":null},{"server_id":59,"name":"Uncletopia | Sydney | 6 | Community","name_short":"syd-6","host":"syd-1.au.uncletopia.com","port":27065,"enabled":true,"region":"au","cc":"au","latitude":-33.865143,"longitude":151.2099,"reserved":0,"last_update":"0001-01-01T00:00:00Z","name_a2s":"Uncletopia | Sydney | 6 | Community","protocol":17,"map":"pl_badwater","folder":"tf","game":"Team Fortress","app_id":440,"player_count":0,"max_players":24,"Bots":0,"server_type":"Dedicated","server_os":"Linux","password":true,"vac":true,"version":"7757534","steam_id":85568392925397960,"keywords":["nocrits","nodmgspread","payload","uncletopia"],"game_id":440,"stv_port":27066,"stv_name":"Uncletopia | Sydney | 6 | Community | STV","players":null},{"server_id":49,"name":"Uncletopia | Warsaw | 1 | All Maps","name_short":"waw-1","host":"waw-1.pl.uncletopia.com","port":27015,"enabled":true,"region":"eu","cc":"pl","latitude":52.2297,"longitude":21.017532,"reserved":0,"last_update":"0001-01-01T00:00:00Z","name_a2s":"","protocol":0,"map":"","folder":"","game":"","app_id":0,"player_count":0,"max_players":0,"Bots":0,"server_type":"","server_os":"","password":false,"vac":false,"version":"","steam_id":0,"keywords":null,"game_id":0,"stv_port":0,"stv_name":"","players":null},{"server_id":50,"name":"Uncletopia | Warsaw | 2 | All Maps","name_short":"waw-2","host":"waw-1.pl.uncletopia.com","port":27025,"enabled":true,"region":"eu","cc":"pl","latitude":52.2297,"longitude":21.017532,"reserved":0,"last_update":"0001-01-01T00:00:00Z","name_a2s":"Uncletopia | Warsaw | 2 | All Maps","protocol":17,"map":"pl_upward","folder":"tf","game":"Team Fortress","app_id":440,"player_count":0,"max_players":24,"Bots":0,"server_type":"Dedicated","server_os":"Linux","password":true,"vac":true,"version":"7757534","steam_id":85568392925397851,"keywords":["nocrits","nodmgspread","payload","uncletopia"],"game_id":440,"stv_port":27026,"stv_name":"Uncletopia | Warsaw | 2 | All Maps | STV","players":null},{"server_id":51,"name":"Uncletopia | Warsaw | 3 | All Maps","name_short":"waw-3","host":"waw-1.pl.uncletopia.com","port":27035,"enabled":true,"region":"eu","cc":"pl","latitude":52.2297,"longitude":21.017532,"reserved":0,"last_update":"0001-01-01T00:00:00Z","name_a2s":"Uncletopia | Warsaw | 3 | All Maps","protocol":17,"map":"pl_barnblitz","folder":"tf","game":"Team Fortress","app_id":440,"player_count":0,"max_players":24,"Bots":0,"server_type":"Dedicated","server_os":"Linux","password":true,"vac":true,"version":"7757534","steam_id":85568392925397852,"keywords":["nocrits","nodmgspread","payload","uncletopia"],"game_id":440,"stv_port":27036,"stv_name":"Uncletopia | Warsaw | 3 | All Maps | STV","players":null},{"server_id":52,"name":"Uncletopia | Warsaw | 4 | All Maps","name_short":"waw-4","host":"waw-1.pl.uncletopia.com","port":27045,"enabled":true,"region":"eu","cc":"pl","latitude":52.2297,"longitude":21.017532,"reserved":0,"last_update":"0001-01-01T00:00:00Z","name_a2s":"Uncletopia | Warsaw | 4 | All Maps","protocol":17,"map":"cp_altitude","folder":"tf","game":"Team Fortress","app_id":440,"player_count":0,"max_players":24,"Bots":0,"server_type":"Dedicated","server_os":"Linux","password":true,"vac":true,"version":"7757534","steam_id":85568392925397853,"keywords":["cp","nocrits","nodmgspread","uncletopia"],"game_id":440,"stv_port":27046,"stv_name":"Uncletopia | Warsaw | 4 | All Maps | STV","players":null},{"server_id":53,"name":"Uncletopia | Warsaw | 5 | Stopwatch Beta","name_short":"waw-5","host":"waw-1.pl.uncletopia.com","port":27055,"enabled":true,"region":"eu","cc":"pl","latitude":52.2297,"longitude":21.017532,"reserved":0,"last_update":"0001-01-01T00:00:00Z","name_a2s":"Uncletopia | Warsaw | 5 | Stopwatch Beta","protocol":17,"map":"pl_pier","folder":"tf","game":"Team Fortress","app_id":440,"player_count":0,"max_players":24,"Bots":0,"server_type":"Dedicated","server_os":"Linux","password":true,"vac":true,"version":"7757534","steam_id":85568392925397854,"keywords":["nocrits","nodmgspread","payload","uncletopia"],"game_id":440,"stv_port":27056,"stv_name":"Uncletopia | Warsaw | 5 | Stopwatch Beta | STV","players":null},{"server_id":54,"name":"Uncletopia | Warsaw | 6 | Community","name_short":"waw-6","host":"waw-1.pl.uncletopia.com","port":27065,"enabled":true,"region":"eu","cc":"pl","latitude":52.2297,"longitude":21.017532,"reserved":0,"last_update":"0001-01-01T00:00:00Z","name_a2s":"Uncletopia | Warsaw | 6 | Community","protocol":17,"map":"koth_highpass","folder":"tf","game":"Team Fortress","app_id":440,"player_count":0,"max_players":24,"Bots":0,"server_type":"Dedicated","server_os":"Linux","password":true,"vac":true,"version":"7757534","steam_id":85568392925397856,"keywords":["cp","nocrits","nodmgspread","uncletopia"],"game_id":440,"stv_port":27066,"stv_name":"Uncletopia | Warsaw | 6 | Community | STV","players":null}]}