{"status":true,"message":"","result":[{"server_id":9,"name":"Uncletopia | Atlanta | 1 | All Maps","name_short":"atl-1","host":"atl-1.us.uncletopia.com","port":27015,"enabled":true,"region":"us-east","cc":"us","latitude":33.753746,"longitude":-84.38633,"reserved":0,"last_update":"0001-01-01T00:00:00Z","name_a2s":"Uncletopia | Atlanta | 1 | All Maps","protocol":17,"map":"cp_sunshine","folder":"tf","game":"Team Fortress","app_id":440,"player_count":24,"max_players":24,"Bots":0,"server_type":"Dedicated","server_os":"Linux","password":true,"vac":true,"version":"7961495","steam_id":85568392924469982,"keywords":["cp","nocrits","nodmgspread","uncletopia"],"game_id":440,"stv_port":27016,"stv_name":"Uncletopia | Atlanta | 1 | All Maps | STV","players":null},{"server_id":104,"name":"Uncletopia | Atlanta | 2 | All Maps","name_short":"atl-2","host":"atl-1.us.uncletopia.com","port":27025,"enabled":true,"region":"us-east","cc":"us","latitude":33.753746,"longitude":-84.38633,"reserved":0,"last_update":"0001-01-01T00:00:00Z","name_a2s":"Uncletopia | Atlanta | 2 | All Maps","protocol":17,"map":"cp_sunshine","folder":"tf","game":"Team Fortress","app_id":440,"player_count":24,"max_players":24,"Bots":0,"server_type":"Dedicated","server_os":"Linux","password":true,"vac":true,"version":"7961495","steam_id":85568392924469983,"keywords":["cp","nocrits","nodmgspread","uncletopia"],"game_id":440,"stv_port":27026,"stv_name":"Uncletopia | Atlanta | 2 | All Maps | STV","players":null},{"server_id":400,"name":"Uncletopia | Atlanta | 3 | Stopwatch","name_short":"atl-3","host":"atl-1.us.uncletopia.com","port":27035,"enabled":true,"region":"us-east","cc":"us","latitude":33.753746,"longitude":-84.38633,"reserved":0,"last_update":"0001-01-01T00:00:00Z","name_a2s":"Uncletopia | Atlanta | 3 | Stopwatch","protocol":17,"map":"koth_ashville_final","folder":"tf","game":"Team Fortress","app_id":440,"player_count":0,"max_players":24,"Bots":0,"server_type":"Dedicated","server_os":"Linux","password":true,"vac":true,"version":"7961495","steam_id":85568392924515187,"keywords":["cp","nocrits","nodmgspread","uncletopia"],"game_id":440,"stv_port":27036,"stv_name":"Uncletopia | Atlanta | 3 | Stopwatch | STV","players":null},{"server_id":401,"name":"Uncletopia | Atlanta | 4 | Community","name_short":"atl-4","host":"atl-1.us.uncletopia.com","port":27045,"enabled":true,"region":"us-east","cc":"us","latitude":33.753746,"longitude":-84.38633,"reserved":0,"last_update":"0001-01-01T00:00:00Z","name_a2s":"Uncletopia | Atlanta | 4 | Community","protocol":17,"map":"cp_caldera_rc2","folder":"tf","game":"Team Fortress","app_id":440,"player_count":24,"max_players":24,"Bots":0,"server_type":"Dedicated","server_os":"Linux","password":true,"vac":true,"version":"7961495","steam_id":85568392924515188,"keywords":["cp","nocrits","nodmgspread","uncletopia"],"game_id":440,"stv_port":27046,"stv_name":"Uncletopia | Atlanta | 4 | Community | STV","players":null},{"server_id":2,"name":"Uncletopia | Chicago | 1 | All Maps","name_short":"chi-1","host":"chi-1.us.uncletopia.com","port":27015,"enabled":true,"region":"us-central","cc":"us","latitude":41.881832,"longitude":-87.62318,"reserved":0,"last_update":"0001-01-01T00:00:00Z","name_a2s":"Uncletopia | Chicago | 1 | All Maps","protocol":17,"map":"cp_powerhouse","folder":"tf","game":"Team Fortress","app_id":440,"player_count":23,"max_players":24,"Bots":0,"server_type":"Dedicated","server_os":"Linux","password":true,"vac":true,"version":"7961495","steam_id":85568392924469984,"keywords":["cp","nocrits","nodmgspread","uncletopia"],"game_id":440,"stv_port":27016,"stv_name":"Uncletopia | Chicago | 1 | All Maps | STV","players":[{"user_id":521,"name":"‚ô•Bunny‚ô•Slut‚ô•","steam_id":76561198206376851,"connected_time":117000000000,"state":"active","ping":87},{"user_id":508,"name":"Cdesmondd","steam_id":76561198072774462,"connected_time":1718000000000,"state":"active","ping":58},{"user_id":441,"name":"RusticCarp42989","steam_id":76561198361151865,"connected_time":8390000000000,"state":"active","ping":122},{"user_id":517,"name":"Hey","steam_id":76561198447517893,"connected_time":838000000000,"state":"active","ping":80},{"user_id":518,"name":"JtsRes","steam_id":76561197994809241,"connected_time":736000000000,"state":"active","ping":63},{"user_id":470,"name":"Giggles‚Ñ¢","steam_id":76561198058708019,"connected_time":6048000000000,"state":"active","ping":55},{"user_id":520,"name":"SiltyStar85","steam_id":76561198309175923,"connected_time":244000000000,"state":"active","ping":75},{"user_id":511,"name":"Goose","steam_id":76561198328998533,"connected_time":1673000000000,"state":"active","ping":52},{"user_id":454,"name":"Ras","steam_id":76561198123546775,"connected_time":6820000000000,"state":"active","ping":60},{"user_id":437,"name":".JIFF","steam_id":76561198045181760,"connected_time":9269000000000,"state":"active","ping":59},{"user_id":519,"name":"gas station revenant","steam_id":76561198076395705,"connected_time":713000000000,"state":"active","ping":59},{"user_id":512,"name":"Cold shoulder","steam_id":76561198453824178,"connected_time":1642000000000,"state":"active","ping":146},{"user_id":505,"name":"fried rice","steam_id":76561198928939100,"connected_time":2691000000000,"state":"active","ping":84},{"user_id":484,"name":"Astoriae!","steam_id":76561199090168858,"connected_time":4826000000000,"state":"active","ping":76},{"user_id":466,"name":"Milkmur","steam_id":76561198210043821,"connected_time":6124000000000,"state":"active","ping":67},{"user_id":515,"name":"Rex","steam_id":76561198138365053,"connected_time":1234000000000,"state":"active","ping":149},{"user_id":449,"name":"Amoxicilina","steam_id":76561198168486429,"connected_time":7280000000000,"state":"active","ping":115},{"user_id":514,"name":"NUt","steam_id":76561198031007966,"connected_time":1612000000000,"state":"active","ping":63},{"user_id":522,"name":"mango lassi","steam_id":76561198019038889,"connected_time":15000000000,"state":"spawning","ping":110},{"user_id":516,"name":"dansal","steam_id":76561197997042510,"connected_time":1018000000000,"state":"active","ping":88},{"user_id":471,"name":"Terry Crews from Brooklyn 99","steam_id":76561198357806819,"connected_time":6048000000000,"state":"active","ping":85},{"user_id":502,"name":"‚òÖRIVI‚òÖ","steam_id":76561198086635699,"connected_time":3324000000000,"state":"active","ping":88},{"user_id":495,"name":"buttery ducky","steam_id":76561199025842073,"connected_time":4156000000000,"state":"active","ping":54}]},{"server_id":106,"name":"Uncletopia | Chicago | 2 | All Maps","name_short":"chi-2","host":"chi-1.us.uncletopia.com","port":27025,"enabled":true,"region":"us-central","cc":"us","latitude":41.881832,"longitude":-87.62318,"reserved":0,"last_update":"0001-01-01T00:00:00Z","name_a2s":"Uncletopia | Chicago | 2 | All Maps","protocol":17,"map":"pl_barnblitz","folder":"tf","game":"Team Fortress","app_id":440,"player_count":23,"max_players":24,"Bots":0,"server_type":"Dedicated","server_os":"Linux","password":true,"vac":true,"version":"7961495","steam_id":85568392924469985,"keywords":["nocrits","nodmgspread","payload","uncletopia"],"game_id":440,"stv_port":27026,"stv_name":"Uncletopia | Chicago | 2 | All Maps | STV","players":[{"user_id":687,"name":"an' im doin it foa ma dawta","steam_id":76561199161322235,"connected_time":3456000000000,"state":"connecting","ping":66},{"user_id":731,"name":"Greg_M74","steam_id":76561198823492311,"connected_time":1000000000,"state":"connecting","ping":144},{"user_id":730,"name":"joebot","steam_id":76561197975606100,"connected_time":19000000000,"state":"connecting","ping":74},{"user_id":727,"name":"Hard Soap","steam_id":76561198267905614,"connected_time":116000000000,"state":"connecting","ping":103},{"user_id":728,"name":"c00kie","steam_id":76561198418178297,"connected_time":66000000000,"state":"connecting","ping":60},{"user_id":520,"name":"weakest drunk driver","steam_id":76561198079416036,"connected_time":10939000000000,"state":"connecting","ping":56},{"user_id":702,"name":"GODPRINCESSABAGAIL72","steam_id":76561198813574552,"connected_time":2872000000000,"state":"connecting","ping":71},{"user_id":726,"name":"ViserOfOrder","steam_id":76561198137222506,"connected_time":218000000000,"state":"connecting","ping":77},{"user_id":668,"name":"252+ Sp.A Specs Chi-Yu","steam_id":76561198061868020,"connected_time":4804000000000,"state":"connecting","ping":197},{"user_id":672,"name":"joyeuxnoelle","steam_id":76561198062423120,"connected_time":4641000000000,"state":"connecting","ping":75},{"user_id":718,"name":"Rornir","steam_id":76561198081829615,"connected_time":1170000000000,"state":"connecting","ping":43},{"user_id":720,"name":"Rein","steam_id":76561198300340427,"connected_time":1005000000000,"state":"connecting","ping":83},{"user_id":717,"name":"RocketRabbit","steam_id":76561198803062131,"connected_time":1251000000000,"state":"connecting","ping":83},{"user_id":675,"name":"alpha male (he/him)","steam_id":76561198057076267,"connected_time":4608000000000,"state":"connecting","ping":103},{"user_id":686,"name":"nook","steam_id":76561198092135570,"connected_time":3529000000000,"state":"connecting","ping":87},{"user_id":719,"name":"MONKEY | videogamer1002","steam_id":76561198157110599,"connected_time":1138000000000,"state":"connecting","ping":108},{"user_id":708,"name":"Smashy","steam_id":76561198030704307,"connected_time":2364000000000,"state":"connecting","ping":89},{"user_id":723,"name":"Dr. House","steam_id":76561198052910702,"connected_time":793000000000,"state":"connecting","ping":57},{"user_id":698,"name":"Megatron G","steam_id":76561198168864083,"connected_time":3107000000000,"state":"connecting","ping":107},{"user_id":716,"name":"raya","steam_id":76561198051504581,"connected_time":1259000000000,"state":"connecting","ping":89},{"user_id":725,"name":"RectalExam","steam_id":76561197970502312,"connected_time":616000000000,"state":"connecting","ping":120}]},{"server_id":402,"name":"Uncletopia | Chicago | 3 | All Maps","name_short":"chi-3","host":"chi-1.us.uncletopia.com","port":27035,"enabled":true,"region":"us-central","cc":"us","latitude":41.881832,"longitude":-87.62318,"reserved":0,"last_update":"0001-01-01T00:00:00Z","name_a2s":"Uncletopia | Chicago | 3 | All Maps","protocol":17,"map":"cp_dustbowl","folder":"tf","game":"Team Fortress","app_id":440,"player_count":22,"max_players":24,"Bots":0,"server_type":"Dedicated","server_os":"Linux","password":true,"vac":true,"version":"7961495","steam_id":85568392924515191,"keywords":["cp","nocrits","nodmgspread","uncletopia"],"game_id":440,"stv_port":27036,"stv_name":"Uncletopia | Chicago | 3 | All Maps | STV","players":[{"user_id":370,"name":"poopybutt420","steam_id":76561199000805315,"connected_time":105000000000,"state":"active","ping":89},{"user_id":357,"name":"z.","steam_id":76561198009773129,"connected_time":922000000000,"state":"active","ping":52},{"user_id":371,"name":"VeloCity","steam_id":76561198148688626,"connected_time":79000000000,"state":"active","ping":69},{"user_id":372,"name":"Saul Goodman","steam_id":76561198157305426,"connected_time":77000000000,"state":"active","ping":60},{"user_id":373,"name":"Kim Wexler","steam_id":76561198964107245,"connected_time":68000000000,"state":"active","ping":96},{"user_id":374,"name":"Loogey03","steam_id":76561198155483586,"connected_time":66000000000,"state":"active","ping":51},{"user_id":330,"name":"MKULTRA AIM","steam_id":76561199062024437,"connected_time":3749000000000,"state":"active","ping":62},{"user_id":331,"name":"aisu","steam_id":76561198043768507,"connected_time":3742000000000,"state":"active","ping":61},{"user_id":362,"name":"king of bogers","steam_id":76561198045731295,"connected_time":514000000000,"state":"active","ping":61},{"user_id":368,"name":"Ayylmao","steam_id":76561198104780147,"connected_time":219000000000,"state":"active","ping":44},{"user_id":375,"name":"I'm busy bee worker","steam_id":76561198329680103,"connected_time":60000000000,"state":"active","ping":88},{"user_id":358,"name":"Papahemmy","steam_id":76561198155470810,"connected_time":884000000000,"state":"active","ping":62},{"user_id":303,"name":"Œ∏Œ¨ŒΩŒ±œÑŒøœÇ œáœâœÅŒØœÇ œåŒΩ","steam_id":76561198021308963,"connected_time":5638000000000,"state":"active","ping":62},{"user_id":376,"name":"Dick Grimes","steam_id":76561198157414556,"connected_time":48000000000,"state":"active","ping":76},{"user_id":302,"name":"mellowhype","steam_id":76561198040675606,"connected_time":5725000000000,"state":"active","ping":72},{"user_id":377,"name":"Antwan","steam_id":76561198246200638,"connected_time":4000000000,"state":"spawning","ping":59},{"user_id":378,"name":"Lots0","steam_id":76561198043143145,"connected_time":4000000000,"state":"spawning","ping":73},{"user_id":364,"name":"Imagine being trash at Medic","steam_id":76561197986530028,"connected_time":488000000000,"state":"active","ping":89},{"user_id":337,"name":"smuffy","steam_id":76561198091459506,"connected_time":3561000000000,"state":"active","ping":70},{"user_id":379,"name":"ICK369","steam_id":76561197999045629,"connected_time":1000000000,"state":"spawning","ping":290},{"user_id":359,"name":"wish you were here","steam_id":76561198282764599,"connected_time":846000000000,"state":"active","ping":49},{"user_id":361,"name":"that 240hz dif","steam_id":76561198044443985,"connected_time":534000000000,"state":"active","ping":79}]},{"server_id":403,"name":"Uncletopia | Chicago | 4 | All Maps","name_short":"chi-4","host":"chi-1.us.uncletopia.com","port":27045,"enabled":true,"region":"us-central","cc":"us","latitude":41.881832,"longitude":-87.62318,"reserved":0,"last_update":"0001-01-01T00:00:00Z","name_a2s":"Uncletopia | Chicago | 4 | All Maps","protocol":17,"map":"pl_upward","folder":"tf","game":"Team Fortress","app_id":440,"player_count":23,"max_players":24,"Bots":0,"server_type":"Dedicated","server_os":"Linux","password":true,"vac":true,"version":"7961495","steam_id":85568392924515193,"keywords":["nocrits","nodmgspread","payload","uncletopia"],"game_id":440,"stv_port":27046,"stv_name":"Uncletopia | Chicago | 4 | All Maps | STV","players":[{"user_id":738,"name":"Shoeshocker","steam_id":76561198174302467,"connected_time":1500000000000,"state":"active","ping":75},{"user_id":739,"name":"popped32benadryl","steam_id":76561199057899661,"connected_time":1440000000000,"state":"active","ping":104},{"user_id":709,"name":"Oopsie Daisy ‚ùã","steam_id":76561198042144492,"connected_time":3457000000000,"state":"active","ping":70},{"user_id":758,"name":"Battle Bug","steam_id":76561198005793034,"connected_time":11000000000,"state":"active","ping":88},{"user_id":740,"name":"MGO","steam_id":76561198977768400,"connected_time":1431000000000,"state":"active","ping":114},{"user_id":718,"name":"captainskullet","steam_id":76561198314597170,"connected_time":2871000000000,"state":"active","ping":62},{"user_id":741,"name":"H.","steam_id":76561198074951179,"connected_time":1369000000000,"state":"active","ping":77},{"user_id":651,"name":"Pharthus","steam_id":76561198093866050,"connected_time":6023000000000,"state":"active","ping":90},{"user_id":756,"name":"UrGonnaSuckLightningAndCumThund","steam_id":76561198074678273,"connected_time":171000000000,"state":"active","ping":45},{"user_id":662,"name":"Zoey Cakes","steam_id":76561198080247936,"connected_time":5870000000000,"state":"active","ping":85},{"user_id":663,"name":"Byte","steam_id":76561197995281363,"connected_time":5627000000000,"state":"active","ping":103},{"user_id":729,"name":"swan","steam_id":76561198012569200,"connected_time":2027000000000,"state":"active","ping":73},{"user_id":742,"name":"ufo","steam_id":76561198018514993,"connected_time":1358000000000,"state":"active","ping":60},{"user_id":743,"name":"unmitigated success","steam_id":76561197988234127,"connected_time":1350000000000,"state":"active","ping":69},{"user_id":757,"name":"Renegade","steam_id":76561198066847055,"connected_time":86000000000,"state":"active","ping":48},{"user_id":683,"name":"CJDGuy","steam_id":76561198213009545,"connected_time":4839000000000,"state":"active","ping":53},{"user_id":699,"name":"[NAME-REDACTED]","steam_id":76561198035682975,"connected_time":4371000000000,"state":"active","ping":70},{"user_id":746,"name":"Missing Minus","steam_id":76561198120822928,"connected_time":1218000000000,"state":"active","ping":60},{"user_id":752,"name":"Sweater-Fan","steam_id":76561199389567214,"connected_time":745000000000,"state":"active","ping":64},{"user_id":750,"name":"Jeugh","steam_id":76561198073498865,"connected_time":854000000000,"state":"active","ping":86},{"user_id":747,"name":"GoldSwordKiller","steam_id":76561199082279387,"connected_time":1059000000000,"state":"active","ping":92},{"user_id":755,"name":"drevott74","steam_id":76561199262592779,"connected_time":207000000000,"state":"active","ping":104},{"user_id":754,"name":"mxgic","steam_id":76561198354656195,"connected_time":255000000000,"state":"active","ping":124}]},{"server_id":36,"name":"Uncletopia | Chicago | 5 | All Maps","name_short":"chi-5","host":"chi-2.us.uncletopia.com","port":27015,"enabled":true,"region":"us-central","cc":"us","latitude":41.881832,"longitude":-87.62318,"reserved":0,"last_update":"0001-01-01T00:00:00Z","name_a2s":"Uncletopia | Chicago | 5 | All Maps","protocol":17,"map":"pl_frontier_final","folder":"tf","game":"Team Fortress","app_id":440,"player_count":24,"max_players":24,"Bots":0,"server_type":"Dedicated","server_os":"Linux","password":true,"vac":true,"version":"7961495","steam_id":85568392924866362,"keywords":["nocrits","nodmgspread","payload","uncletopia"],"game_id":440,"stv_port":27016,"stv_name":"Uncletopia | Chicago | 5 | All Maps | STV","players":[{"user_id":182,"name":"Kay ‚ò≠","steam_id":76561198353432576,"connected_time":2227000000000,"state":"active","ping":71},{"user_id":211,"name":"soof","steam_id":76561198043762955,"connected_time":67000000000,"state":"active","ping":65},{"user_id":201,"name":"Totouri","steam_id":76561198004229789,"connected_time":1249000000000,"state":"active","ping":58},{"user_id":212,"name":"Wife Enjoyer","steam_id":76561198044109761,"connected_time":9000000000,"state":"spawning","ping":72},{"user_id":174,"name":"CandorDanceFloor","steam_id":76561198062980511,"connected_time":3139000000000,"state":"active","ping":76},{"user_id":192,"name":"Fudgely","steam_id":76561198039425862,"connected_time":1967000000000,"state":"active","ping":78},{"user_id":206,"name":"lucius","steam_id":76561199138748499,"connected_time":662000000000,"state":"active","ping":58},{"user_id":200,"name":"chunk","steam_id":76561198134775401,"connected_time":1291000000000,"state":"active","ping":260},{"user_id":199,"name":"Leonardo DiCaprio","steam_id":76561198121886765,"connected_time":1670000000000,"state":"active","ping":60},{"user_id":189,"name":"Jpxfred","steam_id":76561199414783749,"connected_time":2113000000000,"state":"active","ping":116},{"user_id":183,"name":"y0","steam_id":76561198143894333,"connected_time":2175000000000,"state":"active","ping":56},{"user_id":197,"name":"RagunCagun","steam_id":76561198132848008,"connected_time":1899000000000,"state":"active","ping":46},{"user_id":186,"name":"LordTachanka","steam_id":76561198111524941,"connected_time":2131000000000,"state":"active","ping":93},{"user_id":207,"name":"Dzhoshua","steam_id":76561198071915251,"connected_time":598000000000,"state":"active","ping":70},{"user_id":210,"name":"vibes","steam_id":76561198050561115,"connected_time":465000000000,"state":"active","ping":98},{"user_id":167,"name":"Gram Tokers Count Doinkula","steam_id":76561198112811565,"connected_time":3837000000000,"state":"active","ping":73},{"user_id":187,"name":"Propaniac Gaming ‚òë","steam_id":76561198133963270,"connected_time":2129000000000,"state":"active","ping":60},{"user_id":203,"name":"A Shiny Meat Bicycle","steam_id":76561198358757709,"connected_time":1077000000000,"state":"active","ping":98},{"user_id":191,"name":"Diesel","steam_id":76561198369469019,"connected_time":2099000000000,"state":"active","ping":103},{"user_id":190,"name":"poverty gaming","steam_id":76561199177831971,"connected_time":2110000000000,"state":"active","ping":80},{"user_id":125,"name":"Bad Medic Buddy","steam_id":76561198093222632,"connected_time":8022000000000,"state":"active","ping":82},{"user_id":205,"name":"eat Pant","steam_id":76561197974965536,"connected_time":682000000000,"state":"active","ping":63},{"user_id":157,"name":"Theo","steam_id":76561198147484780,"connected_time":4995000000000,"state":"active","ping":92}]},{"server_id":37,"name":"Uncletopia | Chicago | 6 | All Maps","name_short":"chi-6","host":"chi-2.us.uncletopia.com","port":27025,"enabled":true,"region":"us-central","cc":"us","latitude":41.881832,"longitude":-87.62318,"reserved":0,"last_update":"0001-01-01T00:00:00Z","name_a2s":"Uncletopia | Chicago | 6 | All Maps","protocol":17,"map":"pl_borneo","folder":"tf","game":"Team Fortress","app_id":440,"player_count":20,"max_players":24,"Bots":0,"server_type":"Dedicated","server_os":"Linux","password":true,"vac":true,"version":"7961495","steam_id":85568392924866363,"keywords":["cp","nocrits","nodmgspread","uncletopia"],"game_id":440,"stv_port":27026,"stv_name":"Uncletopia | Chicago | 6 | All Maps | STV","players":[{"user_id":395,"name":"sam","steam_id":76561198088504281,"connected_time":472000000000,"state":"connecting","ping":71},{"user_id":376,"name":"Chin (SFM Comms Open)","steam_id":76561198953123833,"connected_time":2178000000000,"state":"connecting","ping":130},{"user_id":373,"name":"flappyflap2","steam_id":76561198285048973,"connected_time":2572000000000,"state":"connecting","ping":75},{"user_id":381,"name":"Spacecore2","steam_id":76561198036185621,"connected_time":1590000000000,"state":"connecting","ping":75},{"user_id":363,"name":"Nillad","steam_id":76561198984334138,"connected_time":3564000000000,"state":"connecting","ping":84},{"user_id":388,"name":"Shaso1008","steam_id":76561198111957006,"connected_time":1041000000000,"state":"connecting","ping":123},{"user_id":371,"name":"Predicta","steam_id":76561198017630616,"connected_time":2655000000000,"state":"connecting","ping":58},{"user_id":382,"name":"Dumpling","steam_id":76561198062763756,"connected_time":1546000000000,"state":"connecting","ping":72},{"user_id":393,"name":"Windup Monkey in a Human Suit","steam_id":76561198119501444,"connected_time":549000000000,"state":"connecting","ping":104},{"user_id":359,"name":"canofspaghettios","steam_id":76561198124204246,"connected_time":3968000000000,"state":"connecting","ping":69},{"user_id":396,"name":"kicks","steam_id":76561199228854923,"connected_time":434000000000,"state":"connecting","ping":64},{"user_id":387,"name":"shrine","steam_id":76561199001771988,"connected_time":1227000000000,"state":"connecting","ping":75},{"user_id":349,"name":"AL SPUGNAR","steam_id":76561199020253203,"connected_time":4354000000000,"state":"connecting","ping":128},{"user_id":364,"name":"aoefjwoef","steam_id":76561198046948758,"connected_time":3563000000000,"state":"connecting","ping":81},{"user_id":343,"name":"stuffedidiot","steam_id":76561199181513019,"connected_time":4440000000000,"state":"connecting","ping":132},{"user_id":344,"name":"Rat Smacker","steam_id":76561198043629646,"connected_time":4419000000000,"state":"connecting","ping":107},{"user_id":390,"name":"JustAnotherHuman","steam_id":76561199018122924,"connected_time":1017000000000,"state":"connecting","ping":87},{"user_id":347,"name":"ItsThatBear","steam_id":76561198169617659,"connected_time":4372000000000,"state":"connecting","ping":108},{"user_id":397,"name":"aversa","steam_id":76561198840460101,"connected_time":369000000000,"state":"connecting","ping":92}]},{"server_id":38,"name":"Uncletopia | Chicago | 7 | Stopwatch","name_short":"chi-7","host":"chi-2.us.uncletopia.com","port":27035,"enabled":true,"region":"us-central","cc":"us","latitude":41.881832,"longitude":-87.62318,"reserved":0,"last_update":"0001-01-01T00:00:00Z","name_a2s":"Uncletopia | Chicago | 7 | Stopwatch","protocol":17,"map":"pl_swiftwater_final1","folder":"tf","game":"Team Fortress","app_id":440,"player_count":22,"max_players":24,"Bots":0,"server_type":"Dedicated","server_os":"Linux","password":true,"vac":true,"version":"7961495","steam_id":85568392924866364,"keywords":["nocrits","nodmgspread","payload","uncletopia"],"game_id":440,"stv_port":27036,"stv_name":"Uncletopia | Chicago | 7 | Stopwatch | STV","players":[{"user_id":163,"name":"QuakAtack","steam_id":76561198870770157,"connected_time":904000000000,"state":"active","ping":84},{"user_id":176,"name":"BaronJ","steam_id":76561198025151133,"connected_time":383000000000,"state":"active","ping":74},{"user_id":162,"name":"Lockstep","steam_id":76561198010427926,"connected_time":959000000000,"state":"active","ping":85},{"user_id":155,"name":"Little Skull Boi","steam_id":76561198093595888,"connected_time":1265000000000,"state":"active","ping":105},{"user_id":179,"name":"Jatt","steam_id":76561198822011219,"connected_time":191000000000,"state":"active","ping":84},{"user_id":181,"name":"King","steam_id":76561198123927752,"connected_time":148000000000,"state":"active","ping":56},{"user_id":180,"name":"Bobbn","steam_id":76561198876124683,"connected_time":186000000000,"state":"active","ping":75},{"user_id":152,"name":"Bananaphone","steam_id":76561198049452877,"connected_time":1411000000000,"state":"active","ping":83},{"user_id":137,"name":"Shapeshiftertrue","steam_id":76561198440835095,"connected_time":2055000000000,"state":"active","ping":94},{"user_id":177,"name":"Exetior","steam_id":76561198978688451,"connected_time":369000000000,"state":"active","ping":67},{"user_id":140,"name":"Pyrovision Distributor","steam_id":76561198242118240,"connected_time":1998000000000,"state":"active","ping":51},{"user_id":164,"name":"UNIT 220","steam_id":76561198042243497,"connected_time":898000000000,"state":"active","ping":70},{"user_id":118,"name":"Neytir","steam_id":76561198124555175,"connected_time":2471000000000,"state":"active","ping":69},{"user_id":165,"name":"Importality","steam_id":76561198049943127,"connected_time":862000000000,"state":"active","ping":93},{"user_id":167,"name":"Nespreco","steam_id":76561198252035336,"connected_time":859000000000,"state":"active","ping":66},{"user_id":175,"name":"yogrrt","steam_id":76561198012510968,"connected_time":471000000000,"state":"active","ping":57},{"user_id":149,"name":"Zinc","steam_id":76561198025303928,"connected_time":1575000000000,"state":"active","ping":84},{"user_id":146,"name":"LeRoy42","steam_id":76561198035591428,"connected_time":1821000000000,"state":"active","ping":84},{"user_id":130,"name":"üî• TheFiredragon222 üî•","steam_id":76561198080884518,"connected_time":2206000000000,"state":"active","ping":81},{"user_id":88,"name":"ZombieSlayer77","steam_id":76561199023974356,"connected_time":4455000000000,"state":"active","ping":92},{"user_id":157,"name":"Normally Ly Oak-Swallows-Garcia","steam_id":76561198355975688,"connected_time":1180000000000,"state":"active","ping":115},{"user_id":132,"name":"Branz","steam_id":76561198076632143,"connected_time":2201000000000,"state":"active","ping":86}]},{"server_id":39,"name":"Uncletopia | Chicago | 8 | Community","name_short":"chi-8","host":"chi-2.us.uncletopia.com","port":27045,"enabled":true,"region":"us-central","cc":"us","latitude":41.881832,"longitude":-87.62318,"reserved":0,"last_update":"0001-01-01T00:00:00Z","name_a2s":"Uncletopia | Chicago | 8 | Community","protocol":17,"map":"workshop/cp_coilblaze_rc7.ugc1272700588","folder":"tf","game":"Team Fortress","app_id":440,"player_count":0,"max_players":24,"Bots":0,"server_type":"Dedicated","server_os":"Linux","password":true,"vac":true,"version":"7961495","steam_id":85568392924866365,"keywords":["cp","nocrits","nodmgspread","uncletopia"],"game_id":440,"stv_port":27046,"stv_name":"Uncletopia | Chicago | 8 | Community | STV","players":null},{"server_id":8,"name":"Uncletopia | Dallas | 1 | All Maps","name_short":"dal-1","host":"dal-1.us.uncletopia.com","port":27015,"enabled":true,"region":"us-central","cc":"us","latitude":32.779167,"longitude":-96.80889,"reserved":0,"last_update":"0001-01-01T00:00:00Z","name_a2s":"Uncletopia | Dallas | 1 | All Maps","protocol":17,"map":"pl_pier","folder":"tf","game":"Team Fortress","app_id":440,"player_count":24,"max_players":24,"Bots":0,"server_type":"Dedicated","server_os":"Linux","password":true,"vac":true,"version":"7961495","steam_id":85568392924469986,"keywords":["nocrits","nodmgspread","payload","uncletopia"],"game_id":440,"stv_port":27016,"stv_name":"Uncletopia | Dallas | 1 | All Maps | STV","players":[{"user_id":509,"name":"Spaceman","steam_id":76561198098025074,"connected_time":1237000000000,"state":"active","ping":97},{"user_id":461,"name":"BADWOLF42","steam_id":76561198055447523,"connected_time":5187000000000,"state":"active","ping":55},{"user_id":456,"name":"rocketspires","steam_id":76561198800386026,"connected_time":5455000000000,"state":"active","ping":93},{"user_id":479,"name":"NerdyEnforcement","steam_id":76561198437710820,"connected_time":3609000000000,"state":"active","ping":101},{"user_id":494,"name":"sapphoroth","steam_id":76561198062263639,"connected_time":2672000000000,"state":"active","ping":55},{"user_id":510,"name":"mushrom","steam_id":76561198026563351,"connected_time":865000000000,"state":"active","ping":82},{"user_id":500,"name":"schmuck","steam_id":76561198143789773,"connected_time":2174000000000,"state":"active","ping":57},{"user_id":514,"name":"Foolie","steam_id":76561198291741747,"connected_time":603000000000,"state":"active","ping":87},{"user_id":498,"name":"ShapedSilver","steam_id":76561199073305310,"connected_time":2479000000000,"state":"active","ping":80},{"user_id":476,"name":"The Assistant Regional Manager","steam_id":76561199221484936,"connected_time":3649000000000,"state":"active","ping":98},{"user_id":505,"name":"Levi","steam_id":76561198089832776,"connected_time":1547000000000,"state":"active","ping":57},{"user_id":511,"name":"Jimbles","steam_id":76561198115532375,"connected_time":793000000000,"state":"active","ping":84},{"user_id":506,"name":"Withered Bonnie (Real)","steam_id":76561198423310113,"connected_time":1539000000000,"state":"active","ping":53},{"user_id":501,"name":"-W3E- grim10465","steam_id":76561198045698581,"connected_time":2044000000000,"state":"active","ping":78},{"user_id":469,"name":"Anon","steam_id":76561198109740776,"connected_time":4118000000000,"state":"active","ping":94},{"user_id":481,"name":"Sunshine On Me","steam_id":76561198042570322,"connected_time":3587000000000,"state":"active","ping":82},{"user_id":515,"name":"._.","steam_id":76561198300316801,"connected_time":269000000000,"state":"active","ping":88},{"user_id":499,"name":"Hydroxianchaos","steam_id":76561198043786828,"connected_time":2458000000000,"state":"active","ping":92},{"user_id":512,"name":"ivan from oblock","steam_id":76561199196918355,"connected_time":788000000000,"state":"active","ping":77},{"user_id":507,"name":"guts","steam_id":76561198070705963,"connected_time":1436000000000,"state":"active","ping":73},{"user_id":502,"name":"Wikus van der Merwe","steam_id":76561198080122380,"connected_time":1831000000000,"state":"active","ping":83},{"user_id":504,"name":"Pizza","steam_id":76561198118748364,"connected_time":1625000000000,"state":"active","ping":87},{"user_id":513,"name":"Gen-E","steam_id":76561199497800989,"connected_time":777000000000,"state":"active","ping":102},{"user_id":497,"name":"Thanks!","steam_id":76561198025198791,"connected_time":2537000000000,"state":"active","ping":45}]},{"server_id":108,"name":"Uncletopia | Dallas | 2 | All Maps","name_short":"dal-2","host":"dal-1.us.uncletopia.com","port":27025,"enabled":true,"region":"us-central","cc":"us","latitude":32.779167,"longitude":-96.80889,"reserved":0,"last_update":"0001-01-01T00:00:00Z","name_a2s":"Uncletopia | Dallas | 2 | All Maps","protocol":17,"map":"pl_borneo","folder":"tf","game":"Team Fortress","app_id":440,"player_count":8,"max_players":24,"Bots":0,"server_type":"Dedicated","server_os":"Linux","password":true,"vac":true,"version":"7961495","steam_id":85568392924469988,"keywords":["nocrits","nodmgspread","payload","uncletopia"],"game_id":440,"stv_port":27026,"stv_name":"Uncletopia | Dallas | 2 | All Maps | STV","players":[{"user_id":854,"name":"3DNow!","steam_id":76561198390175783,"connected_time":181000000000,"state":"active","ping":195},{"user_id":855,"name":"Pringles","steam_id":76561198170085170,"connected_time":159000000000,"state":"active","ping":54},{"user_id":859,"name":"AnimeHjonker989","steam_id":76561199122139727,"connected_time":45000000000,"state":"active","ping":59},{"user_id":856,"name":"upward........ pumpkin","steam_id":76561198443401216,"connected_time":92000000000,"state":"active","ping":57},{"user_id":834,"name":"iluvtoust","steam_id":76561198869269207,"connected_time":1985000000000,"state":"active","ping":47},{"user_id":857,"name":"Spy From TF2","steam_id":76561198155413291,"connected_time":90000000000,"state":"active","ping":131},{"user_id":838,"name":"MemoxJota (F2P)","steam_id":76561198862661338,"connected_time":1923000000000,"state":"active","ping":120},{"user_id":843,"name":"drink enjoyer","steam_id":76561199078359629,"connected_time":1551000000000,"state":"active","ping":75}]},{"server_id":404,"name":"Uncletopia | Dallas | 3 | All Maps","name_short":"dal-3","host":"dal-1.us.uncletopia.com","port":27035,"enabled":true,"region":"us-central","cc":"us","latitude":32.779167,"longitude":-96.80889,"reserved":0,"last_update":"0001-01-01T00:00:00Z","name_a2s":"Uncletopia | Dallas | 3 | All Maps","protocol":17,"map":"pl_borneo","folder":"tf","game":"Team Fortress","app_id":440,"player_count":25,"max_players":24,"Bots":0,"server_type":"Dedicated","server_os":"Linux","password":true,"vac":true,"version":"7961495","steam_id":85568392924515219,"keywords":["nocrits","nodmgspread","payload","uncletopia"],"game_id":440,"stv_port":27036,"stv_name":"Uncletopia | Dallas | 3 | All Maps | STV","players":[{"user_id":234,"name":"mkl","steam_id":76561197986401685,"connected_time":1510000000000,"state":"active","ping":57},{"user_id":244,"name":"Minedark","steam_id":76561198250995706,"connected_time":587000000000,"state":"active","ping":128},{"user_id":240,"name":"Bomb Squirtle‚Ñ¢","steam_id":76561197998931145,"connected_time":830000000000,"state":"active","ping":112},{"user_id":184,"name":"Kirby.exe","steam_id":76561198242714582,"connected_time":4419000000000,"state":"active","ping":50},{"user_id":232,"name":"The Supreme Gentleman","steam_id":76561198037123203,"connected_time":1633000000000,"state":"active","ping":39},{"user_id":229,"name":"KennytheHedgehog","steam_id":76561198094607721,"connected_time":1726000000000,"state":"active","ping":56},{"user_id":246,"name":"Burny Sanders","steam_id":76561197961879048,"connected_time":545000000000,"state":"active","ping":45},{"user_id":223,"name":"SpeedEagle","steam_id":76561198092623489,"connected_time":1966000000000,"state":"active","ping":93},{"user_id":235,"name":"Kudzu","steam_id":76561198056328408,"connected_time":1426000000000,"state":"active","ping":60},{"user_id":159,"name":"Zesty Zucchini Ziti","steam_id":76561198092494136,"connected_time":6788000000000,"state":"active","ping":45},{"user_id":255,"name":"_Miniature_","steam_id":76561199075378102,"connected_time":17000000000,"state":"spawning","ping":63},{"user_id":160,"name":"REALLINUSJEWTIP.","steam_id":76561198056647983,"connected_time":6770000000000,"state":"active","ping":89},{"user_id":248,"name":"self sufficient kitten","steam_id":76561197960592612,"connected_time":527000000000,"state":"active","ping":92},{"user_id":250,"name":"‚ù§ Ashley ‚ù§","steam_id":76561198056428303,"connected_time":510000000000,"state":"active","ping":76},{"user_id":227,"name":"some furry","steam_id":76561198038247674,"connected_time":1836000000000,"state":"active","ping":43},{"user_id":228,"name":"GLG.Liz","steam_id":76561198021957956,"connected_time":1747000000000,"state":"active","ping":50},{"user_id":210,"name":"SilverLife25","steam_id":76561198392015722,"connected_time":2768000000000,"state":"active","ping":56},{"user_id":254,"name":"Red Physical","steam_id":76561198151864382,"connected_time":194000000000,"state":"active","ping":80},{"user_id":230,"name":"Cahootles","steam_id":76561198056407485,"connected_time":1711000000000,"state":"active","ping":55},{"user_id":231,"name":"The Professor","steam_id":76561198113760863,"connected_time":1698000000000,"state":"active","ping":89},{"user_id":161,"name":"Paisano (oppeneimer style)","steam_id":76561198065575472,"connected_time":6759000000000,"state":"active","ping":82},{"user_id":252,"name":"Doppelg√§nger","steam_id":76561198036730436,"connected_time":434000000000,"state":"active","ping":85},{"user_id":256,"name":"Zaid","steam_id":76561199142840666,"connected_time":10000000000,"state":"spawning","ping":140},{"user_id":214,"name":"njokuani","steam_id":76561199061380038,"connected_time":2256000000000,"state":"active","ping":72},{"user_id":242,"name":"ronny","steam_id":76561197994180230,"connected_time":742000000000,"state":"active","ping":60}]},{"server_id":405,"name":"Uncletopia | Dallas | 4 | Community","name_short":"dal-4","host":"dal-1.us.uncletopia.com","port":27045,"enabled":true,"region":"us-central","cc":"us","latitude":32.779167,"longitude":-96.80889,"reserved":0,"last_update":"0001-01-01T00:00:00Z","name_a2s":"Uncletopia | Dallas | 4 | Community","protocol":17,"map":"workshop/cp_fulgur_rc2a.ugc2068252300","folder":"tf","game":"Team Fortress","app_id":440,"player_count":0,"max_players":24,"Bots":0,"server_type":"Dedicated","server_os":"Linux","password":true,"vac":true,"version":"7961495","steam_id":85568392924515220,"keywords":["cp","nocrits","nodmgspread","uncletopia"],"game_id":440,"stv_port":27046,"stv_name":"Uncletopia | Dallas | 4 | Community | STV","players":null},{"server_id":5,"name":"Uncletopia | Frankfurt | 1 | All Maps","name_short":"frk-1","host":"frk-1.de.uncletopia.com","port":27015,"enabled":true,"region":"eu","cc":"de","latitude":50.110924,"longitude":8.682127,"reserved":0,"last_update":"0001-01-01T00:00:00Z","name_a2s":"Uncletopia | Frankfurt | 1 | All Maps","protocol":17,"map":"cp_mountainlab","folder":"tf","game":"Team Fortress","app_id":440,"player_count":0,"max_players":24,"Bots":0,"server_type":"Dedicated","server_os":"Linux","password":true,"vac":true,"version":"7961495","steam_id":85568392924469989,"keywords":["cp","nocrits","nodmgspread","uncletopia"],"game_id":440,"stv_port":27016,"stv_name":"Uncletopia | Frankfurt | 1 | All Maps | STV","players":null},{"server_id":110,"name":"Uncletopia | Frankfurt | 2 | All Maps","name_short":"frk-2","host":"frk-1.de.uncletopia.com","port":27025,"enabled":true,"region":"eu","cc":"de","latitude":50.110924,"longitude":8.682127,"reserved":0,"last_update":"0001-01-01T00:00:00Z","name_a2s":"Uncletopia | Frankfurt | 2 | All Maps","protocol":17,"map":"cp_sunshine","folder":"tf","game":"Team Fortress","app_id":440,"player_count":0,"max_players":24,"Bots":0,"server_type":"Dedicated","server_os":"Linux","password":true,"vac":true,"version":"7961495","steam_id":85568392924469990,"keywords":["cp","nocrits","nodmgspread","uncletopia"],"game_id":440,"stv_port":27026,"stv_name":"Uncletopia | Frankfurt | 2 | All Maps | STV","players":null},{"server_id":308,"name":"Uncletopia | Frankfurt | 3 | All Maps","name_short":"frk-3","host":"frk-1.de.uncletopia.com","port":27035,"enabled":true,"region":"eu","cc":"de","latitude":50.110924,"longitude":8.682127,"reserved":0,"last_update":"0001-01-01T00:00:00Z","name_a2s":"Uncletopia | Frankfurt | 3 | All Maps","protocol":17,"map":"cp_snakewater_final1","folder":"tf","game":"Team Fortress","app_id":440,"player_count":0,"max_players":24,"Bots":0,"server_type":"Dedicated","server_os":"Linux","password":true,"vac":true,"version":"7961495","steam_id":85568392924504274,"keywords":["cp","nocrits","nodmgspread","uncletopia"],"game_id":440,"stv_port":27036,"stv_name":"Uncletopia | Frankfurt | 3 | All Maps | STV","players":null},{"server_id":309,"name":"Uncletopia | Frankfurt | 4 | All Maps","name_short":"frk-4","host":"frk-1.de.uncletopia.com","port":27045,"enabled":true,"region":"eu","cc":"de","latitude":50.110924,"longitude":8.682127,"reserved":0,"last_update":"0001-01-01T00:00:00Z","name_a2s":"Uncletopia | Frankfurt | 4 | All Maps","protocol":17,"map":"pl_frontier_final","folder":"tf","game":"Team Fortress","app_id":440,"player_count":0,"max_players":24,"Bots":0,"server_type":"Dedicated","server_os":"Linux","password":true,"vac":true,"version":"7961495","steam_id":85568392924504275,"keywords":["nocrits","nodmgspread","payload","uncletopia"],"game_id":440,"stv_port":27046,"stv_name":"Uncletopia | Frankfurt | 4 | All Maps | STV","players":null},{"server_id":310,"name":"Uncletopia | Frankfurt | 5 | All Maps","name_short":"frk-5","host":"frk-1.de.uncletopia.com","port":27055,"enabled":true,"region":"eu","cc":"de","latitude":50.110924,"longitude":8.682127,"reserved":0,"last_update":"0001-01-01T00:00:00Z","name_a2s":"Uncletopia | Frankfurt | 5 | All Maps","protocol":17,"map":"koth_cascade","folder":"tf","game":"Team Fortress","app_id":440,"player_count":0,"max_players":24,"Bots":0,"server_type":"Dedicated","server_os":"Linux","password":true,"vac":true,"version":"7961495","steam_id":85568392924504277,"keywords":["cp","nocrits","nodmgspread","uncletopia"],"game_id":440,"stv_port":27056,"stv_name":"Uncletopia | Frankfurt | 5 | All Maps | STV","players":null},{"server_id":311,"name":"Uncletopia | Frankfurt | 6 | All Maps","name_short":"frk-6","host":"frk-1.de.uncletopia.com","port":27065,"enabled":true,"region":"eu","cc":"de","latitude":50.110924,"longitude":8.682127,"reserved":0,"last_update":"0001-01-01T00:00:00Z","name_a2s":"Uncletopia | Frankfurt | 6 | All Maps","protocol":17,"map":"cp_sunshine","folder":"tf","game":"Team Fortress","app_id":440,"player_count":0,"max_players":24,"Bots":0,"server_type":"Dedicated","server_os":"Linux","password":true,"vac":true,"version":"7961495","steam_id":85568392924504278,"keywords":["cp","nocrits","nodmgspread","uncletopia"],"game_id":440,"stv_port":27066,"stv_name":"Uncletopia | Frankfurt | 6 | All Maps | STV","players":null},{"server_id":23,"name":"Uncletopia | Frankfurt | 7 | Stopwatch","name_short":"frk-7","host":"frk-1.de.uncletopia.com","port":27075,"enabled":true,"region":"eu","cc":"de","latitude":50.110924,"longitude":8.682127,"reserved":0,"last_update":"0001-01-01T00:00:00Z","name_a2s":"Uncletopia | Frankfurt | 7 | Stopwatch","protocol":17,"map":"workshop/koth_product_final.ugc454272353","folder":"tf","game":"Team Fortress","app_id":440,"player_count":0,"max_players":24,"Bots":0,"server_type":"Dedicated","server_os":"Linux","password":true,"vac":true,"version":"7961495","steam_id":85568392924742827,"keywords":["cp","nocrits","nodmgspread","uncletopia"],"game_id":440,"stv_port":27076,"stv_name":"Uncletopia | Frankfurt | 7 | Stopwatch | STV","players":null},{"server_id":24,"name":"Uncletopia | Frankfurt | 8 | Community","name_short":"frk-8","host":"frk-1.de.uncletopia.com","port":27085,"enabled":true,"region":"eu","cc":"de","latitude":50.110924,"longitude":8.682127,"reserved":0,"last_update":"0001-01-01T00:00:00Z","name_a2s":"Uncletopia | Frankfurt | 8 | Community","protocol":17,"map":"workshop/pl_corrode_rc2.ugc546577989","folder":"tf","game":"Team Fortress","app_id":440,"player_count":0,"max_players":24,"Bots":0,"server_type":"Dedicated","server_os":"Linux","password":true,"vac":true,"version":"7961495","steam_id":85568392924742828,"keywords":["nocrits","nodmgspread","payload","uncletopia"],"game_id":440,"stv_port":27086,"stv_name":"Uncletopia | Frankfurt | 8 | Community | STV","players":null},{"server_id":202,"name":"Uncletopia | Hong Kong | 1 | All Maps","name_short":"hgk-1","host":"hgk-1.hk.uncletopia.com","port":27015,"enabled":true,"region":"asia","cc":"hk","latitude":22.302711,"longitude":114.177216,"reserved":0,"last_update":"0001-01-01T00:00:00Z","name_a2s":"Uncletopia | Hong Kong | 1 | All Maps","protocol":17,"map":"pl_frontier_final","folder":"tf","game":"Team Fortress","app_id":440,"player_count":0,"max_players":24,"Bots":0,"server_type":"Dedicated","server_os":"Linux","password":true,"vac":true,"version":"7961495","steam_id":85568392924494504,"keywords":["nocrits","nodmgspread","payload","uncletopia"],"game_id":440,"stv_port":27016,"stv_name":"Uncletopia | Hong Kong | 1 | All Maps | STV","players":null},{"server_id":1,"name":"Uncletopia | Los Angeles | 1 | All Maps","name_short":"lax-1","host":"lax-1.us.uncletopia.com","port":27015,"enabled":true,"region":"us-west","cc":"us","latitude":33.94279,"longitude":-118.41004,"reserved":0,"last_update":"0001-01-01T00:00:00Z","name_a2s":"Uncletopia | Los Angeles | 1 | All Maps","protocol":17,"map":"pl_goldrush","folder":"tf","game":"Team Fortress","app_id":440,"player_count":24,"max_players":24,"Bots":0,"server_type":"Dedicated","server_os":"Linux","password":true,"vac":true,"version":"7961495","steam_id":85568392924469991,"keywords":["nocrits","nodmgspread","payload","uncletopia"],"game_id":440,"stv_port":27016,"stv_name":"Uncletopia | Los Angeles | 1 | All Maps | STV","players":[{"user_id":201,"name":"Tmiracle","steam_id":76561198052375275,"connected_time":3933000000000,"state":"active","ping":45},{"user_id":241,"name":"Culprit Shy","steam_id":76561198206506481,"connected_time":1745000000000,"state":"active","ping":45},{"user_id":230,"name":"Shoot Me First","steam_id":76561199216188679,"connected_time":2427000000000,"state":"active","ping":106},{"user_id":243,"name":"Super Saiyan Bear","steam_id":76561198063118280,"connected_time":1689000000000,"state":"active","ping":66},{"user_id":219,"name":"lazy catboy","steam_id":76561198359994674,"connected_time":3046000000000,"state":"active","ping":114},{"user_id":255,"name":"Rufflemyster‚Ñ¢","steam_id":76561198039282501,"connected_time":185000000000,"state":"active","ping":139},{"user_id":185,"name":"spherewithahat","steam_id":76561199122192660,"connected_time":4593000000000,"state":"active","ping":120},{"user_id":210,"name":"Pepüíî","steam_id":76561197995411109,"connected_time":3383000000000,"state":"active","ping":129},{"user_id":204,"name":"Legokek.Ducc","steam_id":76561198077176221,"connected_time":3533000000000,"state":"active","ping":47},{"user_id":174,"name":"Alchemist","steam_id":76561198094238189,"connected_time":5712000000000,"state":"active","ping":51},{"user_id":244,"name":"grillbyssisoloeso","steam_id":76561199105132740,"connected_time":1636000000000,"state":"active","ping":68},{"user_id":256,"name":"MadVillain","steam_id":76561199251331156,"connected_time":184000000000,"state":"active","ping":65},{"user_id":208,"name":"Laggy Engineer","steam_id":76561198078317925,"connected_time":3425000000000,"state":"active","ping":76},{"user_id":257,"name":"Yepsy","steam_id":76561198847877148,"connected_time":114000000000,"state":"active","ping":114},{"user_id":223,"name":"HeroOfTime","steam_id":76561199096218001,"connected_time":2808000000000,"state":"active","ping":56},{"user_id":258,"name":"Divorced Father","steam_id":76561199071151136,"connected_time":98000000000,"state":"active","ping":48},{"user_id":218,"name":"Mocha Josie","steam_id":76561198066452726,"connected_time":3075000000000,"state":"active","ping":71},{"user_id":253,"name":"flo rida","steam_id":76561198226169704,"connected_time":892000000000,"state":"active","ping":54},{"user_id":249,"name":"Wolfs1254","steam_id":76561199047461576,"connected_time":1266000000000,"state":"active","ping":48},{"user_id":259,"name":"sola venereum","steam_id":76561198368179166,"connected_time":96000000000,"state":"active","ping":73},{"user_id":252,"name":"OHGODBEES!","steam_id":76561198000653374,"connected_time":1145000000000,"state":"active","ping":69},{"user_id":254,"name":"arekku","steam_id":76561198053964742,"connected_time":850000000000,"state":"active","ping":71},{"user_id":246,"name":"Whisper!","steam_id":76561198119609795,"connected_time":1563000000000,"state":"active","ping":53},{"user_id":250,"name":"DBosch","steam_id":76561198064290290,"connected_time":1266000000000,"state":"active","ping":120}]},{"server_id":112,"name":"Uncletopia | Los Angeles | 2 | All Maps","name_short":"lax-2","host":"lax-1.us.uncletopia.com","port":27025,"enabled":true,"region":"us-west","cc":"us","latitude":33.94279,"longitude":-118.41004,"reserved":0,"last_update":"0001-01-01T00:00:00Z","name_a2s":"Uncletopia | Los Angeles | 2 | All Maps","protocol":17,"map":"pl_badwater","folder":"tf","game":"Team Fortress","app_id":440,"player_count":24,"max_players":24,"Bots":0,"server_type":"Dedicated","server_os":"Linux","password":true,"vac":true,"version":"7961495","steam_id":85568392924469992,"keywords":["nocrits","nodmgspread","payload","uncletopia"],"game_id":440,"stv_port":27026,"stv_name":"Uncletopia | Los Angeles | 2 | All Maps | STV","players":[{"user_id":286,"name":"small meth pouch","steam_id":76561198130412963,"connected_time":1447000000000,"state":"active","ping":79},{"user_id":298,"name":"Joe","steam_id":76561198290315229,"connected_time":262000000000,"state":"active","ping":60},{"user_id":299,"name":"camilb50","steam_id":76561198027878466,"connected_time":210000000000,"state":"active","ping":96},{"user_id":257,"name":"the man","steam_id":76561198389268114,"connected_time":3133000000000,"state":"active","ping":88},{"user_id":276,"name":"Schmupp","steam_id":76561198150928115,"connected_time":2402000000000,"state":"active","ping":47},{"user_id":287,"name":"The_Skull","steam_id":76561198121244647,"connected_time":1386000000000,"state":"active","ping":104},{"user_id":262,"name":"ImSoTrash","steam_id":76561199208833677,"connected_time":3053000000000,"state":"active","ping":87},{"user_id":258,"name":"cockfighter","steam_id":76561198044268609,"connected_time":3113000000000,"state":"active","ping":113},{"user_id":268,"name":"BarnsbyT0T","steam_id":76561197993028579,"connected_time":2715000000000,"state":"active","ping":114},{"user_id":269,"name":"sublimepyrokid","steam_id":76561198070005211,"connected_time":2709000000000,"state":"active","ping":123},{"user_id":297,"name":"Michael Pilkington","steam_id":76561198307839694,"connected_time":405000000000,"state":"active","ping":69},{"user_id":300,"name":"EliteSpartan","steam_id":76561198174023582,"connected_time":186000000000,"state":"active","ping":117},{"user_id":296,"name":"Igrium","steam_id":76561198119549811,"connected_time":678000000000,"state":"active","ping":64},{"user_id":271,"name":"the pistoler","steam_id":76561198190771759,"connected_time":2666000000000,"state":"active","ping":76},{"user_id":285,"name":"Immortal8Reaper","steam_id":76561198297661559,"connected_time":2116000000000,"state":"active","ping":124},{"user_id":288,"name":"Skribbles","steam_id":76561198373073766,"connected_time":1375000000000,"state":"active","ping":55},{"user_id":301,"name":"TransPuppygirlWithExtraSad","steam_id":76561198085813708,"connected_time":173000000000,"state":"active","ping":102},{"user_id":275,"name":"Swag5","steam_id":76561198065311356,"connected_time":2548000000000,"state":"active","ping":58},{"user_id":290,"name":"Guapote","steam_id":76561199187895660,"connected_time":1273000000000,"state":"active","ping":46},{"user_id":294,"name":"[SEI]amike191","steam_id":76561198098094454,"connected_time":1034000000000,"state":"active","ping":108},{"user_id":280,"name":"Tomoko2001","steam_id":76561198047117990,"connected_time":2365000000000,"state":"active","ping":103},{"user_id":281,"name":"nobody","steam_id":76561198294634769,"connected_time":2353000000000,"state":"active","ping":66},{"user_id":292,"name":"EatSomeBEES","steam_id":76561198047334307,"connected_time":1143000000000,"state":"active","ping":95},{"user_id":293,"name":"mentos14","steam_id":76561198097993629,"connected_time":1126000000000,"state":"active","ping":59}]},{"server_id":324,"name":"Uncletopia | Los Angeles | 3 | All Maps","name_short":"lax-3","host":"lax-1.us.uncletopia.com","port":27035,"enabled":true,"region":"us-west","cc":"us","latitude":33.94279,"longitude":-118.41004,"reserved":0,"last_update":"0001-01-01T00:00:00Z","name_a2s":"Uncletopia | Los Angeles | 3 | All Maps","protocol":17,"map":"pl_badwater","folder":"tf","game":"Team Fortress","app_id":440,"player_count":0,"max_players":24,"Bots":0,"server_type":"Dedicated","server_os":"Linux","password":true,"vac":true,"version":"7961495","steam_id":85568392924510198,"keywords":["nocrits","nodmgspread","payload","uncletopia"],"game_id":440,"stv_port":27036,"stv_name":"Uncletopia | Los Angeles | 3 | All Maps | STV","players":null},{"server_id":25,"name":"Uncletopia | Los Angeles | 4 | Stopwatch","name_short":"lax-4","host":"lax-1.us.uncletopia.com","port":27045,"enabled":true,"region":"us-west","cc":"us","latitude":33.94279,"longitude":-118.41004,"reserved":0,"last_update":"0001-01-01T00:00:00Z","name_a2s":"Uncletopia | Los Angeles | 4 | Stopwatch","protocol":17,"map":"workshop/cp_process_f12.ugc2302948105","folder":"tf","game":"Team Fortress","app_id":440,"player_count":22,"max_players":24,"Bots":0,"server_type":"Dedicated","server_os":"Linux","password":true,"vac":true,"version":"7961495","steam_id":85568392924510199,"keywords":["cp","nocrits","nodmgspread","uncletopia"],"game_id":440,"stv_port":27046,"stv_name":"Uncletopia | Los Angeles | 4 | Stopwatch | STV","players":[{"user_id":128,"name":"cheetaz","steam_id":76561198224614084,"connected_time":1032000000000,"state":"active","ping":105},{"user_id":96,"name":"checkswing","steam_id":76561198999816132,"connected_time":4433000000000,"state":"active","ping":131},{"user_id":124,"name":"Evelyn!","steam_id":76561198881145760,"connected_time":1818000000000,"state":"active","ping":51},{"user_id":98,"name":"All Tomorrow's Parties","steam_id":76561197995936212,"connected_time":3906000000000,"state":"active","ping":89},{"user_id":137,"name":"soltuno","steam_id":76561198074430565,"connected_time":570000000000,"state":"active","ping":70},{"user_id":133,"name":"Average Anarchist","steam_id":76561199175442910,"connected_time":794000000000,"state":"active","ping":121},{"user_id":138,"name":"FedelmiD","steam_id":76561198146765469,"connected_time":437000000000,"state":"active","ping":60},{"user_id":139,"name":"firebang","steam_id":76561198258951595,"connected_time":389000000000,"state":"active","ping":76},{"user_id":134,"name":"Whiteboy Beatdown","steam_id":76561198084823665,"connected_time":706000000000,"state":"active","ping":45},{"user_id":117,"name":"Useless","steam_id":76561198116079299,"connected_time":2196000000000,"state":"active","ping":87},{"user_id":130,"name":"Blitzy","steam_id":76561198149472890,"connected_time":936000000000,"state":"active","ping":104},{"user_id":131,"name":"Yoyo-Wo","steam_id":76561198880520205,"connected_time":906000000000,"state":"active","ping":93},{"user_id":141,"name":"lil_sandmire","steam_id":76561198992807771,"connected_time":327000000000,"state":"active","ping":145},{"user_id":132,"name":"cielael","steam_id":76561198043971956,"connected_time":894000000000,"state":"active","ping":47},{"user_id":106,"name":"don't get mad","steam_id":76561198064662875,"connected_time":3108000000000,"state":"active","ping":60},{"user_id":136,"name":"SwaggyDingo","steam_id":76561198066500928,"connected_time":685000000000,"state":"active","ping":72},{"user_id":86,"name":"Dongus","steam_id":76561197979056451,"connected_time":4960000000000,"state":"active","ping":75},{"user_id":83,"name":"neet","steam_id":76561197968115168,"connected_time":5094000000000,"state":"active","ping":94},{"user_id":76,"name":"Poop Deck Joe","steam_id":76561198271397568,"connected_time":5365000000000,"state":"active","ping":94},{"user_id":91,"name":"St. Michael","steam_id":76561198037611052,"connected_time":4790000000000,"state":"active","ping":75},{"user_id":142,"name":"Cpt. Nuke","steam_id":76561197983587432,"connected_time":315000000000,"state":"active","ping":119},{"user_id":71,"name":"(TTV) The_Astrum_Guardian","steam_id":76561198130134103,"connected_time":5554000000000,"state":"active","ping":83}]},{"server_id":11,"name":"Uncletopia | London | 1 | All Maps","name_short":"lon-1","host":"lon-1.uk.uncletopia.com","port":27015,"enabled":true,"region":"eu","cc":"gb","latitude":51.509865,"longitude":-0.118092,"reserved":0,"last_update":"0001-01-01T00:00:00Z","name_a2s":"Uncletopia | London | 1 | All Maps","protocol":17,"map":"cp_snakewater_final1","folder":"tf","game":"Team Fortress","app_id":440,"player_count":0,"max_players":24,"Bots":0,"server_type":"Dedicated","server_os":"Linux","password":true,"vac":true,"version":"7961495","steam_id":85568392924367362,"keywords":["cp","nocrits","nodmgspread","uncletopia"],"game_id":440,"stv_port":27016,"stv_name":"Uncletopia | London | 1 | All Maps | STV","players":null},{"server_id":114,"name":"Uncletopia | London | 2 | All Maps","name_short":"lon-2","host":"lon-1.uk.uncletopia.com","port":27025,"enabled":true,"region":"eu","cc":"gb","latitude":51.509865,"longitude":-0.118092,"reserved":0,"last_update":"0001-01-01T00:00:00Z","name_a2s":"Uncletopia | London | 2 | All Maps","protocol":17,"map":"pl_upward","folder":"tf","game":"Team Fortress","app_id":440,"player_count":0,"max_players":24,"Bots":0,"server_type":"Dedicated","server_os":"Linux","password":true,"vac":true,"version":"7961495","steam_id":85568392924470941,"keywords":["nocrits","nodmgspread","payload","uncletopia"],"game_id":440,"stv_port":27026,"stv_name":"Uncletopia | London | 2 | All Maps | STV","players":null},{"server_id":320,"name":"Uncletopia | London | 3 | All Maps","name_short":"lon-3","host":"lon-1.uk.uncletopia.com","port":27035,"enabled":true,"region":"eu","cc":"gb","latitude":51.509865,"longitude":-0.118092,"reserved":0,"last_update":"0001-01-01T00:00:00Z","name_a2s":"Uncletopia | London | 3 | All Maps","protocol":17,"map":"koth_viaduct","folder":"tf","game":"Team Fortress","app_id":440,"player_count":0,"max_players":24,"Bots":0,"server_type":"Dedicated","server_os":"Linux","password":true,"vac":true,"version":"7961495","steam_id":85568392924510192,"keywords":["cp","nocrits","nodmgspread","uncletopia"],"game_id":440,"stv_port":27036,"stv_name":"Uncletopia | London | 3 | All Maps | STV","players":null},{"server_id":321,"name":"Uncletopia | London | 4 | All Maps","name_short":"lon-4","host":"lon-1.uk.uncletopia.com","port":27045,"enabled":true,"region":"eu","cc":"gb","latitude":51.509865,"longitude":-0.118092,"reserved":0,"last_update":"0001-01-01T00:00:00Z","name_a2s":"Uncletopia | London | 4 | All Maps","protocol":17,"map":"koth_cascade","folder":"tf","game":"Team Fortress","app_id":440,"player_count":0,"max_players":24,"Bots":0,"server_type":"Dedicated","server_os":"Linux","password":true,"vac":true,"version":"7961495","steam_id":85568392924510193,"keywords":["cp","nocrits","nodmgspread","uncletopia"],"game_id":440,"stv_port":27046,"stv_name":"Uncletopia | London | 4 | All Maps | STV","players":null},{"server_id":21,"name":"Uncletopia | London | 5 | All Maps","name_short":"lon-5","host":"lon-1.uk.uncletopia.com","port":27055,"enabled":true,"region":"eu","cc":"gb","latitude":51.509865,"longitude":-0.118092,"reserved":0,"last_update":"0001-01-01T00:00:00Z","name_a2s":"Uncletopia | London | 5 | All Maps","protocol":17,"map":"cp_process_final","folder":"tf","game":"Team Fortress","app_id":440,"player_count":20,"max_players":24,"Bots":0,"server_type":"Dedicated","server_os":"Linux","password":true,"vac":true,"version":"7961495","steam_id":85568392924742829,"keywords":["cp","nocrits","nodmgspread","uncletopia"],"game_id":440,"stv_port":27056,"stv_name":"Uncletopia | London | 5 | All Maps | STV","players":[{"user_id":1151,"name":"BoBunny McGlitter","steam_id":76561198057403817,"connected_time":762000000000,"state":"active","ping":61},{"user_id":1158,"name":"Lupine Primogen","steam_id":76561198028921204,"connected_time":293000000000,"state":"active","ping":92},{"user_id":1160,"name":"Qdarks","steam_id":76561198013391340,"connected_time":250000000000,"state":"active","ping":131},{"user_id":1145,"name":"SuntanPikachu","steam_id":76561198121242476,"connected_time":1137000000000,"state":"active","ping":52},{"user_id":1129,"name":"Cola","steam_id":76561198273183085,"connected_time":2260000000000,"state":"active","ping":48},{"user_id":1152,"name":"Sabrina","steam_id":76561199415893289,"connected_time":739000000000,"state":"active","ping":59},{"user_id":1144,"name":"Hooty","steam_id":76561198365932023,"connected_time":1179000000000,"state":"active","ping":48},{"user_id":1159,"name":"xulera","steam_id":76561198080736030,"connected_time":272000000000,"state":"active","ping":62},{"user_id":1161,"name":"noseb","steam_id":76561199480942903,"connected_time":147000000000,"state":"active","ping":70},{"user_id":1162,"name":"FoxyTheFish","steam_id":76561199074190919,"connected_time":137000000000,"state":"active","ping":64},{"user_id":1146,"name":"Visphiric","steam_id":76561198071938027,"connected_time":1135000000000,"state":"active","ping":32},{"user_id":1136,"name":"Opigufyt","steam_id":76561198016838575,"connected_time":1817000000000,"state":"active","ping":43},{"user_id":1156,"name":"Meadow","steam_id":76561197992815754,"connected_time":469000000000,"state":"active","ping":66},{"user_id":1113,"name":"AnnieM","steam_id":76561199435467297,"connected_time":3281000000000,"state":"active","ping":147},{"user_id":1163,"name":"Anbu.Karma","steam_id":76561198311923354,"connected_time":72000000000,"state":"active","ping":46},{"user_id":1154,"name":"SCREAM AT ASS","steam_id":76561198042351299,"connected_time":702000000000,"state":"active","ping":44},{"user_id":1164,"name":"some girl","steam_id":76561198890391967,"connected_time":63000000000,"state":"active","ping":87},{"user_id":1112,"name":"shming dingle","steam_id":76561198132682800,"connected_time":3346000000000,"state":"active","ping":65},{"user_id":1109,"name":"toomas2018 (real)(official)","steam_id":76561199105796083,"connected_time":3903000000000,"state":"active","ping":80},{"user_id":1149,"name":"Û†Ä°Û†Ä°","steam_id":76561198399390201,"connected_time":790000000000,"state":"active","ping":100}]},{"server_id":22,"name":"Uncletopia | London | 6 | All Maps","name_short":"lon-6","host":"lon-1.uk.uncletopia.com","port":27065,"enabled":true,"region":"eu","cc":"gb","latitude":51.509865,"longitude":-0.118092,"reserved":0,"last_update":"0001-01-01T00:00:00Z","name_a2s":"Uncletopia | London | 6 | All Maps","protocol":17,"map":"cp_powerhouse","folder":"tf","game":"Team Fortress","app_id":440,"player_count":0,"max_players":24,"Bots":0,"server_type":"Dedicated","server_os":"Linux","password":true,"vac":true,"version":"7961495","steam_id":85568392924742830,"keywords":["cp","nocrits","nodmgspread","uncletopia"],"game_id":440,"stv_port":27066,"stv_name":"Uncletopia | London | 6 | All Maps | STV","players":null},{"server_id":40,"name":"Uncletopia | London | 7 | Stopwatch","name_short":"lon-7","host":"lon-1.uk.uncletopia.com","port":27075,"enabled":true,"region":"eu","cc":"gb","latitude":51.509865,"longitude":-0.118092,"reserved":0,"last_update":"0001-01-01T00:00:00Z","name_a2s":"Uncletopia | London | 7 | Stopwatch","protocol":17,"map":"workshop/koth_clearcut_b15.ugc2107050255","folder":"tf","game":"Team Fortress","app_id":440,"player_count":0,"max_players":24,"Bots":0,"server_type":"Dedicated","server_os":"Linux","password":true,"vac":true,"version":"7961495","steam_id":85568392924964314,"keywords":["cp","nocrits","nodmgspread","uncletopia"],"game_id":440,"stv_port":27076,"stv_name":"Uncletopia | London | 7 | Stopwatch | STV","players":null},{"server_id":41,"name":"Uncletopia | London | 8 | Community","name_short":"lon-8","host":"lon-1.uk.uncletopia.com","port":27085,"enabled":true,"region":"eu","cc":"gb","latitude":51.509865,"longitude":-0.118092,"reserved":0,"last_update":"0001-01-01T00:00:00Z","name_a2s":"Uncletopia | London | 8 | Community","protocol":17,"map":"workshop/koth_slaughter_rc1.ugc1712845210","folder":"tf","game":"Team Fortress","app_id":440,"player_count":0,"max_players":24,"Bots":0,"server_type":"Dedicated","server_os":"Linux","password":true,"vac":true,"version":"7961495","steam_id":85568392924964315,"keywords":["cp","nocrits","nodmgspread","uncletopia"],"game_id":440,"stv_port":27086,"stv_name":"Uncletopia | London | 8 | Community | STV","players":null},{"server_id":300,"name":"Uncletopia | Montr√©al | 1 | One Thousand Uncles","name_short":"mtl-1","host":"mtl-1.ca.uncletopia.com","port":27015,"enabled":true,"region":"us-east","cc":"ca","latitude":45.50889,"longitude":-73.56167,"reserved":0,"last_update":"0001-01-01T00:00:00Z","name_a2s":"","protocol":0,"map":"","folder":"","game":"","app_id":0,"player_count":0,"max_players":0,"Bots":0,"server_type":"","server_os":"","password":false,"vac":false,"version":"","steam_id":0,"keywords":null,"game_id":0,"stv_port":0,"stv_name":"","players":null},{"server_id":301,"name":"Uncletopia | Montr√©al | 2 | One Thousand Uncles","name_short":"mtl-2","host":"mtl-1.ca.uncletopia.com","port":27025,"enabled":true,"region":"us-east","cc":"ca","latitude":45.50889,"longitude":-73.56167,"reserved":0,"last_update":"0001-01-01T00:00:00Z","name_a2s":"","protocol":0,"map":"","folder":"","game":"","app_id":0,"player_count":0,"max_players":0,"Bots":0,"server_type":"","server_os":"","password":false,"vac":false,"version":"","steam_id":0,"keywords":null,"game_id":0,"stv_port":0,"stv_name":"","players":null},{"server_id":302,"name":"Uncletopia | Montr√©al | 3 | One Thousand Uncles","name_short":"mtl-3","host":"mtl-1.ca.uncletopia.com","port":27035,"enabled":true,"region":"us-east","cc":"ca","latitude":45.50889,"longitude":-73.56167,"reserved":0,"last_update":"0001-01-01T00:00:00Z","name_a2s":"","protocol":0,"map":"","folder":"","game":"","app_id":0,"player_count":7,"max_players":0,"Bots":0,"server_type":"","server_os":"","password":false,"vac":false,"version":"","steam_id":0,"keywords":null,"game_id":0,"stv_port":0,"stv_name":"","players":[{"user_id":395,"name":"A Terrible Shot","steam_id":76561198045523833,"connected_time":1440000000000,"state":"active","ping":70},{"user_id":396,"name":"RacoonGamer","steam_id":76561198100907657,"connected_time":1292000000000,"state":"active","ping":39},{"user_id":400,"name":"pipebombrater","steam_id":76561199029030831,"connected_time":359000000000,"state":"active","ping":99},{"user_id":391,"name":"Just John","steam_id":76561198352532384,"connected_time":2639000000000,"state":"active","ping":90},{"user_id":403,"name":"Te Legend of Zegend:Sword Skord","steam_id":76561199431280503,"connected_time":48000000000,"state":"active","ping":61},{"user_id":402,"name":"outin","steam_id":76561198137734730,"connected_time":322000000000,"state":"active","ping":148},{"user_id":339,"name":"Giant Two-Flusher","steam_id":76561199266846329,"connected_time":7400000000000,"state":"active","ping":60}]},{"server_id":13,"name":"Uncletopia | New York City | 1 | All Maps","name_short":"nyc-1","host":"nyc-1.us.uncletopia.com","port":27015,"enabled":true,"region":"us-east","cc":"us","latitude":40.73061,"longitude":-73.93524,"reserved":0,"last_update":"0001-01-01T00:00:00Z","name_a2s":"Uncletopia | New York City | 1 | All Maps","protocol":17,"map":"pl_borneo","folder":"tf","game":"Team Fortress","app_id":440,"player_count":24,"max_players":24,"Bots":0,"server_type":"Dedicated","server_os":"Linux","password":true,"vac":true,"version":"7961495","steam_id":85568392924469993,"keywords":["nocrits","nodmgspread","payload","uncletopia"],"game_id":440,"stv_port":27016,"stv_name":"Uncletopia | New York City | 1 | All Maps | STV","players":[{"user_id":477,"name":"chesterwnimitz","steam_id":76561198062664377,"connected_time":1591000000000,"state":"active","ping":106},{"user_id":472,"name":"Yuzu","steam_id":76561198417913035,"connected_time":1811000000000,"state":"active","ping":74},{"user_id":504,"name":"WaveSmash","steam_id":76561198208785485,"connected_time":53000000000,"state":"active","ping":92},{"user_id":478,"name":"Quincy99","steam_id":76561198381841894,"connected_time":1573000000000,"state":"active","ping":75},{"user_id":488,"name":"AudioEmu","steam_id":76561197986419524,"connected_time":412000000000,"state":"active","ping":46},{"user_id":489,"name":"Lobbey","steam_id":76561198019640568,"connected_time":398000000000,"state":"active","ping":86},{"user_id":503,"name":"Agent_Sunburn","steam_id":76561198032961210,"connected_time":134000000000,"state":"active","ping":67},{"user_id":453,"name":"Dakota","steam_id":76561198134092308,"connected_time":3160000000000,"state":"active","ping":97},{"user_id":501,"name":"Grazzunk","steam_id":76561198290227691,"connected_time":190000000000,"state":"active","ping":45},{"user_id":474,"name":"Marineland","steam_id":76561198081285187,"connected_time":1727000000000,"state":"active","ping":82},{"user_id":483,"name":"Harven Cosset","steam_id":76561198399526024,"connected_time":482000000000,"state":"active","ping":70},{"user_id":490,"name":"the krut","steam_id":76561198084300505,"connected_time":372000000000,"state":"active","ping":57},{"user_id":505,"name":"ZestfulCorgi","steam_id":76561198121279963,"connected_time":1000000000,"state":"spawning","ping":41},{"user_id":491,"name":"Queen of Latex","steam_id":76561198037779673,"connected_time":372000000000,"state":"active","ping":81},{"user_id":493,"name":"Aktlal Maka","steam_id":76561198095253858,"connected_time":317000000000,"state":"active","ping":73},{"user_id":482,"name":"RichSix","steam_id":76561198010325218,"connected_time":1216000000000,"state":"active","ping":40},{"user_id":457,"name":"DaMultiversalist","steam_id":76561198239552412,"connected_time":3100000000000,"state":"active","ping":83},{"user_id":502,"name":"tommy","steam_id":76561198111753974,"connected_time":185000000000,"state":"active","ping":38},{"user_id":495,"name":"yobo","steam_id":76561198111403028,"connected_time":288000000000,"state":"active","ping":63},{"user_id":480,"name":"Franky Leirbag","steam_id":76561198179821973,"connected_time":1405000000000,"state":"active","ping":76},{"user_id":499,"name":"Starkiller","steam_id":76561198101643120,"connected_time":243000000000,"state":"active","ping":120},{"user_id":498,"name":"Susej13","steam_id":76561198294191158,"connected_time":246000000000,"state":"active","ping":69},{"user_id":500,"name":"ElPeach","steam_id":76561198845008687,"connected_time":239000000000,"state":"active","ping":66},{"user_id":444,"name":"cyberas","steam_id":76561198257092290,"connected_time":3660000000000,"state":"active","ping":129}]},{"server_id":14,"name":"Uncletopia | New York City | 2 | All Maps","name_short":"nyc-2","host":"nyc-1.us.uncletopia.com","port":27025,"enabled":true,"region":"us-east","cc":"us","latitude":40.73061,"longitude":-73.93524,"reserved":0,"last_update":"0001-01-01T00:00:00Z","name_a2s":"Uncletopia | New York City | 2 | All Maps","protocol":17,"map":"ctf_2fort","folder":"tf","game":"Team Fortress","app_id":440,"player_count":24,"max_players":24,"Bots":0,"server_type":"Dedicated","server_os":"Linux","password":true,"vac":true,"version":"7961495","steam_id":85568392924469994,"keywords":["ctf","nocrits","nodmgspread","uncletopia"],"game_id":440,"stv_port":27026,"stv_name":"Uncletopia | New York City | 2 | All Maps | STV","players":[{"user_id":235,"name":"Near DT, MI","steam_id":76561198064359644,"connected_time":545000000000,"state":"active","ping":49},{"user_id":139,"name":"Bee_Pirate","steam_id":76561199000599111,"connected_time":8406000000000,"state":"active","ping":56},{"user_id":216,"name":"batheman63","steam_id":76561198881818552,"connected_time":1882000000000,"state":"active","ping":64},{"user_id":205,"name":"Some Sinner","steam_id":76561198063331396,"connected_time":3615000000000,"state":"active","ping":61},{"user_id":241,"name":"Agarthan Superior Methhead","steam_id":76561198440881697,"connected_time":87000000000,"state":"active","ping":76},{"user_id":176,"name":"Bobfleadip","steam_id":76561198043788642,"connected_time":6386000000000,"state":"active","ping":80},{"user_id":210,"name":"Bob Weaver","steam_id":76561197960450046,"connected_time":3296000000000,"state":"active","ping":63},{"user_id":135,"name":"A Puppy","steam_id":76561198828184456,"connected_time":8804000000000,"state":"active","ping":45},{"user_id":150,"name":"Telomerase","steam_id":76561198095792685,"connected_time":7620000000000,"state":"active","ping":65},{"user_id":224,"name":"Bert.","steam_id":76561198140666346,"connected_time":1670000000000,"state":"active","ping":49},{"user_id":236,"name":"peee pee man","steam_id":76561198044979205,"connected_time":525000000000,"state":"active","ping":45},{"user_id":181,"name":"OldGreg97","steam_id":76561198048772813,"connected_time":6287000000000,"state":"active","ping":49},{"user_id":206,"name":"ZariaGalaxy","steam_id":76561198089441300,"connected_time":3550000000000,"state":"active","ping":56},{"user_id":140,"name":"ndvr","steam_id":76561199379200102,"connected_time":7990000000000,"state":"active","ping":55},{"user_id":221,"name":"JJames","steam_id":76561198055687973,"connected_time":1758000000000,"state":"active","ping":71},{"user_id":222,"name":"xLeoparrd","steam_id":76561198940657194,"connected_time":1737000000000,"state":"active","ping":88},{"user_id":232,"name":"Crisp","steam_id":76561198132644084,"connected_time":946000000000,"state":"active","ping":42},{"user_id":242,"name":"Kolum_89","steam_id":76561199184340915,"connected_time":47000000000,"state":"active","ping":123},{"user_id":191,"name":"BlipBloop","steam_id":76561198205320223,"connected_time":5951000000000,"state":"active","ping":75},{"user_id":214,"name":"Havok","steam_id":76561198063455003,"connected_time":2229000000000,"state":"active","ping":53},{"user_id":233,"name":"Elias","steam_id":76561198106431732,"connected_time":935000000000,"state":"active","ping":63},{"user_id":208,"name":"JustSparky","steam_id":76561198043074739,"connected_time":3459000000000,"state":"active","ping":55},{"user_id":237,"name":"Eddoflobbywaittime","steam_id":76561198257072146,"connected_time":493000000000,"state":"active","ping":97},{"user_id":239,"name":"brisky","steam_id":76561198869675719,"connected_time":359000000000,"state":"active","ping":57}]},{"server_id":15,"name":"Uncletopia | New York City | 3 | Stopwatch","name_short":"nyc-3","host":"nyc-1.us.uncletopia.com","port":27035,"enabled":true,"region":"us-east","cc":"us","latitude":40.73061,"longitude":-73.93524,"reserved":0,"last_update":"0001-01-01T00:00:00Z","name_a2s":"Uncletopia | New York City | 3 | Stopwatch","protocol":17,"map":"koth_lakeside_final","folder":"tf","game":"Team Fortress","app_id":440,"player_count":0,"max_players":24,"Bots":0,"server_type":"Dedicated","server_os":"Linux","password":true,"vac":true,"version":"7961495","steam_id":85568392924742820,"keywords":["cp","nocrits","nodmgspread","uncletopia"],"game_id":440,"stv_port":27036,"stv_name":"Uncletopia | New York City | 3 | Stopwatch | STV","players":null},{"server_id":16,"name":"Uncletopia | New York City | 4 | Community","name_short":"nyc-4","host":"nyc-1.us.uncletopia.com","port":27045,"enabled":true,"region":"us-east","cc":"us","latitude":40.73061,"longitude":-73.93524,"reserved":0,"last_update":"0001-01-01T00:00:00Z","name_a2s":"Uncletopia | New York City | 4 | Community","protocol":17,"map":"workshop/cp_bruhstbowl_b6.ugc2878604990","folder":"tf","game":"Team Fortress","app_id":440,"player_count":0,"max_players":24,"Bots":0,"server_type":"Dedicated","server_os":"Linux","password":true,"vac":true,"version":"7961495","steam_id":85568392924742821,"keywords":["cp","nocrits","nodmgspread","uncletopia"],"game_id":440,"stv_port":27046,"stv_name":"Uncletopia | New York City | 4 | Community | STV","players":null},{"server_id":142,"name":"Uncletopia | S√£o Paulo | 1 | All Maps","name_short":"sao-1","host":"sao-1.br.uncletopia.com","port":27015,"enabled":true,"region":"sa","cc":"br","latitude":-23.533773,"longitude":-46.62529,"reserved":0,"last_update":"0001-01-01T00:00:00Z","name_a2s":"Uncletopia | S√£o Paulo | 1 | All Maps","protocol":17,"map":"koth_highpass","folder":"tf","game":"Team Fortress","app_id":440,"player_count":0,"max_players":24,"Bots":0,"server_type":"Dedicated","server_os":"Linux","password":true,"vac":true,"version":"7961495","steam_id":85568392924469996,"keywords":["cp","nocrits","nodmgspread","uncletopia"],"game_id":440,"stv_port":27016,"stv_name":"Uncletopia | S√£o Paulo | 1 | All Maps | STV","players":null},{"server_id":143,"name":"Uncletopia | S√£o Paulo | 2 | Community","name_short":"sao-2","host":"sao-2.br.uncletopia.com","port":27015,"enabled":true,"region":"sa","cc":"br","latitude":-23.533773,"longitude":-46.62529,"reserved":0,"last_update":"0001-01-01T00:00:00Z","name_a2s":"Uncletopia | S√£o Paulo | 2 | Community","protocol":17,"map":"workshop/cp_caldera_rc2.ugc2834196889","folder":"tf","game":"Team Fortress","app_id":440,"player_count":0,"max_players":24,"Bots":0,"server_type":"Dedicated","server_os":"Linux","password":true,"vac":true,"version":"7961495","steam_id":85568392924485349,"keywords":["cp","nocrits","nodmgspread","uncletopia"],"game_id":440,"stv_port":27016,"stv_name":"Uncletopia | S√£o Paulo | 2 | Community | STV","players":null},{"server_id":7,"name":"Uncletopia | Seattle | 1 | All Maps","name_short":"sea-1","host":"sea-1.us.uncletopia.com","port":27015,"enabled":true,"region":"us-west","cc":"us","latitude":47.608013,"longitude":-122.33517,"reserved":0,"last_update":"0001-01-01T00:00:00Z","name_a2s":"Uncletopia | Seattle | 1 | All Maps","protocol":17,"map":"koth_brazil","folder":"tf","game":"Team Fortress","app_id":440,"player_count":24,"max_players":24,"Bots":0,"server_type":"Dedicated","server_os":"Linux","password":true,"vac":true,"version":"7961495","steam_id":85568392924469997,"keywords":["cp","nocrits","nodmgspread","uncletopia"],"game_id":440,"stv_port":27016,"stv_name":"Uncletopia | Seattle | 1 | All Maps | STV","players":[{"user_id":532,"name":"Themasterman75","steam_id":76561199385573293,"connected_time":814000000000,"state":"active","ping":59},{"user_id":477,"name":"Username","steam_id":76561199033122306,"connected_time":5657000000000,"state":"active","ping":147},{"user_id":533,"name":"PISS MAN","steam_id":76561199121903803,"connected_time":777000000000,"state":"active","ping":95},{"user_id":537,"name":"complete idiot","steam_id":76561199229528500,"connected_time":586000000000,"state":"active","ping":65},{"user_id":517,"name":"Birdman743","steam_id":76561198799636748,"connected_time":2212000000000,"state":"active","ping":50},{"user_id":543,"name":"spotify ads","steam_id":76561199091191812,"connected_time":63000000000,"state":"active","ping":65},{"user_id":426,"name":"Spectre","steam_id":76561198037535169,"connected_time":10885000000000,"state":"active","ping":74},{"user_id":514,"name":"DubiousDodo","steam_id":76561198828172686,"connected_time":2385000000000,"state":"active","ping":129},{"user_id":523,"name":"Court Wizard, Sir Dr. Clydesdal","steam_id":76561198149267697,"connected_time":1625000000000,"state":"active","ping":53},{"user_id":505,"name":"laaghice","steam_id":76561198274021552,"connected_time":2843000000000,"state":"active","ping":90},{"user_id":530,"name":"wugmup","steam_id":76561199096287734,"connected_time":1043000000000,"state":"active","ping":73},{"user_id":518,"name":"Nom Skirrett","steam_id":76561198014600788,"connected_time":2003000000000,"state":"active","ping":61},{"user_id":544,"name":"NEBULA","steam_id":76561198086878595,"connected_time":7000000000,"state":"spawning","ping":107},{"user_id":521,"name":"Corvo","steam_id":76561198992036196,"connected_time":1740000000000,"state":"active","ping":44},{"user_id":475,"name":"ShiningForce","steam_id":76561198026039048,"connected_time":6191000000000,"state":"active","ping":74},{"user_id":538,"name":"Ska√∞i","steam_id":76561198063949642,"connected_time":550000000000,"state":"active","ping":36},{"user_id":516,"name":"Bocchi the Rock Johnson","steam_id":76561198216017952,"connected_time":2237000000000,"state":"active","ping":68},{"user_id":536,"name":"A UsedNom","steam_id":76561198402832756,"connected_time":697000000000,"state":"active","ping":61},{"user_id":526,"name":"lasky","steam_id":76561198017030029,"connected_time":1513000000000,"state":"active","ping":72},{"user_id":508,"name":"Mongoose","steam_id":76561198020361641,"connected_time":2826000000000,"state":"active","ping":65},{"user_id":509,"name":"Kinetic Warlord","steam_id":76561198007900244,"connected_time":2810000000000,"state":"active","ping":104},{"user_id":531,"name":"Raw_Input","steam_id":76561198050238582,"connected_time":907000000000,"state":"active","ping":45},{"user_id":511,"name":"lil homie gay ass","steam_id":76561198044804626,"connected_time":2770000000000,"state":"active","ping":100},{"user_id":542,"name":"Kryptonite253","steam_id":76561198019919891,"connected_time":237000000000,"state":"active","ping":50}]},{"server_id":119,"name":"Uncletopia | Seattle | 2 | All Maps","name_short":"sea-2","host":"sea-1.us.uncletopia.com","port":27025,"enabled":true,"region":"us-west","cc":"us","latitude":47.608013,"longitude":-122.33517,"reserved":0,"last_update":"0001-01-01T00:00:00Z","name_a2s":"Uncletopia | Seattle | 2 | All Maps","protocol":17,"map":"pl_upward","folder":"tf","game":"Team Fortress","app_id":440,"player_count":23,"max_players":24,"Bots":0,"server_type":"Dedicated","server_os":"Linux","password":true,"vac":true,"version":"7961495","steam_id":85568392924469998,"keywords":["nocrits","nodmgspread","payload","uncletopia"],"game_id":440,"stv_port":27026,"stv_name":"Uncletopia | Seattle | 2 | All Maps | STV","players":[{"user_id":282,"name":"Thunder","steam_id":76561198097721532,"connected_time":4108000000000,"state":"active","ping":73},{"user_id":310,"name":"Lawyer","steam_id":76561197974126447,"connected_time":1059000000000,"state":"active","ping":92},{"user_id":331,"name":"Kikiya","steam_id":76561198118557343,"connected_time":15000000000,"state":"active","ping":47},{"user_id":319,"name":"NightGhost1400","steam_id":76561198810730471,"connected_time":406000000000,"state":"active","ping":60},{"user_id":327,"name":"ilun","steam_id":76561198042913843,"connected_time":268000000000,"state":"active","ping":48},{"user_id":320,"name":"AndrewP","steam_id":76561198991129355,"connected_time":393000000000,"state":"active","ping":118},{"user_id":272,"name":"killer fish","steam_id":76561198858474714,"connected_time":4650000000000,"state":"active","ping":47},{"user_id":321,"name":"Arkus","steam_id":76561199092478198,"connected_time":391000000000,"state":"active","ping":44},{"user_id":329,"name":"Gloomy","steam_id":76561198053742522,"connected_time":152000000000,"state":"active","ping":52},{"user_id":330,"name":"dillpickle","steam_id":76561198156957191,"connected_time":112000000000,"state":"active","ping":145},{"user_id":301,"name":"Dextersbrain","steam_id":76561198011831579,"connected_time":2085000000000,"state":"active","ping":51},{"user_id":292,"name":"yoshido","steam_id":76561198846313229,"connected_time":3377000000000,"state":"active","ping":94},{"user_id":322,"name":"TruthHut","steam_id":76561198093452436,"connected_time":383000000000,"state":"active","ping":33},{"user_id":281,"name":"T√ºCold","steam_id":76561198111278197,"connected_time":4339000000000,"state":"active","ping":40},{"user_id":323,"name":"wdylm","steam_id":76561198206523304,"connected_time":382000000000,"state":"active","ping":47},{"user_id":324,"name":"wile","steam_id":76561198125261443,"connected_time":381000000000,"state":"active","ping":62},{"user_id":308,"name":"Wheaties","steam_id":76561198060909578,"connected_time":1214000000000,"state":"active","ping":57},{"user_id":286,"name":"dicksnip","steam_id":76561198356515396,"connected_time":3998000000000,"state":"active","ping":126},{"user_id":288,"name":"McSpazatron","steam_id":76561198955942148,"connected_time":3774000000000,"state":"active","ping":56},{"user_id":316,"name":"CubeDio","steam_id":76561198403403639,"connected_time":481000000000,"state":"active","ping":55},{"user_id":325,"name":"Stoopnagle","steam_id":76561198011942560,"connected_time":317000000000,"state":"active","ping":45},{"user_id":326,"name":"a familiar cat","steam_id":76561198080046542,"connected_time":314000000000,"state":"active","ping":51},{"user_id":291,"name":"Sudsen","steam_id":76561198370603787,"connected_time":3398000000000,"state":"active","ping":72}]},{"server_id":406,"name":"Uncletopia | Seattle | 3 | Stopwatch","name_short":"sea-3","host":"sea-1.us.uncletopia.com","port":27035,"enabled":true,"region":"us-west","cc":"us","latitude":47.608013,"longitude":-122.33517,"reserved":0,"last_update":"0001-01-01T00:00:00Z","name_a2s":"Uncletopia | Seattle | 3 | Stopwatch","protocol":17,"map":"workshop/koth_product_final.ugc454272353","folder":"tf","game":"Team Fortress","app_id":440,"player_count":4,"max_players":24,"Bots":0,"server_type":"Dedicated","server_os":"Linux","password":true,"vac":true,"version":"7961495","steam_id":85568392924515217,"keywords":["cp","nocrits","nodmgspread","uncletopia"],"game_id":440,"stv_port":27036,"stv_name":"Uncletopia | Seattle | 3 | Stopwatch | STV","players":[{"user_id":19,"name":"Ban_nana","steam_id":76561199206827767,"connected_time":2010000000000,"state":"active","ping":67},{"user_id":20,"name":"incrediblymassivep3nis","steam_id":76561199408041543,"connected_time":1753000000000,"state":"active","ping":106},{"user_id":22,"name":"Bobletoob","steam_id":76561199184464900,"connected_time":879000000000,"state":"active","ping":75},{"user_id":23,"name":"AWildCheeseFish","steam_id":76561198846504974,"connected_time":332000000000,"state":"active","ping":36}]},{"server_id":17,"name":"Uncletopia | San Francisco | 1 | All Maps","name_short":"sfo-1","host":"sfo-1.us.uncletopia.com","port":27015,"enabled":true,"region":"us-west","cc":"us","latitude":37.77397,"longitude":-122.4313,"reserved":0,"last_update":"0001-01-01T00:00:00Z","name_a2s":"Uncletopia | San Francisco | 1 | All Maps","protocol":17,"map":"pl_upward","folder":"tf","game":"Team Fortress","app_id":440,"player_count":24,"max_players":24,"Bots":0,"server_type":"Dedicated","server_os":"Linux","password":true,"vac":true,"version":"7961495","steam_id":85568392924469999,"keywords":["nocrits","nodmgspread","payload","uncletopia"],"game_id":440,"stv_port":27016,"stv_name":"Uncletopia | San Francisco | 1 | All Maps | STV","players":[{"user_id":205,"name":"Ralph Kramden (Slim Charles)","steam_id":76561197981687895,"connected_time":1961000000000,"state":"active","ping":58},{"user_id":109,"name":"Shitty Pilot","steam_id":76561198042723469,"connected_time":7377000000000,"state":"active","ping":87},{"user_id":229,"name":"Enigma","steam_id":76561199387549094,"connected_time":526000000000,"state":"active","ping":96},{"user_id":214,"name":"spurnt","steam_id":76561198058948008,"connected_time":1433000000000,"state":"active","ping":51},{"user_id":227,"name":"NGsterson","steam_id":76561198162108154,"connected_time":583000000000,"state":"active","ping":76},{"user_id":224,"name":"TommyBoi","steam_id":76561198025528637,"connected_time":909000000000,"state":"active","ping":70},{"user_id":215,"name":"rmbl (fork eater)","steam_id":76561198150137369,"connected_time":1357000000000,"state":"active","ping":59},{"user_id":180,"name":"aofi the flat tgirl","steam_id":76561199172110503,"connected_time":3575000000000,"state":"active","ping":107},{"user_id":218,"name":"Kaluka","steam_id":76561198036861445,"connected_time":1244000000000,"state":"active","ping":119},{"user_id":223,"name":"PizzaMuncher89","steam_id":76561199121856753,"connected_time":941000000000,"state":"active","ping":87},{"user_id":197,"name":"Wiener Hole Paper Cut","steam_id":76561198000808203,"connected_time":2495000000000,"state":"active","ping":116},{"user_id":230,"name":"I THINK COOLSVILLE SUCKS","steam_id":76561198066855998,"connected_time":519000000000,"state":"active","ping":61},{"user_id":225,"name":"Champagne Supernova","steam_id":76561198918114562,"connected_time":837000000000,"state":"active","ping":60},{"user_id":222,"name":"Genius Meme","steam_id":76561198162911254,"connected_time":1091000000000,"state":"active","ping":87},{"user_id":220,"name":"Venat","steam_id":76561197997052326,"connected_time":1157000000000,"state":"active","ping":69},{"user_id":231,"name":"Satori Komeiji","steam_id":76561198158211423,"connected_time":423000000000,"state":"active","ping":55},{"user_id":175,"name":"Caspian","steam_id":76561199041466962,"connected_time":3925000000000,"state":"active","ping":40},{"user_id":203,"name":"gummygeek","steam_id":76561198244543486,"connected_time":2251000000000,"state":"active","ping":82},{"user_id":233,"name":"troll","steam_id":76561198065490188,"connected_time":364000000000,"state":"active","ping":65},{"user_id":234,"name":"CheeseCake488","steam_id":76561199407617942,"connected_time":144000000000,"state":"active","ping":96},{"user_id":204,"name":"Ian","steam_id":76561198159334435,"connected_time":2250000000000,"state":"active","ping":173},{"user_id":160,"name":"Perfume Department","steam_id":76561198128299594,"connected_time":4324000000000,"state":"active","ping":61},{"user_id":162,"name":"Big Titty Goth Garfield","steam_id":76561198129617484,"connected_time":4287000000000,"state":"active","ping":101},{"user_id":219,"name":"ComatosePhoenix","steam_id":76561198071702821,"connected_time":1207000000000,"state":"active","ping":105}]},{"server_id":18,"name":"Uncletopia | San Francisco | 2 | All Maps","name_short":"sfo-2","host":"sfo-1.us.uncletopia.com","port":27025,"enabled":true,"region":"us-west","cc":"us","latitude":37.77397,"longitude":-122.4313,"reserved":0,"last_update":"0001-01-01T00:00:00Z","name_a2s":"Uncletopia | San Francisco | 2 | All Maps","protocol":17,"map":"pl_frontier_final","folder":"tf","game":"Team Fortress","app_id":440,"player_count":0,"max_players":24,"Bots":0,"server_type":"Dedicated","server_os":"Linux","password":true,"vac":true,"version":"7961495","steam_id":85568392924470000,"keywords":["nocrits","nodmgspread","payload","uncletopia"],"game_id":440,"stv_port":27026,"stv_name":"Uncletopia | San Francisco | 2 | All Maps | STV","players":null},{"server_id":19,"name":"Uncletopia | San Francisco | 3 | Stopwatch","name_short":"sfo-3","host":"sfo-1.us.uncletopia.com","port":27035,"enabled":true,"region":"us-west","cc":"us","latitude":37.77397,"longitude":-122.4313,"reserved":0,"last_update":"0001-01-01T00:00:00Z","name_a2s":"Uncletopia | San Francisco | 3 | Stopwatch","protocol":17,"map":"workshop/pl_vigil_rc10.ugc1266210012","folder":"tf","game":"Team Fortress","app_id":440,"player_count":0,"max_players":24,"Bots":0,"server_type":"Dedicated","server_os":"Linux","password":true,"vac":true,"version":"7961495","steam_id":85568392924742824,"keywords":["nocrits","nodmgspread","payload","uncletopia"],"game_id":440,"stv_port":27036,"stv_name":"Uncletopia | San Francisco | 3 | Stopwatch | STV","players":null},{"server_id":20,"name":"Uncletopia | San Francisco | 4 | Community","name_short":"sfo-4","host":"sfo-1.us.uncletopia.com","port":27045,"enabled":true,"region":"us-west","cc":"us","latitude":37.77397,"longitude":-122.4313,"reserved":0,"last_update":"0001-01-01T00:00:00Z","name_a2s":"Uncletopia | San Francisco | 4 | Community","protocol":17,"map":"workshop/cp_hazyfort_rc6.ugc1365963729","folder":"tf","game":"Team Fortress","app_id":440,"player_count":0,"max_players":24,"Bots":0,"server_type":"Dedicated","server_os":"Linux","password":true,"vac":true,"version":"7961495","steam_id":85568392924742826,"keywords":["cp","nocrits","nodmgspread","uncletopia"],"game_id":440,"stv_port":27046,"stv_name":"Uncletopia | San Francisco | 4 | Community | STV","players":null},{"server_id":141,"name":"Uncletopia | Sydney | 1 | All Maps","name_short":"syd-1","host":"syd-1.au.uncletopia.com","port":27015,"enabled":true,"region":"au","cc":"au","latitude":-33.865143,"longitude":151.2099,"reserved":0,"last_update":"0001-01-01T00:00:00Z","name_a2s":"Uncletopia | Sydney | 1 | All Maps","protocol":17,"map":"koth_viaduct","folder":"tf","game":"Team Fortress","app_id":440,"player_count":0,"max_players":24,"Bots":0,"server_type":"Dedicated","server_os":"Linux","password":true,"vac":true,"version":"7961495","steam_id":85568392924470001,"keywords":["cp","nocrits","nodmgspread","uncletopia"],"game_id":440,"stv_port":27016,"stv_name":"Uncletopia | Sydney | 1 | All Maps | STV","players":null},{"server_id":123,"name":"Uncletopia | Sydney | 2 | All Maps","name_short":"syd-2","host":"syd-1.au.uncletopia.com","port":27025,"enabled":true,"region":"au","cc":"au","latitude":-33.865143,"longitude":151.2099,"reserved":0,"last_update":"0001-01-01T00:00:00Z","name_a2s":"Uncletopia | Sydney | 2 | All Maps","protocol":17,"map":"koth_lakeside_final","folder":"tf","game":"Team Fortress","app_id":440,"player_count":0,"max_players":24,"Bots":0,"server_type":"Dedicated","server_os":"Linux","password":true,"vac":true,"version":"7961495","steam_id":85568392924470002,"keywords":["cp","nocrits","nodmgspread","uncletopia"],"game_id":440,"stv_port":27026,"stv_name":"Uncletopia | Sydney | 2 | All Maps | STV","players":null},{"server_id":395,"name":"Uncletopia | Sydney | 3 | All Maps","name_short":"syd-3","host":"syd-1.au.uncletopia.com","port":27035,"enabled":true,"region":"au","cc":"au","latitude":-33.865143,"longitude":151.2099,"reserved":0,"last_update":"0001-01-01T00:00:00Z","name_a2s":"Uncletopia | Sydney | 3 | All Maps","protocol":17,"map":"pl_frontier_final","folder":"tf","game":"Team Fortress","app_id":440,"player_count":0,"max_players":24,"Bots":0,"server_type":"Dedicated","server_os":"Linux","password":true,"vac":true,"version":"7961495","steam_id":85568392925194467,"keywords":["nocrits","nodmgspread","payload","uncletopia"],"game_id":440,"stv_port":27036,"stv_name":"Uncletopia | Sydney | 3 | All Maps | STV","players":null},{"server_id":396,"name":"Uncletopia | Sydney | 4 | All Maps","name_short":"syd-4","host":"syd-1.au.uncletopia.com","port":27045,"enabled":true,"region":"au","cc":"au","latitude":-33.865143,"longitude":151.2099,"reserved":0,"last_update":"0001-01-01T00:00:00Z","name_a2s":"Uncletopia | Sydney | 4 | All Maps","protocol":17,"map":"cp_process_final","folder":"tf","game":"Team Fortress","app_id":440,"player_count":0,"max_players":24,"Bots":0,"server_type":"Dedicated","server_os":"Linux","password":true,"vac":true,"version":"7961495","steam_id":85568392925397958,"keywords":["cp","nocrits","nodmgspread","uncletopia"],"game_id":440,"stv_port":27046,"stv_name":"Uncletopia | Sydney | 4 | All Maps | STV","players":null},{"server_id":58,"name":"Uncletopia | Sydney | 5 | Stopwatch","name_short":"syd-5","host":"syd-1.au.uncletopia.com","port":27055,"enabled":true,"region":"au","cc":"au","latitude":-33.865143,"longitude":151.2099,"reserved":0,"last_update":"0001-01-01T00:00:00Z","name_a2s":"Uncletopia | Sydney | 5 | Stopwatch","protocol":17,"map":"pl_frontier_final","folder":"tf","game":"Team Fortress","app_id":440,"player_count":0,"max_players":24,"Bots":0,"server_type":"Dedicated","server_os":"Linux","password":true,"vac":true,"version":"7961495","steam_id":85568392925397959,"keywords":["nocrits","nodmgspread","payload","uncletopia"],"game_id":440,"stv_port":27056,"stv_name":"Uncletopia | Sydney | 5 | Stopwatch | STV","players":null},{"server_id":59,"name":"Uncletopia | Sydney | 6 | Community","name_short":"syd-6","host":"syd-1.au.uncletopia.com","port":27065,"enabled":true,"region":"au","cc":"au","latitude":-33.865143,"longitude":151.2099,"reserved":0,"last_update":"0001-01-01T00:00:00Z","name_a2s":"Uncletopia | Sydney | 6 | Community","protocol":17,"map":"cp_sunshine","folder":"tf","game":"Team Fortress","app_id":440,"player_count":0,"max_players":24,"Bots":0,"server_type":"Dedicated","server_os":"Linux","password":true,"vac":true,"version":"7961495","steam_id":85568392925397960,"keywords":["cp","nocrits","nodmgspread","uncletopia"],"game_id":440,"stv_port":27066,"stv_name":"Uncletopia | Sydney | 6 | Community | STV","players":null},{"server_id":49,"name":"Uncletopia | Warsaw | 1 | One Thousand Uncles","name_short":"waw-1","host":"waw-1.pl.uncletopia.com","port":27015,"enabled":true,"region":"eu","cc":"pl","latitude":52.2297,"longitude":21.017532,"reserved":0,"last_update":"0001-01-01T00:00:00Z","name_a2s":"Uncletopia | Warsaw | 1 | One Thousand Uncles","protocol":17,"map":"cp_egypt_final","folder":"tf","game":"Team Fortress","app_id":440,"player_count":0,"max_players":32,"Bots":0,"server_type":"Dedicated","server_os":"Linux","password":true,"vac":true,"version":"7961495","steam_id":85568392925397850,"keywords":["alltalk","cp","danepve","increased_maxplayers","nocrits","norespawntime","uncletopia"],"game_id":440,"stv_port":0,"stv_name":"","players":null},{"server_id":50,"name":"Uncletopia | Warsaw | 2 | One Thousand Uncles","name_short":"waw-2","host":"waw-1.pl.uncletopia.com","port":27025,"enabled":true,"region":"eu","cc":"pl","latitude":52.2297,"longitude":21.017532,"reserved":0,"last_update":"0001-01-01T00:00:00Z","name_a2s":"Uncletopia | Warsaw | 2 | One Thousand Uncles","protocol":17,"map":"koth_highpass","folder":"tf","game":"Team Fortress","app_id":440,"player_count":0,"max_players":32,"Bots":0,"server_type":"Dedicated","server_os":"Linux","password":true,"vac":true,"version":"7961495","steam_id":85568392925397851,"keywords":["alltalk","cp","danepve","increased_maxplayers","nocrits","norespawntime","uncletopia"],"game_id":440,"stv_port":0,"stv_name":"","players":null},{"server_id":51,"name":"Uncletopia | Warsaw | 3 | All Maps","name_short":"waw-3","host":"waw-1.pl.uncletopia.com","port":27035,"enabled":true,"region":"eu","cc":"pl","latitude":52.2297,"longitude":21.017532,"reserved":0,"last_update":"0001-01-01T00:00:00Z","name_a2s":"Uncletopia | Warsaw | 3 | All Maps","protocol":17,"map":"cp_altitude","folder":"tf","game":"Team Fortress","app_id":440,"player_count":0,"max_players":24,"Bots":0,"server_type":"Dedicated","server_os":"Linux","password":true,"vac":true,"version":"7961495","steam_id":85568392925397852,"keywords":["cp","nocrits","nodmgspread","uncletopia"],"game_id":440,"stv_port":27036,"stv_name":"Uncletopia | Warsaw | 3 | All Maps | STV","players":null},{"server_id":52,"name":"Uncletopia | Warsaw | 4 | All Maps","name_short":"waw-4","host":"waw-1.pl.uncletopia.com","port":27045,"enabled":true,"region":"eu","cc":"pl","latitude":52.2297,"longitude":21.017532,"reserved":0,"last_update":"0001-01-01T00:00:00Z","name_a2s":"Uncletopia | Warsaw | 4 | All Maps","protocol":17,"map":"pl_badwater","folder":"tf","game":"Team Fortress","app_id":440,"player_count":0,"max_players":24,"Bots":0,"server_type":"Dedicated","server_os":"Linux","password":true,"vac":true,"version":"7961495","steam_id":85568392925397853,"keywords":["nocrits","nodmgspread","payload","uncletopia"],"game_id":440,"stv_port":27046,"stv_name":"Uncletopia | Warsaw | 4 | All Maps | STV","players":null},{"server_id":53,"name":"Uncletopia | Warsaw | 5 | Stopwatch","name_short":"waw-5","host":"waw-1.pl.uncletopia.com","port":27055,"enabled":true,"region":"eu","cc":"pl","latitude":52.2297,"longitude":21.017532,"reserved":0,"last_update":"0001-01-01T00:00:00Z","name_a2s":"Uncletopia | Warsaw | 5 | Stopwatch","protocol":17,"map":"workshop/koth_product_final.ugc454272353","folder":"tf","game":"Team Fortress","app_id":440,"player_count":0,"max_players":24,"Bots":0,"server_type":"Dedicated","server_os":"Linux","password":true,"vac":true,"version":"7961495","steam_id":85568392925397854,"keywords":["cp","nocrits","nodmgspread","uncletopia"],"game_id":440,"stv_port":27056,"stv_name":"Uncletopia | Warsaw | 5 | Stopwatch | STV","players":null},{"server_id":54,"name":"Uncletopia | Warsaw | 6 | Community","name_short":"waw-6","host":"waw-1.pl.uncletopia.com","port":27065,"enabled":true,"region":"eu","cc":"pl","latitude":52.2297,"longitude":21.017532,"reserved":0,"last_update":"0001-01-01T00:00:00Z","name_a2s":"Uncletopia | Warsaw | 6 | Community","protocol":17,"map":"workshop/koth_ramjam_rc1.ugc459778887","folder":"tf","game":"Team Fortress","app_id":440,"player_count":0,"max_players":24,"Bots":0,"server_type":"Dedicated","server_os":"Linux","password":true,"vac":true,"version":"7961495","steam_id":85568392925397856,"keywords":["cp","nocrits","nodmgspread","uncletopia"],"game_id":440,"stv_port":27066,"stv_name":"Uncletopia | Warsaw | 6 | Community | STV","players":null}]}