{"status":true,"message":"","result":[{"server_id":9,"name":"Uncletopia | Atlanta | 1 | All Maps","name_short":"atl-1","host":"atl-1.us.uncletopia.com","port":27015,"enabled":true,"region":"us-east","cc":"us","latitude":33.753746,"longitude":-84.38633,"reserved":0,"last_update":"0001-01-01T00:00:00Z","name_a2s":"Uncletopia | Atlanta | 1 | All Maps","protocol":17,"map":"pl_swiftwater_final1","folder":"tf","game":"Team Fortress","app_id":440,"player_count":24,"max_players":24,"Bots":0,"server_type":"Dedicated","server_os":"Linux","password":true,"vac":true,"version":"7757534","steam_id":85568392924469982,"keywords":["nocrits","nodmgspread","payload","uncletopia"],"game_id":440,"stv_port":27016,"stv_name":"Uncletopia | Atlanta | 1 | All Maps | STV","players":[{"user_id":6,"name":"yomo","steam_id":76561198063175935,"connected_time":6158000000000,"state":"active","ping":55},{"user_id":8,"name":"Help Me","steam_id":76561198133851467,"connected_time":5815000000000,"state":"active","ping":74},{"user_id":77,"name":"yumyum","steam_id":76561198150567198,"connected_time":1862000000000,"state":"active","ping":59},{"user_id":37,"name":"indi","steam_id":76561198045917538,"connected_time":4841000000000,"state":"active","ping":61},{"user_id":49,"name":"DevSlashUser","steam_id":76561198805884205,"connected_time":4414000000000,"state":"active","ping":67},{"user_id":88,"name":"GlobinHD","steam_id":76561199160601392,"connected_time":878000000000,"state":"active","ping":77},{"user_id":65,"name":"MyamE","steam_id":76561198133278462,"connected_time":2990000000000,"state":"active","ping":71},{"user_id":94,"name":"Armageddon","steam_id":76561198274226441,"connected_time":274000000000,"state":"active","ping":35},{"user_id":84,"name":"STinker","steam_id":76561198055879094,"connected_time":1015000000000,"state":"active","ping":56},{"user_id":93,"name":"Monkey","steam_id":76561198031015186,"connected_time":639000000000,"state":"active","ping":81},{"user_id":97,"name":"big gay bowacunga","steam_id":76561198389398163,"connected_time":257000000000,"state":"active","ping":78},{"user_id":79,"name":"NFT(non functioning testicle)","steam_id":76561198092435966,"connected_time":1584000000000,"state":"active","ping":84},{"user_id":24,"name":"Û†Ä°Û†Ä°","steam_id":76561198202704364,"connected_time":5120000000000,"state":"active","ping":101},{"user_id":26,"name":"061202travis","steam_id":76561198267467078,"connected_time":5107000000000,"state":"active","ping":116},{"user_id":95,"name":"gup","steam_id":76561198311004039,"connected_time":273000000000,"state":"active","ping":76},{"user_id":82,"name":"shaderoses","steam_id":76561198070800500,"connected_time":1267000000000,"state":"active","ping":62},{"user_id":81,"name":"Menace to Sobriety","steam_id":76561198245103000,"connected_time":1484000000000,"state":"active","ping":69},{"user_id":78,"name":"Tom!","steam_id":76561198110937717,"connected_time":1634000000000,"state":"active","ping":66},{"user_id":66,"name":"Dong-A-Tron 27.0","steam_id":76561198082202698,"connected_time":2957000000000,"state":"active","ping":67},{"user_id":89,"name":"‚òº kevin \"berserker\" hall","steam_id":76561198074180953,"connected_time":861000000000,"state":"active","ping":73},{"user_id":83,"name":"The Pope","steam_id":76561198058047601,"connected_time":1093000000000,"state":"active","ping":83},{"user_id":99,"name":"Tyrone","steam_id":76561198189429665,"connected_time":222000000000,"state":"active","ping":60},{"user_id":61,"name":"Oddball","steam_id":76561198040440984,"connected_time":3564000000000,"state":"active","ping":89},{"user_id":91,"name":"Mycelion","steam_id":76561198024999530,"connected_time":772000000000,"state":"active","ping":81}]},{"server_id":400,"name":"Uncletopia | Atlanta | 3 | Stopwatch Beta","name_short":"atl-3","host":"atl-1.us.uncletopia.com","port":27035,"enabled":true,"region":"us-east","cc":"us","latitude":33.753746,"longitude":-84.38633,"reserved":0,"last_update":"0001-01-01T00:00:00Z","name_a2s":"Uncletopia | Atlanta | 3 | Stopwatch Beta","protocol":17,"map":"pl_borneo","folder":"tf","game":"Team Fortress","app_id":440,"player_count":0,"max_players":24,"Bots":0,"server_type":"Dedicated","server_os":"Linux","password":true,"vac":true,"version":"7757534","steam_id":85568392924515187,"keywords":["nocrits","nodmgspread","payload","uncletopia"],"game_id":440,"stv_port":27036,"stv_name":"Uncletopia | Atlanta | 3 | Stopwatch Beta | STV","players":null},{"server_id":401,"name":"Uncletopia | Atlanta | 4 | No Payload","name_short":"atl-4","host":"atl-1.us.uncletopia.com","port":27045,"enabled":true,"region":"us-east","cc":"us","latitude":33.753746,"longitude":-84.38633,"reserved":0,"last_update":"0001-01-01T00:00:00Z","name_a2s":"Uncletopia | Atlanta | 4 | No Payload","protocol":17,"map":"pl_pier","folder":"tf","game":"Team Fortress","app_id":440,"player_count":0,"max_players":24,"Bots":0,"server_type":"Dedicated","server_os":"Linux","password":true,"vac":true,"version":"7723704","steam_id":85568392924515188,"keywords":["nocrits","nodmgspread","payload","uncletopia"],"game_id":440,"stv_port":27046,"stv_name":"Uncletopia | Atlanta | 4 | No Payload | STV","players":null},{"server_id":2,"name":"Uncletopia | Chicago | 1 | All Maps","name_short":"chi-1","host":"chi-1.us.uncletopia.com","port":27015,"enabled":true,"region":"us-central","cc":"us","latitude":41.881832,"longitude":-87.62318,"reserved":0,"last_update":"0001-01-01T00:00:00Z","name_a2s":"Uncletopia | Chicago | 1 | All Maps","protocol":17,"map":"pl_borneo","folder":"tf","game":"Team Fortress","app_id":440,"player_count":24,"max_players":24,"Bots":0,"server_type":"Dedicated","server_os":"Linux","password":true,"vac":true,"version":"7757534","steam_id":85568392924469984,"keywords":["nocrits","nodmgspread","payload","uncletopia"],"game_id":440,"stv_port":27016,"stv_name":"Uncletopia | Chicago | 1 | All Maps | STV","players":[{"user_id":56,"name":"badboy6996","steam_id":76561197969386201,"connected_time":14531000000000,"state":"active","ping":58},{"user_id":197,"name":"BOBELMATAPLAGAS \u003e:)","steam_id":76561199133432828,"connected_time":1629000000000,"state":"active","ping":72},{"user_id":203,"name":"Sage","steam_id":76561198143101697,"connected_time":845000000000,"state":"active","ping":94},{"user_id":195,"name":"lauren/","steam_id":76561198048745798,"connected_time":2058000000000,"state":"active","ping":34},{"user_id":164,"name":"monke12344","steam_id":76561199274757725,"connected_time":4717000000000,"state":"active","ping":60},{"user_id":217,"name":"LVL","steam_id":76561198334403617,"connected_time":8000000000,"state":"active","ping":71},{"user_id":211,"name":"Pixler544","steam_id":76561198240575132,"connected_time":773000000000,"state":"active","ping":86},{"user_id":205,"name":"merge without looking","steam_id":76561198056702628,"connected_time":829000000000,"state":"active","ping":59},{"user_id":206,"name":"Stew Eater","steam_id":76561198978307159,"connected_time":822000000000,"state":"active","ping":65},{"user_id":214,"name":"Terribad","steam_id":76561198120844785,"connected_time":439000000000,"state":"active","ping":109},{"user_id":189,"name":"bary","steam_id":76561197988317087,"connected_time":2507000000000,"state":"active","ping":65},{"user_id":162,"name":"PKBEAST_7","steam_id":76561198177136537,"connected_time":4861000000000,"state":"active","ping":86},{"user_id":204,"name":"Mixomin","steam_id":76561198295061570,"connected_time":842000000000,"state":"active","ping":59},{"user_id":194,"name":"good_s1r","steam_id":76561199010842391,"connected_time":2125000000000,"state":"active","ping":72},{"user_id":207,"name":"Murdercake80","steam_id":76561199150860203,"connected_time":812000000000,"state":"active","ping":83},{"user_id":213,"name":"bijou","steam_id":76561198021395081,"connected_time":698000000000,"state":"active","ping":57},{"user_id":212,"name":"[El Fail] MR.BadassMCLee","steam_id":76561198043787818,"connected_time":723000000000,"state":"active","ping":105},{"user_id":180,"name":"A Pyro Main","steam_id":76561198421760112,"connected_time":3278000000000,"state":"active","ping":48},{"user_id":185,"name":"{FITH}‚Ñ¢ SmittyWun","steam_id":76561198079531938,"connected_time":2584000000000,"state":"active","ping":74},{"user_id":215,"name":"Fuegan Ra","steam_id":76561198287923849,"connected_time":57000000000,"state":"spawning","ping":48},{"user_id":175,"name":"fruity","steam_id":76561198855810297,"connected_time":3901000000000,"state":"active","ping":85},{"user_id":199,"name":"Dali","steam_id":76561198077593486,"connected_time":1205000000000,"state":"active","ping":123},{"user_id":202,"name":"Abbashea","steam_id":76561199182136969,"connected_time":1137000000000,"state":"active","ping":86},{"user_id":54,"name":"yomommasabitch","steam_id":76561198323217150,"connected_time":14602000000000,"state":"active","ping":60}]},{"server_id":106,"name":"Uncletopia | Chicago | 2 | All Maps","name_short":"chi-2","host":"chi-1.us.uncletopia.com","port":27025,"enabled":true,"region":"us-central","cc":"us","latitude":41.881832,"longitude":-87.62318,"reserved":0,"last_update":"0001-01-01T00:00:00Z","name_a2s":"Uncletopia | Chicago | 2 | All Maps","protocol":17,"map":"koth_cascade","folder":"tf","game":"Team Fortress","app_id":440,"player_count":0,"max_players":24,"Bots":0,"server_type":"Dedicated","server_os":"Linux","password":true,"vac":true,"version":"7757534","steam_id":85568392924469985,"keywords":["cp","nocrits","nodmgspread","uncletopia"],"game_id":440,"stv_port":27026,"stv_name":"Uncletopia | Chicago | 2 | All Maps | STV","players":null},{"server_id":402,"name":"Uncletopia | Chicago | 3 | All Maps","name_short":"chi-3","host":"chi-1.us.uncletopia.com","port":27035,"enabled":true,"region":"us-central","cc":"us","latitude":41.881832,"longitude":-87.62318,"reserved":0,"last_update":"0001-01-01T00:00:00Z","name_a2s":"Uncletopia | Chicago | 3 | All Maps","protocol":17,"map":"koth_viaduct","folder":"tf","game":"Team Fortress","app_id":440,"player_count":0,"max_players":24,"Bots":0,"server_type":"Dedicated","server_os":"Linux","password":true,"vac":true,"version":"7757534","steam_id":85568392924515191,"keywords":["cp","nocrits","nodmgspread","uncletopia"],"game_id":440,"stv_port":27036,"stv_name":"Uncletopia | Chicago | 3 | All Maps | STV","players":null},{"server_id":403,"name":"Uncletopia | Chicago | 4 | All Maps","name_short":"chi-4","host":"chi-1.us.uncletopia.com","port":27045,"enabled":true,"region":"us-central","cc":"us","latitude":41.881832,"longitude":-87.62318,"reserved":0,"last_update":"0001-01-01T00:00:00Z","name_a2s":"Uncletopia | Chicago | 4 | All Maps","protocol":17,"map":"cp_altitude","folder":"tf","game":"Team Fortress","app_id":440,"player_count":0,"max_players":24,"Bots":0,"server_type":"Dedicated","server_os":"Linux","password":true,"vac":true,"version":"7757534","steam_id":85568392924515193,"keywords":["cp","nocrits","nodmgspread","uncletopia"],"game_id":440,"stv_port":27046,"stv_name":"Uncletopia | Chicago | 4 | All Maps | STV","players":null},{"server_id":36,"name":"Uncletopia | Chicago | 5 | All Maps","name_short":"chi-5","host":"chi-2.us.uncletopia.com","port":27015,"enabled":true,"region":"us-central","cc":"us","latitude":41.881832,"longitude":-87.62318,"reserved":0,"last_update":"0001-01-01T00:00:00Z","name_a2s":"Uncletopia | Chicago | 5 | All Maps","protocol":17,"map":"cp_junction_final","folder":"tf","game":"Team Fortress","app_id":440,"player_count":23,"max_players":24,"Bots":0,"server_type":"Dedicated","server_os":"Linux","password":true,"vac":true,"version":"7757534","steam_id":85568392924866362,"keywords":["cp","nocrits","nodmgspread","uncletopia"],"game_id":440,"stv_port":27016,"stv_name":"Uncletopia | Chicago | 5 | All Maps | STV","players":[{"user_id":193,"name":"nuclear bomb plans (used)","steam_id":76561198849316769,"connected_time":597000000000,"state":"active","ping":53},{"user_id":184,"name":"Vexed","steam_id":76561198157557477,"connected_time":825000000000,"state":"active","ping":87},{"user_id":185,"name":"MaurbaaYTTV","steam_id":76561198396244334,"connected_time":818000000000,"state":"active","ping":67},{"user_id":190,"name":"BOUZENZEL","steam_id":76561198095000722,"connected_time":708000000000,"state":"active","ping":59},{"user_id":189,"name":"aeop","steam_id":76561198153671643,"connected_time":712000000000,"state":"active","ping":62},{"user_id":191,"name":"Se√±or Sir","steam_id":76561198306151473,"connected_time":648000000000,"state":"active","ping":71},{"user_id":182,"name":"apricity_a","steam_id":76561198202273263,"connected_time":870000000000,"state":"active","ping":45},{"user_id":192,"name":"Toucan Jim","steam_id":76561199160374318,"connected_time":627000000000,"state":"active","ping":64},{"user_id":194,"name":"Alize","steam_id":76561198173285423,"connected_time":541000000000,"state":"active","ping":73},{"user_id":179,"name":"_normal","steam_id":76561198338505734,"connected_time":1269000000000,"state":"active","ping":57},{"user_id":195,"name":"cat","steam_id":76561198370487545,"connected_time":532000000000,"state":"active","ping":75},{"user_id":173,"name":"zrsp1","steam_id":76561199030845505,"connected_time":1860000000000,"state":"active","ping":69},{"user_id":202,"name":"Coupon","steam_id":76561198111947598,"connected_time":309000000000,"state":"active","ping":93},{"user_id":197,"name":"Liam","steam_id":76561198129451678,"connected_time":525000000000,"state":"active","ping":74},{"user_id":203,"name":"Ragnoratsu","steam_id":76561198189688723,"connected_time":31000000000,"state":"active","ping":119},{"user_id":198,"name":"Sirpiggy","steam_id":76561198294985303,"connected_time":512000000000,"state":"active","ping":115},{"user_id":199,"name":"Clean Lines","steam_id":76561197960691518,"connected_time":503000000000,"state":"active","ping":47},{"user_id":168,"name":"Sunvaar","steam_id":76561198852679851,"connected_time":2086000000000,"state":"active","ping":63},{"user_id":167,"name":"Robert","steam_id":76561198091171326,"connected_time":2211000000000,"state":"active","ping":105},{"user_id":204,"name":"Enzo","steam_id":76561197975076681,"connected_time":15000000000,"state":"spawning","ping":47},{"user_id":200,"name":"Bastee1021","steam_id":76561199456141163,"connected_time":463000000000,"state":"active","ping":126},{"user_id":180,"name":"Honeybunch","steam_id":76561198014850580,"connected_time":1255000000000,"state":"active","ping":90},{"user_id":113,"name":"steve","steam_id":76561198170409402,"connected_time":7748000000000,"state":"active","ping":150}]},{"server_id":37,"name":"Uncletopia | Chicago | 6 | All Maps","name_short":"chi-6","host":"chi-2.us.uncletopia.com","port":27025,"enabled":true,"region":"us-central","cc":"us","latitude":41.881832,"longitude":-87.62318,"reserved":0,"last_update":"0001-01-01T00:00:00Z","name_a2s":"Uncletopia | Chicago | 6 | All Maps","protocol":17,"map":"cp_gullywash_final1","folder":"tf","game":"Team Fortress","app_id":440,"player_count":23,"max_players":24,"Bots":0,"server_type":"Dedicated","server_os":"Linux","password":true,"vac":true,"version":"7757534","steam_id":85568392924866363,"keywords":["cp","nocrits","nodmgspread","uncletopia"],"game_id":440,"stv_port":27026,"stv_name":"Uncletopia | Chicago | 6 | All Maps | STV","players":[{"user_id":83,"name":"CeigeBirb","steam_id":76561198068538473,"connected_time":135000000000,"state":"active","ping":75},{"user_id":84,"name":"Drilly22","steam_id":76561198068838338,"connected_time":132000000000,"state":"active","ping":85},{"user_id":8,"name":"Eviscerator","steam_id":76561197980073637,"connected_time":3321000000000,"state":"active","ping":69},{"user_id":9,"name":"Kitt(eh) ‚àë:3","steam_id":76561198110858518,"connected_time":3321000000000,"state":"active","ping":57},{"user_id":85,"name":"ZyberTheTrilogy","steam_id":76561199224319852,"connected_time":121000000000,"state":"active","ping":102},{"user_id":11,"name":"Godmode","steam_id":76561198076240365,"connected_time":3311000000000,"state":"active","ping":63},{"user_id":86,"name":"CCdukes","steam_id":76561199200448760,"connected_time":67000000000,"state":"active","ping":81},{"user_id":16,"name":"salad rhythm","steam_id":76561198328109873,"connected_time":3021000000000,"state":"active","ping":64},{"user_id":69,"name":"ClickityShiba","steam_id":76561199381626991,"connected_time":1211000000000,"state":"active","ping":73},{"user_id":70,"name":"ccat","steam_id":76561198281773224,"connected_time":1183000000000,"state":"active","ping":88},{"user_id":19,"name":"tA.CHRONIC","steam_id":76561197960760990,"connected_time":2843000000000,"state":"active","ping":49},{"user_id":79,"name":"6t26j","steam_id":76561198278282836,"connected_time":359000000000,"state":"active","ping":46},{"user_id":21,"name":"Wang of Wall St","steam_id":76561198047460598,"connected_time":2765000000000,"state":"active","ping":72},{"user_id":22,"name":"El_Jackso","steam_id":76561198126121555,"connected_time":2690000000000,"state":"active","ping":55},{"user_id":71,"name":"Mr. Rogers","steam_id":76561198296190438,"connected_time":1168000000000,"state":"active","ping":53},{"user_id":78,"name":"no","steam_id":76561198248853140,"connected_time":520000000000,"state":"active","ping":50},{"user_id":26,"name":"[BUFF] Artgrenadier","steam_id":76561198063305359,"connected_time":2643000000000,"state":"active","ping":68},{"user_id":67,"name":"Œõlxium","steam_id":76561198131272900,"connected_time":1389000000000,"state":"active","ping":59},{"user_id":81,"name":"localization files","steam_id":76561197997139225,"connected_time":218000000000,"state":"active","ping":56},{"user_id":73,"name":"notquiteblue","steam_id":76561198838382205,"connected_time":1152000000000,"state":"active","ping":77},{"user_id":76,"name":"GooniOoni","steam_id":76561198102154561,"connected_time":764000000000,"state":"active","ping":46},{"user_id":77,"name":"Majestic-A","steam_id":76561198988062101,"connected_time":757000000000,"state":"active","ping":86},{"user_id":54,"name":"Scoop #ReviveTF2Ware","steam_id":76561197990539611,"connected_time":1935000000000,"state":"active","ping":116}]},{"server_id":38,"name":"Uncletopia | Chicago | 7 | Stopwatch Beta","name_short":"chi-7","host":"chi-2.us.uncletopia.com","port":27035,"enabled":true,"region":"us-central","cc":"us","latitude":41.881832,"longitude":-87.62318,"reserved":0,"last_update":"0001-01-01T00:00:00Z","name_a2s":"Uncletopia | Chicago | 7 | Stopwatch Beta","protocol":17,"map":"cp_sunshine","folder":"tf","game":"Team Fortress","app_id":440,"player_count":23,"max_players":24,"Bots":0,"server_type":"Dedicated","server_os":"Linux","password":true,"vac":true,"version":"7757534","steam_id":85568392924866364,"keywords":["cp","nocrits","nodmgspread","uncletopia"],"game_id":440,"stv_port":27036,"stv_name":"Uncletopia | Chicago | 7 | Stopwatch Beta | STV","players":[{"user_id":196,"name":"Toast","steam_id":76561199207957224,"connected_time":248000000000,"state":"active","ping":87},{"user_id":134,"name":"acid trax","steam_id":76561198041535102,"connected_time":4175000000000,"state":"active","ping":60},{"user_id":140,"name":"It's a me Mario","steam_id":76561199118287796,"connected_time":4048000000000,"state":"active","ping":63},{"user_id":193,"name":"SuaveFrenchman","steam_id":76561198043762683,"connected_time":816000000000,"state":"active","ping":90},{"user_id":197,"name":"Ethereal","steam_id":76561199385170644,"connected_time":102000000000,"state":"active","ping":57},{"user_id":183,"name":"terrapieseven","steam_id":76561198072062415,"connected_time":1412000000000,"state":"active","ping":75},{"user_id":198,"name":"Riis","steam_id":76561199345210632,"connected_time":93000000000,"state":"active","ping":81},{"user_id":186,"name":"Parker","steam_id":76561198046044893,"connected_time":1309000000000,"state":"active","ping":50},{"user_id":195,"name":"Slatt","steam_id":76561198094913841,"connected_time":489000000000,"state":"active","ping":76},{"user_id":187,"name":"mineblast99","steam_id":76561199065648954,"connected_time":1260000000000,"state":"active","ping":75},{"user_id":199,"name":"futu","steam_id":76561199246725367,"connected_time":60000000000,"state":"active","ping":218},{"user_id":163,"name":"Moizturized","steam_id":76561198873850038,"connected_time":2876000000000,"state":"active","ping":76},{"user_id":113,"name":"the horse from schenectady?","steam_id":76561198142756572,"connected_time":5340000000000,"state":"active","ping":59},{"user_id":194,"name":"Gnome Warlord","steam_id":76561199075520017,"connected_time":780000000000,"state":"active","ping":84},{"user_id":191,"name":"1eyedmate","steam_id":76561198880520085,"connected_time":1030000000000,"state":"active","ping":64},{"user_id":86,"name":"next RKTGOD.","steam_id":76561199047187302,"connected_time":6682000000000,"state":"active","ping":51},{"user_id":181,"name":"c64guy","steam_id":76561198023022744,"connected_time":1450000000000,"state":"active","ping":70},{"user_id":190,"name":"TrustworthyStranger","steam_id":76561198154105678,"connected_time":1175000000000,"state":"active","ping":79},{"user_id":156,"name":"hamIV[HM]","steam_id":76561198353574751,"connected_time":3534000000000,"state":"active","ping":71},{"user_id":165,"name":"kametro4","steam_id":76561198835430429,"connected_time":2664000000000,"state":"active","ping":74},{"user_id":166,"name":"G6 1920","steam_id":76561198111669774,"connected_time":2549000000000,"state":"active","ping":45},{"user_id":157,"name":"chicken wit dah eggrow","steam_id":76561198115458307,"connected_time":3360000000000,"state":"active","ping":105},{"user_id":118,"name":"primordialheath","steam_id":76561199386942638,"connected_time":4950000000000,"state":"active","ping":68}]},{"server_id":39,"name":"Uncletopia | Chicago | 8 | Community","name_short":"chi-8","host":"chi-2.us.uncletopia.com","port":27045,"enabled":true,"region":"us-central","cc":"us","latitude":41.881832,"longitude":-87.62318,"reserved":0,"last_update":"0001-01-01T00:00:00Z","name_a2s":"Uncletopia | Chicago | 8 | Community","protocol":17,"map":"pl_pier","folder":"tf","game":"Team Fortress","app_id":440,"player_count":0,"max_players":24,"Bots":0,"server_type":"Dedicated","server_os":"Linux","password":true,"vac":true,"version":"7757534","steam_id":85568392924866365,"keywords":["nocrits","nodmgspread","payload","uncletopia"],"game_id":440,"stv_port":27046,"stv_name":"Uncletopia | Chicago | 8 | Community | STV","players":null},{"server_id":8,"name":"Uncletopia | Dallas | 1 | All Maps","name_short":"dal-1","host":"dal-1.us.uncletopia.com","port":27015,"enabled":true,"region":"us-central","cc":"us","latitude":32.779167,"longitude":-96.80889,"reserved":0,"last_update":"0001-01-01T00:00:00Z","name_a2s":"Uncletopia | Dallas | 1 | All Maps","protocol":17,"map":"koth_harvest_final","folder":"tf","game":"Team Fortress","app_id":440,"player_count":25,"max_players":24,"Bots":0,"server_type":"Dedicated","server_os":"Linux","password":true,"vac":true,"version":"7757534","steam_id":85568392924469986,"keywords":["cp","nocrits","nodmgspread","uncletopia"],"game_id":440,"stv_port":27016,"stv_name":"Uncletopia | Dallas | 1 | All Maps | STV","players":[{"user_id":84,"name":"NotNot","steam_id":76561198195114895,"connected_time":3590000000000,"state":"active","ping":120},{"user_id":60,"name":"Ctrl And F4","steam_id":76561199367935846,"connected_time":5475000000000,"state":"active","ping":66},{"user_id":100,"name":"Motreir","steam_id":76561198151717946,"connected_time":2438000000000,"state":"active","ping":82},{"user_id":71,"name":"yitz","steam_id":76561198375575841,"connected_time":4521000000000,"state":"active","ping":74},{"user_id":118,"name":"567","steam_id":76561198170710713,"connected_time":1004000000000,"state":"active","ping":77},{"user_id":132,"name":"Merach","steam_id":76561197994544587,"connected_time":700000000000,"state":"active","ping":64},{"user_id":32,"name":"Fred","steam_id":76561197983870604,"connected_time":7296000000000,"state":"active","ping":72},{"user_id":146,"name":"norrisluna","steam_id":76561199191001014,"connected_time":1000000000,"state":"spawning","ping":34},{"user_id":80,"name":"Mad Cow‚Äª","steam_id":76561198132498594,"connected_time":4010000000000,"state":"active","ping":72},{"user_id":105,"name":"mikey | I'm Burning Bright!","steam_id":76561198985847893,"connected_time":1985000000000,"state":"active","ping":47},{"user_id":33,"name":"Fishstall","steam_id":76561198038126034,"connected_time":7272000000000,"state":"active","ping":67},{"user_id":130,"name":"Wayside","steam_id":76561198999627870,"connected_time":742000000000,"state":"active","ping":69},{"user_id":57,"name":"exer","steam_id":76561197973093864,"connected_time":5984000000000,"state":"active","ping":78},{"user_id":145,"name":"meggancunningham28","steam_id":76561199029512187,"connected_time":18000000000,"state":"spawning","ping":194},{"user_id":134,"name":"Dr.Long","steam_id":76561198930316713,"connected_time":671000000000,"state":"active","ping":94},{"user_id":136,"name":"rise","steam_id":76561198979494052,"connected_time":643000000000,"state":"active","ping":105},{"user_id":137,"name":"Soy","steam_id":76561198353171475,"connected_time":635000000000,"state":"active","ping":82},{"user_id":131,"name":"a Hippobottomus","steam_id":76561198126853441,"connected_time":730000000000,"state":"active","ping":36},{"user_id":113,"name":"-TL- $W4RM","steam_id":76561198019435762,"connected_time":1395000000000,"state":"active","ping":90},{"user_id":82,"name":"grape","steam_id":76561197993980328,"connected_time":3740000000000,"state":"active","ping":123},{"user_id":111,"name":"Funtimeshadow","steam_id":76561199254055123,"connected_time":1660000000000,"state":"active","ping":66},{"user_id":138,"name":"Quallo","steam_id":76561198976237598,"connected_time":567000000000,"state":"active","ping":57},{"user_id":140,"name":"fudo myoo","steam_id":76561198456258164,"connected_time":396000000000,"state":"active","ping":75},{"user_id":114,"name":"pinglefingle","steam_id":76561198216580197,"connected_time":1104000000000,"state":"active","ping":54},{"user_id":141,"name":"Orange Sylveon","steam_id":76561198179305695,"connected_time":396000000000,"state":"active","ping":61}]},{"server_id":108,"name":"Uncletopia | Dallas | 2 | All Maps","name_short":"dal-2","host":"dal-1.us.uncletopia.com","port":27025,"enabled":true,"region":"us-central","cc":"us","latitude":32.779167,"longitude":-96.80889,"reserved":0,"last_update":"0001-01-01T00:00:00Z","name_a2s":"Uncletopia | Dallas | 2 | All Maps","protocol":17,"map":"cp_altitude","folder":"tf","game":"Team Fortress","app_id":440,"player_count":1,"max_players":24,"Bots":0,"server_type":"Dedicated","server_os":"Linux","password":true,"vac":true,"version":"7757534","steam_id":85568392924469988,"keywords":["cp","nocrits","nodmgspread","uncletopia"],"game_id":440,"stv_port":27026,"stv_name":"Uncletopia | Dallas | 2 | All Maps | STV","players":[{"user_id":15,"name":"SuperVitu64","steam_id":76561199172174151,"connected_time":76000000000,"state":"active","ping":204}]},{"server_id":5,"name":"Uncletopia | Frankfurt | 1 | All Maps","name_short":"frk-1","host":"frk-1.de.uncletopia.com","port":27015,"enabled":true,"region":"eu","cc":"de","latitude":50.110924,"longitude":8.682127,"reserved":0,"last_update":"0001-01-01T00:00:00Z","name_a2s":"Uncletopia | Frankfurt | 1 | All Maps","protocol":17,"map":"pl_badwater","folder":"tf","game":"Team Fortress","app_id":440,"player_count":23,"max_players":24,"Bots":0,"server_type":"Dedicated","server_os":"Linux","password":true,"vac":true,"version":"7757534","steam_id":85568392924469989,"keywords":["nocrits","nodmgspread","payload","uncletopia"],"game_id":440,"stv_port":27016,"stv_name":"Uncletopia | Frankfurt | 1 | All Maps | STV","players":[{"user_id":423,"name":"SocialistBacon","steam_id":76561198055872267,"connected_time":536000000000,"state":"active","ping":81},{"user_id":374,"name":"Thoom Slayer","steam_id":76561198155010055,"connected_time":3164000000000,"state":"active","ping":128},{"user_id":433,"name":"Oxer","steam_id":76561198055942412,"connected_time":99000000000,"state":"active","ping":79},{"user_id":412,"name":"Â∞è„Åï„Å™„Éö„Éã„Çπ„ÅÆÊïóËÄÖ","steam_id":76561198394221491,"connected_time":1306000000000,"state":"active","ping":51},{"user_id":432,"name":"aksu","steam_id":76561198083955517,"connected_time":341000000000,"state":"active","ping":60},{"user_id":396,"name":"Skeletros","steam_id":76561198130969152,"connected_time":2121000000000,"state":"active","ping":135},{"user_id":403,"name":"lukabudimir","steam_id":76561199251950016,"connected_time":2000000000000,"state":"active","ping":78},{"user_id":435,"name":"brtaba","steam_id":76561198796334790,"connected_time":8000000000,"state":"spawning","ping":36},{"user_id":431,"name":"Áå™Ê≠¶ËÄÖ","steam_id":76561198085080008,"connected_time":471000000000,"state":"active","ping":69},{"user_id":402,"name":"„ÉÜ„Ç§„É´„Çπ","steam_id":76561198022403271,"connected_time":2003000000000,"state":"active","ping":45},{"user_id":419,"name":"Major Tom","steam_id":76561198117525443,"connected_time":1016000000000,"state":"active","ping":57},{"user_id":240,"name":"Cippo95","steam_id":76561198255311582,"connected_time":12388000000000,"state":"active","ping":61},{"user_id":401,"name":"rapsterdude","steam_id":76561199388597561,"connected_time":2013000000000,"state":"active","ping":88},{"user_id":424,"name":"BluDiamynt","steam_id":76561198894231340,"connected_time":532000000000,"state":"active","ping":68},{"user_id":406,"name":"ÍßÅ‡ºíXenon‡ºíÍßÇ","steam_id":76561198120502313,"connected_time":1929000000000,"state":"active","ping":72},{"user_id":426,"name":"TJ1212","steam_id":76561199013575313,"connected_time":528000000000,"state":"active","ping":75},{"user_id":427,"name":"cloud","steam_id":76561198179768931,"connected_time":528000000000,"state":"active","ping":60},{"user_id":428,"name":"Drovecz_Hun","steam_id":76561198054703214,"connected_time":515000000000,"state":"active","ping":70},{"user_id":418,"name":"Miton","steam_id":76561197970323209,"connected_time":1138000000000,"state":"active","ping":79},{"user_id":385,"name":"DeadlyFish","steam_id":76561198144617521,"connected_time":2366000000000,"state":"active","ping":89},{"user_id":355,"name":"Killbind yourself now!","steam_id":76561198082502910,"connected_time":4186000000000,"state":"active","ping":48},{"user_id":420,"name":"cazador","steam_id":76561198123096922,"connected_time":800000000000,"state":"active","ping":87},{"user_id":430,"name":"AWJ ÀÜ-ÀÜ","steam_id":76561198053628243,"connected_time":513000000000,"state":"active","ping":58}]},{"server_id":110,"name":"Uncletopia | Frankfurt | 2 | All Maps","name_short":"frk-2","host":"frk-1.de.uncletopia.com","port":27025,"enabled":true,"region":"eu","cc":"de","latitude":50.110924,"longitude":8.682127,"reserved":0,"last_update":"0001-01-01T00:00:00Z","name_a2s":"Uncletopia | Frankfurt | 2 | All Maps","protocol":17,"map":"pl_upward","folder":"tf","game":"Team Fortress","app_id":440,"player_count":24,"max_players":24,"Bots":0,"server_type":"Dedicated","server_os":"Linux","password":true,"vac":true,"version":"7757534","steam_id":85568392924469990,"keywords":["nocrits","nodmgspread","payload","uncletopia"],"game_id":440,"stv_port":27026,"stv_name":"Uncletopia | Frankfurt | 2 | All Maps | STV","players":[{"user_id":269,"name":"bad at gaem","steam_id":76561198072373587,"connected_time":879000000000,"state":"active","ping":68},{"user_id":258,"name":"X45Y","steam_id":76561198112534025,"connected_time":1005000000000,"state":"active","ping":45},{"user_id":260,"name":"ZazyLou_","steam_id":76561198411134617,"connected_time":954000000000,"state":"active","ping":59},{"user_id":257,"name":"Yessirskiii","steam_id":76561198179324075,"connected_time":1242000000000,"state":"active","ping":72},{"user_id":261,"name":"swueuws","steam_id":76561198020716743,"connected_time":943000000000,"state":"active","ping":50},{"user_id":277,"name":"catboy trickster","steam_id":76561198075665211,"connected_time":560000000000,"state":"active","ping":38},{"user_id":211,"name":"Bromoneto","steam_id":76561198876695014,"connected_time":3997000000000,"state":"active","ping":87},{"user_id":54,"name":"Melon","steam_id":76561198150893860,"connected_time":16563000000000,"state":"active","ping":61},{"user_id":262,"name":"POOTISMAN","steam_id":76561197986793136,"connected_time":919000000000,"state":"active","ping":89},{"user_id":270,"name":"Paavo","steam_id":76561198038707190,"connected_time":767000000000,"state":"active","ping":75},{"user_id":161,"name":"estrogen deliver","steam_id":76561198190259726,"connected_time":7250000000000,"state":"active","ping":83},{"user_id":251,"name":"john fortress","steam_id":76561198013237629,"connected_time":1981000000000,"state":"active","ping":107},{"user_id":248,"name":"turtlemode","steam_id":76561198047725928,"connected_time":2047000000000,"state":"active","ping":48},{"user_id":254,"name":"Taez","steam_id":76561198261820803,"connected_time":1559000000000,"state":"active","ping":67},{"user_id":70,"name":"wads","steam_id":76561198175406562,"connected_time":14787000000000,"state":"active","ping":60},{"user_id":194,"name":"PEW-PEW","steam_id":76561199135229478,"connected_time":5035000000000,"state":"active","ping":67},{"user_id":256,"name":"FELHEEE","steam_id":76561197987151150,"connected_time":1312000000000,"state":"active","ping":86},{"user_id":265,"name":"Sinkbroth","steam_id":76561197996214411,"connected_time":899000000000,"state":"active","ping":55},{"user_id":252,"name":"Chrikin","steam_id":76561198416301532,"connected_time":1906000000000,"state":"active","ping":173},{"user_id":272,"name":"ani","steam_id":76561198255413507,"connected_time":734000000000,"state":"active","ping":85},{"user_id":266,"name":".quickfast.","steam_id":76561199438900919,"connected_time":890000000000,"state":"active","ping":56},{"user_id":274,"name":"Doriian","steam_id":76561198071438810,"connected_time":655000000000,"state":"active","ping":75},{"user_id":271,"name":"x-Gingerbeard-x","steam_id":76561198082778140,"connected_time":752000000000,"state":"active","ping":69},{"user_id":278,"name":"MidnightMoth","steam_id":76561198842238362,"connected_time":559000000000,"state":"active","ping":87}]},{"server_id":308,"name":"Uncletopia | Frankfurt | 3 | All Maps","name_short":"frk-3","host":"frk-1.de.uncletopia.com","port":27035,"enabled":true,"region":"eu","cc":"de","latitude":50.110924,"longitude":8.682127,"reserved":0,"last_update":"0001-01-01T00:00:00Z","name_a2s":"Uncletopia | Frankfurt | 3 | All Maps","protocol":17,"map":"cp_well","folder":"tf","game":"Team Fortress","app_id":440,"player_count":18,"max_players":24,"Bots":0,"server_type":"Dedicated","server_os":"Linux","password":true,"vac":true,"version":"7757534","steam_id":85568392924504274,"keywords":["cp","nocrits","nodmgspread","uncletopia"],"game_id":440,"stv_port":27036,"stv_name":"Uncletopia | Frankfurt | 3 | All Maps | STV","players":[{"user_id":501,"name":"Ineluctable Sex Predator","steam_id":76561197995971061,"connected_time":861000000000,"state":"active","ping":87},{"user_id":521,"name":"JeffDrive34","steam_id":76561199044310849,"connected_time":65000000000,"state":"active","ping":74},{"user_id":505,"name":"Pootis Spencer","steam_id":76561198098267117,"connected_time":772000000000,"state":"active","ping":63},{"user_id":516,"name":"Duck_gaming","steam_id":76561198841587079,"connected_time":320000000000,"state":"active","ping":68},{"user_id":520,"name":"ChaosMaster","steam_id":76561198360983155,"connected_time":112000000000,"state":"active","ping":77},{"user_id":522,"name":"Landsknecht","steam_id":76561199293036742,"connected_time":64000000000,"state":"active","ping":57},{"user_id":523,"name":"autistic monkey on lsd","steam_id":76561199198399363,"connected_time":53000000000,"state":"active","ping":44},{"user_id":506,"name":"Ok","steam_id":76561198356826506,"connected_time":731000000000,"state":"active","ping":66},{"user_id":524,"name":"Œ©megA","steam_id":76561198305108990,"connected_time":51000000000,"state":"active","ping":74},{"user_id":485,"name":"Kurage","steam_id":76561198021221288,"connected_time":1798000000000,"state":"active","ping":60},{"user_id":517,"name":"Chris Hansen","steam_id":76561198064811907,"connected_time":242000000000,"state":"active","ping":73},{"user_id":434,"name":"Piros","steam_id":76561198193785653,"connected_time":5246000000000,"state":"active","ping":70},{"user_id":512,"name":"Carrotcracker","steam_id":76561198034862396,"connected_time":537000000000,"state":"active","ping":71},{"user_id":509,"name":"eeeeee","steam_id":76561198017786875,"connected_time":574000000000,"state":"active","ping":60},{"user_id":435,"name":"The Dwarf Who Says Grudge a lot","steam_id":76561197963866545,"connected_time":5238000000000,"state":"active","ping":59},{"user_id":510,"name":"w4gthp0h","steam_id":76561198133193445,"connected_time":573000000000,"state":"active","ping":76},{"user_id":518,"name":"Greenmaker","steam_id":76561198060466591,"connected_time":236000000000,"state":"active","ping":71},{"user_id":507,"name":"Flal","steam_id":76561198453819816,"connected_time":731000000000,"state":"active","ping":54}]},{"server_id":309,"name":"Uncletopia | Frankfurt | 4 | All Maps","name_short":"frk-4","host":"frk-1.de.uncletopia.com","port":27045,"enabled":true,"region":"eu","cc":"de","latitude":50.110924,"longitude":8.682127,"reserved":0,"last_update":"0001-01-01T00:00:00Z","name_a2s":"Uncletopia | Frankfurt | 4 | All Maps","protocol":17,"map":"pl_borneo","folder":"tf","game":"Team Fortress","app_id":440,"player_count":24,"max_players":24,"Bots":0,"server_type":"Dedicated","server_os":"Linux","password":true,"vac":true,"version":"7757534","steam_id":85568392924504275,"keywords":["nocrits","nodmgspread","payload","uncletopia"],"game_id":440,"stv_port":27046,"stv_name":"Uncletopia | Frankfurt | 4 | All Maps | STV","players":[{"user_id":365,"name":"Luke","steam_id":76561197993517025,"connected_time":22000000000,"state":"active","ping":60},{"user_id":257,"name":"Laxslow","steam_id":76561198065361846,"connected_time":5379000000000,"state":"active","ping":56},{"user_id":359,"name":"Skuth","steam_id":76561198041470939,"connected_time":298000000000,"state":"active","ping":143},{"user_id":317,"name":"Mekurukito„ÉÉ","steam_id":76561198414304171,"connected_time":2643000000000,"state":"active","ping":46},{"user_id":303,"name":"where is my egg?","steam_id":76561198172542535,"connected_time":3266000000000,"state":"active","ping":73},{"user_id":358,"name":"war crimes are underated","steam_id":76561198891698133,"connected_time":421000000000,"state":"active","ping":73},{"user_id":280,"name":"InfamousAxe","steam_id":76561198099504739,"connected_time":4736000000000,"state":"active","ping":114},{"user_id":318,"name":"Gjs√∂ekakeurhdkfisgjchjateyvxsr","steam_id":76561198220571256,"connected_time":2643000000000,"state":"active","ping":53},{"user_id":346,"name":"Louis Laurent","steam_id":76561198137856726,"connected_time":1122000000000,"state":"active","ping":94},{"user_id":360,"name":"sudo","steam_id":76561198045575797,"connected_time":279000000000,"state":"active","ping":59},{"user_id":361,"name":"(wm) Das Fleisch","steam_id":76561198001250715,"connected_time":143000000000,"state":"active","ping":55},{"user_id":352,"name":"Vollys","steam_id":76561198018077773,"connected_time":1075000000000,"state":"active","ping":57},{"user_id":343,"name":"Yoio","steam_id":76561198326661498,"connected_time":1507000000000,"state":"active","ping":80},{"user_id":354,"name":"Menty","steam_id":76561198036748212,"connected_time":790000000000,"state":"active","ping":34},{"user_id":355,"name":"Û†Ä°Û†Ä°","steam_id":76561198015585266,"connected_time":784000000000,"state":"active","ping":78},{"user_id":249,"name":"Asgaard","steam_id":76561198026516905,"connected_time":5651000000000,"state":"active","ping":109},{"user_id":350,"name":"AYBERKK","steam_id":76561198846722896,"connected_time":1095000000000,"state":"active","ping":100},{"user_id":366,"name":"=PB=","steam_id":76561197999146612,"connected_time":19000000000,"state":"active","ping":64},{"user_id":353,"name":"Duke Fishlord","steam_id":76561198079928327,"connected_time":957000000000,"state":"active","ping":57},{"user_id":351,"name":"Mr. Hunts","steam_id":76561197981910397,"connected_time":1094000000000,"state":"active","ping":61},{"user_id":326,"name":"Penis Contortionist","steam_id":76561198073663784,"connected_time":2279000000000,"state":"active","ping":55},{"user_id":340,"name":"N00BCSF","steam_id":76561198035530934,"connected_time":1669000000000,"state":"active","ping":74},{"user_id":357,"name":"–î–≤–∞ —Ä–æ—Ñ–ª–∞","steam_id":76561198102091599,"connected_time":566000000000,"state":"active","ping":111},{"user_id":363,"name":"erobrine2","steam_id":76561198173218318,"connected_time":134000000000,"state":"active","ping":49}]},{"server_id":310,"name":"Uncletopia | Frankfurt | 5 | All Maps","name_short":"frk-5","host":"frk-1.de.uncletopia.com","port":27055,"enabled":true,"region":"eu","cc":"de","latitude":50.110924,"longitude":8.682127,"reserved":0,"last_update":"0001-01-01T00:00:00Z","name_a2s":"Uncletopia | Frankfurt | 5 | All Maps","protocol":17,"map":"cp_dustbowl","folder":"tf","game":"Team Fortress","app_id":440,"player_count":0,"max_players":24,"Bots":0,"server_type":"Dedicated","server_os":"Linux","password":true,"vac":true,"version":"7757534","steam_id":85568392924504277,"keywords":["cp","nocrits","nodmgspread","uncletopia"],"game_id":440,"stv_port":27056,"stv_name":"Uncletopia | Frankfurt | 5 | All Maps | STV","players":null},{"server_id":311,"name":"Uncletopia | Frankfurt | 6 | All Maps","name_short":"frk-6","host":"frk-1.de.uncletopia.com","port":27065,"enabled":true,"region":"eu","cc":"de","latitude":50.110924,"longitude":8.682127,"reserved":0,"last_update":"0001-01-01T00:00:00Z","name_a2s":"Uncletopia | Frankfurt | 6 | All Maps","protocol":17,"map":"pl_badwater","folder":"tf","game":"Team Fortress","app_id":440,"player_count":24,"max_players":24,"Bots":0,"server_type":"Dedicated","server_os":"Linux","password":true,"vac":true,"version":"7757534","steam_id":85568392924504278,"keywords":["nocrits","nodmgspread","payload","uncletopia"],"game_id":440,"stv_port":27066,"stv_name":"Uncletopia | Frankfurt | 6 | All Maps | STV","players":[{"user_id":173,"name":"koira","steam_id":76561197996199669,"connected_time":1440000000000,"state":"active","ping":89},{"user_id":189,"name":"luma","steam_id":76561198081649669,"connected_time":727000000000,"state":"active","ping":62},{"user_id":165,"name":"B-Eitros","steam_id":76561198021605503,"connected_time":2375000000000,"state":"active","ping":67},{"user_id":186,"name":"Radio_Active!","steam_id":76561199217286835,"connected_time":1148000000000,"state":"active","ping":90},{"user_id":143,"name":"whatever","steam_id":76561198095943461,"connected_time":4461000000000,"state":"active","ping":60},{"user_id":159,"name":"Realist 40","steam_id":76561198052476979,"connected_time":2914000000000,"state":"active","ping":88},{"user_id":175,"name":"QUASO","steam_id":76561198295305088,"connected_time":1422000000000,"state":"active","ping":59},{"user_id":185,"name":"katzdani","steam_id":76561198843351132,"connected_time":1158000000000,"state":"active","ping":68},{"user_id":194,"name":"Paulo","steam_id":76561198001386978,"connected_time":124000000000,"state":"active","ping":60},{"user_id":176,"name":"SpeddyMeddy","steam_id":76561197999693825,"connected_time":1365000000000,"state":"active","ping":65},{"user_id":178,"name":"purplecan","steam_id":76561199208283508,"connected_time":1340000000000,"state":"active","ping":66},{"user_id":167,"name":"Some Random Guy","steam_id":76561198214459669,"connected_time":2240000000000,"state":"active","ping":79},{"user_id":130,"name":"The Pyro Chef","steam_id":76561198069610259,"connected_time":5604000000000,"state":"active","ping":57},{"user_id":168,"name":"KNARRER","steam_id":76561199130777953,"connected_time":2219000000000,"state":"active","ping":55},{"user_id":81,"name":"Optimist 50","steam_id":76561198039631442,"connected_time":7996000000000,"state":"active","ping":76},{"user_id":79,"name":"galaxy","steam_id":76561198164819022,"connected_time":8013000000000,"state":"active","ping":55},{"user_id":192,"name":"Bentley","steam_id":76561197978252169,"connected_time":476000000000,"state":"active","ping":75},{"user_id":76,"name":"gagalak","steam_id":76561198089979108,"connected_time":8239000000000,"state":"active","ping":90},{"user_id":195,"name":"night.s","steam_id":76561198326287823,"connected_time":72000000000,"state":"active","ping":73},{"user_id":169,"name":"Deacon Dracul","steam_id":76561198046880663,"connected_time":2169000000000,"state":"active","ping":104},{"user_id":181,"name":"Mr.O #deletesniper","steam_id":76561198039567498,"connected_time":1308000000000,"state":"active","ping":60},{"user_id":133,"name":"Asucca","steam_id":76561198084964415,"connected_time":5313000000000,"state":"active","ping":81},{"user_id":187,"name":"System","steam_id":76561199442503973,"connected_time":1143000000000,"state":"active","ping":47},{"user_id":152,"name":"what is an mc if he cant rap?","steam_id":76561198126634202,"connected_time":3706000000000,"state":"active","ping":80}]},{"server_id":23,"name":"Uncletopia | Frankfurt | 7 | Stopwatch Beta","name_short":"frk-7","host":"frk-1.de.uncletopia.com","port":27075,"enabled":true,"region":"eu","cc":"de","latitude":50.110924,"longitude":8.682127,"reserved":0,"last_update":"0001-01-01T00:00:00Z","name_a2s":"Uncletopia | Frankfurt | 7 | Stopwatch Beta","protocol":17,"map":"workshop/koth_ramjam_rc1.ugc459778887","folder":"tf","game":"Team Fortress","app_id":440,"player_count":0,"max_players":24,"Bots":0,"server_type":"Dedicated","server_os":"Linux","password":true,"vac":true,"version":"7757534","steam_id":85568392924742827,"keywords":["cp","nocrits","nodmgspread","uncletopia"],"game_id":440,"stv_port":27076,"stv_name":"Uncletopia | Frankfurt | 7 | Stopwatch Beta | STV","players":null},{"server_id":24,"name":"Uncletopia | Frankfurt | 8 | Community","name_short":"frk-8","host":"frk-1.de.uncletopia.com","port":27085,"enabled":true,"region":"eu","cc":"de","latitude":50.110924,"longitude":8.682127,"reserved":0,"last_update":"0001-01-01T00:00:00Z","name_a2s":"Uncletopia | Frankfurt | 8 | Community","protocol":17,"map":"workshop/cp_caldera_rc2.ugc2834196889","folder":"tf","game":"Team Fortress","app_id":440,"player_count":24,"max_players":24,"Bots":0,"server_type":"Dedicated","server_os":"Linux","password":true,"vac":true,"version":"7757534","steam_id":85568392924742828,"keywords":["cp","nocrits","nodmgspread","uncletopia"],"game_id":440,"stv_port":27086,"stv_name":"Uncletopia | Frankfurt | 8 | Community | STV","players":[{"user_id":385,"name":"Harry","steam_id":76561198046899720,"connected_time":4000000000000,"state":"active","ping":60},{"user_id":407,"name":"Alarmed Felix","steam_id":76561198167208311,"connected_time":2116000000000,"state":"active","ping":59},{"user_id":432,"name":"AFerociousTeddyBearSlayer","steam_id":76561198247447256,"connected_time":946000000000,"state":"active","ping":57},{"user_id":414,"name":"Randomer","steam_id":76561198010533981,"connected_time":1470000000000,"state":"active","ping":71},{"user_id":433,"name":"Soya Suki","steam_id":76561197998106435,"connected_time":628000000000,"state":"active","ping":45},{"user_id":430,"name":"Mr.Schnittlauch","steam_id":76561198295868113,"connected_time":986000000000,"state":"active","ping":60},{"user_id":408,"name":"Taffer","steam_id":76561198883964471,"connected_time":2045000000000,"state":"active","ping":168},{"user_id":401,"name":"‚ô±‚õß Z e a l y ‚õß‚ô±","steam_id":76561198137499463,"connected_time":2661000000000,"state":"active","ping":46},{"user_id":425,"name":"mx dmg","steam_id":76561198320336543,"connected_time":1056000000000,"state":"active","ping":93},{"user_id":395,"name":"Golden Boi","steam_id":76561198325990004,"connected_time":3083000000000,"state":"active","ping":73},{"user_id":376,"name":"Bigfootjinx","steam_id":76561199128050459,"connected_time":4526000000000,"state":"active","ping":165},{"user_id":411,"name":"pretty boy zen mode","steam_id":76561198113239036,"connected_time":1834000000000,"state":"active","ping":73},{"user_id":416,"name":"aspect","steam_id":76561198315032412,"connected_time":1359000000000,"state":"active","ping":60},{"user_id":358,"name":"M. Hulot","steam_id":76561197994284798,"connected_time":5378000000000,"state":"active","ping":50},{"user_id":421,"name":"KenPendersOfficial","steam_id":76561198065112022,"connected_time":1157000000000,"state":"active","ping":107},{"user_id":409,"name":"Wir suchen dich!","steam_id":76561198307613521,"connected_time":1958000000000,"state":"active","ping":46},{"user_id":386,"name":"pretty boy swag","steam_id":76561198208448312,"connected_time":3980000000000,"state":"active","ping":81},{"user_id":428,"name":"Jerry","steam_id":76561198320897424,"connected_time":1020000000000,"state":"active","ping":60},{"user_id":437,"name":"gojoel","steam_id":76561198251181946,"connected_time":290000000000,"state":"active","ping":64},{"user_id":435,"name":"Illu","steam_id":76561198836357938,"connected_time":576000000000,"state":"active","ping":132},{"user_id":431,"name":"indigoneüë®üé§","steam_id":76561198374503618,"connected_time":978000000000,"state":"active","ping":68},{"user_id":402,"name":"my name is jeff the killer yo","steam_id":76561198089401997,"connected_time":2648000000000,"state":"active","ping":72},{"user_id":410,"name":"Gio'sMonkey","steam_id":76561198892432223,"connected_time":1949000000000,"state":"active","ping":98},{"user_id":436,"name":"Red","steam_id":76561198876085813,"connected_time":506000000000,"state":"active","ping":58}]},{"server_id":202,"name":"Uncletopia | Hong Kong | 1 | All Maps","name_short":"hgk-1","host":"hgk-1.hk.uncletopia.com","port":27015,"enabled":true,"region":"asia","cc":"hk","latitude":22.302711,"longitude":114.177216,"reserved":0,"last_update":"0001-01-01T00:00:00Z","name_a2s":"Uncletopia | Hong Kong | 1 | All Maps","protocol":17,"map":"cp_mountainlab","folder":"tf","game":"Team Fortress","app_id":440,"player_count":0,"max_players":24,"Bots":0,"server_type":"Dedicated","server_os":"Linux","password":true,"vac":true,"version":"7757534","steam_id":85568392924494504,"keywords":["cp","nocrits","nodmgspread","uncletopia"],"game_id":440,"stv_port":27016,"stv_name":"Uncletopia | Hong Kong | 1 | All Maps | STV","players":null},{"server_id":1,"name":"Uncletopia | Los Angeles | 1 | All Maps","name_short":"lax-1","host":"lax-1.us.uncletopia.com","port":27015,"enabled":true,"region":"us-west","cc":"us","latitude":33.94279,"longitude":-118.41004,"reserved":0,"last_update":"0001-01-01T00:00:00Z","name_a2s":"Uncletopia | Los Angeles | 1 | All Maps","protocol":17,"map":"cp_snakewater_final1","folder":"tf","game":"Team Fortress","app_id":440,"player_count":0,"max_players":24,"Bots":0,"server_type":"Dedicated","server_os":"Linux","password":true,"vac":true,"version":"7757534","steam_id":85568392924469991,"keywords":["cp","nocrits","nodmgspread","uncletopia"],"game_id":440,"stv_port":27016,"stv_name":"Uncletopia | Los Angeles | 1 | All Maps | STV","players":null},{"server_id":112,"name":"Uncletopia | Los Angeles | 2 | All Maps","name_short":"lax-2","host":"lax-1.us.uncletopia.com","port":27025,"enabled":true,"region":"us-west","cc":"us","latitude":33.94279,"longitude":-118.41004,"reserved":0,"last_update":"0001-01-01T00:00:00Z","name_a2s":"Uncletopia | Los Angeles | 2 | All Maps","protocol":17,"map":"koth_viaduct","folder":"tf","game":"Team Fortress","app_id":440,"player_count":0,"max_players":24,"Bots":0,"server_type":"Dedicated","server_os":"Linux","password":true,"vac":true,"version":"7757534","steam_id":85568392924469992,"keywords":["cp","nocrits","nodmgspread","uncletopia"],"game_id":440,"stv_port":27026,"stv_name":"Uncletopia | Los Angeles | 2 | All Maps | STV","players":null},{"server_id":324,"name":"Uncletopia | Los Angeles | 3 | All Maps","name_short":"lax-3","host":"lax-1.us.uncletopia.com","port":27035,"enabled":true,"region":"us-west","cc":"us","latitude":33.94279,"longitude":-118.41004,"reserved":0,"last_update":"0001-01-01T00:00:00Z","name_a2s":"Uncletopia | Los Angeles | 3 | All Maps","protocol":17,"map":"pl_badwater","folder":"tf","game":"Team Fortress","app_id":440,"player_count":0,"max_players":24,"Bots":0,"server_type":"Dedicated","server_os":"Linux","password":true,"vac":true,"version":"7757534","steam_id":85568392924510198,"keywords":["nocrits","nodmgspread","payload","uncletopia"],"game_id":440,"stv_port":27036,"stv_name":"Uncletopia | Los Angeles | 3 | All Maps | STV","players":null},{"server_id":25,"name":"Uncletopia | Los Angeles | 4 | Stopwatch Beta","name_short":"lax-4","host":"lax-1.us.uncletopia.com","port":27045,"enabled":true,"region":"us-west","cc":"us","latitude":33.94279,"longitude":-118.41004,"reserved":0,"last_update":"0001-01-01T00:00:00Z","name_a2s":"Uncletopia | Los Angeles | 4 | Stopwatch Beta","protocol":17,"map":"koth_viaduct","folder":"tf","game":"Team Fortress","app_id":440,"player_count":0,"max_players":24,"Bots":0,"server_type":"Dedicated","server_os":"Linux","password":true,"vac":true,"version":"7757534","steam_id":85568392924510199,"keywords":["cp","nocrits","nodmgspread","uncletopia"],"game_id":440,"stv_port":27046,"stv_name":"Uncletopia | Los Angeles | 4 | Stopwatch Beta | STV","players":null},{"server_id":11,"name":"Uncletopia | London | 1 | All Maps","name_short":"lon-1","host":"lon-1.uk.uncletopia.com","port":27015,"enabled":true,"region":"eu","cc":"gb","latitude":51.509865,"longitude":-0.118092,"reserved":0,"last_update":"0001-01-01T00:00:00Z","name_a2s":"Uncletopia | London | 1 | All Maps","protocol":17,"map":"cp_steel","folder":"tf","game":"Team Fortress","app_id":440,"player_count":24,"max_players":24,"Bots":0,"server_type":"Dedicated","server_os":"Linux","password":true,"vac":true,"version":"7757534","steam_id":85568392924367362,"keywords":["cp","nocrits","nodmgspread","uncletopia"],"game_id":440,"stv_port":27016,"stv_name":"Uncletopia | London | 1 | All Maps | STV","players":[{"user_id":235,"name":"LordTrap.exe","steam_id":76561198318089716,"connected_time":8022000000000,"state":"active","ping":45},{"user_id":366,"name":"WHUSSKEY","steam_id":76561198137827441,"connected_time":134000000000,"state":"active","ping":82},{"user_id":357,"name":"ivanmixo","steam_id":76561198160213989,"connected_time":752000000000,"state":"active","ping":67},{"user_id":359,"name":"skilltissues","steam_id":76561198025828664,"connected_time":575000000000,"state":"active","ping":59},{"user_id":361,"name":"Tulmius","steam_id":76561198253888461,"connected_time":277000000000,"state":"active","ping":54},{"user_id":364,"name":"KeNNy L.O.L","steam_id":76561198041918418,"connected_time":201000000000,"state":"active","ping":101},{"user_id":344,"name":"MAKENTAKEN","steam_id":76561199127359587,"connected_time":1512000000000,"state":"active","ping":99},{"user_id":353,"name":"Leaf Mate","steam_id":76561199224645309,"connected_time":892000000000,"state":"active","ping":97},{"user_id":345,"name":"Joona","steam_id":76561199170438782,"connected_time":1356000000000,"state":"active","ping":104},{"user_id":365,"name":"cheezus","steam_id":76561198891046692,"connected_time":198000000000,"state":"active","ping":75},{"user_id":301,"name":"cris","steam_id":76561198047662200,"connected_time":3619000000000,"state":"active","ping":58},{"user_id":349,"name":"Tort","steam_id":76561198329646769,"connected_time":1131000000000,"state":"active","ping":54},{"user_id":330,"name":"susq","steam_id":76561198405547143,"connected_time":1897000000000,"state":"active","ping":90},{"user_id":355,"name":"the big purp","steam_id":76561199470626935,"connected_time":859000000000,"state":"active","ping":39},{"user_id":356,"name":"Man URINATES on fellow Passenge","steam_id":76561198983900735,"connected_time":762000000000,"state":"active","ping":61},{"user_id":334,"name":"D3m0no","steam_id":76561198183267067,"connected_time":1824000000000,"state":"active","ping":62},{"user_id":346,"name":"John Daly","steam_id":76561197993849325,"connected_time":1305000000000,"state":"active","ping":69},{"user_id":336,"name":"Tilty üë•","steam_id":76561198141834089,"connected_time":1796000000000,"state":"active","ping":57},{"user_id":313,"name":"Groomable minor","steam_id":76561198345249841,"connected_time":3332000000000,"state":"active","ping":71},{"user_id":307,"name":"Celdis","steam_id":76561198079741434,"connected_time":3529000000000,"state":"active","ping":63},{"user_id":290,"name":"Drsoldier","steam_id":76561198165504766,"connected_time":4448000000000,"state":"active","ping":85},{"user_id":363,"name":"Numroth","steam_id":76561198001100167,"connected_time":256000000000,"state":"active","ping":95},{"user_id":293,"name":"Jack\u003c3","steam_id":76561197968851846,"connected_time":4397000000000,"state":"active","ping":59},{"user_id":348,"name":"Nuuskis","steam_id":76561198084042012,"connected_time":1214000000000,"state":"active","ping":88}]},{"server_id":114,"name":"Uncletopia | London | 2 | All Maps","name_short":"lon-2","host":"lon-1.uk.uncletopia.com","port":27025,"enabled":true,"region":"eu","cc":"gb","latitude":51.509865,"longitude":-0.118092,"reserved":0,"last_update":"0001-01-01T00:00:00Z","name_a2s":"Uncletopia | London | 2 | All Maps","protocol":17,"map":"pl_coal_event","folder":"tf","game":"Team Fortress","app_id":440,"player_count":23,"max_players":24,"Bots":0,"server_type":"Dedicated","server_os":"Linux","password":true,"vac":true,"version":"7757534","steam_id":85568392924470941,"keywords":["nocrits","nodmgspread","payload","uncletopia"],"game_id":440,"stv_port":27026,"stv_name":"Uncletopia | London | 2 | All Maps | STV","players":[{"user_id":520,"name":"renegade raider","steam_id":76561199445584278,"connected_time":471000000000,"state":"active","ping":60},{"user_id":504,"name":"Johnny Cockroach","steam_id":76561198049648277,"connected_time":1515000000000,"state":"active","ping":106},{"user_id":483,"name":"one more time","steam_id":76561198053940216,"connected_time":2321000000000,"state":"active","ping":58},{"user_id":510,"name":"Farmari","steam_id":76561198130132914,"connected_time":1378000000000,"state":"active","ping":66},{"user_id":509,"name":"Lyell","steam_id":76561198350329389,"connected_time":1397000000000,"state":"active","ping":80},{"user_id":512,"name":"Semtilion","steam_id":76561198107642445,"connected_time":1366000000000,"state":"active","ping":105},{"user_id":516,"name":"jaMie","steam_id":76561198170148783,"connected_time":1184000000000,"state":"active","ping":49},{"user_id":450,"name":"Bostrash641","steam_id":76561199447225685,"connected_time":4525000000000,"state":"active","ping":75},{"user_id":515,"name":"CalicoCat12","steam_id":76561198081933130,"connected_time":1210000000000,"state":"active","ping":55},{"user_id":497,"name":"Bruno","steam_id":76561198011340227,"connected_time":1797000000000,"state":"active","ping":60},{"user_id":496,"name":"Pungkrockaren","steam_id":76561198050214002,"connected_time":1927000000000,"state":"active","ping":67},{"user_id":507,"name":"Kitten","steam_id":76561198019027657,"connected_time":1413000000000,"state":"active","ping":81},{"user_id":518,"name":"_zipfile","steam_id":76561198066133808,"connected_time":684000000000,"state":"active","ping":62},{"user_id":517,"name":"Dr. Le Quack","steam_id":76561197995711176,"connected_time":764000000000,"state":"active","ping":97},{"user_id":481,"name":"GuSkand","steam_id":76561198043775605,"connected_time":2418000000000,"state":"active","ping":96},{"user_id":491,"name":"Tax fraud gaming","steam_id":76561198426628935,"connected_time":2155000000000,"state":"active","ping":68},{"user_id":492,"name":"Salty dodo","steam_id":76561198992829873,"connected_time":2154000000000,"state":"active","ping":80},{"user_id":501,"name":"SyborgCat","steam_id":76561198286846816,"connected_time":1562000000000,"state":"active","ping":157},{"user_id":494,"name":"flange","steam_id":76561198040182692,"connected_time":1988000000000,"state":"active","ping":46},{"user_id":502,"name":"geo_eo112","steam_id":76561198157082747,"connected_time":1561000000000,"state":"active","ping":68},{"user_id":513,"name":"Viral Pink Sauce","steam_id":76561198174510235,"connected_time":1364000000000,"state":"active","ping":57},{"user_id":413,"name":"Cumbustible Punda #SaveTF2","steam_id":76561197974274677,"connected_time":7828000000000,"state":"active","ping":60},{"user_id":519,"name":"Dirty Dom","steam_id":76561198043745396,"connected_time":679000000000,"state":"active","ping":75}]},{"server_id":320,"name":"Uncletopia | London | 3 | All Maps","name_short":"lon-3","host":"lon-1.uk.uncletopia.com","port":27035,"enabled":true,"region":"eu","cc":"gb","latitude":51.509865,"longitude":-0.118092,"reserved":0,"last_update":"0001-01-01T00:00:00Z","name_a2s":"Uncletopia | London | 3 | All Maps","protocol":17,"map":"pl_badwater","folder":"tf","game":"Team Fortress","app_id":440,"player_count":23,"max_players":24,"Bots":0,"server_type":"Dedicated","server_os":"Linux","password":true,"vac":true,"version":"7757534","steam_id":85568392924510192,"keywords":["nocrits","nodmgspread","payload","uncletopia"],"game_id":440,"stv_port":27036,"stv_name":"Uncletopia | London | 3 | All Maps | STV","players":[{"user_id":189,"name":"ducks","steam_id":76561198166148685,"connected_time":3153000000000,"state":"active","ping":30},{"user_id":209,"name":"Solymr ibn Wali Barad","steam_id":76561198044008976,"connected_time":2501000000000,"state":"active","ping":64},{"user_id":211,"name":"Koi-Koi","steam_id":76561198045527771,"connected_time":2101000000000,"state":"active","ping":54},{"user_id":206,"name":"Speibsackerl","steam_id":76561198058135257,"connected_time":2656000000000,"state":"active","ping":110},{"user_id":220,"name":"goreston","steam_id":76561197964666781,"connected_time":1496000000000,"state":"active","ping":50},{"user_id":228,"name":"MaypulSoyrup","steam_id":76561199213966821,"connected_time":685000000000,"state":"active","ping":103},{"user_id":199,"name":"Jughead","steam_id":76561198000355410,"connected_time":2937000000000,"state":"active","ping":48},{"user_id":221,"name":"simon","steam_id":76561198880361394,"connected_time":1489000000000,"state":"active","ping":64},{"user_id":231,"name":"sondi","steam_id":76561198045466209,"connected_time":349000000000,"state":"active","ping":75},{"user_id":215,"name":"aliquam.games","steam_id":76561198834270944,"connected_time":1771000000000,"state":"active","ping":104},{"user_id":236,"name":"Vestige","steam_id":76561198255752919,"connected_time":313000000000,"state":"active","ping":71},{"user_id":233,"name":"Noob_with_source","steam_id":76561198870362103,"connected_time":335000000000,"state":"active","ping":57},{"user_id":222,"name":"enesven","steam_id":76561199466839845,"connected_time":1488000000000,"state":"active","ping":88},{"user_id":216,"name":"Zogg","steam_id":76561198352683491,"connected_time":1767000000000,"state":"active","ping":42},{"user_id":203,"name":"Ged","steam_id":76561198079288943,"connected_time":2849000000000,"state":"active","ping":138},{"user_id":208,"name":"walking sentry","steam_id":76561199225363633,"connected_time":2624000000000,"state":"active","ping":106},{"user_id":238,"name":"Huncraft 12","steam_id":76561198304495095,"connected_time":309000000000,"state":"active","ping":82},{"user_id":204,"name":"Dolcelatte","steam_id":76561198038501770,"connected_time":2812000000000,"state":"active","ping":61},{"user_id":224,"name":"Udinese Dion","steam_id":76561198067931573,"connected_time":1474000000000,"state":"active","ping":55},{"user_id":239,"name":"Sam Fisher","steam_id":76561198364121077,"connected_time":300000000000,"state":"active","ping":93},{"user_id":186,"name":"Paddyhammer","steam_id":76561198073195747,"connected_time":3300000000000,"state":"active","ping":57},{"user_id":193,"name":"43291842381","steam_id":76561198038160325,"connected_time":3101000000000,"state":"active","ping":80},{"user_id":225,"name":"let me cook","steam_id":76561198010380786,"connected_time":1213000000000,"state":"active","ping":49}]},{"server_id":321,"name":"Uncletopia | London | 4 | All Maps","name_short":"lon-4","host":"lon-1.uk.uncletopia.com","port":27045,"enabled":true,"region":"eu","cc":"gb","latitude":51.509865,"longitude":-0.118092,"reserved":0,"last_update":"0001-01-01T00:00:00Z","name_a2s":"Uncletopia | London | 4 | All Maps","protocol":17,"map":"cp_yukon_final","folder":"tf","game":"Team Fortress","app_id":440,"player_count":24,"max_players":24,"Bots":0,"server_type":"Dedicated","server_os":"Linux","password":true,"vac":true,"version":"7757534","steam_id":85568392924510193,"keywords":["cp","nocrits","nodmgspread","uncletopia"],"game_id":440,"stv_port":27046,"stv_name":"Uncletopia | London | 4 | All Maps | STV","players":[{"user_id":155,"name":"MelvinIsANiceBoy","steam_id":76561198178415634,"connected_time":1712000000000,"state":"active","ping":50},{"user_id":180,"name":"Trailing","steam_id":76561198220365329,"connected_time":874000000000,"state":"active","ping":50},{"user_id":120,"name":"Mr. Mundy","steam_id":76561198132008918,"connected_time":4782000000000,"state":"active","ping":85},{"user_id":126,"name":"Xiqui","steam_id":76561198818386611,"connected_time":3977000000000,"state":"active","ping":75},{"user_id":186,"name":"E","steam_id":76561198166340115,"connected_time":801000000000,"state":"active","ping":62},{"user_id":179,"name":"chocolate flavoured femboy","steam_id":76561198819353867,"connected_time":912000000000,"state":"active","ping":39},{"user_id":173,"name":"Laax","steam_id":76561198938409558,"connected_time":1210000000000,"state":"active","ping":99},{"user_id":177,"name":"Fresh_Slav","steam_id":76561198018034575,"connected_time":1086000000000,"state":"active","ping":97},{"user_id":153,"name":"disc0rd","steam_id":76561197985965776,"connected_time":1735000000000,"state":"active","ping":63},{"user_id":193,"name":"zak","steam_id":76561197998895428,"connected_time":243000000000,"state":"active","ping":60},{"user_id":192,"name":"‡∂ûbominasus 2137  #SaveTF2","steam_id":76561198030062981,"connected_time":361000000000,"state":"active","ping":74},{"user_id":181,"name":"Witor","steam_id":76561198127584681,"connected_time":872000000000,"state":"active","ping":85},{"user_id":98,"name":"Hexagon","steam_id":76561198151205758,"connected_time":5801000000000,"state":"active","ping":59},{"user_id":176,"name":"rmz.ssj","steam_id":76561198329613930,"connected_time":1105000000000,"state":"active","ping":60},{"user_id":194,"name":"deepfried antifreeze | trade.tf","steam_id":76561198452844269,"connected_time":239000000000,"state":"active","ping":39},{"user_id":158,"name":"Nick","steam_id":76561198036109469,"connected_time":1654000000000,"state":"active","ping":105},{"user_id":166,"name":"Microwave","steam_id":76561198149765329,"connected_time":1549000000000,"state":"active","ping":64},{"user_id":124,"name":"zazuza","steam_id":76561198049820905,"connected_time":4231000000000,"state":"active","ping":75},{"user_id":182,"name":"arcSolver","steam_id":76561198212013944,"connected_time":862000000000,"state":"active","ping":56},{"user_id":190,"name":"Sixten the Pale","steam_id":76561197981806008,"connected_time":479000000000,"state":"active","ping":69},{"user_id":183,"name":"duuuuutch","steam_id":76561199062586342,"connected_time":823000000000,"state":"active","ping":70},{"user_id":191,"name":"jovi_","steam_id":76561198449280552,"connected_time":426000000000,"state":"active","ping":54},{"user_id":170,"name":"Phiphler","steam_id":76561197994055715,"connected_time":1528000000000,"state":"active","ping":71},{"user_id":185,"name":"FJADL","steam_id":76561198237008214,"connected_time":818000000000,"state":"active","ping":60}]},{"server_id":21,"name":"Uncletopia | London | 5 | All Maps","name_short":"lon-5","host":"lon-1.uk.uncletopia.com","port":27055,"enabled":true,"region":"eu","cc":"gb","latitude":51.509865,"longitude":-0.118092,"reserved":0,"last_update":"0001-01-01T00:00:00Z","name_a2s":"Uncletopia | London | 5 | All Maps","protocol":17,"map":"koth_viaduct","folder":"tf","game":"Team Fortress","app_id":440,"player_count":9,"max_players":24,"Bots":0,"server_type":"Dedicated","server_os":"Linux","password":true,"vac":true,"version":"7757534","steam_id":85568392924742829,"keywords":["cp","nocrits","nodmgspread","uncletopia"],"game_id":440,"stv_port":27056,"stv_name":"Uncletopia | London | 5 | All Maps | STV","players":[{"user_id":590,"name":"Ach Wheesht","steam_id":76561197996993222,"connected_time":365000000000,"state":"active","ping":32},{"user_id":596,"name":"Ze","steam_id":76561198314901652,"connected_time":161000000000,"state":"active","ping":67},{"user_id":597,"name":"CKenny.js","steam_id":76561198063245962,"connected_time":153000000000,"state":"active","ping":101},{"user_id":578,"name":"Swedde","steam_id":76561198297296440,"connected_time":772000000000,"state":"active","ping":72},{"user_id":594,"name":"Engi-Nearing","steam_id":76561199221172552,"connected_time":246000000000,"state":"active","ping":56},{"user_id":593,"name":"garbage mikuknight","steam_id":76561198361819054,"connected_time":348000000000,"state":"active","ping":101},{"user_id":595,"name":"Pigeonhunter","steam_id":76561198109881524,"connected_time":207000000000,"state":"active","ping":165},{"user_id":585,"name":"Kahvi","steam_id":76561198723244199,"connected_time":508000000000,"state":"active","ping":76},{"user_id":587,"name":"NotFionn","steam_id":76561198890525176,"connected_time":470000000000,"state":"active","ping":75}]},{"server_id":22,"name":"Uncletopia | London | 6 | All Maps","name_short":"lon-6","host":"lon-1.uk.uncletopia.com","port":27065,"enabled":true,"region":"eu","cc":"gb","latitude":51.509865,"longitude":-0.118092,"reserved":0,"last_update":"0001-01-01T00:00:00Z","name_a2s":"Uncletopia | London | 6 | All Maps","protocol":17,"map":"koth_harvest_final","folder":"tf","game":"Team Fortress","app_id":440,"player_count":24,"max_players":24,"Bots":0,"server_type":"Dedicated","server_os":"Linux","password":true,"vac":true,"version":"7757534","steam_id":85568392924742830,"keywords":["cp","nocrits","nodmgspread","uncletopia"],"game_id":440,"stv_port":27066,"stv_name":"Uncletopia | London | 6 | All Maps | STV","players":[{"user_id":152,"name":"Lore","steam_id":76561199065520497,"connected_time":897000000000,"state":"active","ping":152},{"user_id":155,"name":"tactical783","steam_id":76561199051688560,"connected_time":856000000000,"state":"active","ping":100},{"user_id":172,"name":"JujuBalu","steam_id":76561198207253071,"connected_time":97000000000,"state":"active","ping":35},{"user_id":100,"name":"Priceybay","steam_id":76561198055389492,"connected_time":4639000000000,"state":"active","ping":41},{"user_id":168,"name":":)","steam_id":76561198039964082,"connected_time":475000000000,"state":"active","ping":60},{"user_id":145,"name":"Jacquouille la Fripouille","steam_id":76561199269042680,"connected_time":1459000000000,"state":"active","ping":53},{"user_id":158,"name":"THAID","steam_id":76561198880370039,"connected_time":799000000000,"state":"active","ping":60},{"user_id":157,"name":"gibb","steam_id":76561198074097655,"connected_time":825000000000,"state":"active","ping":40},{"user_id":115,"name":"Lord Maldimort","steam_id":76561198063150039,"connected_time":3646000000000,"state":"active","ping":64},{"user_id":105,"name":"Matomatic","steam_id":76561198063013603,"connected_time":4368000000000,"state":"active","ping":57},{"user_id":173,"name":"Dute dracu","steam_id":76561198318271657,"connected_time":26000000000,"state":"active","ping":112},{"user_id":25,"name":"lisivi","steam_id":76561198365503306,"connected_time":10184000000000,"state":"active","ping":51},{"user_id":124,"name":"drew","steam_id":76561198012304706,"connected_time":2630000000000,"state":"active","ping":91},{"user_id":164,"name":"Kean","steam_id":76561198147081884,"connected_time":628000000000,"state":"active","ping":135},{"user_id":142,"name":"Bumblebee","steam_id":76561198033551105,"connected_time":1715000000000,"state":"active","ping":70},{"user_id":160,"name":"HimpoX","steam_id":76561198043946778,"connected_time":722000000000,"state":"active","ping":94},{"user_id":161,"name":"juupel","steam_id":76561198000562317,"connected_time":701000000000,"state":"active","ping":79},{"user_id":143,"name":"Weeb exterminator","steam_id":76561198078964973,"connected_time":1711000000000,"state":"active","ping":86},{"user_id":162,"name":"YourDoom","steam_id":76561198080790857,"connected_time":658000000000,"state":"active","ping":37},{"user_id":174,"name":"0xDEADBEEF","steam_id":76561199075416111,"connected_time":24000000000,"state":"active","ping":73},{"user_id":165,"name":"porridge","steam_id":76561198044585737,"connected_time":620000000000,"state":"active","ping":46},{"user_id":138,"name":"MEDiUM","steam_id":76561198112328561,"connected_time":1849000000000,"state":"active","ping":89},{"user_id":166,"name":"Roboolet","steam_id":76561198107353953,"connected_time":596000000000,"state":"active","ping":49},{"user_id":133,"name":"vi","steam_id":76561198303147966,"connected_time":2380000000000,"state":"active","ping":48}]},{"server_id":40,"name":"Uncletopia | London | 7 | No Payload","name_short":"lon-7","host":"lon-1.uk.uncletopia.com","port":27075,"enabled":true,"region":"eu","cc":"gb","latitude":51.509865,"longitude":-0.118092,"reserved":0,"last_update":"0001-01-01T00:00:00Z","name_a2s":"Uncletopia | London | 7 | No Payload","protocol":17,"map":"koth_harvest_final","folder":"tf","game":"Team Fortress","app_id":440,"player_count":24,"max_players":24,"Bots":0,"server_type":"Dedicated","server_os":"Linux","password":true,"vac":true,"version":"7757534","steam_id":85568392924964314,"keywords":["cp","nocrits","nodmgspread","uncletopia"],"game_id":440,"stv_port":27076,"stv_name":"Uncletopia | London | 7 | No Payload | STV","players":[{"user_id":396,"name":"„Åä„ÇÇ„Å°„ÇÉ","steam_id":76561198073494558,"connected_time":1380000000000,"state":"active","ping":62},{"user_id":389,"name":"{WoC}Seraphim","steam_id":76561198153446727,"connected_time":1588000000000,"state":"active","ping":71},{"user_id":384,"name":"Allereinan","steam_id":76561198342239906,"connected_time":1973000000000,"state":"active","ping":101},{"user_id":276,"name":"Schlumi","steam_id":76561197985385129,"connected_time":7696000000000,"state":"active","ping":67},{"user_id":375,"name":"Welder","steam_id":76561198355300561,"connected_time":2484000000000,"state":"active","ping":68},{"user_id":413,"name":"gjhkgfkjfh","steam_id":76561198031181349,"connected_time":96000000000,"state":"active","ping":92},{"user_id":376,"name":"Pan Pan","steam_id":76561199074670515,"connected_time":2406000000000,"state":"active","ping":87},{"user_id":410,"name":"xddinside","steam_id":76561198037237664,"connected_time":540000000000,"state":"active","ping":81},{"user_id":386,"name":"Topme","steam_id":76561198091734693,"connected_time":1927000000000,"state":"active","ping":75},{"user_id":378,"name":"kapitan szczurros","steam_id":76561198156061143,"connected_time":2344000000000,"state":"active","ping":98},{"user_id":411,"name":"Poppy Stingray","steam_id":76561198049673783,"connected_time":507000000000,"state":"active","ping":63},{"user_id":405,"name":"2shay","steam_id":76561198094467900,"connected_time":1089000000000,"state":"active","ping":45},{"user_id":380,"name":"holykyckling","steam_id":76561198040661615,"connected_time":2191000000000,"state":"active","ping":82},{"user_id":401,"name":"Cosmetic brain","steam_id":76561198055936410,"connected_time":1234000000000,"state":"active","ping":87},{"user_id":360,"name":"tobia s","steam_id":76561198212620899,"connected_time":3358000000000,"state":"active","ping":55},{"user_id":381,"name":"saml","steam_id":76561198040716257,"connected_time":2184000000000,"state":"active","ping":78},{"user_id":404,"name":"Soloman","steam_id":76561199212054667,"connected_time":1187000000000,"state":"active","ping":45},{"user_id":399,"name":"Xi√†nhu√≤ y√¨ji√†","steam_id":76561198964097305,"connected_time":1300000000000,"state":"active","ping":39},{"user_id":408,"name":"TERMINATION ATTEMPT","steam_id":76561199102985277,"connected_time":1022000000000,"state":"active","ping":174},{"user_id":383,"name":"Zee","steam_id":76561199229870438,"connected_time":1993000000000,"state":"active","ping":163},{"user_id":412,"name":"gorp enyojer","steam_id":76561198044293799,"connected_time":225000000000,"state":"active","ping":66},{"user_id":323,"name":"Estrogen Overdoser","steam_id":76561199030306982,"connected_time":5080000000000,"state":"active","ping":79},{"user_id":357,"name":"Xarzni","steam_id":76561198084880661,"connected_time":3487000000000,"state":"active","ping":107},{"user_id":414,"name":"dash.","steam_id":76561198084796149,"connected_time":72000000000,"state":"active","ping":46}]},{"server_id":41,"name":"Uncletopia | London | 8 | Community","name_short":"lon-8","host":"lon-1.uk.uncletopia.com","port":27085,"enabled":true,"region":"eu","cc":"gb","latitude":51.509865,"longitude":-0.118092,"reserved":0,"last_update":"0001-01-01T00:00:00Z","name_a2s":"Uncletopia | London | 8 | Community","protocol":17,"map":"workshop/cp_sulfur_rc2.ugc619869471","folder":"tf","game":"Team Fortress","app_id":440,"player_count":0,"max_players":24,"Bots":0,"server_type":"Dedicated","server_os":"Linux","password":true,"vac":true,"version":"7757534","steam_id":85568392924964315,"keywords":["cp","nocrits","nodmgspread","uncletopia"],"game_id":440,"stv_port":27086,"stv_name":"Uncletopia | London | 8 | Community | STV","players":null},{"server_id":300,"name":"Uncletopia | Montr√©al | 1 | All Maps","name_short":"mtl-1","host":"mtl-1.ca.uncletopia.com","port":27015,"enabled":true,"region":"us-east","cc":"ca","latitude":45.50889,"longitude":-73.56167,"reserved":0,"last_update":"0001-01-01T00:00:00Z","name_a2s":"Uncletopia | Montr√©al | 1 | All Maps","protocol":17,"map":"koth_cascade","folder":"tf","game":"Team Fortress","app_id":440,"player_count":2,"max_players":24,"Bots":0,"server_type":"Dedicated","server_os":"Linux","password":true,"vac":true,"version":"7757534","steam_id":85568392924500087,"keywords":["cp","nocrits","nodmgspread","uncletopia"],"game_id":440,"stv_port":27016,"stv_name":"Uncletopia | Montr√©al | 1 | All Maps | STV","players":[{"user_id":5,"name":"Toad from Mario Kart 64","steam_id":76561198830067943,"connected_time":249000000000,"state":"active","ping":61},{"user_id":6,"name":"Herobrine","steam_id":76561198321415080,"connected_time":16000000000,"state":"spawning","ping":47}]},{"server_id":301,"name":"Uncletopia | Montr√©al | 2 | All Maps","name_short":"mtl-2","host":"mtl-1.ca.uncletopia.com","port":27025,"enabled":true,"region":"us-east","cc":"ca","latitude":45.50889,"longitude":-73.56167,"reserved":0,"last_update":"0001-01-01T00:00:00Z","name_a2s":"Uncletopia | Montr√©al | 2 | All Maps","protocol":17,"map":"pl_swiftwater_final1","folder":"tf","game":"Team Fortress","app_id":440,"player_count":3,"max_players":24,"Bots":0,"server_type":"Dedicated","server_os":"Linux","password":true,"vac":true,"version":"7757534","steam_id":85568392924500088,"keywords":["nocrits","nodmgspread","payload","uncletopia"],"game_id":440,"stv_port":27026,"stv_name":"Uncletopia | Montr√©al | 2 | All Maps | STV","players":[{"user_id":17,"name":"FreonAddict9x19","steam_id":76561198060010824,"connected_time":2489000000000,"state":"active","ping":63},{"user_id":23,"name":"tabasco","steam_id":76561198355094896,"connected_time":189000000000,"state":"active","ping":64},{"user_id":20,"name":"Doggo","steam_id":76561198313355373,"connected_time":1131000000000,"state":"active","ping":129}]},{"server_id":302,"name":"Uncletopia | Montr√©al | 3 | All Maps","name_short":"mtl-3","host":"mtl-1.ca.uncletopia.com","port":27035,"enabled":true,"region":"us-east","cc":"ca","latitude":45.50889,"longitude":-73.56167,"reserved":0,"last_update":"0001-01-01T00:00:00Z","name_a2s":"Uncletopia | Montr√©al | 3 | All Maps","protocol":17,"map":"pl_snowycoast","folder":"tf","game":"Team Fortress","app_id":440,"player_count":0,"max_players":24,"Bots":0,"server_type":"Dedicated","server_os":"Linux","password":true,"vac":true,"version":"7757534","steam_id":85568392924500089,"keywords":["nocrits","nodmgspread","payload","uncletopia"],"game_id":440,"stv_port":27036,"stv_name":"Uncletopia | Montr√©al | 3 | All Maps | STV","players":null},{"server_id":303,"name":"Uncletopia | Montr√©al | 4 | No Payload","name_short":"mtl-4","host":"mtl-1.ca.uncletopia.com","port":27045,"enabled":true,"region":"us-east","cc":"ca","latitude":45.50889,"longitude":-73.56167,"reserved":0,"last_update":"0001-01-01T00:00:00Z","name_a2s":"Uncletopia | Montr√©al | 4 | No Payload","protocol":17,"map":"koth_lakeside_final","folder":"tf","game":"Team Fortress","app_id":440,"player_count":0,"max_players":24,"Bots":0,"server_type":"Dedicated","server_os":"Linux","password":true,"vac":true,"version":"7757534","steam_id":85568392924500090,"keywords":["cp","nocrits","nodmgspread","uncletopia"],"game_id":440,"stv_port":27046,"stv_name":"Uncletopia | Montr√©al | 4 | No Payload | STV","players":null},{"server_id":13,"name":"Uncletopia | New York City | 1 | All Maps","name_short":"nyc-1","host":"nyc-1.us.uncletopia.com","port":27015,"enabled":true,"region":"us-east","cc":"us","latitude":40.73061,"longitude":-73.93524,"reserved":0,"last_update":"0001-01-01T00:00:00Z","name_a2s":"Uncletopia | New York City | 1 | All Maps","protocol":17,"map":"pl_upward","folder":"tf","game":"Team Fortress","app_id":440,"player_count":24,"max_players":24,"Bots":0,"server_type":"Dedicated","server_os":"Linux","password":true,"vac":true,"version":"7757534","steam_id":85568392924469993,"keywords":["nocrits","nodmgspread","payload","uncletopia"],"game_id":440,"stv_port":27016,"stv_name":"Uncletopia | New York City | 1 | All Maps | STV","players":[{"user_id":8,"name":"kel","steam_id":76561199153923345,"connected_time":3510000000000,"state":"active","ping":101},{"user_id":11,"name":"-W3E- grim10465","steam_id":76561198045698581,"connected_time":2409000000000,"state":"active","ping":33},{"user_id":12,"name":"mixelmaster8","steam_id":76561198873846318,"connected_time":2278000000000,"state":"active","ping":85},{"user_id":29,"name":"Princess Peach","steam_id":76561198260272240,"connected_time":1565000000000,"state":"active","ping":131},{"user_id":15,"name":"Joe Burning","steam_id":76561198208623275,"connected_time":2188000000000,"state":"active","ping":93},{"user_id":16,"name":"MrSpiffy","steam_id":76561198303596449,"connected_time":2120000000000,"state":"active","ping":78},{"user_id":17,"name":"Hoopla","steam_id":76561198327775508,"connected_time":1996000000000,"state":"active","ping":45},{"user_id":49,"name":"Obama F. Kennedy","steam_id":76561198282499318,"connected_time":808000000000,"state":"active","ping":52},{"user_id":54,"name":"Lord GabeN","steam_id":76561198140862723,"connected_time":486000000000,"state":"active","ping":84},{"user_id":33,"name":"specialinsect","steam_id":76561198324718706,"connected_time":1454000000000,"state":"active","ping":60},{"user_id":52,"name":"awesome","steam_id":76561198248656836,"connected_time":727000000000,"state":"active","ping":83},{"user_id":23,"name":"Seru","steam_id":76561199219827214,"connected_time":1744000000000,"state":"active","ping":79},{"user_id":53,"name":"tom fool","steam_id":76561198311704368,"connected_time":620000000000,"state":"active","ping":61},{"user_id":25,"name":"Prolapse of Judgement","steam_id":76561197982908898,"connected_time":1651000000000,"state":"active","ping":53},{"user_id":30,"name":"Motorol¬™","steam_id":76561198358119669,"connected_time":1522000000000,"state":"active","ping":119},{"user_id":27,"name":"Matt","steam_id":76561198008108521,"connected_time":1633000000000,"state":"active","ping":57},{"user_id":28,"name":"dicksnip","steam_id":76561198356515396,"connected_time":1611000000000,"state":"active","ping":98},{"user_id":56,"name":"kiki","steam_id":76561198838277022,"connected_time":368000000000,"state":"active","ping":155},{"user_id":34,"name":"The man who sold 2Fort","steam_id":76561199100003132,"connected_time":1449000000000,"state":"active","ping":136},{"user_id":39,"name":"Skweezy Jibbs","steam_id":76561198095452955,"connected_time":1305000000000,"state":"active","ping":60},{"user_id":48,"name":"Cult classic","steam_id":76561198802356746,"connected_time":1048000000000,"state":"active","ping":119},{"user_id":46,"name":"Bulk","steam_id":76561199009814535,"connected_time":1197000000000,"state":"active","ping":50},{"user_id":57,"name":"simplyhere141","steam_id":76561199204117948,"connected_time":129000000000,"state":"active","ping":46},{"user_id":50,"name":"Lucille_Bluth","steam_id":76561198206133916,"connected_time":799000000000,"state":"active","ping":71}]},{"server_id":14,"name":"Uncletopia | New York City | 2 | All Maps","name_short":"nyc-2","host":"nyc-1.us.uncletopia.com","port":27025,"enabled":true,"region":"us-east","cc":"us","latitude":40.73061,"longitude":-73.93524,"reserved":0,"last_update":"0001-01-01T00:00:00Z","name_a2s":"Uncletopia | New York City | 2 | All Maps","protocol":17,"map":"koth_highpass","folder":"tf","game":"Team Fortress","app_id":440,"player_count":1,"max_players":24,"Bots":0,"server_type":"Dedicated","server_os":"Linux","password":true,"vac":true,"version":"7757534","steam_id":85568392924469994,"keywords":["cp","nocrits","nodmgspread","uncletopia"],"game_id":440,"stv_port":27026,"stv_name":"Uncletopia | New York City | 2 | All Maps | STV","players":[{"user_id":16,"name":"Knightking309","steam_id":76561199076546834,"connected_time":19000000000,"state":"active","ping":96}]},{"server_id":15,"name":"Uncletopia | New York City | 3 | Stopwatch Beta","name_short":"nyc-3","host":"nyc-1.us.uncletopia.com","port":27035,"enabled":true,"region":"us-east","cc":"us","latitude":40.73061,"longitude":-73.93524,"reserved":0,"last_update":"0001-01-01T00:00:00Z","name_a2s":"Uncletopia | New York City | 3 | Stopwatch Beta","protocol":17,"map":"koth_highpass","folder":"tf","game":"Team Fortress","app_id":440,"player_count":0,"max_players":24,"Bots":0,"server_type":"Dedicated","server_os":"Linux","password":true,"vac":true,"version":"7757534","steam_id":85568392924742820,"keywords":["cp","nocrits","nodmgspread","uncletopia"],"game_id":440,"stv_port":27036,"stv_name":"Uncletopia | New York City | 3 | Stopwatch Beta | STV","players":null},{"server_id":16,"name":"Uncletopia | New York City | 4 | Community","name_short":"nyc-4","host":"nyc-1.us.uncletopia.com","port":27045,"enabled":true,"region":"us-east","cc":"us","latitude":40.73061,"longitude":-73.93524,"reserved":0,"last_update":"0001-01-01T00:00:00Z","name_a2s":"Uncletopia | New York City | 4 | Community","protocol":17,"map":"workshop/koth_bagel_rc5.ugc2514036946","folder":"tf","game":"Team Fortress","app_id":440,"player_count":0,"max_players":24,"Bots":0,"server_type":"Dedicated","server_os":"Linux","password":true,"vac":true,"version":"7757534","steam_id":85568392924742821,"keywords":["cp","nocrits","nodmgspread","uncletopia"],"game_id":440,"stv_port":27046,"stv_name":"Uncletopia | New York City | 4 | Community | STV","players":null},{"server_id":142,"name":"Uncletopia | S√£o Paulo | 1 | All Maps","name_short":"sao-1","host":"sao-1.br.uncletopia.com","port":27015,"enabled":true,"region":"sa","cc":"br","latitude":-23.533773,"longitude":-46.62529,"reserved":0,"last_update":"0001-01-01T00:00:00Z","name_a2s":"Uncletopia | S√£o Paulo | 1 | All Maps","protocol":17,"map":"pl_upward","folder":"tf","game":"Team Fortress","app_id":440,"player_count":0,"max_players":24,"Bots":0,"server_type":"Dedicated","server_os":"Linux","password":true,"vac":true,"version":"7757534","steam_id":85568392924469996,"keywords":["nocrits","nodmgspread","payload","uncletopia"],"game_id":440,"stv_port":27016,"stv_name":"Uncletopia | S√£o Paulo | 1 | All Maps | STV","players":null},{"server_id":143,"name":"Uncletopia | S√£o Paulo | 2 | All Maps","name_short":"sao-2","host":"sao-2.br.uncletopia.com","port":27015,"enabled":true,"region":"sa","cc":"br","latitude":-23.533773,"longitude":-46.62529,"reserved":0,"last_update":"0001-01-01T00:00:00Z","name_a2s":"Uncletopia | S√£o Paulo | 2 | All Maps","protocol":17,"map":"koth_cascade","folder":"tf","game":"Team Fortress","app_id":440,"player_count":2,"max_players":24,"Bots":0,"server_type":"Dedicated","server_os":"Linux","password":true,"vac":true,"version":"7757534","steam_id":85568392924485349,"keywords":["cp","nocrits","nodmgspread","uncletopia"],"game_id":440,"stv_port":27016,"stv_name":"Uncletopia | S√£o Paulo | 2 | All Maps | STV","players":[{"user_id":23,"name":"klombuh","steam_id":76561198818279394,"connected_time":689000000000,"state":"active","ping":77},{"user_id":26,"name":"Hombre habilidozo","steam_id":76561198887765348,"connected_time":637000000000,"state":"active","ping":69}]},{"server_id":7,"name":"Uncletopia | Seattle | 1 | All Maps","name_short":"sea-1","host":"sea-1.us.uncletopia.com","port":27015,"enabled":true,"region":"us-west","cc":"us","latitude":47.608013,"longitude":-122.33517,"reserved":0,"last_update":"0001-01-01T00:00:00Z","name_a2s":"Uncletopia | Seattle | 1 | All Maps","protocol":17,"map":"pl_barnblitz","folder":"tf","game":"Team Fortress","app_id":440,"player_count":0,"max_players":24,"Bots":0,"server_type":"Dedicated","server_os":"Linux","password":true,"vac":true,"version":"7757534","steam_id":85568392924469997,"keywords":["nocrits","nodmgspread","payload","uncletopia"],"game_id":440,"stv_port":27016,"stv_name":"Uncletopia | Seattle | 1 | All Maps | STV","players":null},{"server_id":119,"name":"Uncletopia | Seattle | 2 | All Maps","name_short":"sea-2","host":"sea-1.us.uncletopia.com","port":27025,"enabled":true,"region":"us-west","cc":"us","latitude":47.608013,"longitude":-122.33517,"reserved":0,"last_update":"0001-01-01T00:00:00Z","name_a2s":"Uncletopia | Seattle | 2 | All Maps","protocol":17,"map":"pl_pier","folder":"tf","game":"Team Fortress","app_id":440,"player_count":0,"max_players":24,"Bots":0,"server_type":"Dedicated","server_os":"Linux","password":true,"vac":true,"version":"7757534","steam_id":85568392924469998,"keywords":["nocrits","nodmgspread","payload","uncletopia"],"game_id":440,"stv_port":27026,"stv_name":"Uncletopia | Seattle | 2 | All Maps | STV","players":null},{"server_id":406,"name":"Uncletopia | Seattle | 3 | Stopwatch Beta","name_short":"sea-3","host":"sea-1.us.uncletopia.com","port":27035,"enabled":true,"region":"us-west","cc":"us","latitude":47.608013,"longitude":-122.33517,"reserved":0,"last_update":"0001-01-01T00:00:00Z","name_a2s":"Uncletopia | Seattle | 3 | Stopwatch Beta","protocol":17,"map":"cp_sunshine","folder":"tf","game":"Team Fortress","app_id":440,"player_count":0,"max_players":24,"Bots":0,"server_type":"Dedicated","server_os":"Linux","password":true,"vac":true,"version":"7757534","steam_id":85568392924515217,"keywords":["cp","nocrits","nodmgspread","uncletopia"],"game_id":440,"stv_port":27036,"stv_name":"Uncletopia | Seattle | 3 | Stopwatch Beta | STV","players":null},{"server_id":17,"name":"Uncletopia | San Francisco | 1 | All Maps","name_short":"sfo-1","host":"sfo-1.us.uncletopia.com","port":27015,"enabled":true,"region":"us-west","cc":"us","latitude":37.77397,"longitude":-122.4313,"reserved":0,"last_update":"0001-01-01T00:00:00Z","name_a2s":"Uncletopia | San Francisco | 1 | All Maps","protocol":17,"map":"pl_pier","folder":"tf","game":"Team Fortress","app_id":440,"player_count":0,"max_players":24,"Bots":0,"server_type":"Dedicated","server_os":"Linux","password":true,"vac":true,"version":"7757534","steam_id":85568392924469999,"keywords":["nocrits","nodmgspread","payload","uncletopia"],"game_id":440,"stv_port":27016,"stv_name":"Uncletopia | San Francisco | 1 | All Maps | STV","players":null},{"server_id":18,"name":"Uncletopia | San Francisco | 2 | All Maps","name_short":"sfo-2","host":"sfo-1.us.uncletopia.com","port":27025,"enabled":true,"region":"us-west","cc":"us","latitude":37.77397,"longitude":-122.4313,"reserved":0,"last_update":"0001-01-01T00:00:00Z","name_a2s":"Uncletopia | San Francisco | 2 | All Maps","protocol":17,"map":"cp_mountainlab","folder":"tf","game":"Team Fortress","app_id":440,"player_count":1,"max_players":24,"Bots":0,"server_type":"Dedicated","server_os":"Linux","password":true,"vac":true,"version":"7757534","steam_id":85568392924470000,"keywords":["cp","nocrits","nodmgspread","uncletopia"],"game_id":440,"stv_port":27026,"stv_name":"Uncletopia | San Francisco | 2 | All Maps | STV","players":[{"user_id":3,"name":"umnika123","steam_id":76561199153181631,"connected_time":10000000000,"state":"spawning","ping":203}]},{"server_id":19,"name":"Uncletopia | San Francisco | 3 | Stopwatch Beta","name_short":"sfo-3","host":"sfo-1.us.uncletopia.com","port":27035,"enabled":true,"region":"us-west","cc":"us","latitude":37.77397,"longitude":-122.4313,"reserved":0,"last_update":"0001-01-01T00:00:00Z","name_a2s":"Uncletopia | San Francisco | 3 | Stopwatch Beta","protocol":17,"map":"koth_viaduct","folder":"tf","game":"Team Fortress","app_id":440,"player_count":0,"max_players":24,"Bots":0,"server_type":"Dedicated","server_os":"Linux","password":true,"vac":true,"version":"7757534","steam_id":85568392924742824,"keywords":["cp","nocrits","nodmgspread","uncletopia"],"game_id":440,"stv_port":27036,"stv_name":"Uncletopia | San Francisco | 3 | Stopwatch Beta | STV","players":null},{"server_id":20,"name":"Uncletopia | San Francisco | 4 | Community","name_short":"sfo-4","host":"sfo-1.us.uncletopia.com","port":27045,"enabled":true,"region":"us-west","cc":"us","latitude":37.77397,"longitude":-122.4313,"reserved":0,"last_update":"0001-01-01T00:00:00Z","name_a2s":"Uncletopia | San Francisco | 4 | Community","protocol":17,"map":"workshop/koth_slaughter_rc1.ugc1712845210","folder":"tf","game":"Team Fortress","app_id":440,"player_count":24,"max_players":24,"Bots":0,"server_type":"Dedicated","server_os":"Linux","password":true,"vac":true,"version":"7757534","steam_id":85568392924742826,"keywords":["cp","nocrits","nodmgspread","uncletopia"],"game_id":440,"stv_port":27046,"stv_name":"Uncletopia | San Francisco | 4 | Community | STV","players":[{"user_id":150,"name":"„ÄåDaws_Dudeguy„Äç","steam_id":76561198205838645,"connected_time":1225000000000,"state":"active","ping":122},{"user_id":151,"name":"Kuma","steam_id":76561199100813140,"connected_time":1203000000000,"state":"active","ping":68},{"user_id":152,"name":"Ryld","steam_id":76561198010174380,"connected_time":963000000000,"state":"active","ping":76},{"user_id":139,"name":"hoOmIN","steam_id":76561198334947079,"connected_time":2530000000000,"state":"active","ping":45},{"user_id":146,"name":"Derp Cade","steam_id":76561198973193074,"connected_time":1589000000000,"state":"active","ping":85},{"user_id":147,"name":"Green_GarBear","steam_id":76561199468912415,"connected_time":1492000000000,"state":"active","ping":56},{"user_id":87,"name":"TheGreatDong","steam_id":76561198000634178,"connected_time":5609000000000,"state":"active","ping":59},{"user_id":153,"name":"Medic GF","steam_id":76561198400531556,"connected_time":947000000000,"state":"active","ping":96},{"user_id":166,"name":"Razor","steam_id":76561198008415797,"connected_time":193000000000,"state":"active","ping":72},{"user_id":149,"name":"Fractured_Mango","steam_id":76561199013113268,"connected_time":1414000000000,"state":"active","ping":82},{"user_id":155,"name":"Cereal","steam_id":76561198322953170,"connected_time":932000000000,"state":"active","ping":44},{"user_id":88,"name":"schnedwob","steam_id":76561197999146588,"connected_time":5609000000000,"state":"active","ping":85},{"user_id":156,"name":"Anyar","steam_id":76561198160174097,"connected_time":729000000000,"state":"active","ping":90},{"user_id":157,"name":"blue_tristan03","steam_id":76561199468377688,"connected_time":714000000000,"state":"active","ping":50},{"user_id":158,"name":"Man in the sewers","steam_id":76561199237973099,"connected_time":426000000000,"state":"active","ping":69},{"user_id":169,"name":"Sal In Haiti","steam_id":76561198055452939,"connected_time":56000000000,"state":"active","ping":69},{"user_id":161,"name":"lord setch","steam_id":76561198252328518,"connected_time":297000000000,"state":"active","ping":86},{"user_id":170,"name":"Redbows22","steam_id":76561199452479390,"connected_time":18000000000,"state":"active","ping":162},{"user_id":163,"name":"rocknroll_comicbooks_\u0026bubblegum","steam_id":76561197998893843,"connected_time":239000000000,"state":"active","ping":133},{"user_id":164,"name":"Splooge","steam_id":76561198036796210,"connected_time":229000000000,"state":"active","ping":63},{"user_id":165,"name":"Extraordinary Absence of Pootis","steam_id":76561198020270981,"connected_time":227000000000,"state":"active","ping":113},{"user_id":167,"name":"zacccch #SaveTF2","steam_id":76561199153114723,"connected_time":176000000000,"state":"active","ping":48},{"user_id":168,"name":"LemonBoy","steam_id":76561199154368220,"connected_time":166000000000,"state":"active","ping":70},{"user_id":171,"name":"Final_MarioXD","steam_id":76561199184862419,"connected_time":4000000000,"state":"spawning","ping":103}]},{"server_id":141,"name":"Uncletopia | Sydney | 1 | All Maps","name_short":"syd-1","host":"syd-1.au.uncletopia.com","port":27015,"enabled":true,"region":"au","cc":"au","latitude":-33.865143,"longitude":151.2099,"reserved":0,"last_update":"0001-01-01T00:00:00Z","name_a2s":"Uncletopia | Sydney | 1 | All Maps","protocol":17,"map":"koth_highpass","folder":"tf","game":"Team Fortress","app_id":440,"player_count":0,"max_players":24,"Bots":0,"server_type":"Dedicated","server_os":"Linux","password":true,"vac":true,"version":"7757534","steam_id":85568392924470001,"keywords":["cp","nocrits","nodmgspread","uncletopia"],"game_id":440,"stv_port":27016,"stv_name":"Uncletopia | Sydney | 1 | All Maps | STV","players":null},{"server_id":123,"name":"Uncletopia | Sydney | 2 | All Maps","name_short":"syd-2","host":"syd-1.au.uncletopia.com","port":27025,"enabled":true,"region":"au","cc":"au","latitude":-33.865143,"longitude":151.2099,"reserved":0,"last_update":"0001-01-01T00:00:00Z","name_a2s":"Uncletopia | Sydney | 2 | All Maps","protocol":17,"map":"koth_cascade","folder":"tf","game":"Team Fortress","app_id":440,"player_count":2,"max_players":24,"Bots":0,"server_type":"Dedicated","server_os":"Linux","password":true,"vac":true,"version":"7757534","steam_id":85568392924470002,"keywords":["cp","nocrits","nodmgspread","uncletopia"],"game_id":440,"stv_port":27026,"stv_name":"Uncletopia | Sydney | 2 | All Maps | STV","players":[{"user_id":580,"name":"Traveller","steam_id":76561199161637215,"connected_time":4255000000000,"state":"active","ping":100},{"user_id":556,"name":"Jad","steam_id":76561198453862581,"connected_time":6913000000000,"state":"active","ping":82}]},{"server_id":395,"name":"Uncletopia | Sydney | 3 | All Maps","name_short":"syd-3","host":"syd-1.au.uncletopia.com","port":27035,"enabled":true,"region":"au","cc":"au","latitude":-33.865143,"longitude":151.2099,"reserved":0,"last_update":"0001-01-01T00:00:00Z","name_a2s":"Uncletopia | Sydney | 3 | All Maps","protocol":17,"map":"cp_process_final","folder":"tf","game":"Team Fortress","app_id":440,"player_count":0,"max_players":24,"Bots":0,"server_type":"Dedicated","server_os":"Linux","password":true,"vac":true,"version":"7757534","steam_id":85568392925194467,"keywords":["cp","nocrits","nodmgspread","uncletopia"],"game_id":440,"stv_port":27036,"stv_name":"Uncletopia | Sydney | 3 | All Maps | STV","players":null},{"server_id":396,"name":"Uncletopia | Sydney | 4 | All Maps","name_short":"syd-4","host":"syd-1.au.uncletopia.com","port":27045,"enabled":true,"region":"au","cc":"au","latitude":-33.865143,"longitude":151.2099,"reserved":0,"last_update":"0001-01-01T00:00:00Z","name_a2s":"Uncletopia | Sydney | 4 | All Maps","protocol":17,"map":"koth_highpass","folder":"tf","game":"Team Fortress","app_id":440,"player_count":0,"max_players":24,"Bots":0,"server_type":"Dedicated","server_os":"Linux","password":true,"vac":true,"version":"7757534","steam_id":85568392925397958,"keywords":["cp","nocrits","nodmgspread","uncletopia"],"game_id":440,"stv_port":27046,"stv_name":"Uncletopia | Sydney | 4 | All Maps | STV","players":null},{"server_id":58,"name":"Uncletopia | Sydney | 5 | Stopwatch Beta","name_short":"syd-5","host":"syd-1.au.uncletopia.com","port":27055,"enabled":true,"region":"au","cc":"au","latitude":-33.865143,"longitude":151.2099,"reserved":0,"last_update":"0001-01-01T00:00:00Z","name_a2s":"Uncletopia | Sydney | 5 | Stopwatch Beta","protocol":17,"map":"workshop/koth_ashville_final.ugc2130459942","folder":"tf","game":"Team Fortress","app_id":440,"player_count":0,"max_players":24,"Bots":0,"server_type":"Dedicated","server_os":"Linux","password":true,"vac":true,"version":"7757534","steam_id":85568392925397959,"keywords":["cp","nocrits","nodmgspread","uncletopia"],"game_id":440,"stv_port":27056,"stv_name":"Uncletopia | Sydney | 5 | Stopwatch Beta | STV","players":null},{"server_id":59,"name":"Uncletopia | Sydney | 6 | Community","name_short":"syd-6","host":"syd-1.au.uncletopia.com","port":27065,"enabled":true,"region":"au","cc":"au","latitude":-33.865143,"longitude":151.2099,"reserved":0,"last_update":"0001-01-01T00:00:00Z","name_a2s":"Uncletopia | Sydney | 6 | Community","protocol":17,"map":"workshop/koth_ashville_final.ugc2130459942","folder":"tf","game":"Team Fortress","app_id":440,"player_count":0,"max_players":24,"Bots":0,"server_type":"Dedicated","server_os":"Linux","password":true,"vac":true,"version":"7757534","steam_id":85568392925397960,"keywords":["cp","nocrits","nodmgspread","uncletopia"],"game_id":440,"stv_port":27066,"stv_name":"Uncletopia | Sydney | 6 | Community | STV","players":null},{"server_id":49,"name":"Uncletopia | Warsaw | 1 | All Maps","name_short":"waw-1","host":"waw-1.pl.uncletopia.com","port":27015,"enabled":true,"region":"eu","cc":"pl","latitude":52.2297,"longitude":21.017532,"reserved":0,"last_update":"0001-01-01T00:00:00Z","name_a2s":"","protocol":0,"map":"","folder":"","game":"","app_id":0,"player_count":0,"max_players":0,"Bots":0,"server_type":"","server_os":"","password":false,"vac":false,"version":"","steam_id":0,"keywords":null,"game_id":0,"stv_port":0,"stv_name":"","players":null},{"server_id":50,"name":"Uncletopia | Warsaw | 2 | All Maps","name_short":"waw-2","host":"waw-1.pl.uncletopia.com","port":27025,"enabled":true,"region":"eu","cc":"pl","latitude":52.2297,"longitude":21.017532,"reserved":0,"last_update":"0001-01-01T00:00:00Z","name_a2s":"Uncletopia | Warsaw | 2 | All Maps","protocol":17,"map":"koth_lakeside_final","folder":"tf","game":"Team Fortress","app_id":440,"player_count":1,"max_players":24,"Bots":0,"server_type":"Dedicated","server_os":"Linux","password":true,"vac":true,"version":"7757534","steam_id":85568392925397851,"keywords":["cp","nocrits","nodmgspread","uncletopia"],"game_id":440,"stv_port":27026,"stv_name":"Uncletopia | Warsaw | 2 | All Maps | STV","players":[{"user_id":7,"name":"BastLover","steam_id":76561198247062724,"connected_time":158000000000,"state":"active","ping":43}]},{"server_id":51,"name":"Uncletopia | Warsaw | 3 | All Maps","name_short":"waw-3","host":"waw-1.pl.uncletopia.com","port":27035,"enabled":true,"region":"eu","cc":"pl","latitude":52.2297,"longitude":21.017532,"reserved":0,"last_update":"0001-01-01T00:00:00Z","name_a2s":"Uncletopia | Warsaw | 3 | All Maps","protocol":17,"map":"pl_frontier_final","folder":"tf","game":"Team Fortress","app_id":440,"player_count":0,"max_players":24,"Bots":0,"server_type":"Dedicated","server_os":"Linux","password":true,"vac":true,"version":"7757534","steam_id":85568392925397852,"keywords":["nocrits","nodmgspread","payload","uncletopia"],"game_id":440,"stv_port":27036,"stv_name":"Uncletopia | Warsaw | 3 | All Maps | STV","players":null},{"server_id":52,"name":"Uncletopia | Warsaw | 4 | All Maps","name_short":"waw-4","host":"waw-1.pl.uncletopia.com","port":27045,"enabled":true,"region":"eu","cc":"pl","latitude":52.2297,"longitude":21.017532,"reserved":0,"last_update":"0001-01-01T00:00:00Z","name_a2s":"Uncletopia | Warsaw | 4 | All Maps","protocol":17,"map":"pl_frontier_final","folder":"tf","game":"Team Fortress","app_id":440,"player_count":0,"max_players":24,"Bots":0,"server_type":"Dedicated","server_os":"Linux","password":true,"vac":true,"version":"7757534","steam_id":85568392925397853,"keywords":["nocrits","nodmgspread","payload","uncletopia"],"game_id":440,"stv_port":27046,"stv_name":"Uncletopia | Warsaw | 4 | All Maps | STV","players":null},{"server_id":53,"name":"Uncletopia | Warsaw | 5 | Stopwatch Beta","name_short":"waw-5","host":"waw-1.pl.uncletopia.com","port":27055,"enabled":true,"region":"eu","cc":"pl","latitude":52.2297,"longitude":21.017532,"reserved":0,"last_update":"0001-01-01T00:00:00Z","name_a2s":"Uncletopia | Warsaw | 5 | Stopwatch Beta","protocol":17,"map":"pl_upward","folder":"tf","game":"Team Fortress","app_id":440,"player_count":0,"max_players":24,"Bots":0,"server_type":"Dedicated","server_os":"Linux","password":true,"vac":true,"version":"7757534","steam_id":85568392925397854,"keywords":["nocrits","nodmgspread","payload","uncletopia"],"game_id":440,"stv_port":27056,"stv_name":"Uncletopia | Warsaw | 5 | Stopwatch Beta | STV","players":null},{"server_id":54,"name":"Uncletopia | Warsaw | 6 | Community","name_short":"waw-6","host":"waw-1.pl.uncletopia.com","port":27065,"enabled":true,"region":"eu","cc":"pl","latitude":52.2297,"longitude":21.017532,"reserved":0,"last_update":"0001-01-01T00:00:00Z","name_a2s":"Uncletopia | Warsaw | 6 | Community","protocol":17,"map":"workshop/koth_bagel_rc5.ugc2514036946","folder":"tf","game":"Team Fortress","app_id":440,"player_count":0,"max_players":24,"Bots":0,"server_type":"Dedicated","server_os":"Linux","password":true,"vac":true,"version":"7757534","steam_id":85568392925397856,"keywords":["cp","nocrits","nodmgspread","uncletopia"],"game_id":440,"stv_port":27066,"stv_name":"Uncletopia | Warsaw | 6 | Community | STV","players":null}]}