{"status":true,"message":"","result":[{"server_id":9,"name":"Uncletopia | Atlanta | 1 | All Maps","name_short":"atl-1","host":"atl-1.us.uncletopia.com","port":27015,"enabled":true,"region":"us-east","cc":"us","latitude":33.753746,"longitude":-84.38633,"reserved":0,"last_update":"0001-01-01T00:00:00Z","name_a2s":"Uncletopia | Atlanta | 1 | All Maps","protocol":17,"map":"pl_badwater","folder":"tf","game":"Team Fortress","app_id":440,"player_count":24,"max_players":24,"Bots":0,"server_type":"Dedicated","server_os":"Linux","password":true,"vac":true,"version":"7961495","steam_id":85568392924469982,"keywords":["nocrits","nodmgspread","payload","uncletopia"],"game_id":440,"stv_port":27016,"stv_name":"Uncletopia | Atlanta | 1 | All Maps | STV","players":null},{"server_id":104,"name":"Uncletopia | Atlanta | 2 | All Maps","name_short":"atl-2","host":"atl-1.us.uncletopia.com","port":27025,"enabled":true,"region":"us-east","cc":"us","latitude":33.753746,"longitude":-84.38633,"reserved":0,"last_update":"0001-01-01T00:00:00Z","name_a2s":"Uncletopia | Atlanta | 2 | All Maps","protocol":17,"map":"pl_thundermountain","folder":"tf","game":"Team Fortress","app_id":440,"player_count":24,"max_players":24,"Bots":0,"server_type":"Dedicated","server_os":"Linux","password":true,"vac":true,"version":"7961495","steam_id":85568392924469983,"keywords":["nocrits","nodmgspread","payload","uncletopia"],"game_id":440,"stv_port":27026,"stv_name":"Uncletopia | Atlanta | 2 | All Maps | STV","players":null},{"server_id":400,"name":"Uncletopia | Atlanta | 3 | Stopwatch","name_short":"atl-3","host":"atl-1.us.uncletopia.com","port":27035,"enabled":true,"region":"us-east","cc":"us","latitude":33.753746,"longitude":-84.38633,"reserved":0,"last_update":"0001-01-01T00:00:00Z","name_a2s":"Uncletopia | Atlanta | 3 | Stopwatch","protocol":17,"map":"koth_highpass","folder":"tf","game":"Team Fortress","app_id":440,"player_count":0,"max_players":24,"Bots":0,"server_type":"Dedicated","server_os":"Linux","password":true,"vac":true,"version":"7961495","steam_id":85568392924515187,"keywords":["cp","nocrits","nodmgspread","uncletopia"],"game_id":440,"stv_port":27036,"stv_name":"Uncletopia | Atlanta | 3 | Stopwatch | STV","players":null},{"server_id":401,"name":"Uncletopia | Atlanta | 4 | Community","name_short":"atl-4","host":"atl-1.us.uncletopia.com","port":27045,"enabled":true,"region":"us-east","cc":"us","latitude":33.753746,"longitude":-84.38633,"reserved":0,"last_update":"0001-01-01T00:00:00Z","name_a2s":"Uncletopia | Atlanta | 4 | Community","protocol":17,"map":"koth_product_final","folder":"tf","game":"Team Fortress","app_id":440,"player_count":0,"max_players":24,"Bots":0,"server_type":"Dedicated","server_os":"Linux","password":true,"vac":true,"version":"7961495","steam_id":85568392924515188,"keywords":["cp","nocrits","nodmgspread","uncletopia"],"game_id":440,"stv_port":27046,"stv_name":"Uncletopia | Atlanta | 4 | Community | STV","players":null},{"server_id":2,"name":"Uncletopia | Chicago | 1 | All Maps","name_short":"chi-1","host":"chi-1.us.uncletopia.com","port":27015,"enabled":true,"region":"us-central","cc":"us","latitude":41.881832,"longitude":-87.62318,"reserved":0,"last_update":"0001-01-01T00:00:00Z","name_a2s":"Uncletopia | Chicago | 1 | All Maps","protocol":17,"map":"pl_swiftwater_final1","folder":"tf","game":"Team Fortress","app_id":440,"player_count":19,"max_players":24,"Bots":0,"server_type":"Dedicated","server_os":"Linux","password":true,"vac":true,"version":"7961495","steam_id":85568392924469984,"keywords":["nocrits","nodmgspread","payload","uncletopia"],"game_id":440,"stv_port":27016,"stv_name":"Uncletopia | Chicago | 1 | All Maps | STV","players":[{"user_id":702,"name":"uneducated guess","steam_id":76561198140846580,"connected_time":1295000000000,"state":"active","ping":51},{"user_id":713,"name":"Raccoon Wizard","steam_id":76561198072562591,"connected_time":177000000000,"state":"active","ping":85},{"user_id":667,"name":"florence","steam_id":76561198854390990,"connected_time":2137000000000,"state":"active","ping":116},{"user_id":653,"name":"Gothmog","steam_id":76561198115714484,"connected_time":3778000000000,"state":"active","ping":132},{"user_id":703,"name":"genius of love","steam_id":76561198282764599,"connected_time":1280000000000,"state":"active","ping":46},{"user_id":714,"name":"KBoneski ♡","steam_id":76561198307409065,"connected_time":170000000000,"state":"active","ping":102},{"user_id":711,"name":"drunk and violent","steam_id":76561198157100347,"connected_time":1015000000000,"state":"active","ping":75},{"user_id":716,"name":"Carvhana","steam_id":76561198142629517,"connected_time":132000000000,"state":"active","ping":71},{"user_id":717,"name":"Danmar33","steam_id":76561198056453091,"connected_time":127000000000,"state":"active","ping":46},{"user_id":718,"name":"Rez LeRoux","steam_id":76561198451503538,"connected_time":122000000000,"state":"active","ping":75},{"user_id":675,"name":"Rex NITRO","steam_id":76561198165374439,"connected_time":1843000000000,"state":"active","ping":64},{"user_id":719,"name":"Your Pal, Vegeta","steam_id":76561198064916816,"connected_time":106000000000,"state":"active","ping":67},{"user_id":720,"name":"死","steam_id":76561198057884377,"connected_time":83000000000,"state":"active","ping":53},{"user_id":721,"name":"ᴿᴺᴳ Gʀɪᴍᴠɪʙᴇs","steam_id":76561198065621941,"connected_time":59000000000,"state":"active","ping":101},{"user_id":709,"name":"StudioMania (#SAVETF2)","steam_id":76561198211315795,"connected_time":1126000000000,"state":"active","ping":67},{"user_id":715,"name":"LikeASir","steam_id":76561198042209721,"connected_time":169000000000,"state":"active","ping":47},{"user_id":683,"name":"High School Nudical","steam_id":76561198172120615,"connected_time":1666000000000,"state":"active","ping":48},{"user_id":700,"name":"Fireball7d7________________WANG","steam_id":76561198087251749,"connected_time":1356000000000,"state":"active","ping":56},{"user_id":620,"name":"ATL1 Lav4ie She/They","steam_id":76561198825997674,"connected_time":7369000000000,"state":"active","ping":64}]},{"server_id":106,"name":"Uncletopia | Chicago | 2 | All Maps","name_short":"chi-2","host":"chi-1.us.uncletopia.com","port":27025,"enabled":true,"region":"us-central","cc":"us","latitude":41.881832,"longitude":-87.62318,"reserved":0,"last_update":"0001-01-01T00:00:00Z","name_a2s":"Uncletopia | Chicago | 2 | All Maps","protocol":17,"map":"koth_cascade","folder":"tf","game":"Team Fortress","app_id":440,"player_count":0,"max_players":24,"Bots":0,"server_type":"Dedicated","server_os":"Linux","password":true,"vac":true,"version":"7961495","steam_id":85568392924469985,"keywords":["cp","nocrits","nodmgspread","uncletopia"],"game_id":440,"stv_port":27026,"stv_name":"Uncletopia | Chicago | 2 | All Maps | STV","players":null},{"server_id":402,"name":"Uncletopia | Chicago | 3 | All Maps","name_short":"chi-3","host":"chi-1.us.uncletopia.com","port":27035,"enabled":true,"region":"us-central","cc":"us","latitude":41.881832,"longitude":-87.62318,"reserved":0,"last_update":"0001-01-01T00:00:00Z","name_a2s":"Uncletopia | Chicago | 3 | All Maps","protocol":17,"map":"pl_pier","folder":"tf","game":"Team Fortress","app_id":440,"player_count":22,"max_players":24,"Bots":0,"server_type":"Dedicated","server_os":"Linux","password":true,"vac":true,"version":"7961495","steam_id":85568392924515191,"keywords":["nocrits","nodmgspread","payload","uncletopia"],"game_id":440,"stv_port":27036,"stv_name":"Uncletopia | Chicago | 3 | All Maps | STV","players":[{"user_id":695,"name":"new york city pizza rat","steam_id":76561198202589758,"connected_time":4068000000000,"state":"active","ping":63},{"user_id":759,"name":"brando_not_lando","steam_id":76561198163197384,"connected_time":125000000000,"state":"active","ping":95},{"user_id":737,"name":"JANE","steam_id":76561198842602032,"connected_time":1808000000000,"state":"active","ping":63},{"user_id":758,"name":"Bagaboned","steam_id":76561198043761335,"connected_time":244000000000,"state":"active","ping":89},{"user_id":742,"name":"Hidden Phantom","steam_id":76561198115531799,"connected_time":910000000000,"state":"active","ping":80},{"user_id":708,"name":"Rein | Comms  Open","steam_id":76561198300340427,"connected_time":3293000000000,"state":"active","ping":62},{"user_id":739,"name":"CF-TF2","steam_id":76561198145893044,"connected_time":1403000000000,"state":"active","ping":70},{"user_id":750,"name":"aphexjh","steam_id":76561197985854658,"connected_time":765000000000,"state":"active","ping":56},{"user_id":736,"name":"Squiddysquibbles","steam_id":76561198268476001,"connected_time":2054000000000,"state":"active","ping":63},{"user_id":673,"name":"GreekGoat_Coffee","steam_id":76561198129331088,"connected_time":5798000000000,"state":"active","ping":42},{"user_id":760,"name":"chunk","steam_id":76561198134775401,"connected_time":42000000000,"state":"active","ping":54},{"user_id":713,"name":"sloth (be nice im cringe)","steam_id":76561198047098172,"connected_time":2966000000000,"state":"active","ping":61},{"user_id":744,"name":"MedRed™ #IATAH","steam_id":76561198002962970,"connected_time":892000000000,"state":"active","ping":104},{"user_id":720,"name":"ark","steam_id":76561198041066271,"connected_time":2515000000000,"state":"active","ping":77},{"user_id":755,"name":"y0","steam_id":76561198143894333,"connected_time":300000000000,"state":"active","ping":48},{"user_id":690,"name":"ttv/Everfrost Samoyed","steam_id":76561198072580699,"connected_time":4233000000000,"state":"active","ping":67},{"user_id":721,"name":"TF2C | fac -AA-","steam_id":76561198009818412,"connected_time":2492000000000,"state":"active","ping":64},{"user_id":723,"name":"soymilksteak","steam_id":76561198001488041,"connected_time":2415000000000,"state":"active","ping":87},{"user_id":747,"name":"Dr. Dad Rock Deluxe","steam_id":76561198051224819,"connected_time":786000000000,"state":"active","ping":63},{"user_id":748,"name":"alfredodan lft","steam_id":76561198025011044,"connected_time":781000000000,"state":"active","ping":76},{"user_id":751,"name":"spaceboots","steam_id":76561197977322319,"connected_time":724000000000,"state":"active","ping":62},{"user_id":756,"name":"Xenagos","steam_id":76561198045678290,"connected_time":277000000000,"state":"active","ping":76}]},{"server_id":403,"name":"Uncletopia | Chicago | 4 | All Maps","name_short":"chi-4","host":"chi-1.us.uncletopia.com","port":27045,"enabled":true,"region":"us-central","cc":"us","latitude":41.881832,"longitude":-87.62318,"reserved":0,"last_update":"0001-01-01T00:00:00Z","name_a2s":"Uncletopia | Chicago | 4 | All Maps","protocol":17,"map":"pl_barnblitz","folder":"tf","game":"Team Fortress","app_id":440,"player_count":24,"max_players":24,"Bots":0,"server_type":"Dedicated","server_os":"Linux","password":true,"vac":true,"version":"7961495","steam_id":85568392924515193,"keywords":["nocrits","nodmgspread","payload","uncletopia"],"game_id":440,"stv_port":27046,"stv_name":"Uncletopia | Chicago | 4 | All Maps | STV","players":[{"user_id":690,"name":"Invis","steam_id":76561198084260431,"connected_time":4024000000000,"state":"active","ping":81},{"user_id":722,"name":"Planetary","steam_id":76561199064085811,"connected_time":1182000000000,"state":"active","ping":77},{"user_id":721,"name":"Lore","steam_id":76561198098407538,"connected_time":1352000000000,"state":"active","ping":45},{"user_id":757,"name":"totoro","steam_id":76561198210420871,"connected_time":685000000000,"state":"active","ping":45},{"user_id":715,"name":"Ojen","steam_id":76561197998414482,"connected_time":2588000000000,"state":"active","ping":65},{"user_id":716,"name":"OddSlaush","steam_id":76561198043898488,"connected_time":2269000000000,"state":"active","ping":97},{"user_id":752,"name":"Blade Racer","steam_id":76561198155896703,"connected_time":806000000000,"state":"active","ping":67},{"user_id":720,"name":"American Gamer","steam_id":76561198142292188,"connected_time":1445000000000,"state":"active","ping":74},{"user_id":768,"name":"Joculatrix","steam_id":76561198012795457,"connected_time":246000000000,"state":"active","ping":69},{"user_id":744,"name":"Hezxp","steam_id":76561198312931111,"connected_time":949000000000,"state":"active","ping":83},{"user_id":726,"name":"Edmont Dantes","steam_id":76561198090271815,"connected_time":1112000000000,"state":"active","ping":126},{"user_id":710,"name":"Animal Slices","steam_id":76561198137545511,"connected_time":2738000000000,"state":"active","ping":59},{"user_id":734,"name":"tailorturtle","steam_id":76561198107481127,"connected_time":1071000000000,"state":"active","ping":69},{"user_id":728,"name":"captainskullet","steam_id":76561198314597170,"connected_time":1105000000000,"state":"active","ping":67},{"user_id":729,"name":"roman","steam_id":76561198170066797,"connected_time":1103000000000,"state":"active","ping":71},{"user_id":766,"name":"rf","steam_id":76561198195359229,"connected_time":360000000000,"state":"active","ping":89},{"user_id":709,"name":"69 jellyfishes","steam_id":76561199046490785,"connected_time":2749000000000,"state":"active","ping":74},{"user_id":711,"name":"Pirate™","steam_id":76561198140698982,"connected_time":2730000000000,"state":"active","ping":54},{"user_id":731,"name":"Chap","steam_id":76561198294226443,"connected_time":1086000000000,"state":"active","ping":113},{"user_id":767,"name":"the guy","steam_id":76561199350870177,"connected_time":248000000000,"state":"active","ping":60},{"user_id":749,"name":"Six Piece Chicken McNobody","steam_id":76561198129848222,"connected_time":870000000000,"state":"active","ping":64},{"user_id":682,"name":"Yarman53","steam_id":76561198099889202,"connected_time":4936000000000,"state":"active","ping":46},{"user_id":769,"name":"uheye whuant moy ehmdeevee","steam_id":76561198028981154,"connected_time":203000000000,"state":"active","ping":107},{"user_id":770,"name":"mn","steam_id":76561198042357436,"connected_time":181000000000,"state":"active","ping":75}]},{"server_id":36,"name":"Uncletopia | Chicago | 5 | All Maps","name_short":"chi-5","host":"chi-2.us.uncletopia.com","port":27015,"enabled":true,"region":"us-central","cc":"us","latitude":41.881832,"longitude":-87.62318,"reserved":0,"last_update":"0001-01-01T00:00:00Z","name_a2s":"Uncletopia | Chicago | 5 | All Maps","protocol":17,"map":"koth_viaduct","folder":"tf","game":"Team Fortress","app_id":440,"player_count":19,"max_players":24,"Bots":0,"server_type":"Dedicated","server_os":"Linux","password":true,"vac":true,"version":"7961495","steam_id":85568392924866362,"keywords":["cp","nocrits","nodmgspread","uncletopia"],"game_id":440,"stv_port":27016,"stv_name":"Uncletopia | Chicago | 5 | All Maps | STV","players":[{"user_id":422,"name":"Rogurts","steam_id":76561198087665145,"connected_time":66000000000,"state":"active","ping":58},{"user_id":423,"name":"Dan","steam_id":76561199236719411,"connected_time":36000000000,"state":"active","ping":63},{"user_id":409,"name":"The_Swan101","steam_id":76561198255629546,"connected_time":2544000000000,"state":"active","ping":64},{"user_id":404,"name":"Galactamarx","steam_id":76561198028065755,"connected_time":2673000000000,"state":"active","ping":99},{"user_id":353,"name":"Blue Eyes Ace Dragon.","steam_id":76561198048214237,"connected_time":7129000000000,"state":"active","ping":52},{"user_id":397,"name":"big guapo","steam_id":76561198103228695,"connected_time":2916000000000,"state":"active","ping":69},{"user_id":369,"name":"t","steam_id":76561198175988929,"connected_time":5819000000000,"state":"active","ping":336},{"user_id":377,"name":"Pumpky","steam_id":76561198095168396,"connected_time":5198000000000,"state":"active","ping":83},{"user_id":412,"name":"-w-","steam_id":76561198053047698,"connected_time":2417000000000,"state":"active","ping":65},{"user_id":384,"name":"Shystie","steam_id":76561198025371440,"connected_time":4250000000000,"state":"active","ping":94},{"user_id":421,"name":"Koishi","steam_id":76561198054541054,"connected_time":178000000000,"state":"active","ping":53},{"user_id":401,"name":"Scuff1e","steam_id":76561198272995728,"connected_time":2879000000000,"state":"active","ping":77},{"user_id":381,"name":"Kekona","steam_id":76561198005399392,"connected_time":4717000000000,"state":"active","ping":103},{"user_id":417,"name":"Cute Little Femboy :3","steam_id":76561199280564132,"connected_time":1503000000000,"state":"active","ping":34},{"user_id":350,"name":"Reality Loser","steam_id":76561198001541433,"connected_time":7816000000000,"state":"active","ping":60},{"user_id":419,"name":"I have a small weiner","steam_id":76561198213435803,"connected_time":1137000000000,"state":"active","ping":52},{"user_id":341,"name":"Lain","steam_id":76561198029303534,"connected_time":8422000000000,"state":"active","ping":60},{"user_id":366,"name":"Mr. DeLarge","steam_id":76561198336820066,"connected_time":6455000000000,"state":"active","ping":104},{"user_id":351,"name":"aaron","steam_id":76561198113364714,"connected_time":7816000000000,"state":"active","ping":56}]},{"server_id":37,"name":"Uncletopia | Chicago | 6 | All Maps","name_short":"chi-6","host":"chi-2.us.uncletopia.com","port":27025,"enabled":true,"region":"us-central","cc":"us","latitude":41.881832,"longitude":-87.62318,"reserved":0,"last_update":"0001-01-01T00:00:00Z","name_a2s":"Uncletopia | Chicago | 6 | All Maps","protocol":17,"map":"cp_sunshine","folder":"tf","game":"Team Fortress","app_id":440,"player_count":23,"max_players":24,"Bots":0,"server_type":"Dedicated","server_os":"Linux","password":true,"vac":true,"version":"7961495","steam_id":85568392924866363,"keywords":["cp","nocrits","nodmgspread","uncletopia"],"game_id":440,"stv_port":27026,"stv_name":"Uncletopia | Chicago | 6 | All Maps | STV","players":[{"user_id":670,"name":"BloomingNight","steam_id":76561198345485273,"connected_time":643000000000,"state":"active","ping":75},{"user_id":629,"name":"count tokeula","steam_id":76561198305796131,"connected_time":4689000000000,"state":"active","ping":47},{"user_id":660,"name":"crayonnipple","steam_id":76561198070253331,"connected_time":1173000000000,"state":"active","ping":58},{"user_id":659,"name":"crankshaft","steam_id":76561197992798282,"connected_time":1536000000000,"state":"active","ping":106},{"user_id":676,"name":"Syrup_Bottle","steam_id":76561198869174481,"connected_time":519000000000,"state":"active","ping":92},{"user_id":662,"name":"euphoricfilth","steam_id":76561198100160865,"connected_time":1027000000000,"state":"active","ping":59},{"user_id":655,"name":"TCR_Arma","steam_id":76561198828378688,"connected_time":2200000000000,"state":"active","ping":83},{"user_id":663,"name":"stupid ape","steam_id":76561198350027075,"connected_time":965000000000,"state":"active","ping":66},{"user_id":667,"name":"`o2","steam_id":76561197992030936,"connected_time":690000000000,"state":"active","ping":71},{"user_id":650,"name":"Misterwipeout","steam_id":76561198068900320,"connected_time":3063000000000,"state":"active","ping":110},{"user_id":589,"name":"mini","steam_id":76561198064214000,"connected_time":7202000000000,"state":"active","ping":75},{"user_id":664,"name":"Swerv3","steam_id":76561198068487365,"connected_time":906000000000,"state":"active","ping":78},{"user_id":653,"name":"TeCon","steam_id":76561198049127236,"connected_time":2427000000000,"state":"active","ping":107},{"user_id":677,"name":"Five","steam_id":76561198026640473,"connected_time":510000000000,"state":"active","ping":70},{"user_id":668,"name":"Farseer Ulwithy","steam_id":76561197965179245,"connected_time":684000000000,"state":"active","ping":84},{"user_id":612,"name":"Ludcmorais","steam_id":76561198359217809,"connected_time":5644000000000,"state":"active","ping":184},{"user_id":669,"name":"RagunCagun","steam_id":76561198132848008,"connected_time":672000000000,"state":"active","ping":45},{"user_id":651,"name":"Thunder","steam_id":76561198097721532,"connected_time":2990000000000,"state":"active","ping":106},{"user_id":603,"name":"Rat King (Deposed)","steam_id":76561198271907916,"connected_time":6435000000000,"state":"active","ping":58},{"user_id":672,"name":"i am so sed","steam_id":76561199064964587,"connected_time":612000000000,"state":"active","ping":87},{"user_id":673,"name":"aversa","steam_id":76561198840460101,"connected_time":605000000000,"state":"active","ping":67},{"user_id":674,"name":"Mally","steam_id":76561198025013765,"connected_time":602000000000,"state":"active","ping":87},{"user_id":678,"name":"durrbill","steam_id":76561198127149121,"connected_time":101000000000,"state":"active","ping":77}]},{"server_id":38,"name":"Uncletopia | Chicago | 7 | Stopwatch","name_short":"chi-7","host":"chi-2.us.uncletopia.com","port":27035,"enabled":true,"region":"us-central","cc":"us","latitude":41.881832,"longitude":-87.62318,"reserved":0,"last_update":"0001-01-01T00:00:00Z","name_a2s":"Uncletopia | Chicago | 7 | Stopwatch","protocol":17,"map":"koth_highpass","folder":"tf","game":"Team Fortress","app_id":440,"player_count":0,"max_players":24,"Bots":0,"server_type":"Dedicated","server_os":"Linux","password":true,"vac":true,"version":"7961495","steam_id":85568392924866364,"keywords":["cp","nocrits","nodmgspread","uncletopia"],"game_id":440,"stv_port":27036,"stv_name":"Uncletopia | Chicago | 7 | Stopwatch | STV","players":null},{"server_id":39,"name":"Uncletopia | Chicago | 8 | Community","name_short":"chi-8","host":"chi-2.us.uncletopia.com","port":27045,"enabled":true,"region":"us-central","cc":"us","latitude":41.881832,"longitude":-87.62318,"reserved":0,"last_update":"0001-01-01T00:00:00Z","name_a2s":"Uncletopia | Chicago | 8 | Community","protocol":17,"map":"workshop/koth_ashville_final.ugc2130459942","folder":"tf","game":"Team Fortress","app_id":440,"player_count":23,"max_players":24,"Bots":0,"server_type":"Dedicated","server_os":"Linux","password":true,"vac":true,"version":"7961495","steam_id":85568392924866365,"keywords":["cp","nocrits","nodmgspread","uncletopia"],"game_id":440,"stv_port":27046,"stv_name":"Uncletopia | Chicago | 8 | Community | STV","players":[{"user_id":172,"name":"Pussy Slambasket","steam_id":76561198093694322,"connected_time":2687000000000,"state":"active","ping":47},{"user_id":191,"name":"EggsAndBacon","steam_id":76561198031789082,"connected_time":1028000000000,"state":"active","ping":112},{"user_id":183,"name":"Beefboss_plays","steam_id":76561199454237265,"connected_time":1458000000000,"state":"active","ping":93},{"user_id":182,"name":"remanedur","steam_id":76561198059459507,"connected_time":1632000000000,"state":"active","ping":78},{"user_id":132,"name":"Big Man Lard","steam_id":76561198069074737,"connected_time":4993000000000,"state":"active","ping":73},{"user_id":186,"name":"PyroTechno","steam_id":76561198060929872,"connected_time":1342000000000,"state":"active","ping":72},{"user_id":203,"name":"pootwa","steam_id":76561198111259720,"connected_time":294000000000,"state":"active","ping":63},{"user_id":204,"name":"(1)pootwa","steam_id":76561198041055306,"connected_time":270000000000,"state":"active","ping":74},{"user_id":205,"name":"b","steam_id":76561198156336213,"connected_time":269000000000,"state":"active","ping":75},{"user_id":185,"name":"Mega Chode","steam_id":76561198301441345,"connected_time":1429000000000,"state":"active","ping":89},{"user_id":187,"name":"Lactose ๑ﭥ","steam_id":76561198208256987,"connected_time":1215000000000,"state":"active","ping":88},{"user_id":171,"name":"Festive Panda","steam_id":76561198025758017,"connected_time":2724000000000,"state":"active","ping":59},{"user_id":158,"name":"Kuyumiester","steam_id":76561198126835302,"connected_time":3602000000000,"state":"active","ping":63},{"user_id":194,"name":"OctoHam","steam_id":76561198143371318,"connected_time":825000000000,"state":"active","ping":91},{"user_id":201,"name":"Giant Dad","steam_id":76561198042088837,"connected_time":485000000000,"state":"active","ping":99},{"user_id":206,"name":"time","steam_id":76561198281948574,"connected_time":235000000000,"state":"active","ping":54},{"user_id":138,"name":"Dad Sex","steam_id":76561198060994080,"connected_time":4943000000000,"state":"active","ping":87},{"user_id":207,"name":"zenoga","steam_id":76561198201545159,"connected_time":200000000000,"state":"active","ping":53},{"user_id":161,"name":"Rock Kickass","steam_id":76561198450510841,"connected_time":3350000000000,"state":"active","ping":117},{"user_id":197,"name":"Chimpus","steam_id":76561198206054941,"connected_time":672000000000,"state":"active","ping":71},{"user_id":198,"name":"Sh3ba Spaniel","steam_id":76561198047412394,"connected_time":668000000000,"state":"active","ping":61},{"user_id":199,"name":"yoodle doodle","steam_id":76561198054897884,"connected_time":583000000000,"state":"active","ping":74},{"user_id":210,"name":"Maxwell","steam_id":76561197962607364,"connected_time":111000000000,"state":"active","ping":75}]},{"server_id":8,"name":"Uncletopia | Dallas | 1 | All Maps","name_short":"dal-1","host":"dal-1.us.uncletopia.com","port":27015,"enabled":true,"region":"us-central","cc":"us","latitude":32.779167,"longitude":-96.80889,"reserved":0,"last_update":"0001-01-01T00:00:00Z","name_a2s":"Uncletopia | Dallas | 1 | All Maps","protocol":17,"map":"pl_badwater","folder":"tf","game":"Team Fortress","app_id":440,"player_count":24,"max_players":24,"Bots":0,"server_type":"Dedicated","server_os":"Linux","password":true,"vac":true,"version":"7961495","steam_id":85568392924469986,"keywords":["nocrits","nodmgspread","payload","uncletopia"],"game_id":440,"stv_port":27016,"stv_name":"Uncletopia | Dallas | 1 | All Maps | STV","players":[{"user_id":758,"name":"Laogh Marbh","steam_id":76561198115240256,"connected_time":3274000000000,"state":"active","ping":80},{"user_id":774,"name":"axolotl","steam_id":76561198028490882,"connected_time":317000000000,"state":"active","ping":61},{"user_id":736,"name":"Kramer's Apology (Full Video)","steam_id":76561198009339435,"connected_time":6061000000000,"state":"active","ping":53},{"user_id":773,"name":"A Straw","steam_id":76561199367935846,"connected_time":435000000000,"state":"active","ping":75},{"user_id":701,"name":"Kipados","steam_id":76561197997147319,"connected_time":7981000000000,"state":"active","ping":92},{"user_id":775,"name":"MonkyBoo","steam_id":76561198304371716,"connected_time":256000000000,"state":"active","ping":47},{"user_id":742,"name":"LampMan","steam_id":76561198079857527,"connected_time":5851000000000,"state":"active","ping":62},{"user_id":763,"name":"Datguy","steam_id":76561198009429780,"connected_time":2459000000000,"state":"active","ping":80},{"user_id":737,"name":"turnsley runnenteldat","steam_id":76561197979921291,"connected_time":5964000000000,"state":"active","ping":54},{"user_id":676,"name":"Moonflower ✦","steam_id":76561198191782483,"connected_time":10567000000000,"state":"active","ping":58},{"user_id":779,"name":"sora","steam_id":76561198094256973,"connected_time":235000000000,"state":"active","ping":91},{"user_id":767,"name":"Luffa Rigno","steam_id":76561197998700507,"connected_time":1686000000000,"state":"active","ping":123},{"user_id":780,"name":"RagingRoosevelt","steam_id":76561197985483153,"connected_time":180000000000,"state":"active","ping":105},{"user_id":752,"name":"Flubdy_","steam_id":76561198073338521,"connected_time":4332000000000,"state":"active","ping":63},{"user_id":777,"name":"ѕυ【ʕ•ᴥ•ʔ】","steam_id":76561198071233302,"connected_time":247000000000,"state":"active","ping":88},{"user_id":707,"name":"slurpee #にゃ","steam_id":76561197990257202,"connected_time":7554000000000,"state":"active","ping":75},{"user_id":778,"name":"BurritoCat","steam_id":76561198059822805,"connected_time":242000000000,"state":"active","ping":81},{"user_id":760,"name":"rocketspires","steam_id":76561198800386026,"connected_time":3029000000000,"state":"active","ping":124},{"user_id":724,"name":"dumbest girl alive","steam_id":76561198062263639,"connected_time":6786000000000,"state":"active","ping":56},{"user_id":781,"name":"Major_Pippy","steam_id":76561198004482878,"connected_time":154000000000,"state":"active","ping":110},{"user_id":761,"name":"for eel? on cod? no carp?","steam_id":76561198095121758,"connected_time":2989000000000,"state":"active","ping":82},{"user_id":765,"name":"Shiverin' Niblets","steam_id":76561198038162216,"connected_time":1803000000000,"state":"active","ping":100},{"user_id":782,"name":"NPC-42","steam_id":76561198071237884,"connected_time":150000000000,"state":"active","ping":56},{"user_id":711,"name":"BamBam","steam_id":76561198063110026,"connected_time":7414000000000,"state":"active","ping":76}]},{"server_id":108,"name":"Uncletopia | Dallas | 2 | All Maps","name_short":"dal-2","host":"dal-1.us.uncletopia.com","port":27025,"enabled":true,"region":"us-central","cc":"us","latitude":32.779167,"longitude":-96.80889,"reserved":0,"last_update":"0001-01-01T00:00:00Z","name_a2s":"Uncletopia | Dallas | 2 | All Maps","protocol":17,"map":"pl_barnblitz","folder":"tf","game":"Team Fortress","app_id":440,"player_count":24,"max_players":24,"Bots":0,"server_type":"Dedicated","server_os":"Linux","password":true,"vac":true,"version":"7961495","steam_id":85568392924469988,"keywords":["nocrits","nodmgspread","payload","uncletopia"],"game_id":440,"stv_port":27026,"stv_name":"Uncletopia | Dallas | 2 | All Maps | STV","players":[{"user_id":566,"name":"Raiden","steam_id":76561198094841207,"connected_time":501000000000,"state":"active","ping":56},{"user_id":537,"name":"Jolyne","steam_id":76561198169960915,"connected_time":3459000000000,"state":"active","ping":60},{"user_id":572,"name":"AAAAAAAAAAAAAAAAAAAAAAAAAAAAAAA","steam_id":76561198125467937,"connected_time":220000000000,"state":"active","ping":108},{"user_id":430,"name":"Ember The Femboy","steam_id":76561198139630565,"connected_time":11377000000000,"state":"active","ping":167},{"user_id":543,"name":"cy","steam_id":76561198146241989,"connected_time":2308000000000,"state":"active","ping":80},{"user_id":544,"name":"jules.two","steam_id":76561198283462369,"connected_time":2297000000000,"state":"active","ping":77},{"user_id":523,"name":"Skeleop","steam_id":76561198981106464,"connected_time":4111000000000,"state":"active","ping":81},{"user_id":563,"name":"PancakeSauce","steam_id":76561198404722668,"connected_time":514000000000,"state":"active","ping":110},{"user_id":560,"name":"Kuchio","steam_id":76561198161218914,"connected_time":1422000000000,"state":"active","ping":88},{"user_id":567,"name":"dunky donut","steam_id":76561198070574618,"connected_time":489000000000,"state":"active","ping":59},{"user_id":573,"name":"C^a^L","steam_id":76561198241124222,"connected_time":207000000000,"state":"active","ping":95},{"user_id":545,"name":"cwaggs76","steam_id":76561199013048778,"connected_time":2270000000000,"state":"active","ping":91},{"user_id":557,"name":"Sakrenn","steam_id":76561198329518008,"connected_time":1622000000000,"state":"active","ping":115},{"user_id":569,"name":"magnanimity","steam_id":76561198242842394,"connected_time":474000000000,"state":"active","ping":52},{"user_id":547,"name":"Princess Celestia","steam_id":76561198129584634,"connected_time":2266000000000,"state":"active","ping":59},{"user_id":519,"name":"Hart","steam_id":76561199118241286,"connected_time":4144000000000,"state":"active","ping":76},{"user_id":554,"name":"Translucent૮₍ • ᴥ •","steam_id":76561199212057076,"connected_time":2025000000000,"state":"active","ping":82},{"user_id":463,"name":"Kenku","steam_id":76561199086762926,"connected_time":9496000000000,"state":"active","ping":73},{"user_id":570,"name":"Raspylightining","steam_id":76561198148343305,"connected_time":473000000000,"state":"active","ping":76},{"user_id":568,"name":"Bobwafflemanjr","steam_id":76561198271769725,"connected_time":488000000000,"state":"active","ping":79},{"user_id":562,"name":"Alf Creepypasta","steam_id":76561198841844093,"connected_time":1216000000000,"state":"active","ping":86},{"user_id":551,"name":"Archangel","steam_id":76561198020089542,"connected_time":2162000000000,"state":"active","ping":60},{"user_id":574,"name":"Beepleton The 3rd","steam_id":76561198081466207,"connected_time":96000000000,"state":"active","ping":65},{"user_id":521,"name":"dailydiamond","steam_id":76561199123582502,"connected_time":4143000000000,"state":"active","ping":113}]},{"server_id":404,"name":"Uncletopia | Dallas | 3 | All Maps","name_short":"dal-3","host":"dal-1.us.uncletopia.com","port":27035,"enabled":true,"region":"us-central","cc":"us","latitude":32.779167,"longitude":-96.80889,"reserved":0,"last_update":"0001-01-01T00:00:00Z","name_a2s":"Uncletopia | Dallas | 3 | All Maps","protocol":17,"map":"pl_frontier_final","folder":"tf","game":"Team Fortress","app_id":440,"player_count":24,"max_players":24,"Bots":0,"server_type":"Dedicated","server_os":"Linux","password":true,"vac":true,"version":"7961495","steam_id":85568392924515219,"keywords":["nocrits","nodmgspread","payload","uncletopia"],"game_id":440,"stv_port":27036,"stv_name":"Uncletopia | Dallas | 3 | All Maps | STV","players":[{"user_id":545,"name":"Terminal Brain Rot","steam_id":76561198112594672,"connected_time":1339000000000,"state":"active","ping":82},{"user_id":544,"name":"Astro","steam_id":76561198035676106,"connected_time":1419000000000,"state":"active","ping":62},{"user_id":554,"name":"NormalManPerson","steam_id":76561198007436312,"connected_time":771000000000,"state":"active","ping":108},{"user_id":553,"name":"Fishandfish","steam_id":76561198298483804,"connected_time":873000000000,"state":"active","ping":96},{"user_id":516,"name":"Baxtabbr","steam_id":76561199205187488,"connected_time":3969000000000,"state":"active","ping":66},{"user_id":496,"name":"Gwando","steam_id":76561198294629124,"connected_time":5295000000000,"state":"active","ping":52},{"user_id":533,"name":"CampinCarl","steam_id":76561197997373624,"connected_time":1840000000000,"state":"active","ping":87},{"user_id":555,"name":"lonelymaw","steam_id":76561198020675278,"connected_time":576000000000,"state":"active","ping":94},{"user_id":566,"name":"Tubegerm","steam_id":76561198964078985,"connected_time":91000000000,"state":"active","ping":66},{"user_id":559,"name":"KrylonHeretic","steam_id":76561198139811459,"connected_time":507000000000,"state":"active","ping":105},{"user_id":517,"name":"Namename","steam_id":76561198263270227,"connected_time":3499000000000,"state":"active","ping":125},{"user_id":567,"name":"Sarbanes-Oxley","steam_id":76561197975898479,"connected_time":89000000000,"state":"active","ping":59},{"user_id":535,"name":"Wunder","steam_id":76561198325846318,"connected_time":1826000000000,"state":"active","ping":125},{"user_id":518,"name":"CatLike Pigeon","steam_id":76561198171716030,"connected_time":3464000000000,"state":"active","ping":102},{"user_id":563,"name":"Nazodude","steam_id":76561198281656470,"connected_time":296000000000,"state":"active","ping":101},{"user_id":550,"name":"momo","steam_id":76561198099061153,"connected_time":1185000000000,"state":"active","ping":76},{"user_id":530,"name":"JDizzle","steam_id":76561199122696841,"connected_time":2252000000000,"state":"active","ping":84},{"user_id":564,"name":"Natural stupidity","steam_id":76561198164619692,"connected_time":290000000000,"state":"active","ping":87},{"user_id":537,"name":"45Amazing","steam_id":76561198303081758,"connected_time":1813000000000,"state":"active","ping":67},{"user_id":551,"name":"WalrusIncarnate","steam_id":76561198059867060,"connected_time":1175000000000,"state":"active","ping":104},{"user_id":525,"name":"Bombsgamer","steam_id":76561198350009050,"connected_time":3246000000000,"state":"active","ping":85},{"user_id":539,"name":"head in the ceiling fan","steam_id":76561198420237035,"connected_time":1801000000000,"state":"active","ping":99},{"user_id":552,"name":"ExplosiveGamer21","steam_id":76561198132370955,"connected_time":966000000000,"state":"active","ping":99},{"user_id":549,"name":"The Super Mario Bros. Movie","steam_id":76561198871692156,"connected_time":1279000000000,"state":"active","ping":104}]},{"server_id":405,"name":"Uncletopia | Dallas | 4 | Community","name_short":"dal-4","host":"dal-1.us.uncletopia.com","port":27045,"enabled":true,"region":"us-central","cc":"us","latitude":32.779167,"longitude":-96.80889,"reserved":0,"last_update":"0001-01-01T00:00:00Z","name_a2s":"Uncletopia | Dallas | 4 | Community","protocol":17,"map":"workshop/cp_overgrown_rc8.ugc503939302","folder":"tf","game":"Team Fortress","app_id":440,"player_count":0,"max_players":24,"Bots":0,"server_type":"Dedicated","server_os":"Linux","password":true,"vac":true,"version":"7961495","steam_id":85568392924515220,"keywords":["cp","nocrits","nodmgspread","uncletopia"],"game_id":440,"stv_port":27046,"stv_name":"Uncletopia | Dallas | 4 | Community | STV","players":null},{"server_id":5,"name":"Uncletopia | Frankfurt | 1 | All Maps","name_short":"frk-1","host":"frk-1.de.uncletopia.com","port":27015,"enabled":true,"region":"eu","cc":"de","latitude":50.110924,"longitude":8.682127,"reserved":0,"last_update":"0001-01-01T00:00:00Z","name_a2s":"Uncletopia | Frankfurt | 1 | All Maps","protocol":17,"map":"koth_highpass","folder":"tf","game":"Team Fortress","app_id":440,"player_count":0,"max_players":24,"Bots":0,"server_type":"Dedicated","server_os":"Linux","password":true,"vac":true,"version":"7961495","steam_id":85568392924469989,"keywords":["cp","nocrits","nodmgspread","uncletopia"],"game_id":440,"stv_port":27016,"stv_name":"Uncletopia | Frankfurt | 1 | All Maps | STV","players":null},{"server_id":110,"name":"Uncletopia | Frankfurt | 2 | All Maps","name_short":"frk-2","host":"frk-1.de.uncletopia.com","port":27025,"enabled":true,"region":"eu","cc":"de","latitude":50.110924,"longitude":8.682127,"reserved":0,"last_update":"0001-01-01T00:00:00Z","name_a2s":"Uncletopia | Frankfurt | 2 | All Maps","protocol":17,"map":"cp_dustbowl","folder":"tf","game":"Team Fortress","app_id":440,"player_count":0,"max_players":24,"Bots":0,"server_type":"Dedicated","server_os":"Linux","password":true,"vac":true,"version":"7961495","steam_id":85568392924469990,"keywords":["cp","nocrits","nodmgspread","uncletopia"],"game_id":440,"stv_port":27026,"stv_name":"Uncletopia | Frankfurt | 2 | All Maps | STV","players":null},{"server_id":308,"name":"Uncletopia | Frankfurt | 3 | All Maps","name_short":"frk-3","host":"frk-1.de.uncletopia.com","port":27035,"enabled":true,"region":"eu","cc":"de","latitude":50.110924,"longitude":8.682127,"reserved":0,"last_update":"0001-01-01T00:00:00Z","name_a2s":"Uncletopia | Frankfurt | 3 | All Maps","protocol":17,"map":"pl_barnblitz","folder":"tf","game":"Team Fortress","app_id":440,"player_count":0,"max_players":24,"Bots":0,"server_type":"Dedicated","server_os":"Linux","password":true,"vac":true,"version":"7961495","steam_id":85568392924504274,"keywords":["nocrits","nodmgspread","payload","uncletopia"],"game_id":440,"stv_port":27036,"stv_name":"Uncletopia | Frankfurt | 3 | All Maps | STV","players":null},{"server_id":309,"name":"Uncletopia | Frankfurt | 4 | All Maps","name_short":"frk-4","host":"frk-1.de.uncletopia.com","port":27045,"enabled":true,"region":"eu","cc":"de","latitude":50.110924,"longitude":8.682127,"reserved":0,"last_update":"0001-01-01T00:00:00Z","name_a2s":"Uncletopia | Frankfurt | 4 | All Maps","protocol":17,"map":"koth_highpass","folder":"tf","game":"Team Fortress","app_id":440,"player_count":0,"max_players":24,"Bots":0,"server_type":"Dedicated","server_os":"Linux","password":true,"vac":true,"version":"7961495","steam_id":85568392924504275,"keywords":["cp","nocrits","nodmgspread","uncletopia"],"game_id":440,"stv_port":27046,"stv_name":"Uncletopia | Frankfurt | 4 | All Maps | STV","players":null},{"server_id":310,"name":"Uncletopia | Frankfurt | 5 | All Maps","name_short":"frk-5","host":"frk-1.de.uncletopia.com","port":27055,"enabled":true,"region":"eu","cc":"de","latitude":50.110924,"longitude":8.682127,"reserved":0,"last_update":"0001-01-01T00:00:00Z","name_a2s":"Uncletopia | Frankfurt | 5 | All Maps","protocol":17,"map":"pl_badwater","folder":"tf","game":"Team Fortress","app_id":440,"player_count":0,"max_players":24,"Bots":0,"server_type":"Dedicated","server_os":"Linux","password":true,"vac":true,"version":"7961495","steam_id":85568392924504277,"keywords":["nocrits","nodmgspread","payload","uncletopia"],"game_id":440,"stv_port":27056,"stv_name":"Uncletopia | Frankfurt | 5 | All Maps | STV","players":null},{"server_id":311,"name":"Uncletopia | Frankfurt | 6 | All Maps","name_short":"frk-6","host":"frk-1.de.uncletopia.com","port":27065,"enabled":true,"region":"eu","cc":"de","latitude":50.110924,"longitude":8.682127,"reserved":0,"last_update":"0001-01-01T00:00:00Z","name_a2s":"Uncletopia | Frankfurt | 6 | All Maps","protocol":17,"map":"cp_altitude","folder":"tf","game":"Team Fortress","app_id":440,"player_count":0,"max_players":24,"Bots":0,"server_type":"Dedicated","server_os":"Linux","password":true,"vac":true,"version":"7961495","steam_id":85568392924504278,"keywords":["cp","nocrits","nodmgspread","uncletopia"],"game_id":440,"stv_port":27066,"stv_name":"Uncletopia | Frankfurt | 6 | All Maps | STV","players":null},{"server_id":23,"name":"Uncletopia | Frankfurt | 7 | Stopwatch","name_short":"frk-7","host":"frk-1.de.uncletopia.com","port":27075,"enabled":true,"region":"eu","cc":"de","latitude":50.110924,"longitude":8.682127,"reserved":0,"last_update":"0001-01-01T00:00:00Z","name_a2s":"Uncletopia | Frankfurt | 7 | Stopwatch","protocol":17,"map":"pl_frontier_final","folder":"tf","game":"Team Fortress","app_id":440,"player_count":0,"max_players":24,"Bots":0,"server_type":"Dedicated","server_os":"Linux","password":true,"vac":true,"version":"7961495","steam_id":85568392924742827,"keywords":["nocrits","nodmgspread","payload","uncletopia"],"game_id":440,"stv_port":27076,"stv_name":"Uncletopia | Frankfurt | 7 | Stopwatch | STV","players":null},{"server_id":24,"name":"Uncletopia | Frankfurt | 8 | Community","name_short":"frk-8","host":"frk-1.de.uncletopia.com","port":27085,"enabled":true,"region":"eu","cc":"de","latitude":50.110924,"longitude":8.682127,"reserved":0,"last_update":"0001-01-01T00:00:00Z","name_a2s":"Uncletopia | Frankfurt | 8 | Community","protocol":17,"map":"cp_mountainlab","folder":"tf","game":"Team Fortress","app_id":440,"player_count":0,"max_players":24,"Bots":0,"server_type":"Dedicated","server_os":"Linux","password":true,"vac":true,"version":"7961495","steam_id":85568392924742828,"keywords":["cp","nocrits","nodmgspread","uncletopia"],"game_id":440,"stv_port":27086,"stv_name":"Uncletopia | Frankfurt | 8 | Community | STV","players":null},{"server_id":202,"name":"Uncletopia | Hong Kong | 1 | All Maps","name_short":"hgk-1","host":"hgk-1.hk.uncletopia.com","port":27015,"enabled":true,"region":"asia","cc":"hk","latitude":22.302711,"longitude":114.177216,"reserved":0,"last_update":"0001-01-01T00:00:00Z","name_a2s":"Uncletopia | Hong Kong | 1 | All Maps","protocol":17,"map":"pl_upward","folder":"tf","game":"Team Fortress","app_id":440,"player_count":0,"max_players":24,"Bots":0,"server_type":"Dedicated","server_os":"Linux","password":true,"vac":true,"version":"7961495","steam_id":85568392924494504,"keywords":["nocrits","nodmgspread","payload","uncletopia"],"game_id":440,"stv_port":27016,"stv_name":"Uncletopia | Hong Kong | 1 | All Maps | STV","players":null},{"server_id":1,"name":"Uncletopia | Los Angeles | 1 | All Maps","name_short":"lax-1","host":"lax-1.us.uncletopia.com","port":27015,"enabled":true,"region":"us-west","cc":"us","latitude":33.94279,"longitude":-118.41004,"reserved":0,"last_update":"0001-01-01T00:00:00Z","name_a2s":"Uncletopia | Los Angeles | 1 | All Maps","protocol":17,"map":"pl_frontier_final","folder":"tf","game":"Team Fortress","app_id":440,"player_count":21,"max_players":24,"Bots":0,"server_type":"Dedicated","server_os":"Linux","password":true,"vac":true,"version":"7961495","steam_id":85568392924469991,"keywords":["nocrits","nodmgspread","payload","uncletopia"],"game_id":440,"stv_port":27016,"stv_name":"Uncletopia | Los Angeles | 1 | All Maps | STV","players":[{"user_id":598,"name":"adam1g","steam_id":76561198025747866,"connected_time":416000000000,"state":"active","ping":75},{"user_id":564,"name":"WhatAmIDoing","steam_id":76561199060028126,"connected_time":3268000000000,"state":"active","ping":65},{"user_id":607,"name":"Painkiller","steam_id":76561198049787400,"connected_time":53000000000,"state":"active","ping":61},{"user_id":588,"name":"King","steam_id":76561199021156805,"connected_time":873000000000,"state":"active","ping":85},{"user_id":583,"name":"Samhain","steam_id":76561198005331286,"connected_time":934000000000,"state":"active","ping":54},{"user_id":599,"name":"mentos14","steam_id":76561198097993629,"connected_time":384000000000,"state":"active","ping":51},{"user_id":604,"name":"Oryx, Nightmare Daddy","steam_id":76561197989271492,"connected_time":122000000000,"state":"active","ping":58},{"user_id":580,"name":"Mister Maze","steam_id":76561197970949652,"connected_time":1587000000000,"state":"active","ping":85},{"user_id":541,"name":"MancalaMadMan","steam_id":76561198347324053,"connected_time":4832000000000,"state":"active","ping":85},{"user_id":582,"name":"Main Opp","steam_id":76561198124910662,"connected_time":1239000000000,"state":"active","ping":60},{"user_id":590,"name":"ElectronX","steam_id":76561198116034988,"connected_time":828000000000,"state":"active","ping":52},{"user_id":591,"name":"Krazy","steam_id":76561198835502709,"connected_time":819000000000,"state":"active","ping":48},{"user_id":603,"name":"YOUNG MONEY CLAN","steam_id":76561198129763115,"connected_time":130000000000,"state":"active","ping":54},{"user_id":593,"name":"Firedust19","steam_id":76561198153238631,"connected_time":771000000000,"state":"active","ping":65},{"user_id":601,"name":"KellyKapoor","steam_id":76561198040828123,"connected_time":310000000000,"state":"active","ping":72},{"user_id":605,"name":"Sad Tony","steam_id":76561198053849851,"connected_time":118000000000,"state":"active","ping":55},{"user_id":554,"name":"slty.badwolf","steam_id":76561198025460913,"connected_time":3997000000000,"state":"active","ping":53},{"user_id":596,"name":"McDonald","steam_id":76561199028533497,"connected_time":604000000000,"state":"active","ping":52},{"user_id":549,"name":"TeriyakiDynamite","steam_id":76561198050049346,"connected_time":4381000000000,"state":"active","ping":62},{"user_id":585,"name":"john.","steam_id":76561198982939658,"connected_time":934000000000,"state":"active","ping":59},{"user_id":502,"name":"werolat","steam_id":76561197960544784,"connected_time":8623000000000,"state":"active","ping":55}]},{"server_id":112,"name":"Uncletopia | Los Angeles | 2 | All Maps","name_short":"lax-2","host":"lax-1.us.uncletopia.com","port":27025,"enabled":true,"region":"us-west","cc":"us","latitude":33.94279,"longitude":-118.41004,"reserved":0,"last_update":"0001-01-01T00:00:00Z","name_a2s":"Uncletopia | Los Angeles | 2 | All Maps","protocol":17,"map":"koth_lakeside_final","folder":"tf","game":"Team Fortress","app_id":440,"player_count":0,"max_players":24,"Bots":0,"server_type":"Dedicated","server_os":"Linux","password":true,"vac":true,"version":"7961495","steam_id":85568392924469992,"keywords":["cp","nocrits","nodmgspread","uncletopia"],"game_id":440,"stv_port":27026,"stv_name":"Uncletopia | Los Angeles | 2 | All Maps | STV","players":null},{"server_id":324,"name":"Uncletopia | Los Angeles | 3 | All Maps","name_short":"lax-3","host":"lax-1.us.uncletopia.com","port":27035,"enabled":true,"region":"us-west","cc":"us","latitude":33.94279,"longitude":-118.41004,"reserved":0,"last_update":"0001-01-01T00:00:00Z","name_a2s":"Uncletopia | Los Angeles | 3 | All Maps","protocol":17,"map":"pl_borneo","folder":"tf","game":"Team Fortress","app_id":440,"player_count":24,"max_players":24,"Bots":0,"server_type":"Dedicated","server_os":"Linux","password":true,"vac":true,"version":"7961495","steam_id":85568392924510198,"keywords":["nocrits","nodmgspread","payload","uncletopia"],"game_id":440,"stv_port":27036,"stv_name":"Uncletopia | Los Angeles | 3 | All Maps | STV","players":[{"user_id":474,"name":"LIAM","steam_id":76561198324691143,"connected_time":3857000000000,"state":"active","ping":70},{"user_id":536,"name":"An00bis","steam_id":76561198044084508,"connected_time":852000000000,"state":"active","ping":51},{"user_id":456,"name":"joeyyfan2011","steam_id":76561199014715203,"connected_time":5616000000000,"state":"active","ping":60},{"user_id":537,"name":"t.xonio","steam_id":76561198081985046,"connected_time":733000000000,"state":"active","ping":91},{"user_id":479,"name":"GIGAHAXX","steam_id":76561197993714726,"connected_time":3497000000000,"state":"active","ping":60},{"user_id":517,"name":"Just_Bland","steam_id":76561198403482191,"connected_time":1867000000000,"state":"active","ping":52},{"user_id":493,"name":"Ice cream sandwich","steam_id":76561198172748357,"connected_time":2982000000000,"state":"active","ping":57},{"user_id":541,"name":"KickButtNess","steam_id":76561198093986236,"connected_time":260000000000,"state":"active","ping":47},{"user_id":490,"name":"Torkhum","steam_id":76561198162880748,"connected_time":3109000000000,"state":"active","ping":64},{"user_id":539,"name":"Drive-By-Fish-Guy","steam_id":76561198105513652,"connected_time":592000000000,"state":"active","ping":63},{"user_id":538,"name":"t2infect","steam_id":76561198338255484,"connected_time":636000000000,"state":"active","ping":56},{"user_id":531,"name":"EOAW","steam_id":76561198310451639,"connected_time":1164000000000,"state":"active","ping":73},{"user_id":448,"name":"ii_BlooMoon","steam_id":76561199100597391,"connected_time":6411000000000,"state":"active","ping":57},{"user_id":511,"name":"grape","steam_id":76561199071151136,"connected_time":2442000000000,"state":"active","ping":47},{"user_id":467,"name":"R3S0LVE_","steam_id":76561198389201130,"connected_time":4627000000000,"state":"active","ping":59},{"user_id":532,"name":"Revolver Ocelot","steam_id":76561198194248527,"connected_time":1055000000000,"state":"active","ping":75},{"user_id":534,"name":"Many Bees' Chilling","steam_id":76561198079641282,"connected_time":954000000000,"state":"active","ping":92},{"user_id":509,"name":"poopfart messiah","steam_id":76561198082551861,"connected_time":2562000000000,"state":"active","ping":89},{"user_id":523,"name":"*sammich","steam_id":76561198119621232,"connected_time":1763000000000,"state":"active","ping":77},{"user_id":535,"name":"Robert_Cheeto","steam_id":76561198103638020,"connected_time":868000000000,"state":"active","ping":65},{"user_id":504,"name":"podge","steam_id":76561198858474714,"connected_time":2726000000000,"state":"active","ping":76},{"user_id":524,"name":"LuckyTF2","steam_id":76561199108883530,"connected_time":1722000000000,"state":"active","ping":64},{"user_id":543,"name":"Eating :)","steam_id":76561198141817197,"connected_time":117000000000,"state":"active","ping":54},{"user_id":527,"name":"SOGGY DOGGY","steam_id":76561199158847498,"connected_time":1665000000000,"state":"active","ping":78}]},{"server_id":25,"name":"Uncletopia | Los Angeles | 4 | Stopwatch","name_short":"lax-4","host":"lax-1.us.uncletopia.com","port":27045,"enabled":true,"region":"us-west","cc":"us","latitude":33.94279,"longitude":-118.41004,"reserved":0,"last_update":"0001-01-01T00:00:00Z","name_a2s":"Uncletopia | Los Angeles | 4 | Stopwatch","protocol":17,"map":"workshop/koth_ashville_final.ugc2130459942","folder":"tf","game":"Team Fortress","app_id":440,"player_count":0,"max_players":24,"Bots":0,"server_type":"Dedicated","server_os":"Linux","password":true,"vac":true,"version":"7961495","steam_id":85568392924510199,"keywords":["cp","nocrits","nodmgspread","uncletopia"],"game_id":440,"stv_port":27046,"stv_name":"Uncletopia | Los Angeles | 4 | Stopwatch | STV","players":null},{"server_id":11,"name":"Uncletopia | London | 1 | All Maps","name_short":"lon-1","host":"lon-1.uk.uncletopia.com","port":27015,"enabled":true,"region":"eu","cc":"gb","latitude":51.509865,"longitude":-0.118092,"reserved":0,"last_update":"0001-01-01T00:00:00Z","name_a2s":"Uncletopia | London | 1 | All Maps","protocol":17,"map":"pl_borneo","folder":"tf","game":"Team Fortress","app_id":440,"player_count":19,"max_players":24,"Bots":0,"server_type":"Dedicated","server_os":"Linux","password":true,"vac":true,"version":"7961495","steam_id":85568392924367362,"keywords":["nocrits","nodmgspread","payload","uncletopia"],"game_id":440,"stv_port":27016,"stv_name":"Uncletopia | London | 1 | All Maps | STV","players":[{"user_id":1031,"name":"jun870pro","steam_id":76561199237161535,"connected_time":1714000000000,"state":"active","ping":97},{"user_id":1035,"name":"Grekofun","steam_id":76561198758029808,"connected_time":1589000000000,"state":"active","ping":80},{"user_id":1051,"name":"Qdarks","steam_id":76561198013391340,"connected_time":14000000000,"state":"active","ping":132},{"user_id":1024,"name":"Scoundrel","steam_id":76561198056672372,"connected_time":2276000000000,"state":"active","ping":137},{"user_id":1040,"name":"build","steam_id":76561198818037965,"connected_time":940000000000,"state":"active","ping":103},{"user_id":1046,"name":"sepi98","steam_id":76561198203764635,"connected_time":252000000000,"state":"active","ping":87},{"user_id":1048,"name":"Martoro","steam_id":76561199022278314,"connected_time":150000000000,"state":"active","ping":52},{"user_id":964,"name":"TheDemoKnight","steam_id":76561198035168657,"connected_time":7523000000000,"state":"active","ping":72},{"user_id":929,"name":"noseb","steam_id":76561199480942903,"connected_time":9497000000000,"state":"active","ping":75},{"user_id":977,"name":"Collisto","steam_id":76561198023609460,"connected_time":6559000000000,"state":"active","ping":89},{"user_id":1049,"name":"thekoolest88","steam_id":76561199022415672,"connected_time":78000000000,"state":"active","ping":133},{"user_id":1050,"name":"Sad Sandy","steam_id":76561198232913456,"connected_time":53000000000,"state":"active","ping":87},{"user_id":1042,"name":"Jargo","steam_id":76561198064231790,"connected_time":605000000000,"state":"active","ping":102},{"user_id":979,"name":"Vivian From Paper Mario","steam_id":76561198077624205,"connected_time":6540000000000,"state":"active","ping":63},{"user_id":1021,"name":"Coca162","steam_id":76561198230656540,"connected_time":2584000000000,"state":"active","ping":45},{"user_id":1038,"name":"SAMURAI_T7C","steam_id":76561198071226377,"connected_time":1314000000000,"state":"active","ping":83},{"user_id":1039,"name":"ANGRY RACOON","steam_id":76561198077374543,"connected_time":1222000000000,"state":"active","ping":67},{"user_id":1029,"name":"peruna","steam_id":76561198000721196,"connected_time":1909000000000,"state":"active","ping":76},{"user_id":1032,"name":"Morno","steam_id":76561198028519110,"connected_time":1702000000000,"state":"active","ping":49}]},{"server_id":114,"name":"Uncletopia | London | 2 | All Maps","name_short":"lon-2","host":"lon-1.uk.uncletopia.com","port":27025,"enabled":true,"region":"eu","cc":"gb","latitude":51.509865,"longitude":-0.118092,"reserved":0,"last_update":"0001-01-01T00:00:00Z","name_a2s":"Uncletopia | London | 2 | All Maps","protocol":17,"map":"cp_altitude","folder":"tf","game":"Team Fortress","app_id":440,"player_count":0,"max_players":24,"Bots":0,"server_type":"Dedicated","server_os":"Linux","password":true,"vac":true,"version":"7961495","steam_id":85568392924470941,"keywords":["cp","nocrits","nodmgspread","uncletopia"],"game_id":440,"stv_port":27026,"stv_name":"Uncletopia | London | 2 | All Maps | STV","players":null},{"server_id":320,"name":"Uncletopia | London | 3 | All Maps","name_short":"lon-3","host":"lon-1.uk.uncletopia.com","port":27035,"enabled":true,"region":"eu","cc":"gb","latitude":51.509865,"longitude":-0.118092,"reserved":0,"last_update":"0001-01-01T00:00:00Z","name_a2s":"Uncletopia | London | 3 | All Maps","protocol":17,"map":"pl_swiftwater_final1","folder":"tf","game":"Team Fortress","app_id":440,"player_count":0,"max_players":24,"Bots":0,"server_type":"Dedicated","server_os":"Linux","password":true,"vac":true,"version":"7961495","steam_id":85568392924510192,"keywords":["nocrits","nodmgspread","payload","uncletopia"],"game_id":440,"stv_port":27036,"stv_name":"Uncletopia | London | 3 | All Maps | STV","players":null},{"server_id":321,"name":"Uncletopia | London | 4 | All Maps","name_short":"lon-4","host":"lon-1.uk.uncletopia.com","port":27045,"enabled":true,"region":"eu","cc":"gb","latitude":51.509865,"longitude":-0.118092,"reserved":0,"last_update":"0001-01-01T00:00:00Z","name_a2s":"Uncletopia | London | 4 | All Maps","protocol":17,"map":"pl_pier","folder":"tf","game":"Team Fortress","app_id":440,"player_count":0,"max_players":24,"Bots":0,"server_type":"Dedicated","server_os":"Linux","password":true,"vac":true,"version":"7961495","steam_id":85568392924510193,"keywords":["nocrits","nodmgspread","payload","uncletopia"],"game_id":440,"stv_port":27046,"stv_name":"Uncletopia | London | 4 | All Maps | STV","players":null},{"server_id":21,"name":"Uncletopia | London | 5 | All Maps","name_short":"lon-5","host":"lon-1.uk.uncletopia.com","port":27055,"enabled":true,"region":"eu","cc":"gb","latitude":51.509865,"longitude":-0.118092,"reserved":0,"last_update":"0001-01-01T00:00:00Z","name_a2s":"Uncletopia | London | 5 | All Maps","protocol":17,"map":"koth_cascade","folder":"tf","game":"Team Fortress","app_id":440,"player_count":0,"max_players":24,"Bots":0,"server_type":"Dedicated","server_os":"Linux","password":true,"vac":true,"version":"7961495","steam_id":85568392924742829,"keywords":["cp","nocrits","nodmgspread","uncletopia"],"game_id":440,"stv_port":27056,"stv_name":"Uncletopia | London | 5 | All Maps | STV","players":null},{"server_id":22,"name":"Uncletopia | London | 6 | All Maps","name_short":"lon-6","host":"lon-1.uk.uncletopia.com","port":27065,"enabled":true,"region":"eu","cc":"gb","latitude":51.509865,"longitude":-0.118092,"reserved":0,"last_update":"0001-01-01T00:00:00Z","name_a2s":"Uncletopia | London | 6 | All Maps","protocol":17,"map":"cp_altitude","folder":"tf","game":"Team Fortress","app_id":440,"player_count":0,"max_players":24,"Bots":0,"server_type":"Dedicated","server_os":"Linux","password":true,"vac":true,"version":"7961495","steam_id":85568392924742830,"keywords":["cp","nocrits","nodmgspread","uncletopia"],"game_id":440,"stv_port":27066,"stv_name":"Uncletopia | London | 6 | All Maps | STV","players":null},{"server_id":40,"name":"Uncletopia | London | 7 | Stopwatch","name_short":"lon-7","host":"lon-1.uk.uncletopia.com","port":27075,"enabled":true,"region":"eu","cc":"gb","latitude":51.509865,"longitude":-0.118092,"reserved":0,"last_update":"0001-01-01T00:00:00Z","name_a2s":"Uncletopia | London | 7 | Stopwatch","protocol":17,"map":"workshop/pl_badwater_pro_v12.ugc2142942074","folder":"tf","game":"Team Fortress","app_id":440,"player_count":0,"max_players":24,"Bots":0,"server_type":"Dedicated","server_os":"Linux","password":true,"vac":true,"version":"7961495","steam_id":85568392924964314,"keywords":["nocrits","nodmgspread","payload","uncletopia"],"game_id":440,"stv_port":27076,"stv_name":"Uncletopia | London | 7 | Stopwatch | STV","players":null},{"server_id":41,"name":"Uncletopia | London | 8 | Community","name_short":"lon-8","host":"lon-1.uk.uncletopia.com","port":27085,"enabled":true,"region":"eu","cc":"gb","latitude":51.509865,"longitude":-0.118092,"reserved":0,"last_update":"0001-01-01T00:00:00Z","name_a2s":"Uncletopia | London | 8 | Community","protocol":17,"map":"workshop/koth_synthetic_rc6a.ugc1549817316","folder":"tf","game":"Team Fortress","app_id":440,"player_count":0,"max_players":24,"Bots":0,"server_type":"Dedicated","server_os":"Linux","password":true,"vac":true,"version":"7961495","steam_id":85568392924964315,"keywords":["cp","nocrits","nodmgspread","uncletopia"],"game_id":440,"stv_port":27086,"stv_name":"Uncletopia | London | 8 | Community | STV","players":null},{"server_id":300,"name":"Uncletopia | Montréal | 1 | All Maps","name_short":"mtl-1","host":"mtl-1.ca.uncletopia.com","port":27015,"enabled":true,"region":"us-east","cc":"ca","latitude":45.50889,"longitude":-73.56167,"reserved":0,"last_update":"0001-01-01T00:00:00Z","name_a2s":"","protocol":0,"map":"","folder":"","game":"","app_id":0,"player_count":8,"max_players":0,"Bots":0,"server_type":"","server_os":"","password":false,"vac":false,"version":"","steam_id":0,"keywords":null,"game_id":0,"stv_port":0,"stv_name":"","players":[{"user_id":488,"name":"DoggyDogWhirl","steam_id":76561198042841344,"connected_time":4600000000000,"state":"active","ping":59},{"user_id":512,"name":"cornshot","steam_id":76561198043496387,"connected_time":1103000000000,"state":"active","ping":87},{"user_id":510,"name":"Rainy","steam_id":76561198317231257,"connected_time":1905000000000,"state":"active","ping":47},{"user_id":513,"name":"Aeris","steam_id":76561198287271028,"connected_time":530000000000,"state":"active","ping":73},{"user_id":503,"name":"Pete","steam_id":76561198044797506,"connected_time":2318000000000,"state":"active","ping":64},{"user_id":505,"name":"Evangeline","steam_id":76561198802719169,"connected_time":2258000000000,"state":"active","ping":74},{"user_id":507,"name":"MilliePop","steam_id":76561198146233078,"connected_time":2256000000000,"state":"active","ping":111},{"user_id":508,"name":"Melocity","steam_id":76561198137187430,"connected_time":2229000000000,"state":"active","ping":59}]},{"server_id":301,"name":"Uncletopia | Montréal | 2 | ???","name_short":"mtl-2","host":"mtl-1.ca.uncletopia.com","port":27025,"enabled":true,"region":"us-east","cc":"ca","latitude":45.50889,"longitude":-73.56167,"reserved":0,"last_update":"0001-01-01T00:00:00Z","name_a2s":"","protocol":0,"map":"","folder":"","game":"","app_id":0,"player_count":0,"max_players":0,"Bots":0,"server_type":"","server_os":"","password":false,"vac":false,"version":"","steam_id":0,"keywords":null,"game_id":0,"stv_port":0,"stv_name":"","players":null},{"server_id":13,"name":"Uncletopia | New York City | 1 | All Maps","name_short":"nyc-1","host":"nyc-1.us.uncletopia.com","port":27015,"enabled":true,"region":"us-east","cc":"us","latitude":40.73061,"longitude":-73.93524,"reserved":0,"last_update":"0001-01-01T00:00:00Z","name_a2s":"Uncletopia | New York City | 1 | All Maps","protocol":17,"map":"cp_dustbowl","folder":"tf","game":"Team Fortress","app_id":440,"player_count":8,"max_players":24,"Bots":0,"server_type":"Dedicated","server_os":"Linux","password":true,"vac":true,"version":"7961495","steam_id":85568392924469993,"keywords":["cp","nocrits","nodmgspread","uncletopia"],"game_id":440,"stv_port":27016,"stv_name":"Uncletopia | New York City | 1 | All Maps | STV","players":[{"user_id":700,"name":"xXx_PR0_C00M3R_G4M3R!_xXx","steam_id":76561199496470378,"connected_time":1120000000000,"state":"active","ping":105},{"user_id":701,"name":"eighntes","steam_id":76561198180607741,"connected_time":1075000000000,"state":"active","ping":53},{"user_id":703,"name":"NGPlus","steam_id":76561198348945217,"connected_time":457000000000,"state":"active","ping":120},{"user_id":704,"name":"_noodle","steam_id":76561199278361340,"connected_time":436000000000,"state":"active","ping":85},{"user_id":697,"name":"linklol262","steam_id":76561198305620134,"connected_time":1294000000000,"state":"active","ping":68},{"user_id":687,"name":"Getzinya","steam_id":76561199087918247,"connected_time":1788000000000,"state":"active","ping":57},{"user_id":665,"name":"Shapeshiftertrue","steam_id":76561198440835095,"connected_time":3154000000000,"state":"active","ping":79},{"user_id":575,"name":"Riltreks","steam_id":76561198800482183,"connected_time":12223000000000,"state":"active","ping":99}]},{"server_id":14,"name":"Uncletopia | New York City | 2 | All Maps","name_short":"nyc-2","host":"nyc-1.us.uncletopia.com","port":27025,"enabled":true,"region":"us-east","cc":"us","latitude":40.73061,"longitude":-73.93524,"reserved":0,"last_update":"0001-01-01T00:00:00Z","name_a2s":"Uncletopia | New York City | 2 | All Maps","protocol":17,"map":"pl_thundermountain","folder":"tf","game":"Team Fortress","app_id":440,"player_count":23,"max_players":24,"Bots":0,"server_type":"Dedicated","server_os":"Linux","password":true,"vac":true,"version":"7961495","steam_id":85568392924469994,"keywords":["nocrits","nodmgspread","payload","uncletopia"],"game_id":440,"stv_port":27026,"stv_name":"Uncletopia | New York City | 2 | All Maps | STV","players":[{"user_id":568,"name":"Braamklauw","steam_id":76561198283287697,"connected_time":14076000000000,"state":"active","ping":144},{"user_id":711,"name":"key ingredient","steam_id":76561198046055673,"connected_time":1579000000000,"state":"active","ping":60},{"user_id":685,"name":"Fatpoob","steam_id":76561198056730096,"connected_time":4731000000000,"state":"active","ping":55},{"user_id":603,"name":"Pozyomka","steam_id":76561198086331015,"connected_time":11886000000000,"state":"active","ping":30},{"user_id":692,"name":"soup bowl","steam_id":76561198126134338,"connected_time":3402000000000,"state":"active","ping":110},{"user_id":654,"name":"Dot.","steam_id":76561198149463984,"connected_time":8375000000000,"state":"active","ping":35},{"user_id":671,"name":"A Puppy","steam_id":76561198828184456,"connected_time":7159000000000,"state":"active","ping":45},{"user_id":717,"name":"the spy from team fortress 2","steam_id":76561198047797306,"connected_time":641000000000,"state":"active","ping":49},{"user_id":689,"name":"Spiral Mountain","steam_id":76561198058683715,"connected_time":3734000000000,"state":"active","ping":71},{"user_id":650,"name":"space man","steam_id":76561198066333670,"connected_time":9141000000000,"state":"active","ping":56},{"user_id":661,"name":"menonamed","steam_id":76561198199564382,"connected_time":7810000000000,"state":"active","ping":63},{"user_id":693,"name":"Hot Cocoa","steam_id":76561198315789132,"connected_time":3363000000000,"state":"active","ping":78},{"user_id":709,"name":"Philo","steam_id":76561198061873341,"connected_time":1660000000000,"state":"active","ping":88},{"user_id":713,"name":"Unk","steam_id":76561198031717617,"connected_time":989000000000,"state":"active","ping":45},{"user_id":636,"name":"flappyflap2","steam_id":76561198285048973,"connected_time":10119000000000,"state":"active","ping":44},{"user_id":690,"name":"GrandTraveler.ttv","steam_id":76561198089012005,"connected_time":3731000000000,"state":"active","ping":83},{"user_id":644,"name":"she","steam_id":76561197994492154,"connected_time":9502000000000,"state":"active","ping":141},{"user_id":719,"name":"Fried Water?!","steam_id":76561198053164815,"connected_time":276000000000,"state":"active","ping":60},{"user_id":720,"name":"Synell","steam_id":76561198053232523,"connected_time":225000000000,"state":"active","ping":70},{"user_id":714,"name":"QWERTY","steam_id":76561198211430420,"connected_time":965000000000,"state":"active","ping":84},{"user_id":710,"name":"Csquared","steam_id":76561198169038599,"connected_time":1658000000000,"state":"active","ping":131},{"user_id":643,"name":"Sir Quacksalot","steam_id":76561198048942777,"connected_time":9544000000000,"state":"active","ping":146},{"user_id":697,"name":"CheesyPoofs","steam_id":76561197998650617,"connected_time":3169000000000,"state":"active","ping":130}]},{"server_id":15,"name":"Uncletopia | New York City | 3 | Stopwatch","name_short":"nyc-3","host":"nyc-1.us.uncletopia.com","port":27035,"enabled":true,"region":"us-east","cc":"us","latitude":40.73061,"longitude":-73.93524,"reserved":0,"last_update":"0001-01-01T00:00:00Z","name_a2s":"Uncletopia | New York City | 3 | Stopwatch","protocol":17,"map":"workshop/koth_bagel_rc6.ugc2514036946","folder":"tf","game":"Team Fortress","app_id":440,"player_count":0,"max_players":24,"Bots":0,"server_type":"Dedicated","server_os":"Linux","password":true,"vac":true,"version":"7961495","steam_id":85568392924742820,"keywords":["cp","nocrits","nodmgspread","uncletopia"],"game_id":440,"stv_port":27036,"stv_name":"Uncletopia | New York City | 3 | Stopwatch | STV","players":null},{"server_id":16,"name":"Uncletopia | New York City | 4 | Community","name_short":"nyc-4","host":"nyc-1.us.uncletopia.com","port":27045,"enabled":true,"region":"us-east","cc":"us","latitude":40.73061,"longitude":-73.93524,"reserved":0,"last_update":"0001-01-01T00:00:00Z","name_a2s":"Uncletopia | New York City | 4 | Community","protocol":17,"map":"workshop/pl_fifthcurve_rc1.ugc648227046","folder":"tf","game":"Team Fortress","app_id":440,"player_count":0,"max_players":24,"Bots":0,"server_type":"Dedicated","server_os":"Linux","password":true,"vac":true,"version":"7961495","steam_id":85568392924742821,"keywords":["nocrits","nodmgspread","payload","uncletopia"],"game_id":440,"stv_port":27046,"stv_name":"Uncletopia | New York City | 4 | Community | STV","players":null},{"server_id":142,"name":"Uncletopia | São Paulo | 1 | All Maps","name_short":"sao-1","host":"sao-1.br.uncletopia.com","port":27015,"enabled":true,"region":"sa","cc":"br","latitude":-23.533773,"longitude":-46.62529,"reserved":0,"last_update":"0001-01-01T00:00:00Z","name_a2s":"Uncletopia | São Paulo | 1 | All Maps","protocol":17,"map":"pl_pier","folder":"tf","game":"Team Fortress","app_id":440,"player_count":0,"max_players":24,"Bots":0,"server_type":"Dedicated","server_os":"Linux","password":true,"vac":true,"version":"7961495","steam_id":85568392924469996,"keywords":["nocrits","nodmgspread","payload","uncletopia"],"game_id":440,"stv_port":27016,"stv_name":"Uncletopia | São Paulo | 1 | All Maps | STV","players":null},{"server_id":143,"name":"Uncletopia | São Paulo | 2 | Community","name_short":"sao-2","host":"sao-2.br.uncletopia.com","port":27015,"enabled":true,"region":"sa","cc":"br","latitude":-23.533773,"longitude":-46.62529,"reserved":0,"last_update":"0001-01-01T00:00:00Z","name_a2s":"Uncletopia | São Paulo | 2 | Community","protocol":17,"map":"workshop/koth_product_final.ugc454272353","folder":"tf","game":"Team Fortress","app_id":440,"player_count":0,"max_players":24,"Bots":0,"server_type":"Dedicated","server_os":"Linux","password":true,"vac":true,"version":"7961495","steam_id":85568392924485349,"keywords":["cp","nocrits","nodmgspread","uncletopia"],"game_id":440,"stv_port":27016,"stv_name":"Uncletopia | São Paulo | 2 | Community | STV","players":null},{"server_id":7,"name":"Uncletopia | Seattle | 1 | All Maps","name_short":"sea-1","host":"sea-1.us.uncletopia.com","port":27015,"enabled":true,"region":"us-west","cc":"us","latitude":47.608013,"longitude":-122.33517,"reserved":0,"last_update":"0001-01-01T00:00:00Z","name_a2s":"Uncletopia | Seattle | 1 | All Maps","protocol":17,"map":"pl_snowycoast","folder":"tf","game":"Team Fortress","app_id":440,"player_count":24,"max_players":24,"Bots":0,"server_type":"Dedicated","server_os":"Linux","password":true,"vac":true,"version":"7961495","steam_id":85568392924469997,"keywords":["nocrits","nodmgspread","payload","uncletopia"],"game_id":440,"stv_port":27016,"stv_name":"Uncletopia | Seattle | 1 | All Maps | STV","players":[{"user_id":638,"name":"Gm_Trash","steam_id":76561199445091548,"connected_time":10386000000000,"state":"active","ping":55},{"user_id":704,"name":"RainboomCrash","steam_id":76561198065612273,"connected_time":4937000000000,"state":"active","ping":45},{"user_id":718,"name":"fragadelphia","steam_id":76561198066116363,"connected_time":3099000000000,"state":"active","ping":46},{"user_id":731,"name":"level 7 firemancer","steam_id":76561198209571677,"connected_time":1086000000000,"state":"active","ping":121},{"user_id":683,"name":"NEBULA","steam_id":76561198086878595,"connected_time":6720000000000,"state":"active","ping":72},{"user_id":734,"name":"Cam","steam_id":76561198285054047,"connected_time":903000000000,"state":"active","ping":78},{"user_id":725,"name":"dusty :33","steam_id":76561198045218909,"connected_time":2430000000000,"state":"active","ping":41},{"user_id":654,"name":"slushy :))","steam_id":76561198135281802,"connected_time":8900000000000,"state":"active","ping":30},{"user_id":719,"name":"MxProf","steam_id":76561198044519572,"connected_time":2878000000000,"state":"active","ping":60},{"user_id":700,"name":"gorlab","steam_id":76561198025089694,"connected_time":5288000000000,"state":"active","ping":60},{"user_id":732,"name":"ed","steam_id":76561198080475712,"connected_time":1034000000000,"state":"active","ping":70},{"user_id":682,"name":"The King of Piss World","steam_id":76561198082806956,"connected_time":6851000000000,"state":"active","ping":148},{"user_id":737,"name":"mega","steam_id":76561198089520959,"connected_time":815000000000,"state":"active","ping":95},{"user_id":735,"name":"Frogninja","steam_id":76561198051418374,"connected_time":898000000000,"state":"active","ping":46},{"user_id":695,"name":"plushy :))","steam_id":76561198080046542,"connected_time":5894000000000,"state":"active","ping":45},{"user_id":715,"name":"małię \u003e:))","steam_id":76561198337705174,"connected_time":3695000000000,"state":"active","ping":88},{"user_id":713,"name":"cruddy B))","steam_id":76561198031234032,"connected_time":4012000000000,"state":"active","ping":106},{"user_id":693,"name":"luuny :))","steam_id":76561198042913843,"connected_time":5901000000000,"state":"active","ping":60},{"user_id":716,"name":"jole","steam_id":76561198037292232,"connected_time":3492000000000,"state":"active","ping":120},{"user_id":730,"name":"Forty","steam_id":76561198257410181,"connected_time":1190000000000,"state":"active","ping":57},{"user_id":728,"name":"ORANGE","steam_id":76561198000401769,"connected_time":1755000000000,"state":"active","ping":46},{"user_id":723,"name":"jayeskae","steam_id":76561198144220801,"connected_time":2644000000000,"state":"active","ping":45},{"user_id":736,"name":"Emi","steam_id":76561198152149679,"connected_time":897000000000,"state":"active","ping":45},{"user_id":738,"name":"rushy :))","steam_id":76561198065825165,"connected_time":784000000000,"state":"active","ping":113}]},{"server_id":119,"name":"Uncletopia | Seattle | 2 | All Maps","name_short":"sea-2","host":"sea-1.us.uncletopia.com","port":27025,"enabled":true,"region":"us-west","cc":"us","latitude":47.608013,"longitude":-122.33517,"reserved":0,"last_update":"0001-01-01T00:00:00Z","name_a2s":"Uncletopia | Seattle | 2 | All Maps","protocol":17,"map":"pl_barnblitz","folder":"tf","game":"Team Fortress","app_id":440,"player_count":24,"max_players":24,"Bots":0,"server_type":"Dedicated","server_os":"Linux","password":true,"vac":true,"version":"7961495","steam_id":85568392924469998,"keywords":["nocrits","nodmgspread","payload","uncletopia"],"game_id":440,"stv_port":27026,"stv_name":"Uncletopia | Seattle | 2 | All Maps | STV","players":[{"user_id":500,"name":"sex haver","steam_id":76561198256575672,"connected_time":1083000000000,"state":"active","ping":48},{"user_id":499,"name":"CL Pocky","steam_id":76561198067597483,"connected_time":1091000000000,"state":"active","ping":47},{"user_id":509,"name":"Drapph","steam_id":76561199384213314,"connected_time":57000000000,"state":"active","ping":111},{"user_id":482,"name":"MonteJT","steam_id":76561198055409360,"connected_time":2227000000000,"state":"active","ping":42},{"user_id":505,"name":"Jovo","steam_id":76561197993265970,"connected_time":698000000000,"state":"active","ping":45},{"user_id":506,"name":"makeshift_burrito","steam_id":76561198042510825,"connected_time":650000000000,"state":"active","ping":62},{"user_id":476,"name":"rice white","steam_id":76561198320732910,"connected_time":2524000000000,"state":"active","ping":127},{"user_id":501,"name":"Zero 007","steam_id":76561198027776317,"connected_time":890000000000,"state":"active","ping":148},{"user_id":471,"name":"Haydob13","steam_id":76561198110378191,"connected_time":2589000000000,"state":"active","ping":54},{"user_id":502,"name":"Skronky","steam_id":76561198093326810,"connected_time":814000000000,"state":"active","ping":39},{"user_id":473,"name":"Bendidy","steam_id":76561198041964300,"connected_time":2549000000000,"state":"active","ping":60},{"user_id":495,"name":"Drake from State Farm","steam_id":76561199069029812,"connected_time":1299000000000,"state":"active","ping":78},{"user_id":503,"name":"PainInTheRuss","steam_id":76561197977960543,"connected_time":745000000000,"state":"active","ping":60},{"user_id":465,"name":"Tom Skirrett","steam_id":76561198014600788,"connected_time":3127000000000,"state":"active","ping":72},{"user_id":507,"name":"what's all the hubbub, puff?","steam_id":76561198068257774,"connected_time":600000000000,"state":"active","ping":66},{"user_id":508,"name":"allMAX","steam_id":76561198270980670,"connected_time":599000000000,"state":"active","ping":153},{"user_id":497,"name":"Cheesed Burger","steam_id":76561198066425198,"connected_time":1103000000000,"state":"active","ping":84},{"user_id":422,"name":"The Horny","steam_id":76561198863639459,"connected_time":5789000000000,"state":"active","ping":47},{"user_id":490,"name":":)","steam_id":76561198210322871,"connected_time":1533000000000,"state":"active","ping":76},{"user_id":455,"name":"rad killl raccoon","steam_id":76561198980975595,"connected_time":3750000000000,"state":"active","ping":50},{"user_id":488,"name":"Tripll-L","steam_id":76561197998077437,"connected_time":1973000000000,"state":"active","ping":60},{"user_id":457,"name":"H2OBourne","steam_id":76561198396293109,"connected_time":3726000000000,"state":"active","ping":104},{"user_id":487,"name":"leeeeeeeeeeeeeeeeeeeeeeeeeee","steam_id":76561199083322731,"connected_time":2037000000000,"state":"active","ping":96},{"user_id":498,"name":"Burnsasaurous","steam_id":76561198003315964,"connected_time":1103000000000,"state":"active","ping":77}]},{"server_id":406,"name":"Uncletopia | Seattle | 3 | Stopwatch","name_short":"sea-3","host":"sea-1.us.uncletopia.com","port":27035,"enabled":true,"region":"us-west","cc":"us","latitude":47.608013,"longitude":-122.33517,"reserved":0,"last_update":"0001-01-01T00:00:00Z","name_a2s":"Uncletopia | Seattle | 3 | Stopwatch","protocol":17,"map":"workshop/pl_vigil_rc10.ugc1266210012","folder":"tf","game":"Team Fortress","app_id":440,"player_count":1,"max_players":24,"Bots":0,"server_type":"Dedicated","server_os":"Linux","password":true,"vac":true,"version":"7961495","steam_id":85568392924515217,"keywords":["nocrits","nodmgspread","payload","uncletopia"],"game_id":440,"stv_port":27036,"stv_name":"Uncletopia | Seattle | 3 | Stopwatch | STV","players":[{"user_id":29,"name":"Cheezbeargur","steam_id":76561198164702899,"connected_time":1299000000000,"state":"active","ping":60}]},{"server_id":17,"name":"Uncletopia | San Francisco | 1 | All Maps","name_short":"sfo-1","host":"sfo-1.us.uncletopia.com","port":27015,"enabled":true,"region":"us-west","cc":"us","latitude":37.77397,"longitude":-122.4313,"reserved":0,"last_update":"0001-01-01T00:00:00Z","name_a2s":"Uncletopia | San Francisco | 1 | All Maps","protocol":17,"map":"pl_barnblitz","folder":"tf","game":"Team Fortress","app_id":440,"player_count":25,"max_players":24,"Bots":0,"server_type":"Dedicated","server_os":"Linux","password":true,"vac":true,"version":"7961495","steam_id":85568392924469999,"keywords":["nocrits","nodmgspread","payload","uncletopia"],"game_id":440,"stv_port":27016,"stv_name":"Uncletopia | San Francisco | 1 | All Maps | STV","players":[{"user_id":508,"name":"Final_MarioXD","steam_id":76561199184862419,"connected_time":4203000000000,"state":"active","ping":109},{"user_id":456,"name":"Antzen","steam_id":76561198041343470,"connected_time":7692000000000,"state":"active","ping":57},{"user_id":534,"name":"RY7H","steam_id":76561198278269416,"connected_time":2231000000000,"state":"active","ping":60},{"user_id":509,"name":"Crazy Hungarian","steam_id":76561198025498172,"connected_time":4193000000000,"state":"active","ping":73},{"user_id":522,"name":"B class hero","steam_id":76561198066091050,"connected_time":2693000000000,"state":"active","ping":63},{"user_id":491,"name":"perc 10","steam_id":76561198116471653,"connected_time":5061000000000,"state":"active","ping":88},{"user_id":544,"name":"pills here","steam_id":76561198080790447,"connected_time":53000000000,"state":"active","ping":46},{"user_id":545,"name":"Karg","steam_id":76561198091387866,"connected_time":9000000000,"state":"spawning","ping":52},{"user_id":546,"name":"Fribbo","steam_id":76561198373295660,"connected_time":8000000000,"state":"spawning","ping":70},{"user_id":537,"name":"Clorox Chugger 69","steam_id":76561198049508548,"connected_time":1517000000000,"state":"active","ping":66},{"user_id":532,"name":"Dcoyotzi","steam_id":76561199124707627,"connected_time":2404000000000,"state":"active","ping":71},{"user_id":511,"name":"Sgt. Eclair","steam_id":76561198156384194,"connected_time":3631000000000,"state":"active","ping":59},{"user_id":513,"name":"xD","steam_id":76561198149683030,"connected_time":3624000000000,"state":"active","ping":68},{"user_id":516,"name":"Olive Twig","steam_id":76561198238350302,"connected_time":3454000000000,"state":"active","ping":110},{"user_id":519,"name":"Perididdle","steam_id":76561198056864606,"connected_time":3106000000000,"state":"active","ping":70},{"user_id":539,"name":"Because","steam_id":76561199482135239,"connected_time":1497000000000,"state":"active","ping":124},{"user_id":488,"name":"Livin' Like Larry","steam_id":76561198313360974,"connected_time":5197000000000,"state":"active","ping":43},{"user_id":515,"name":"FunnyGoomba","steam_id":76561198279865229,"connected_time":3576000000000,"state":"active","ping":80},{"user_id":542,"name":"Fish Lambert","steam_id":76561198098279668,"connected_time":1036000000000,"state":"active","ping":67},{"user_id":445,"name":"Perfectly Generic Object","steam_id":76561198992039900,"connected_time":8417000000000,"state":"active","ping":80},{"user_id":446,"name":"shitass (Reaping and Sowing)","steam_id":76561198210572481,"connected_time":8416000000000,"state":"active","ping":59},{"user_id":533,"name":"fartstreaks employed","steam_id":76561198046073848,"connected_time":2391000000000,"state":"active","ping":61},{"user_id":497,"name":"lol","steam_id":76561198026491738,"connected_time":4988000000000,"state":"active","ping":91},{"user_id":536,"name":"cornballer","steam_id":76561199006886644,"connected_time":1594000000000,"state":"active","ping":57},{"user_id":507,"name":"Tuba","steam_id":76561198209166329,"connected_time":4315000000000,"state":"active","ping":70}]},{"server_id":18,"name":"Uncletopia | San Francisco | 2 | All Maps","name_short":"sfo-2","host":"sfo-1.us.uncletopia.com","port":27025,"enabled":true,"region":"us-west","cc":"us","latitude":37.77397,"longitude":-122.4313,"reserved":0,"last_update":"0001-01-01T00:00:00Z","name_a2s":"Uncletopia | San Francisco | 2 | All Maps","protocol":17,"map":"koth_cascade","folder":"tf","game":"Team Fortress","app_id":440,"player_count":6,"max_players":24,"Bots":0,"server_type":"Dedicated","server_os":"Linux","password":true,"vac":true,"version":"7961495","steam_id":85568392924470000,"keywords":["cp","nocrits","nodmgspread","uncletopia"],"game_id":440,"stv_port":27026,"stv_name":"Uncletopia | San Francisco | 2 | All Maps | STV","players":[{"user_id":15,"name":"cringy","steam_id":76561198323000455,"connected_time":1593000000000,"state":"active","ping":64},{"user_id":20,"name":"Lumity 🤎💜","steam_id":76561198011442255,"connected_time":792000000000,"state":"active","ping":54},{"user_id":21,"name":"KingOmegaVolt","steam_id":76561199187481231,"connected_time":626000000000,"state":"active","ping":105},{"user_id":18,"name":"johnman gooberguy","steam_id":76561199014859764,"connected_time":1421000000000,"state":"active","ping":69},{"user_id":22,"name":"cofferhead","steam_id":76561199191108449,"connected_time":551000000000,"state":"active","ping":55},{"user_id":23,"name":"Khrono691","steam_id":76561198246227600,"connected_time":371000000000,"state":"active","ping":66}]},{"server_id":19,"name":"Uncletopia | San Francisco | 3 | Stopwatch","name_short":"sfo-3","host":"sfo-1.us.uncletopia.com","port":27035,"enabled":true,"region":"us-west","cc":"us","latitude":37.77397,"longitude":-122.4313,"reserved":0,"last_update":"0001-01-01T00:00:00Z","name_a2s":"Uncletopia | San Francisco | 3 | Stopwatch","protocol":17,"map":"workshop/koth_ramjam_rc1.ugc459778887","folder":"tf","game":"Team Fortress","app_id":440,"player_count":0,"max_players":24,"Bots":0,"server_type":"Dedicated","server_os":"Linux","password":true,"vac":true,"version":"7961495","steam_id":85568392924742824,"keywords":["cp","nocrits","nodmgspread","uncletopia"],"game_id":440,"stv_port":27036,"stv_name":"Uncletopia | San Francisco | 3 | Stopwatch | STV","players":null},{"server_id":20,"name":"Uncletopia | San Francisco | 4 | Community","name_short":"sfo-4","host":"sfo-1.us.uncletopia.com","port":27045,"enabled":true,"region":"us-west","cc":"us","latitude":37.77397,"longitude":-122.4313,"reserved":0,"last_update":"0001-01-01T00:00:00Z","name_a2s":"Uncletopia | San Francisco | 4 | Community","protocol":17,"map":"workshop/koth_trenchfoot_b1a.ugc731436616","folder":"tf","game":"Team Fortress","app_id":440,"player_count":0,"max_players":24,"Bots":0,"server_type":"Dedicated","server_os":"Linux","password":true,"vac":true,"version":"7961495","steam_id":85568392924742826,"keywords":["cp","nocrits","nodmgspread","uncletopia"],"game_id":440,"stv_port":27046,"stv_name":"Uncletopia | San Francisco | 4 | Community | STV","players":null},{"server_id":141,"name":"Uncletopia | Sydney | 1 | All Maps","name_short":"syd-1","host":"syd-1.au.uncletopia.com","port":27015,"enabled":true,"region":"au","cc":"au","latitude":-33.865143,"longitude":151.2099,"reserved":0,"last_update":"0001-01-01T00:00:00Z","name_a2s":"Uncletopia | Sydney | 1 | All Maps","protocol":17,"map":"cp_sunshine","folder":"tf","game":"Team Fortress","app_id":440,"player_count":15,"max_players":24,"Bots":0,"server_type":"Dedicated","server_os":"Linux","password":true,"vac":true,"version":"7961495","steam_id":85568392924470001,"keywords":["cp","nocrits","nodmgspread","uncletopia"],"game_id":440,"stv_port":27016,"stv_name":"Uncletopia | Sydney | 1 | All Maps | STV","players":[{"user_id":28,"name":"rudra","steam_id":76561198067731912,"connected_time":1136000000000,"state":"active","ping":74},{"user_id":34,"name":"yumps","steam_id":76561198009311069,"connected_time":577000000000,"state":"active","ping":61},{"user_id":35,"name":"Calsaintski","steam_id":76561199081848498,"connected_time":570000000000,"state":"active","ping":65},{"user_id":15,"name":"LeoJoeD","steam_id":76561198161848749,"connected_time":3021000000000,"state":"active","ping":38},{"user_id":31,"name":"Regular Marco","steam_id":76561198806966268,"connected_time":980000000000,"state":"active","ping":53},{"user_id":32,"name":"NotTony69","steam_id":76561199122717140,"connected_time":813000000000,"state":"active","ping":294},{"user_id":33,"name":"trash","steam_id":76561198110764631,"connected_time":759000000000,"state":"active","ping":45},{"user_id":20,"name":"Y0shua3","steam_id":76561199381627916,"connected_time":1866000000000,"state":"active","ping":90},{"user_id":27,"name":"adammagee","steam_id":76561197972653972,"connected_time":1422000000000,"state":"active","ping":56},{"user_id":36,"name":"gone","steam_id":76561198322814506,"connected_time":312000000000,"state":"active","ping":103},{"user_id":37,"name":"Byakko","steam_id":76561198371663615,"connected_time":300000000000,"state":"active","ping":48},{"user_id":38,"name":"I'm using a controller","steam_id":76561198152210509,"connected_time":267000000000,"state":"active","ping":37},{"user_id":39,"name":"Bilbo Swaggins","steam_id":76561198984446872,"connected_time":218000000000,"state":"active","ping":54},{"user_id":40,"name":"kersplusho","steam_id":76561198152814159,"connected_time":91000000000,"state":"active","ping":63},{"user_id":41,"name":"El Chupacabra","steam_id":76561198070641651,"connected_time":46000000000,"state":"active","ping":50}]},{"server_id":123,"name":"Uncletopia | Sydney | 2 | All Maps","name_short":"syd-2","host":"syd-1.au.uncletopia.com","port":27025,"enabled":true,"region":"au","cc":"au","latitude":-33.865143,"longitude":151.2099,"reserved":0,"last_update":"0001-01-01T00:00:00Z","name_a2s":"Uncletopia | Sydney | 2 | All Maps","protocol":17,"map":"koth_lakeside_final","folder":"tf","game":"Team Fortress","app_id":440,"player_count":0,"max_players":24,"Bots":0,"server_type":"Dedicated","server_os":"Linux","password":true,"vac":true,"version":"7961495","steam_id":85568392924470002,"keywords":["cp","nocrits","nodmgspread","uncletopia"],"game_id":440,"stv_port":27026,"stv_name":"Uncletopia | Sydney | 2 | All Maps | STV","players":null},{"server_id":395,"name":"Uncletopia | Sydney | 3 | All Maps","name_short":"syd-3","host":"syd-1.au.uncletopia.com","port":27035,"enabled":true,"region":"au","cc":"au","latitude":-33.865143,"longitude":151.2099,"reserved":0,"last_update":"0001-01-01T00:00:00Z","name_a2s":"Uncletopia | Sydney | 3 | All Maps","protocol":17,"map":"koth_highpass","folder":"tf","game":"Team Fortress","app_id":440,"player_count":1,"max_players":24,"Bots":0,"server_type":"Dedicated","server_os":"Linux","password":true,"vac":true,"version":"7961495","steam_id":85568392925194467,"keywords":["cp","nocrits","nodmgspread","uncletopia"],"game_id":440,"stv_port":27036,"stv_name":"Uncletopia | Sydney | 3 | All Maps | STV","players":[{"user_id":7,"name":"fkndonnyaye","steam_id":76561198298887409,"connected_time":595000000000,"state":"active","ping":137}]},{"server_id":396,"name":"Uncletopia | Sydney | 4 | All Maps","name_short":"syd-4","host":"syd-1.au.uncletopia.com","port":27045,"enabled":true,"region":"au","cc":"au","latitude":-33.865143,"longitude":151.2099,"reserved":0,"last_update":"0001-01-01T00:00:00Z","name_a2s":"Uncletopia | Sydney | 4 | All Maps","protocol":17,"map":"koth_lakeside_final","folder":"tf","game":"Team Fortress","app_id":440,"player_count":0,"max_players":24,"Bots":0,"server_type":"Dedicated","server_os":"Linux","password":true,"vac":true,"version":"7961495","steam_id":85568392925397958,"keywords":["cp","nocrits","nodmgspread","uncletopia"],"game_id":440,"stv_port":27046,"stv_name":"Uncletopia | Sydney | 4 | All Maps | STV","players":null},{"server_id":58,"name":"Uncletopia | Sydney | 5 | Stopwatch","name_short":"syd-5","host":"syd-1.au.uncletopia.com","port":27055,"enabled":true,"region":"au","cc":"au","latitude":-33.865143,"longitude":151.2099,"reserved":0,"last_update":"0001-01-01T00:00:00Z","name_a2s":"Uncletopia | Sydney | 5 | Stopwatch","protocol":17,"map":"workshop/pl_badwater_pro_v12.ugc2142942074","folder":"tf","game":"Team Fortress","app_id":440,"player_count":0,"max_players":24,"Bots":0,"server_type":"Dedicated","server_os":"Linux","password":true,"vac":true,"version":"7961495","steam_id":85568392925397959,"keywords":["nocrits","nodmgspread","payload","uncletopia"],"game_id":440,"stv_port":27056,"stv_name":"Uncletopia | Sydney | 5 | Stopwatch | STV","players":null},{"server_id":59,"name":"Uncletopia | Sydney | 6 | Community","name_short":"syd-6","host":"syd-1.au.uncletopia.com","port":27065,"enabled":true,"region":"au","cc":"au","latitude":-33.865143,"longitude":151.2099,"reserved":0,"last_update":"0001-01-01T00:00:00Z","name_a2s":"Uncletopia | Sydney | 6 | Community","protocol":17,"map":"workshop/koth_kemptown_rc1.ugc767410655","folder":"tf","game":"Team Fortress","app_id":440,"player_count":0,"max_players":24,"Bots":0,"server_type":"Dedicated","server_os":"Linux","password":true,"vac":true,"version":"7961495","steam_id":85568392925397960,"keywords":["cp","nocrits","nodmgspread","uncletopia"],"game_id":440,"stv_port":27066,"stv_name":"Uncletopia | Sydney | 6 | Community | STV","players":null},{"server_id":49,"name":"Uncletopia | Warsaw | 1 | All Maps","name_short":"waw-1","host":"waw-1.pl.uncletopia.com","port":27015,"enabled":true,"region":"eu","cc":"pl","latitude":52.2297,"longitude":21.017532,"reserved":0,"last_update":"0001-01-01T00:00:00Z","name_a2s":"Uncletopia | Warsaw | 1 | All Maps","protocol":17,"map":"koth_lakeside_final","folder":"tf","game":"Team Fortress","app_id":440,"player_count":0,"max_players":24,"Bots":0,"server_type":"Dedicated","server_os":"Linux","password":true,"vac":true,"version":"7961495","steam_id":85568392925397850,"keywords":["cp","nocrits","nodmgspread","uncletopia"],"game_id":440,"stv_port":27016,"stv_name":"Uncletopia | Warsaw | 1 | All Maps | STV","players":null},{"server_id":50,"name":"Uncletopia | Warsaw | 2 | All Maps","name_short":"waw-2","host":"waw-1.pl.uncletopia.com","port":27025,"enabled":true,"region":"eu","cc":"pl","latitude":52.2297,"longitude":21.017532,"reserved":0,"last_update":"0001-01-01T00:00:00Z","name_a2s":"Uncletopia | Warsaw | 2 | All Maps","protocol":17,"map":"pl_borneo","folder":"tf","game":"Team Fortress","app_id":440,"player_count":0,"max_players":24,"Bots":0,"server_type":"Dedicated","server_os":"Linux","password":true,"vac":true,"version":"7961495","steam_id":85568392925397851,"keywords":["nocrits","nodmgspread","payload","uncletopia"],"game_id":440,"stv_port":27026,"stv_name":"Uncletopia | Warsaw | 2 | All Maps | STV","players":null},{"server_id":51,"name":"Uncletopia | Warsaw | 3 | All Maps","name_short":"waw-3","host":"waw-1.pl.uncletopia.com","port":27035,"enabled":true,"region":"eu","cc":"pl","latitude":52.2297,"longitude":21.017532,"reserved":0,"last_update":"0001-01-01T00:00:00Z","name_a2s":"Uncletopia | Warsaw | 3 | All Maps","protocol":17,"map":"pl_barnblitz","folder":"tf","game":"Team Fortress","app_id":440,"player_count":0,"max_players":24,"Bots":0,"server_type":"Dedicated","server_os":"Linux","password":true,"vac":true,"version":"7961495","steam_id":85568392925397852,"keywords":["nocrits","nodmgspread","payload","uncletopia"],"game_id":440,"stv_port":27036,"stv_name":"Uncletopia | Warsaw | 3 | All Maps | STV","players":null},{"server_id":52,"name":"Uncletopia | Warsaw | 4 | All Maps","name_short":"waw-4","host":"waw-1.pl.uncletopia.com","port":27045,"enabled":true,"region":"eu","cc":"pl","latitude":52.2297,"longitude":21.017532,"reserved":0,"last_update":"0001-01-01T00:00:00Z","name_a2s":"Uncletopia | Warsaw | 4 | All Maps","protocol":17,"map":"pl_borneo","folder":"tf","game":"Team Fortress","app_id":440,"player_count":0,"max_players":24,"Bots":0,"server_type":"Dedicated","server_os":"Linux","password":true,"vac":true,"version":"7961495","steam_id":85568392925397853,"keywords":["nocrits","nodmgspread","payload","uncletopia"],"game_id":440,"stv_port":27046,"stv_name":"Uncletopia | Warsaw | 4 | All Maps | STV","players":null},{"server_id":53,"name":"Uncletopia | Warsaw | 5 | Stopwatch","name_short":"waw-5","host":"waw-1.pl.uncletopia.com","port":27055,"enabled":true,"region":"eu","cc":"pl","latitude":52.2297,"longitude":21.017532,"reserved":0,"last_update":"0001-01-01T00:00:00Z","name_a2s":"Uncletopia | Warsaw | 5 | Stopwatch","protocol":17,"map":"pl_barnblitz","folder":"tf","game":"Team Fortress","app_id":440,"player_count":0,"max_players":24,"Bots":0,"server_type":"Dedicated","server_os":"Linux","password":true,"vac":true,"version":"7961495","steam_id":85568392925397854,"keywords":["nocrits","nodmgspread","payload","uncletopia"],"game_id":440,"stv_port":27056,"stv_name":"Uncletopia | Warsaw | 5 | Stopwatch | STV","players":null},{"server_id":54,"name":"Uncletopia | Warsaw | 6 | Community","name_short":"waw-6","host":"waw-1.pl.uncletopia.com","port":27065,"enabled":true,"region":"eu","cc":"pl","latitude":52.2297,"longitude":21.017532,"reserved":0,"last_update":"0001-01-01T00:00:00Z","name_a2s":"Uncletopia | Warsaw | 6 | Community","protocol":17,"map":"cp_altitude","folder":"tf","game":"Team Fortress","app_id":440,"player_count":0,"max_players":24,"Bots":0,"server_type":"Dedicated","server_os":"Linux","password":true,"vac":true,"version":"7961495","steam_id":85568392925397856,"keywords":["cp","nocrits","nodmgspread","uncletopia"],"game_id":440,"stv_port":27066,"stv_name":"Uncletopia | Warsaw | 6 | Community | STV","players":null}]}