{"status":true,"message":"","result":[{"server_id":9,"name":"Uncletopia | Atlanta | 1 | All Maps","name_short":"atl-1","host":"atl-1.us.uncletopia.com","port":27015,"enabled":true,"region":"us-east","cc":"us","latitude":33.753746,"longitude":-84.38633,"reserved":0,"last_update":"0001-01-01T00:00:00Z","name_a2s":"Uncletopia | Atlanta | 1 | All Maps","protocol":17,"map":"pl_barnblitz","folder":"tf","game":"Team Fortress","app_id":440,"player_count":24,"max_players":24,"Bots":0,"server_type":"Dedicated","server_os":"Linux","password":true,"vac":true,"version":"7757534","steam_id":85568392924469982,"keywords":["nocrits","nodmgspread","payload","uncletopia"],"game_id":440,"stv_port":27016,"stv_name":"Uncletopia | Atlanta | 1 | All Maps | STV","players":[{"user_id":864,"name":"Willy","steam_id":76561198046508940,"connected_time":1338000000000,"state":"active","ping":54},{"user_id":870,"name":"Female Gamer","steam_id":76561199366482682,"connected_time":528000000000,"state":"active","ping":121},{"user_id":869,"name":"ribbonborn","steam_id":76561198001195423,"connected_time":616000000000,"state":"active","ping":74},{"user_id":871,"name":"petah","steam_id":76561199350870177,"connected_time":511000000000,"state":"active","ping":90},{"user_id":859,"name":"Deep Peepus","steam_id":76561198205395757,"connected_time":1583000000000,"state":"active","ping":97},{"user_id":809,"name":"SkyShu","steam_id":76561198084848054,"connected_time":5247000000000,"state":"active","ping":69},{"user_id":877,"name":"Just PYE","steam_id":76561199439622967,"connected_time":167000000000,"state":"active","ping":70},{"user_id":873,"name":"alfredodan #RunThatBack","steam_id":76561198025011044,"connected_time":463000000000,"state":"active","ping":74},{"user_id":878,"name":"Marcus Annius Verus","steam_id":76561198036850392,"connected_time":100000000000,"state":"active","ping":70},{"user_id":826,"name":"Dale","steam_id":76561198095794136,"connected_time":3675000000000,"state":"active","ping":55},{"user_id":852,"name":"popfulmail","steam_id":76561198865971290,"connected_time":2023000000000,"state":"active","ping":88},{"user_id":866,"name":"BambuBabyPackRunner","steam_id":76561198320866421,"connected_time":1036000000000,"state":"active","ping":55},{"user_id":851,"name":"B/S/SuperBoofOG","steam_id":76561197992030936,"connected_time":2275000000000,"state":"active","ping":60},{"user_id":833,"name":"gettysburg","steam_id":76561198016157051,"connected_time":3585000000000,"state":"active","ping":54},{"user_id":834,"name":"Broken Cereal‚àö","steam_id":76561198087489795,"connected_time":3499000000000,"state":"active","ping":60},{"user_id":848,"name":"big tiddy dragon gf","steam_id":76561198406992885,"connected_time":2412000000000,"state":"active","ping":61},{"user_id":756,"name":"Publo","steam_id":76561198161777140,"connected_time":11466000000000,"state":"active","ping":75},{"user_id":874,"name":"ivyXXcision","steam_id":76561198031474906,"connected_time":441000000000,"state":"active","ping":61},{"user_id":817,"name":"keffers","steam_id":76561198202338796,"connected_time":5070000000000,"state":"active","ping":104},{"user_id":875,"name":"Timmy Thick","steam_id":76561198031018737,"connected_time":432000000000,"state":"active","ping":110},{"user_id":876,"name":"Squiliam","steam_id":76561198025278006,"connected_time":426000000000,"state":"active","ping":80},{"user_id":842,"name":"WillieMakit","steam_id":76561197985391684,"connected_time":2855000000000,"state":"active","ping":115},{"user_id":825,"name":"Dr.Zarann","steam_id":76561198163952958,"connected_time":3737000000000,"state":"active","ping":56},{"user_id":855,"name":"Spring Beans","steam_id":76561197978546259,"connected_time":1669000000000,"state":"active","ping":59}]},{"server_id":104,"name":"Uncletopia | Atlanta | 2 | All Maps","name_short":"atl-2","host":"atl-1.us.uncletopia.com","port":27025,"enabled":true,"region":"us-east","cc":"us","latitude":33.753746,"longitude":-84.38633,"reserved":0,"last_update":"0001-01-01T00:00:00Z","name_a2s":"Uncletopia | Atlanta | 2 | All Maps","protocol":17,"map":"cp_dustbowl","folder":"tf","game":"Team Fortress","app_id":440,"player_count":0,"max_players":24,"Bots":0,"server_type":"Dedicated","server_os":"Linux","password":true,"vac":true,"version":"7757534","steam_id":85568392924469983,"keywords":["cp","nocrits","nodmgspread","uncletopia"],"game_id":440,"stv_port":27026,"stv_name":"Uncletopia | Atlanta | 2 | All Maps | STV","players":null},{"server_id":400,"name":"Uncletopia | Atlanta | 3 | Community","name_short":"atl-3","host":"atl-1.us.uncletopia.com","port":27035,"enabled":true,"region":"us-east","cc":"us","latitude":33.753746,"longitude":-84.38633,"reserved":0,"last_update":"0001-01-01T00:00:00Z","name_a2s":"Uncletopia | Atlanta | 3 | Community","protocol":17,"map":"workshop/cp_indulge.ugc528106646","folder":"tf","game":"Team Fortress","app_id":440,"player_count":0,"max_players":24,"Bots":0,"server_type":"Dedicated","server_os":"Linux","password":true,"vac":true,"version":"7757534","steam_id":85568392924515187,"keywords":["cp","nocrits","nodmgspread","uncletopia"],"game_id":440,"stv_port":27036,"stv_name":"Uncletopia | Atlanta | 3 | Community | STV","players":null},{"server_id":401,"name":"Uncletopia | Atlanta | 4 | No Payload","name_short":"atl-4","host":"atl-1.us.uncletopia.com","port":27045,"enabled":true,"region":"us-east","cc":"us","latitude":33.753746,"longitude":-84.38633,"reserved":0,"last_update":"0001-01-01T00:00:00Z","name_a2s":"","protocol":0,"map":"","folder":"","game":"","app_id":0,"player_count":0,"max_players":0,"Bots":0,"server_type":"","server_os":"","password":false,"vac":false,"version":"","steam_id":0,"keywords":null,"game_id":0,"stv_port":0,"stv_name":"","players":null},{"server_id":2,"name":"Uncletopia | Chicago | 1 | All Maps","name_short":"chi-1","host":"chi-1.us.uncletopia.com","port":27015,"enabled":true,"region":"us-central","cc":"us","latitude":41.881832,"longitude":-87.62318,"reserved":0,"last_update":"0001-01-01T00:00:00Z","name_a2s":"Uncletopia | Chicago | 1 | All Maps","protocol":17,"map":"pl_pier","folder":"tf","game":"Team Fortress","app_id":440,"player_count":22,"max_players":24,"Bots":0,"server_type":"Dedicated","server_os":"Linux","password":true,"vac":true,"version":"7757534","steam_id":85568392924469984,"keywords":["nocrits","nodmgspread","payload","uncletopia"],"game_id":440,"stv_port":27016,"stv_name":"Uncletopia | Chicago | 1 | All Maps | STV","players":[{"user_id":892,"name":"W00FR","steam_id":76561198010635986,"connected_time":315000000000,"state":"active","ping":92},{"user_id":893,"name":"Front Facing Magikarp","steam_id":76561198085888959,"connected_time":213000000000,"state":"active","ping":52},{"user_id":849,"name":"Fever Dreams","steam_id":76561198116614620,"connected_time":3234000000000,"state":"active","ping":72},{"user_id":835,"name":"Cuphead","steam_id":76561198211892779,"connected_time":4779000000000,"state":"active","ping":60},{"user_id":864,"name":"rice white","steam_id":76561198320732910,"connected_time":2006000000000,"state":"active","ping":74},{"user_id":875,"name":"Dross","steam_id":76561198042172372,"connected_time":1639000000000,"state":"active","ping":69},{"user_id":895,"name":"SIGMA [BS]","steam_id":76561197962604879,"connected_time":26000000000,"state":"active","ping":60},{"user_id":880,"name":"prestige worldwide (wide)","steam_id":76561198045655893,"connected_time":944000000000,"state":"active","ping":58},{"user_id":870,"name":"Baka!‚ë®‚ë®‚ë®‚ë®","steam_id":76561198152948254,"connected_time":1883000000000,"state":"active","ping":60},{"user_id":868,"name":"StarManMatt","steam_id":76561198125513574,"connected_time":1891000000000,"state":"active","ping":89},{"user_id":884,"name":"Grumbo Goobo","steam_id":76561198044493669,"connected_time":872000000000,"state":"active","ping":65},{"user_id":881,"name":"scamper","steam_id":76561199093768105,"connected_time":937000000000,"state":"active","ping":111},{"user_id":885,"name":"Marshall","steam_id":76561198042570322,"connected_time":857000000000,"state":"active","ping":76},{"user_id":882,"name":"Chespin","steam_id":76561198177734102,"connected_time":932000000000,"state":"active","ping":84},{"user_id":876,"name":"Old St. Scat","steam_id":76561198322096569,"connected_time":993000000000,"state":"active","ping":66},{"user_id":853,"name":"Maurey Finkle","steam_id":76561198060247191,"connected_time":3156000000000,"state":"active","ping":65},{"user_id":863,"name":"WuTangJuan","steam_id":76561198053050135,"connected_time":2316000000000,"state":"active","ping":89},{"user_id":854,"name":"father gruber","steam_id":76561198066440302,"connected_time":3111000000000,"state":"active","ping":79},{"user_id":883,"name":"Eden","steam_id":76561198075587475,"connected_time":926000000000,"state":"active","ping":42},{"user_id":857,"name":"Your Local Queer Librarian","steam_id":76561198013077080,"connected_time":3047000000000,"state":"active","ping":57},{"user_id":872,"name":"Tick","steam_id":76561198184161214,"connected_time":1879000000000,"state":"active","ping":42},{"user_id":888,"name":"Crylec","steam_id":76561198092755279,"connected_time":773000000000,"state":"active","ping":64}]},{"server_id":106,"name":"Uncletopia | Chicago | 2 | All Maps","name_short":"chi-2","host":"chi-1.us.uncletopia.com","port":27025,"enabled":true,"region":"us-central","cc":"us","latitude":41.881832,"longitude":-87.62318,"reserved":0,"last_update":"0001-01-01T00:00:00Z","name_a2s":"Uncletopia | Chicago | 2 | All Maps","protocol":17,"map":"koth_lakeside_final","folder":"tf","game":"Team Fortress","app_id":440,"player_count":20,"max_players":24,"Bots":0,"server_type":"Dedicated","server_os":"Linux","password":true,"vac":true,"version":"7757534","steam_id":85568392924469985,"keywords":["cp","nocrits","nodmgspread","uncletopia"],"game_id":440,"stv_port":27026,"stv_name":"Uncletopia | Chicago | 2 | All Maps | STV","players":[{"user_id":569,"name":"riSygneD","steam_id":76561198331618687,"connected_time":2503000000000,"state":"active","ping":87},{"user_id":588,"name":"The Drunk Clown","steam_id":76561197986850426,"connected_time":403000000000,"state":"active","ping":70},{"user_id":589,"name":"ZplitZ","steam_id":76561198093629868,"connected_time":373000000000,"state":"active","ping":78},{"user_id":593,"name":"s.Twig‚Ñ¢","steam_id":76561198070138375,"connected_time":228000000000,"state":"active","ping":49},{"user_id":584,"name":"TTV/ArcticFlesh","steam_id":76561198099678868,"connected_time":1179000000000,"state":"active","ping":49},{"user_id":591,"name":"Lashette","steam_id":76561198041897934,"connected_time":327000000000,"state":"active","ping":47},{"user_id":592,"name":"Dergi","steam_id":76561198040843250,"connected_time":298000000000,"state":"active","ping":161},{"user_id":580,"name":"mcjuice","steam_id":76561198087730829,"connected_time":2129000000000,"state":"active","ping":64},{"user_id":573,"name":"surfer","steam_id":76561198068409067,"connected_time":2337000000000,"state":"active","ping":74},{"user_id":594,"name":"SkrubWrecker","steam_id":76561198044717015,"connected_time":161000000000,"state":"active","ping":61},{"user_id":532,"name":"BurnN8or101","steam_id":76561198132668224,"connected_time":5348000000000,"state":"active","ping":74},{"user_id":595,"name":"Candy Sparkles","steam_id":76561198126871264,"connected_time":160000000000,"state":"active","ping":89},{"user_id":564,"name":"Aeterna Victrix","steam_id":76561198067701236,"connected_time":3283000000000,"state":"active","ping":58},{"user_id":596,"name":"Wants in Schememes","steam_id":76561198102091599,"connected_time":152000000000,"state":"active","ping":194},{"user_id":597,"name":"westward","steam_id":76561198805512350,"connected_time":33000000000,"state":"active","ping":103},{"user_id":577,"name":"Woozy","steam_id":76561198008220735,"connected_time":2257000000000,"state":"active","ping":80},{"user_id":554,"name":"JazzMuted","steam_id":76561197974184265,"connected_time":3787000000000,"state":"active","ping":60},{"user_id":563,"name":"Luxcraz","steam_id":76561198035278349,"connected_time":3341000000000,"state":"active","ping":53},{"user_id":553,"name":"trinqette","steam_id":76561198119543621,"connected_time":3806000000000,"state":"active","ping":60},{"user_id":547,"name":"Hard Soap","steam_id":76561198267905614,"connected_time":4293000000000,"state":"active","ping":92}]},{"server_id":402,"name":"Uncletopia | Chicago | 3 | All Maps","name_short":"chi-3","host":"chi-1.us.uncletopia.com","port":27035,"enabled":true,"region":"us-central","cc":"us","latitude":41.881832,"longitude":-87.62318,"reserved":0,"last_update":"0001-01-01T00:00:00Z","name_a2s":"Uncletopia | Chicago | 3 | All Maps","protocol":17,"map":"pl_badwater","folder":"tf","game":"Team Fortress","app_id":440,"player_count":21,"max_players":24,"Bots":0,"server_type":"Dedicated","server_os":"Linux","password":true,"vac":true,"version":"7757534","steam_id":85568392924515191,"keywords":["nocrits","nodmgspread","payload","uncletopia"],"game_id":440,"stv_port":27036,"stv_name":"Uncletopia | Chicago | 3 | All Maps | STV","players":[{"user_id":837,"name":"Benjasus","steam_id":76561199238595525,"connected_time":273000000000,"state":"active","ping":57},{"user_id":737,"name":"Ket","steam_id":76561198241951244,"connected_time":5556000000000,"state":"active","ping":60},{"user_id":827,"name":"UnstableFox","steam_id":76561198170680415,"connected_time":890000000000,"state":"active","ping":106},{"user_id":764,"name":"add me 4 heals","steam_id":76561199082610233,"connected_time":4291000000000,"state":"active","ping":53},{"user_id":724,"name":"Uso","steam_id":76561198012093238,"connected_time":6643000000000,"state":"active","ping":55},{"user_id":814,"name":"Chicanery","steam_id":76561198977589038,"connected_time":1345000000000,"state":"active","ping":82},{"user_id":761,"name":"Satan-2","steam_id":76561199231742764,"connected_time":4455000000000,"state":"active","ping":66},{"user_id":834,"name":"kametro4","steam_id":76561198835430429,"connected_time":587000000000,"state":"active","ping":81},{"user_id":781,"name":"obama sex","steam_id":76561198396414319,"connected_time":2520000000000,"state":"active","ping":102},{"user_id":832,"name":"kleptomania","steam_id":76561199061380038,"connected_time":637000000000,"state":"active","ping":74},{"user_id":835,"name":"Frostyy","steam_id":76561199230274128,"connected_time":533000000000,"state":"active","ping":158},{"user_id":771,"name":"roast pig with apple in mouth","steam_id":76561198051353647,"connected_time":3519000000000,"state":"active","ping":58},{"user_id":819,"name":"joker guy","steam_id":76561198062712676,"connected_time":1207000000000,"state":"active","ping":99},{"user_id":820,"name":"Tree","steam_id":76561198195445331,"connected_time":1172000000000,"state":"active","ping":116},{"user_id":833,"name":"Odd Life","steam_id":76561198244979998,"connected_time":617000000000,"state":"active","ping":106},{"user_id":784,"name":"Gato","steam_id":76561198063521721,"connected_time":2493000000000,"state":"active","ping":74},{"user_id":836,"name":"Jambi","steam_id":76561198846091685,"connected_time":352000000000,"state":"active","ping":59},{"user_id":787,"name":"Deep Fried Niki Lauda","steam_id":76561198129976826,"connected_time":2487000000000,"state":"active","ping":97},{"user_id":825,"name":"Gabinator32","steam_id":76561198872467183,"connected_time":1035000000000,"state":"active","ping":45},{"user_id":759,"name":"TheTruthOfTheCessationOfDukkha","steam_id":76561198214370515,"connected_time":4572000000000,"state":"active","ping":73},{"user_id":830,"name":"LatinRhythms","steam_id":76561198025110751,"connected_time":741000000000,"state":"active","ping":127}]},{"server_id":403,"name":"Uncletopia | Chicago | 4 | All Maps","name_short":"chi-4","host":"chi-1.us.uncletopia.com","port":27045,"enabled":true,"region":"us-central","cc":"us","latitude":41.881832,"longitude":-87.62318,"reserved":0,"last_update":"0001-01-01T00:00:00Z","name_a2s":"Uncletopia | Chicago | 4 | All Maps","protocol":17,"map":"pl_barnblitz","folder":"tf","game":"Team Fortress","app_id":440,"player_count":23,"max_players":24,"Bots":0,"server_type":"Dedicated","server_os":"Linux","password":true,"vac":true,"version":"7757534","steam_id":85568392924515193,"keywords":["nocrits","nodmgspread","payload","uncletopia"],"game_id":440,"stv_port":27046,"stv_name":"Uncletopia | Chicago | 4 | All Maps | STV","players":[{"user_id":426,"name":"mm","steam_id":76561198088163909,"connected_time":2800000000000,"state":"active","ping":93},{"user_id":434,"name":"Bathory343","steam_id":76561199093543338,"connected_time":2537000000000,"state":"active","ping":149},{"user_id":453,"name":"Squid","steam_id":76561198092753658,"connected_time":919000000000,"state":"active","ping":80},{"user_id":458,"name":"who dat","steam_id":76561198033033884,"connected_time":475000000000,"state":"active","ping":70},{"user_id":427,"name":"f","steam_id":76561198215559840,"connected_time":2721000000000,"state":"active","ping":67},{"user_id":450,"name":"no bitches nigusman","steam_id":76561199466723428,"connected_time":1416000000000,"state":"active","ping":176},{"user_id":449,"name":"Resistance","steam_id":76561198146782074,"connected_time":1565000000000,"state":"active","ping":53},{"user_id":452,"name":"Mr. Dry Lips","steam_id":76561198028157625,"connected_time":1369000000000,"state":"active","ping":83},{"user_id":454,"name":"CherryPieRed2023","steam_id":76561198998007496,"connected_time":863000000000,"state":"active","ping":105},{"user_id":463,"name":"TheMightyWoz","steam_id":76561198428397322,"connected_time":264000000000,"state":"active","ping":112},{"user_id":456,"name":"Jill Stingray","steam_id":76561198074209737,"connected_time":509000000000,"state":"active","ping":61},{"user_id":457,"name":"stoner catgirl","steam_id":76561198337705174,"connected_time":497000000000,"state":"active","ping":67},{"user_id":459,"name":"cringeass nae-nae girl","steam_id":76561198108753857,"connected_time":436000000000,"state":"active","ping":85},{"user_id":439,"name":"rudy","steam_id":76561198088712799,"connected_time":2289000000000,"state":"active","ping":87},{"user_id":460,"name":"ratwolf","steam_id":76561198017941011,"connected_time":382000000000,"state":"active","ping":136},{"user_id":446,"name":"AAAAAAAAAAAAAAAAAAAAAAAAAAAAAAA","steam_id":76561198125467937,"connected_time":1841000000000,"state":"active","ping":111},{"user_id":430,"name":"Aegis","steam_id":76561198272052750,"connected_time":2681000000000,"state":"active","ping":74},{"user_id":461,"name":"Goober","steam_id":76561198988863807,"connected_time":370000000000,"state":"active","ping":69},{"user_id":445,"name":"postgres","steam_id":76561198011204750,"connected_time":1981000000000,"state":"active","ping":86},{"user_id":451,"name":"cucumper","steam_id":76561198079504588,"connected_time":1415000000000,"state":"active","ping":75},{"user_id":465,"name":"Suffering for your amusement","steam_id":76561198069735882,"connected_time":143000000000,"state":"active","ping":75},{"user_id":466,"name":"Lunacy","steam_id":76561199386273760,"connected_time":61000000000,"state":"active","ping":109},{"user_id":448,"name":"Nick","steam_id":76561198101419860,"connected_time":1764000000000,"state":"active","ping":46}]},{"server_id":36,"name":"Uncletopia | Chicago | 5 | All Maps","name_short":"chi-5","host":"chi-2.us.uncletopia.com","port":27015,"enabled":true,"region":"us-central","cc":"us","latitude":41.881832,"longitude":-87.62318,"reserved":0,"last_update":"0001-01-01T00:00:00Z","name_a2s":"Uncletopia | Chicago | 5 | All Maps","protocol":17,"map":"koth_viaduct","folder":"tf","game":"Team Fortress","app_id":440,"player_count":0,"max_players":24,"Bots":0,"server_type":"Dedicated","server_os":"Linux","password":true,"vac":true,"version":"7757534","steam_id":85568392924866362,"keywords":["cp","nocrits","nodmgspread","uncletopia"],"game_id":440,"stv_port":27016,"stv_name":"Uncletopia | Chicago | 5 | All Maps | STV","players":null},{"server_id":37,"name":"Uncletopia | Chicago | 6 | All Maps","name_short":"chi-6","host":"chi-2.us.uncletopia.com","port":27025,"enabled":true,"region":"us-central","cc":"us","latitude":41.881832,"longitude":-87.62318,"reserved":0,"last_update":"0001-01-01T00:00:00Z","name_a2s":"Uncletopia | Chicago | 6 | All Maps","protocol":17,"map":"pl_upward","folder":"tf","game":"Team Fortress","app_id":440,"player_count":18,"max_players":24,"Bots":0,"server_type":"Dedicated","server_os":"Linux","password":true,"vac":true,"version":"7757534","steam_id":85568392924866363,"keywords":["nocrits","nodmgspread","payload","uncletopia"],"game_id":440,"stv_port":27026,"stv_name":"Uncletopia | Chicago | 6 | All Maps | STV","players":[{"user_id":442,"name":"Leviathan","steam_id":76561197997528907,"connected_time":2299000000000,"state":"active","ping":55},{"user_id":463,"name":"Yeeout","steam_id":76561198202801434,"connected_time":197000000000,"state":"active","ping":94},{"user_id":395,"name":"tricky","steam_id":76561198143206173,"connected_time":7071000000000,"state":"active","ping":70},{"user_id":457,"name":"Ducky[WADZ]üê§","steam_id":76561198060341245,"connected_time":895000000000,"state":"active","ping":159},{"user_id":464,"name":"‚òÖ philosiphical‚Ñ¢","steam_id":76561198118910123,"connected_time":191000000000,"state":"active","ping":72},{"user_id":465,"name":"Hot Pink Millie","steam_id":76561198006259725,"connected_time":91000000000,"state":"active","ping":75},{"user_id":427,"name":"Saggy","steam_id":76561198166706479,"connected_time":4475000000000,"state":"active","ping":68},{"user_id":357,"name":"[Time]","steam_id":76561198081994708,"connected_time":9634000000000,"state":"active","ping":74},{"user_id":397,"name":"Fermenting Kiwi","steam_id":76561198253303497,"connected_time":6941000000000,"state":"active","ping":74},{"user_id":452,"name":"im the beef","steam_id":76561198069506128,"connected_time":1380000000000,"state":"active","ping":55},{"user_id":466,"name":"the rizzard of oz","steam_id":76561198108196753,"connected_time":60000000000,"state":"active","ping":94},{"user_id":434,"name":"djKILA10","steam_id":76561198992193750,"connected_time":3281000000000,"state":"active","ping":92},{"user_id":426,"name":"NotHughesy","steam_id":76561198113064655,"connected_time":4534000000000,"state":"active","ping":52},{"user_id":422,"name":"Harold of the Rocks","steam_id":76561198055891429,"connected_time":4668000000000,"state":"active","ping":60},{"user_id":423,"name":"Endoflobbywaittime","steam_id":76561199457528443,"connected_time":4656000000000,"state":"active","ping":76},{"user_id":454,"name":"Stan","steam_id":76561199057962816,"connected_time":1337000000000,"state":"active","ping":45},{"user_id":401,"name":"WillyOmNom","steam_id":76561198345656852,"connected_time":6884000000000,"state":"active","ping":61},{"user_id":461,"name":"RUSTY","steam_id":76561198056214875,"connected_time":440000000000,"state":"active","ping":64}]},{"server_id":38,"name":"Uncletopia | Chicago | 7 | Stopwatch Beta","name_short":"chi-7","host":"chi-2.us.uncletopia.com","port":27035,"enabled":true,"region":"us-central","cc":"us","latitude":41.881832,"longitude":-87.62318,"reserved":0,"last_update":"0001-01-01T00:00:00Z","name_a2s":"Uncletopia | Chicago | 7 | Stopwatch Beta","protocol":17,"map":"pl_borneo","folder":"tf","game":"Team Fortress","app_id":440,"player_count":0,"max_players":24,"Bots":0,"server_type":"Dedicated","server_os":"Linux","password":true,"vac":true,"version":"7757534","steam_id":85568392924866364,"keywords":["nocrits","nodmgspread","payload","uncletopia"],"game_id":440,"stv_port":27036,"stv_name":"Uncletopia | Chicago | 7 | Stopwatch Beta | STV","players":null},{"server_id":39,"name":"Uncletopia | Chicago | 8 | Community","name_short":"chi-8","host":"chi-2.us.uncletopia.com","port":27045,"enabled":true,"region":"us-central","cc":"us","latitude":41.881832,"longitude":-87.62318,"reserved":0,"last_update":"0001-01-01T00:00:00Z","name_a2s":"Uncletopia | Chicago | 8 | Community","protocol":17,"map":"workshop/pl_badwater_pro_v12.ugc2142942074","folder":"tf","game":"Team Fortress","app_id":440,"player_count":0,"max_players":24,"Bots":0,"server_type":"Dedicated","server_os":"Linux","password":true,"vac":true,"version":"7757534","steam_id":85568392924866365,"keywords":["nocrits","nodmgspread","payload","uncletopia"],"game_id":440,"stv_port":27046,"stv_name":"Uncletopia | Chicago | 8 | Community | STV","players":null},{"server_id":8,"name":"Uncletopia | Dallas | 1 | All Maps","name_short":"dal-1","host":"dal-1.us.uncletopia.com","port":27015,"enabled":true,"region":"us-central","cc":"us","latitude":32.779167,"longitude":-96.80889,"reserved":0,"last_update":"0001-01-01T00:00:00Z","name_a2s":"Uncletopia | Dallas | 1 | All Maps","protocol":17,"map":"koth_lakeside_final","folder":"tf","game":"Team Fortress","app_id":440,"player_count":0,"max_players":24,"Bots":0,"server_type":"Dedicated","server_os":"Linux","password":true,"vac":true,"version":"7757534","steam_id":85568392924469986,"keywords":["cp","nocrits","nodmgspread","uncletopia"],"game_id":440,"stv_port":27016,"stv_name":"Uncletopia | Dallas | 1 | All Maps | STV","players":null},{"server_id":108,"name":"Uncletopia | Dallas | 2 | All Maps","name_short":"dal-2","host":"dal-1.us.uncletopia.com","port":27025,"enabled":true,"region":"us-central","cc":"us","latitude":32.779167,"longitude":-96.80889,"reserved":0,"last_update":"0001-01-01T00:00:00Z","name_a2s":"Uncletopia | Dallas | 2 | All Maps","protocol":17,"map":"pl_borneo","folder":"tf","game":"Team Fortress","app_id":440,"player_count":23,"max_players":24,"Bots":0,"server_type":"Dedicated","server_os":"Linux","password":true,"vac":true,"version":"7757534","steam_id":85568392924469988,"keywords":["nocrits","nodmgspread","payload","uncletopia"],"game_id":440,"stv_port":27026,"stv_name":"Uncletopia | Dallas | 2 | All Maps | STV","players":[{"user_id":1187,"name":"firefish","steam_id":76561199135656474,"connected_time":1104000000000,"state":"active","ping":59},{"user_id":1188,"name":"drdoofus123","steam_id":76561198016826181,"connected_time":1038000000000,"state":"active","ping":74},{"user_id":1205,"name":"fire","steam_id":76561198044354279,"connected_time":255000000000,"state":"active","ping":75},{"user_id":1193,"name":"Fargo","steam_id":76561198044703931,"connected_time":840000000000,"state":"active","ping":61},{"user_id":1174,"name":"indubitably","steam_id":76561198339792615,"connected_time":1907000000000,"state":"active","ping":56},{"user_id":1189,"name":"puke","steam_id":76561197999279693,"connected_time":1032000000000,"state":"active","ping":69},{"user_id":1207,"name":"Diamond Jack","steam_id":76561198321304762,"connected_time":24000000000,"state":"spawning","ping":1123},{"user_id":1190,"name":"dose","steam_id":76561199102839784,"connected_time":994000000000,"state":"active","ping":84},{"user_id":1202,"name":"for the king","steam_id":76561197973488858,"connected_time":350000000000,"state":"active","ping":70},{"user_id":1204,"name":"Belvidere","steam_id":76561198121336953,"connected_time":282000000000,"state":"active","ping":101},{"user_id":1195,"name":"MarioManz","steam_id":76561198123454475,"connected_time":731000000000,"state":"active","ping":39},{"user_id":1201,"name":"Raiden","steam_id":76561198094841207,"connected_time":412000000000,"state":"active","ping":55},{"user_id":1200,"name":"Bobwafflemanjr","steam_id":76561198271769725,"connected_time":431000000000,"state":"active","ping":69},{"user_id":1162,"name":"üå∏MelWormüå∏","steam_id":76561198084145814,"connected_time":2517000000000,"state":"active","ping":64},{"user_id":1197,"name":"Karma's Camera","steam_id":76561198059385185,"connected_time":705000000000,"state":"active","ping":78},{"user_id":1198,"name":"Hazeyboi","steam_id":76561198130687838,"connected_time":649000000000,"state":"active","ping":63},{"user_id":1166,"name":"Miss Scarlet","steam_id":76561199103174090,"connected_time":2379000000000,"state":"active","ping":66},{"user_id":1206,"name":"huh","steam_id":76561198272057200,"connected_time":95000000000,"state":"active","ping":91},{"user_id":1136,"name":"the smiling zombie","steam_id":76561199246231090,"connected_time":4213000000000,"state":"active","ping":82},{"user_id":1142,"name":"momb","steam_id":76561198142234038,"connected_time":3515000000000,"state":"active","ping":92},{"user_id":1169,"name":"Faust main","steam_id":76561198971799149,"connected_time":2223000000000,"state":"active","ping":70},{"user_id":1144,"name":"üê∫-Iwky-ü¶ä","steam_id":76561198185616311,"connected_time":3489000000000,"state":"active","ping":72},{"user_id":1114,"name":"plink","steam_id":76561198057829889,"connected_time":5017000000000,"state":"active","ping":47}]},{"server_id":5,"name":"Uncletopia | Frankfurt | 1 | All Maps","name_short":"frk-1","host":"frk-1.de.uncletopia.com","port":27015,"enabled":true,"region":"eu","cc":"de","latitude":50.110924,"longitude":8.682127,"reserved":0,"last_update":"0001-01-01T00:00:00Z","name_a2s":"Uncletopia | Frankfurt | 1 | All Maps","protocol":17,"map":"pl_badwater","folder":"tf","game":"Team Fortress","app_id":440,"player_count":0,"max_players":24,"Bots":0,"server_type":"Dedicated","server_os":"Linux","password":true,"vac":true,"version":"7757534","steam_id":85568392924469989,"keywords":["nocrits","nodmgspread","payload","uncletopia"],"game_id":440,"stv_port":27016,"stv_name":"Uncletopia | Frankfurt | 1 | All Maps | STV","players":null},{"server_id":110,"name":"Uncletopia | Frankfurt | 2 | All Maps","name_short":"frk-2","host":"frk-1.de.uncletopia.com","port":27025,"enabled":true,"region":"eu","cc":"de","latitude":50.110924,"longitude":8.682127,"reserved":0,"last_update":"0001-01-01T00:00:00Z","name_a2s":"Uncletopia | Frankfurt | 2 | All Maps","protocol":17,"map":"pl_badwater","folder":"tf","game":"Team Fortress","app_id":440,"player_count":0,"max_players":24,"Bots":0,"server_type":"Dedicated","server_os":"Linux","password":true,"vac":true,"version":"7757534","steam_id":85568392924469990,"keywords":["nocrits","nodmgspread","payload","uncletopia"],"game_id":440,"stv_port":27026,"stv_name":"Uncletopia | Frankfurt | 2 | All Maps | STV","players":null},{"server_id":308,"name":"Uncletopia | Frankfurt | 3 | All Maps","name_short":"frk-3","host":"frk-1.de.uncletopia.com","port":27035,"enabled":true,"region":"eu","cc":"de","latitude":50.110924,"longitude":8.682127,"reserved":0,"last_update":"0001-01-01T00:00:00Z","name_a2s":"Uncletopia | Frankfurt | 3 | All Maps","protocol":17,"map":"pl_borneo","folder":"tf","game":"Team Fortress","app_id":440,"player_count":0,"max_players":24,"Bots":0,"server_type":"Dedicated","server_os":"Linux","password":true,"vac":true,"version":"7757534","steam_id":85568392924504274,"keywords":["nocrits","nodmgspread","payload","uncletopia"],"game_id":440,"stv_port":27036,"stv_name":"Uncletopia | Frankfurt | 3 | All Maps | STV","players":null},{"server_id":309,"name":"Uncletopia | Frankfurt | 4 | All Maps","name_short":"frk-4","host":"frk-1.de.uncletopia.com","port":27045,"enabled":true,"region":"eu","cc":"de","latitude":50.110924,"longitude":8.682127,"reserved":0,"last_update":"0001-01-01T00:00:00Z","name_a2s":"Uncletopia | Frankfurt | 4 | All Maps","protocol":17,"map":"pl_pier","folder":"tf","game":"Team Fortress","app_id":440,"player_count":0,"max_players":24,"Bots":0,"server_type":"Dedicated","server_os":"Linux","password":true,"vac":true,"version":"7757534","steam_id":85568392924504275,"keywords":["nocrits","nodmgspread","payload","uncletopia"],"game_id":440,"stv_port":27046,"stv_name":"Uncletopia | Frankfurt | 4 | All Maps | STV","players":null},{"server_id":310,"name":"Uncletopia | Frankfurt | 5 | All Maps","name_short":"frk-5","host":"frk-1.de.uncletopia.com","port":27055,"enabled":true,"region":"eu","cc":"de","latitude":50.110924,"longitude":8.682127,"reserved":0,"last_update":"0001-01-01T00:00:00Z","name_a2s":"Uncletopia | Frankfurt | 5 | All Maps","protocol":17,"map":"cp_altitude","folder":"tf","game":"Team Fortress","app_id":440,"player_count":0,"max_players":24,"Bots":0,"server_type":"Dedicated","server_os":"Linux","password":true,"vac":true,"version":"7757534","steam_id":85568392924504277,"keywords":["cp","nocrits","nodmgspread","uncletopia"],"game_id":440,"stv_port":27056,"stv_name":"Uncletopia | Frankfurt | 5 | All Maps | STV","players":null},{"server_id":311,"name":"Uncletopia | Frankfurt | 6 | All Maps","name_short":"frk-6","host":"frk-1.de.uncletopia.com","port":27065,"enabled":true,"region":"eu","cc":"de","latitude":50.110924,"longitude":8.682127,"reserved":0,"last_update":"0001-01-01T00:00:00Z","name_a2s":"Uncletopia | Frankfurt | 6 | All Maps","protocol":17,"map":"pl_barnblitz","folder":"tf","game":"Team Fortress","app_id":440,"player_count":0,"max_players":24,"Bots":0,"server_type":"Dedicated","server_os":"Linux","password":true,"vac":true,"version":"7757534","steam_id":85568392924504278,"keywords":["nocrits","nodmgspread","payload","uncletopia"],"game_id":440,"stv_port":27066,"stv_name":"Uncletopia | Frankfurt | 6 | All Maps | STV","players":null},{"server_id":23,"name":"Uncletopia | Frankfurt | 7 | Stopwatch Beta","name_short":"frk-7","host":"frk-1.de.uncletopia.com","port":27075,"enabled":true,"region":"eu","cc":"de","latitude":50.110924,"longitude":8.682127,"reserved":0,"last_update":"0001-01-01T00:00:00Z","name_a2s":"Uncletopia | Frankfurt | 7 | Stopwatch Beta","protocol":17,"map":"pl_borneo","folder":"tf","game":"Team Fortress","app_id":440,"player_count":0,"max_players":24,"Bots":0,"server_type":"Dedicated","server_os":"Linux","password":true,"vac":true,"version":"7757534","steam_id":85568392924742827,"keywords":["nocrits","nodmgspread","payload","uncletopia"],"game_id":440,"stv_port":27076,"stv_name":"Uncletopia | Frankfurt | 7 | Stopwatch Beta | STV","players":null},{"server_id":24,"name":"Uncletopia | Frankfurt | 8 | Community","name_short":"frk-8","host":"frk-1.de.uncletopia.com","port":27085,"enabled":true,"region":"eu","cc":"de","latitude":50.110924,"longitude":8.682127,"reserved":0,"last_update":"0001-01-01T00:00:00Z","name_a2s":"Uncletopia | Frankfurt | 8 | Community","protocol":17,"map":"koth_viaduct","folder":"tf","game":"Team Fortress","app_id":440,"player_count":0,"max_players":24,"Bots":0,"server_type":"Dedicated","server_os":"Linux","password":true,"vac":true,"version":"7757534","steam_id":85568392924742828,"keywords":["cp","nocrits","nodmgspread","uncletopia"],"game_id":440,"stv_port":27086,"stv_name":"Uncletopia | Frankfurt | 8 | Community | STV","players":null},{"server_id":202,"name":"Uncletopia | Hong Kong | 1 | All Maps","name_short":"hgk-1","host":"hgk-1.hk.uncletopia.com","port":27015,"enabled":true,"region":"asia","cc":"hk","latitude":22.302711,"longitude":114.177216,"reserved":0,"last_update":"0001-01-01T00:00:00Z","name_a2s":"Uncletopia | Hong Kong | 1 | All Maps","protocol":17,"map":"koth_cascade","folder":"tf","game":"Team Fortress","app_id":440,"player_count":0,"max_players":24,"Bots":0,"server_type":"Dedicated","server_os":"Linux","password":true,"vac":true,"version":"7757534","steam_id":85568392924494504,"keywords":["cp","nocrits","nodmgspread","uncletopia"],"game_id":440,"stv_port":27016,"stv_name":"Uncletopia | Hong Kong | 1 | All Maps | STV","players":null},{"server_id":1,"name":"Uncletopia | Los Angeles | 1 | All Maps","name_short":"lax-1","host":"lax-1.us.uncletopia.com","port":27015,"enabled":true,"region":"us-west","cc":"us","latitude":33.94279,"longitude":-118.41004,"reserved":0,"last_update":"0001-01-01T00:00:00Z","name_a2s":"Uncletopia | Los Angeles | 1 | All Maps","protocol":17,"map":"pl_pier","folder":"tf","game":"Team Fortress","app_id":440,"player_count":0,"max_players":24,"Bots":0,"server_type":"Dedicated","server_os":"Linux","password":true,"vac":true,"version":"7757534","steam_id":85568392924469991,"keywords":["nocrits","nodmgspread","payload","uncletopia"],"game_id":440,"stv_port":27016,"stv_name":"Uncletopia | Los Angeles | 1 | All Maps | STV","players":null},{"server_id":112,"name":"Uncletopia | Los Angeles | 2 | All Maps","name_short":"lax-2","host":"lax-1.us.uncletopia.com","port":27025,"enabled":true,"region":"us-west","cc":"us","latitude":33.94279,"longitude":-118.41004,"reserved":0,"last_update":"0001-01-01T00:00:00Z","name_a2s":"Uncletopia | Los Angeles | 2 | All Maps","protocol":17,"map":"pl_barnblitz","folder":"tf","game":"Team Fortress","app_id":440,"player_count":24,"max_players":24,"Bots":0,"server_type":"Dedicated","server_os":"Linux","password":true,"vac":true,"version":"7757534","steam_id":85568392924469992,"keywords":["nocrits","nodmgspread","payload","uncletopia"],"game_id":440,"stv_port":27026,"stv_name":"Uncletopia | Los Angeles | 2 | All Maps | STV","players":[{"user_id":314,"name":"a chicken","steam_id":76561198313121580,"connected_time":8623000000000,"state":"active","ping":59},{"user_id":384,"name":"fired chinese balloonist","steam_id":76561197995200743,"connected_time":2964000000000,"state":"active","ping":38},{"user_id":389,"name":"HAT-WEARING‚Ñ¢ Maggot Gamer Cat","steam_id":76561197973992705,"connected_time":2531000000000,"state":"active","ping":66},{"user_id":405,"name":"Rise for the National Spamton","steam_id":76561198138468982,"connected_time":604000000000,"state":"active","ping":83},{"user_id":411,"name":"selling rice","steam_id":76561198063357023,"connected_time":62000000000,"state":"active","ping":59},{"user_id":406,"name":"TwoScore","steam_id":76561198024412148,"connected_time":475000000000,"state":"active","ping":84},{"user_id":371,"name":"Randy Butternubs","steam_id":76561198803502982,"connected_time":3516000000000,"state":"active","ping":44},{"user_id":383,"name":"P.I.Staker","steam_id":76561198087096559,"connected_time":2988000000000,"state":"active","ping":74},{"user_id":407,"name":"Firering death","steam_id":76561198262564644,"connected_time":473000000000,"state":"active","ping":117},{"user_id":309,"name":"hakken","steam_id":76561199102391736,"connected_time":9325000000000,"state":"active","ping":52},{"user_id":346,"name":"Wohzey","steam_id":76561198364858489,"connected_time":5930000000000,"state":"active","ping":66},{"user_id":390,"name":"Lustitarious","steam_id":76561198118188360,"connected_time":2212000000000,"state":"active","ping":66},{"user_id":282,"name":"j","steam_id":76561198162075431,"connected_time":11889000000000,"state":"active","ping":54},{"user_id":408,"name":"Unit27","steam_id":76561198446725864,"connected_time":464000000000,"state":"active","ping":85},{"user_id":409,"name":"Lazulf","steam_id":76561198041410859,"connected_time":433000000000,"state":"active","ping":37},{"user_id":385,"name":"eaglefeather911","steam_id":76561198339309826,"connected_time":2941000000000,"state":"active","ping":87},{"user_id":391,"name":"ZeudokNou","steam_id":76561199380408262,"connected_time":2202000000000,"state":"active","ping":88},{"user_id":399,"name":"Walmus","steam_id":76561198111416393,"connected_time":1791000000000,"state":"active","ping":62},{"user_id":397,"name":"vioxynteris","steam_id":76561198161428666,"connected_time":1900000000000,"state":"active","ping":46},{"user_id":403,"name":"Animan Studios Customer Service","steam_id":76561198119609795,"connected_time":1007000000000,"state":"active","ping":49},{"user_id":395,"name":"TriggerPullPone","steam_id":76561198071789810,"connected_time":2083000000000,"state":"active","ping":50},{"user_id":402,"name":"butterjams","steam_id":76561198319442494,"connected_time":1488000000000,"state":"active","ping":58},{"user_id":410,"name":"zzZZzz","steam_id":76561198346823843,"connected_time":350000000000,"state":"active","ping":55},{"user_id":404,"name":"Lambchop","steam_id":76561198043900363,"connected_time":669000000000,"state":"active","ping":72}]},{"server_id":324,"name":"Uncletopia | Los Angeles | 3 | All Maps","name_short":"lax-3","host":"lax-1.us.uncletopia.com","port":27035,"enabled":true,"region":"us-west","cc":"us","latitude":33.94279,"longitude":-118.41004,"reserved":0,"last_update":"0001-01-01T00:00:00Z","name_a2s":"Uncletopia | Los Angeles | 3 | All Maps","protocol":17,"map":"plr_bananabay","folder":"tf","game":"Team Fortress","app_id":440,"player_count":24,"max_players":24,"Bots":0,"server_type":"Dedicated","server_os":"Linux","password":true,"vac":true,"version":"7757534","steam_id":85568392924510198,"keywords":["nocrits","nodmgspread","payload","uncletopia"],"game_id":440,"stv_port":27036,"stv_name":"Uncletopia | Los Angeles | 3 | All Maps | STV","players":[{"user_id":362,"name":"Pez","steam_id":76561199197778137,"connected_time":1169000000000,"state":"active","ping":65},{"user_id":360,"name":"Fractured_Mango","steam_id":76561199013113268,"connected_time":1507000000000,"state":"active","ping":91},{"user_id":359,"name":"Microsoft Office Word 2012","steam_id":76561198292049624,"connected_time":1581000000000,"state":"active","ping":86},{"user_id":350,"name":"OptionalSoda392","steam_id":76561199020938026,"connected_time":2122000000000,"state":"active","ping":110},{"user_id":344,"name":"CartoonFreack","steam_id":76561198165179061,"connected_time":2567000000000,"state":"active","ping":75},{"user_id":289,"name":"Luke","steam_id":76561198072441047,"connected_time":5562000000000,"state":"active","ping":84},{"user_id":365,"name":"roo","steam_id":76561198861137823,"connected_time":770000000000,"state":"active","ping":109},{"user_id":348,"name":"WILL GIVE SEX FOR BEAM","steam_id":76561198346244125,"connected_time":2285000000000,"state":"active","ping":46},{"user_id":328,"name":"stockhack","steam_id":76561198050220225,"connected_time":3113000000000,"state":"active","ping":107},{"user_id":312,"name":"Amogous Supreme","steam_id":76561198025476774,"connected_time":4847000000000,"state":"active","ping":68},{"user_id":336,"name":"ferby","steam_id":76561198028229594,"connected_time":2918000000000,"state":"active","ping":60},{"user_id":366,"name":"Tybalt","steam_id":76561198142464684,"connected_time":697000000000,"state":"active","ping":88},{"user_id":340,"name":"Smoopy","steam_id":76561198068485493,"connected_time":2796000000000,"state":"active","ping":68},{"user_id":290,"name":"Zacker","steam_id":76561198319645735,"connected_time":5542000000000,"state":"active","ping":114},{"user_id":329,"name":"President Saget :)","steam_id":76561198071709455,"connected_time":3098000000000,"state":"active","ping":107},{"user_id":361,"name":"kira","steam_id":76561199054467241,"connected_time":1439000000000,"state":"active","ping":85},{"user_id":345,"name":"Cheesyboi","steam_id":76561197982771935,"connected_time":2557000000000,"state":"active","ping":113},{"user_id":368,"name":"smoot","steam_id":76561198257544402,"connected_time":513000000000,"state":"active","ping":97},{"user_id":332,"name":"[DEEP] offrow","steam_id":76561198123596791,"connected_time":3042000000000,"state":"active","ping":60},{"user_id":370,"name":"‚ôî—Çe–ΩœÅŒπ–∏eŒ±œÅœÅ‚Ñìe‚ôö","steam_id":76561198079939127,"connected_time":99000000000,"state":"active","ping":60},{"user_id":357,"name":"Choppa","steam_id":76561198926443232,"connected_time":1652000000000,"state":"active","ping":84},{"user_id":347,"name":"TheRealChizz","steam_id":76561198016055769,"connected_time":2512000000000,"state":"active","ping":69},{"user_id":355,"name":"Table Salt","steam_id":76561199117063944,"connected_time":1828000000000,"state":"active","ping":52},{"user_id":317,"name":"SanitysEdge","steam_id":76561198130732813,"connected_time":4617000000000,"state":"active","ping":48}]},{"server_id":25,"name":"Uncletopia | Los Angeles | 4 | Stopwatch Beta","name_short":"lax-4","host":"lax-1.us.uncletopia.com","port":27045,"enabled":true,"region":"us-west","cc":"us","latitude":33.94279,"longitude":-118.41004,"reserved":0,"last_update":"0001-01-01T00:00:00Z","name_a2s":"Uncletopia | Los Angeles | 4 | Stopwatch Beta","protocol":17,"map":"workshop/pl_summercoast_rc8e.ugc1761528829","folder":"tf","game":"Team Fortress","app_id":440,"player_count":0,"max_players":24,"Bots":0,"server_type":"Dedicated","server_os":"Linux","password":true,"vac":true,"version":"7757534","steam_id":85568392924510199,"keywords":["nocrits","nodmgspread","payload","uncletopia"],"game_id":440,"stv_port":27046,"stv_name":"Uncletopia | Los Angeles | 4 | Stopwatch Beta | STV","players":null},{"server_id":11,"name":"Uncletopia | London | 1 | All Maps","name_short":"lon-1","host":"lon-1.uk.uncletopia.com","port":27015,"enabled":true,"region":"eu","cc":"gb","latitude":51.509865,"longitude":-0.118092,"reserved":0,"last_update":"0001-01-01T00:00:00Z","name_a2s":"Uncletopia | London | 1 | All Maps","protocol":17,"map":"cp_altitude","folder":"tf","game":"Team Fortress","app_id":440,"player_count":0,"max_players":24,"Bots":0,"server_type":"Dedicated","server_os":"Linux","password":true,"vac":true,"version":"7757534","steam_id":85568392924367362,"keywords":["cp","nocrits","nodmgspread","uncletopia"],"game_id":440,"stv_port":27016,"stv_name":"Uncletopia | London | 1 | All Maps | STV","players":null},{"server_id":114,"name":"Uncletopia | London | 2 | All Maps","name_short":"lon-2","host":"lon-1.uk.uncletopia.com","port":27025,"enabled":true,"region":"eu","cc":"gb","latitude":51.509865,"longitude":-0.118092,"reserved":0,"last_update":"0001-01-01T00:00:00Z","name_a2s":"Uncletopia | London | 2 | All Maps","protocol":17,"map":"pl_pier","folder":"tf","game":"Team Fortress","app_id":440,"player_count":0,"max_players":24,"Bots":0,"server_type":"Dedicated","server_os":"Linux","password":true,"vac":true,"version":"7757534","steam_id":85568392924470941,"keywords":["nocrits","nodmgspread","payload","uncletopia"],"game_id":440,"stv_port":27026,"stv_name":"Uncletopia | London | 2 | All Maps | STV","players":null},{"server_id":320,"name":"Uncletopia | London | 3 | All Maps","name_short":"lon-3","host":"lon-1.uk.uncletopia.com","port":27035,"enabled":true,"region":"eu","cc":"gb","latitude":51.509865,"longitude":-0.118092,"reserved":0,"last_update":"0001-01-01T00:00:00Z","name_a2s":"Uncletopia | London | 3 | All Maps","protocol":17,"map":"pl_swiftwater_final1","folder":"tf","game":"Team Fortress","app_id":440,"player_count":0,"max_players":24,"Bots":0,"server_type":"Dedicated","server_os":"Linux","password":true,"vac":true,"version":"7757534","steam_id":85568392924510192,"keywords":["nocrits","nodmgspread","payload","uncletopia"],"game_id":440,"stv_port":27036,"stv_name":"Uncletopia | London | 3 | All Maps | STV","players":null},{"server_id":321,"name":"Uncletopia | London | 4 | All Maps","name_short":"lon-4","host":"lon-1.uk.uncletopia.com","port":27045,"enabled":true,"region":"eu","cc":"gb","latitude":51.509865,"longitude":-0.118092,"reserved":0,"last_update":"0001-01-01T00:00:00Z","name_a2s":"Uncletopia | London | 4 | All Maps","protocol":17,"map":"pl_barnblitz","folder":"tf","game":"Team Fortress","app_id":440,"player_count":0,"max_players":24,"Bots":0,"server_type":"Dedicated","server_os":"Linux","password":true,"vac":true,"version":"7757534","steam_id":85568392924510193,"keywords":["nocrits","nodmgspread","payload","uncletopia"],"game_id":440,"stv_port":27046,"stv_name":"Uncletopia | London | 4 | All Maps | STV","players":null},{"server_id":21,"name":"Uncletopia | London | 5 | All Maps","name_short":"lon-5","host":"lon-1.uk.uncletopia.com","port":27055,"enabled":true,"region":"eu","cc":"gb","latitude":51.509865,"longitude":-0.118092,"reserved":0,"last_update":"0001-01-01T00:00:00Z","name_a2s":"Uncletopia | London | 5 | All Maps","protocol":17,"map":"pl_pier","folder":"tf","game":"Team Fortress","app_id":440,"player_count":0,"max_players":24,"Bots":0,"server_type":"Dedicated","server_os":"Linux","password":true,"vac":true,"version":"7757534","steam_id":85568392924742829,"keywords":["nocrits","nodmgspread","payload","uncletopia"],"game_id":440,"stv_port":27056,"stv_name":"Uncletopia | London | 5 | All Maps | STV","players":null},{"server_id":22,"name":"Uncletopia | London | 6 | All Maps","name_short":"lon-6","host":"lon-1.uk.uncletopia.com","port":27065,"enabled":true,"region":"eu","cc":"gb","latitude":51.509865,"longitude":-0.118092,"reserved":0,"last_update":"0001-01-01T00:00:00Z","name_a2s":"Uncletopia | London | 6 | All Maps","protocol":17,"map":"koth_highpass","folder":"tf","game":"Team Fortress","app_id":440,"player_count":0,"max_players":24,"Bots":0,"server_type":"Dedicated","server_os":"Linux","password":true,"vac":true,"version":"7757534","steam_id":85568392924742830,"keywords":["cp","nocrits","nodmgspread","uncletopia"],"game_id":440,"stv_port":27066,"stv_name":"Uncletopia | London | 6 | All Maps | STV","players":null},{"server_id":40,"name":"Uncletopia | London | 7 | No Payload","name_short":"lon-7","host":"lon-1.uk.uncletopia.com","port":27075,"enabled":true,"region":"eu","cc":"gb","latitude":51.509865,"longitude":-0.118092,"reserved":0,"last_update":"0001-01-01T00:00:00Z","name_a2s":"Uncletopia | London | 7 | No Payload","protocol":17,"map":"koth_highpass","folder":"tf","game":"Team Fortress","app_id":440,"player_count":0,"max_players":24,"Bots":0,"server_type":"Dedicated","server_os":"Linux","password":true,"vac":true,"version":"7757534","steam_id":85568392924964314,"keywords":["cp","nocrits","nodmgspread","uncletopia"],"game_id":440,"stv_port":27076,"stv_name":"Uncletopia | London | 7 | No Payload | STV","players":null},{"server_id":41,"name":"Uncletopia | London | 8 | Community","name_short":"lon-8","host":"lon-1.uk.uncletopia.com","port":27085,"enabled":true,"region":"eu","cc":"gb","latitude":51.509865,"longitude":-0.118092,"reserved":0,"last_update":"0001-01-01T00:00:00Z","name_a2s":"Uncletopia | London | 8 | Community","protocol":17,"map":"cp_altitude","folder":"tf","game":"Team Fortress","app_id":440,"player_count":0,"max_players":24,"Bots":0,"server_type":"Dedicated","server_os":"Linux","password":true,"vac":true,"version":"7757534","steam_id":85568392924964315,"keywords":["cp","nocrits","nodmgspread","uncletopia"],"game_id":440,"stv_port":27086,"stv_name":"Uncletopia | London | 8 | Community | STV","players":null},{"server_id":300,"name":"Uncletopia | Montr√©al | 1 | All Maps","name_short":"mtl-1","host":"mtl-1.ca.uncletopia.com","port":27015,"enabled":true,"region":"us-east","cc":"ca","latitude":45.50889,"longitude":-73.56167,"reserved":0,"last_update":"0001-01-01T00:00:00Z","name_a2s":"Uncletopia | Montr√©al | 1 | All Maps","protocol":17,"map":"koth_lakeside_final","folder":"tf","game":"Team Fortress","app_id":440,"player_count":0,"max_players":24,"Bots":0,"server_type":"Dedicated","server_os":"Linux","password":true,"vac":true,"version":"7757534","steam_id":85568392924500087,"keywords":["cp","nocrits","nodmgspread","uncletopia"],"game_id":440,"stv_port":27016,"stv_name":"Uncletopia | Montr√©al | 1 | All Maps | STV","players":null},{"server_id":301,"name":"Uncletopia | Montr√©al | 2 | All Maps","name_short":"mtl-2","host":"mtl-1.ca.uncletopia.com","port":27025,"enabled":true,"region":"us-east","cc":"ca","latitude":45.50889,"longitude":-73.56167,"reserved":0,"last_update":"0001-01-01T00:00:00Z","name_a2s":"Uncletopia | Montr√©al | 2 | All Maps","protocol":17,"map":"pl_pier","folder":"tf","game":"Team Fortress","app_id":440,"player_count":0,"max_players":24,"Bots":0,"server_type":"Dedicated","server_os":"Linux","password":true,"vac":true,"version":"7757534","steam_id":85568392924500088,"keywords":["nocrits","nodmgspread","payload","uncletopia"],"game_id":440,"stv_port":27026,"stv_name":"Uncletopia | Montr√©al | 2 | All Maps | STV","players":null},{"server_id":302,"name":"Uncletopia | Montr√©al | 3 | All Maps","name_short":"mtl-3","host":"mtl-1.ca.uncletopia.com","port":27035,"enabled":true,"region":"us-east","cc":"ca","latitude":45.50889,"longitude":-73.56167,"reserved":0,"last_update":"0001-01-01T00:00:00Z","name_a2s":"Uncletopia | Montr√©al | 3 | All Maps","protocol":17,"map":"pl_snowycoast","folder":"tf","game":"Team Fortress","app_id":440,"player_count":0,"max_players":24,"Bots":0,"server_type":"Dedicated","server_os":"Linux","password":true,"vac":true,"version":"7757534","steam_id":85568392924500089,"keywords":["nocrits","nodmgspread","payload","uncletopia"],"game_id":440,"stv_port":27036,"stv_name":"Uncletopia | Montr√©al | 3 | All Maps | STV","players":null},{"server_id":303,"name":"Uncletopia | Montr√©al | 4 | No Payload","name_short":"mtl-4","host":"mtl-1.ca.uncletopia.com","port":27045,"enabled":true,"region":"us-east","cc":"ca","latitude":45.50889,"longitude":-73.56167,"reserved":0,"last_update":"0001-01-01T00:00:00Z","name_a2s":"Uncletopia | Montr√©al | 4 | No Payload","protocol":17,"map":"ctf_2fort","folder":"tf","game":"Team Fortress","app_id":440,"player_count":0,"max_players":24,"Bots":0,"server_type":"Dedicated","server_os":"Linux","password":true,"vac":true,"version":"7757534","steam_id":85568392924500090,"keywords":["ctf","nocrits","nodmgspread","uncletopia"],"game_id":440,"stv_port":27046,"stv_name":"Uncletopia | Montr√©al | 4 | No Payload | STV","players":null},{"server_id":13,"name":"Uncletopia | New York City | 1 | All Maps","name_short":"nyc-1","host":"nyc-1.us.uncletopia.com","port":27015,"enabled":true,"region":"us-east","cc":"us","latitude":40.73061,"longitude":-73.93524,"reserved":0,"last_update":"0001-01-01T00:00:00Z","name_a2s":"Uncletopia | New York City | 1 | All Maps","protocol":17,"map":"koth_lakeside_final","folder":"tf","game":"Team Fortress","app_id":440,"player_count":0,"max_players":24,"Bots":0,"server_type":"Dedicated","server_os":"Linux","password":true,"vac":true,"version":"7757534","steam_id":85568392924469993,"keywords":["cp","nocrits","nodmgspread","uncletopia"],"game_id":440,"stv_port":27016,"stv_name":"Uncletopia | New York City | 1 | All Maps | STV","players":null},{"server_id":14,"name":"Uncletopia | New York City | 2 | All Maps","name_short":"nyc-2","host":"nyc-1.us.uncletopia.com","port":27025,"enabled":true,"region":"us-east","cc":"us","latitude":40.73061,"longitude":-73.93524,"reserved":0,"last_update":"0001-01-01T00:00:00Z","name_a2s":"Uncletopia | New York City | 2 | All Maps","protocol":17,"map":"pl_borneo","folder":"tf","game":"Team Fortress","app_id":440,"player_count":0,"max_players":24,"Bots":0,"server_type":"Dedicated","server_os":"Linux","password":true,"vac":true,"version":"7757534","steam_id":85568392924469994,"keywords":["nocrits","nodmgspread","payload","uncletopia"],"game_id":440,"stv_port":27026,"stv_name":"Uncletopia | New York City | 2 | All Maps | STV","players":null},{"server_id":15,"name":"Uncletopia | New York City | 3 | Stopwatch Beta","name_short":"nyc-3","host":"nyc-1.us.uncletopia.com","port":27035,"enabled":true,"region":"us-east","cc":"us","latitude":40.73061,"longitude":-73.93524,"reserved":0,"last_update":"0001-01-01T00:00:00Z","name_a2s":"Uncletopia | New York City | 3 | Stopwatch Beta","protocol":17,"map":"pl_upward","folder":"tf","game":"Team Fortress","app_id":440,"player_count":0,"max_players":24,"Bots":0,"server_type":"Dedicated","server_os":"Linux","password":true,"vac":true,"version":"7757534","steam_id":85568392924742820,"keywords":["nocrits","nodmgspread","payload","uncletopia"],"game_id":440,"stv_port":27036,"stv_name":"Uncletopia | New York City | 3 | Stopwatch Beta | STV","players":null},{"server_id":16,"name":"Uncletopia | New York City | 4 | Community","name_short":"nyc-4","host":"nyc-1.us.uncletopia.com","port":27045,"enabled":true,"region":"us-east","cc":"us","latitude":40.73061,"longitude":-73.93524,"reserved":0,"last_update":"0001-01-01T00:00:00Z","name_a2s":"Uncletopia | New York City | 4 | Community","protocol":17,"map":"workshop/pl_boundary_final1.ugc456799153","folder":"tf","game":"Team Fortress","app_id":440,"player_count":0,"max_players":24,"Bots":0,"server_type":"Dedicated","server_os":"Linux","password":true,"vac":true,"version":"7757534","steam_id":85568392924742821,"keywords":["nocrits","nodmgspread","payload","uncletopia"],"game_id":440,"stv_port":27046,"stv_name":"Uncletopia | New York City | 4 | Community | STV","players":null},{"server_id":142,"name":"Uncletopia | S√£o Paulo | 1 | All Maps","name_short":"sao-1","host":"sao-1.br.uncletopia.com","port":27015,"enabled":true,"region":"sa","cc":"br","latitude":-23.533773,"longitude":-46.62529,"reserved":0,"last_update":"0001-01-01T00:00:00Z","name_a2s":"Uncletopia | S√£o Paulo | 1 | All Maps","protocol":17,"map":"koth_lakeside_final","folder":"tf","game":"Team Fortress","app_id":440,"player_count":0,"max_players":24,"Bots":0,"server_type":"Dedicated","server_os":"Linux","password":true,"vac":true,"version":"7757534","steam_id":85568392924469996,"keywords":["cp","nocrits","nodmgspread","uncletopia"],"game_id":440,"stv_port":27016,"stv_name":"Uncletopia | S√£o Paulo | 1 | All Maps | STV","players":null},{"server_id":143,"name":"Uncletopia | S√£o Paulo | 2 | All Maps","name_short":"sao-2","host":"sao-2.br.uncletopia.com","port":27015,"enabled":true,"region":"sa","cc":"br","latitude":-23.533773,"longitude":-46.62529,"reserved":0,"last_update":"0001-01-01T00:00:00Z","name_a2s":"Uncletopia | S√£o Paulo | 2 | All Maps","protocol":17,"map":"koth_highpass","folder":"tf","game":"Team Fortress","app_id":440,"player_count":0,"max_players":24,"Bots":0,"server_type":"Dedicated","server_os":"Linux","password":true,"vac":true,"version":"7757534","steam_id":85568392924485349,"keywords":["cp","nocrits","nodmgspread","uncletopia"],"game_id":440,"stv_port":27016,"stv_name":"Uncletopia | S√£o Paulo | 2 | All Maps | STV","players":null},{"server_id":7,"name":"Uncletopia | Seattle | 1 | All Maps","name_short":"sea-1","host":"sea-1.us.uncletopia.com","port":27015,"enabled":true,"region":"us-west","cc":"us","latitude":47.608013,"longitude":-122.33517,"reserved":0,"last_update":"0001-01-01T00:00:00Z","name_a2s":"Uncletopia | Seattle | 1 | All Maps","protocol":17,"map":"pl_borneo","folder":"tf","game":"Team Fortress","app_id":440,"player_count":24,"max_players":24,"Bots":0,"server_type":"Dedicated","server_os":"Linux","password":true,"vac":true,"version":"7757534","steam_id":85568392924469997,"keywords":["nocrits","nodmgspread","payload","uncletopia"],"game_id":440,"stv_port":27016,"stv_name":"Uncletopia | Seattle | 1 | All Maps | STV","players":[{"user_id":842,"name":"NOOT","steam_id":76561199060432770,"connected_time":950000000000,"state":"active","ping":77},{"user_id":765,"name":"SvicidalBug","steam_id":76561198221390504,"connected_time":8733000000000,"state":"active","ping":66},{"user_id":808,"name":"jubb","steam_id":76561198186865526,"connected_time":5255000000000,"state":"active","ping":55},{"user_id":831,"name":"shy guy","steam_id":76561198151246059,"connected_time":2407000000000,"state":"active","ping":65},{"user_id":829,"name":"john, payer of taxes","steam_id":76561198858328080,"connected_time":3282000000000,"state":"active","ping":64},{"user_id":813,"name":"Aeris","steam_id":76561198287271028,"connected_time":4432000000000,"state":"active","ping":100},{"user_id":834,"name":"soup","steam_id":76561198043209046,"connected_time":1467000000000,"state":"active","ping":77},{"user_id":835,"name":"Gary, 40, soul sucking 9-5","steam_id":76561198073812888,"connected_time":1294000000000,"state":"active","ping":45},{"user_id":817,"name":"Quon Grene for Vice Prez","steam_id":76561198127545817,"connected_time":4269000000000,"state":"active","ping":77},{"user_id":820,"name":"Level 99 Mudcrab","steam_id":76561198077452771,"connected_time":4236000000000,"state":"active","ping":59},{"user_id":837,"name":"S Q U I S H E  T H A T  C A T","steam_id":76561198293865429,"connected_time":1194000000000,"state":"active","ping":30},{"user_id":811,"name":"Flembrane","steam_id":76561197995328898,"connected_time":5076000000000,"state":"active","ping":67},{"user_id":840,"name":"self sufficient kitten","steam_id":76561197960592612,"connected_time":988000000000,"state":"active","ping":45},{"user_id":832,"name":"That Guy","steam_id":76561198120788964,"connected_time":1852000000000,"state":"active","ping":53},{"user_id":843,"name":"cyborgor","steam_id":76561198040782513,"connected_time":725000000000,"state":"active","ping":63},{"user_id":778,"name":"‚ù§ Ashley ‚ù§","steam_id":76561198056428303,"connected_time":7311000000000,"state":"active","ping":90},{"user_id":836,"name":"LazyZealot","steam_id":76561198241505038,"connected_time":1199000000000,"state":"active","ping":71},{"user_id":810,"name":"potato farmer","steam_id":76561198012939071,"connected_time":5209000000000,"state":"active","ping":131},{"user_id":838,"name":"jesie","steam_id":76561198074938913,"connected_time":1189000000000,"state":"active","ping":104},{"user_id":844,"name":"MrChaosOK","steam_id":76561197976353083,"connected_time":649000000000,"state":"active","ping":82},{"user_id":845,"name":"Stozi","steam_id":76561197992237054,"connected_time":550000000000,"state":"active","ping":45},{"user_id":828,"name":"An Old Lady","steam_id":76561198047480318,"connected_time":3540000000000,"state":"active","ping":78},{"user_id":824,"name":"gorlab","steam_id":76561198025089694,"connected_time":4120000000000,"state":"active","ping":69},{"user_id":781,"name":"VixianUwU","steam_id":76561198948815060,"connected_time":7270000000000,"state":"active","ping":80}]},{"server_id":119,"name":"Uncletopia | Seattle | 2 | All Maps","name_short":"sea-2","host":"sea-1.us.uncletopia.com","port":27025,"enabled":true,"region":"us-west","cc":"us","latitude":47.608013,"longitude":-122.33517,"reserved":0,"last_update":"0001-01-01T00:00:00Z","name_a2s":"Uncletopia | Seattle | 2 | All Maps","protocol":17,"map":"pl_upward","folder":"tf","game":"Team Fortress","app_id":440,"player_count":18,"max_players":24,"Bots":0,"server_type":"Dedicated","server_os":"Linux","password":true,"vac":true,"version":"7757534","steam_id":85568392924469998,"keywords":["nocrits","nodmgspread","payload","uncletopia"],"game_id":440,"stv_port":27026,"stv_name":"Uncletopia | Seattle | 2 | All Maps | STV","players":[{"user_id":873,"name":"J Jonah Jameson","steam_id":76561199088818698,"connected_time":46000000000,"state":"active","ping":49},{"user_id":839,"name":"doopsies","steam_id":76561198083000867,"connected_time":1913000000000,"state":"active","ping":45},{"user_id":843,"name":"tristan","steam_id":76561198188754881,"connected_time":1667000000000,"state":"active","ping":38},{"user_id":871,"name":"overwatch refugee","steam_id":76561199003985688,"connected_time":112000000000,"state":"active","ping":90},{"user_id":874,"name":"hemaglox","steam_id":76561198023187633,"connected_time":40000000000,"state":"active","ping":43},{"user_id":849,"name":"Slavic Pancake","steam_id":76561199319750064,"connected_time":1160000000000,"state":"active","ping":177},{"user_id":837,"name":"Cuno Doesn't Care!","steam_id":76561198007372782,"connected_time":1949000000000,"state":"active","ping":72},{"user_id":872,"name":"Zomwashroomz","steam_id":76561198131316167,"connected_time":66000000000,"state":"active","ping":32},{"user_id":860,"name":"Lord Pretty Flocko Jordye","steam_id":76561198962880749,"connected_time":683000000000,"state":"active","ping":47},{"user_id":861,"name":"Ahrg! You corked me!","steam_id":76561198062763756,"connected_time":637000000000,"state":"active","ping":92},{"user_id":835,"name":"hart","steam_id":76561198046073848,"connected_time":2058000000000,"state":"active","ping":46},{"user_id":856,"name":"cassius","steam_id":76561198203851303,"connected_time":918000000000,"state":"active","ping":78},{"user_id":866,"name":"DJUNGELSKOG gaming","steam_id":76561198253228512,"connected_time":369000000000,"state":"active","ping":53},{"user_id":867,"name":"Luffa Rigno","steam_id":76561197998700507,"connected_time":362000000000,"state":"active","ping":70},{"user_id":830,"name":"Panzerschreck Bath Water","steam_id":76561198178133625,"connected_time":2313000000000,"state":"active","ping":78},{"user_id":825,"name":"Fox In The Snow","steam_id":76561198238024080,"connected_time":2464000000000,"state":"active","ping":49},{"user_id":853,"name":"golben","steam_id":76561199388965842,"connected_time":1010000000000,"state":"active","ping":133},{"user_id":859,"name":"2 Point Tom","steam_id":76561198087617008,"connected_time":857000000000,"state":"active","ping":45}]},{"server_id":406,"name":"Uncletopia | Seattle | 3 | Stopwatch Beta","name_short":"sea-3","host":"sea-1.us.uncletopia.com","port":27035,"enabled":true,"region":"us-west","cc":"us","latitude":47.608013,"longitude":-122.33517,"reserved":0,"last_update":"0001-01-01T00:00:00Z","name_a2s":"Uncletopia | Seattle | 3 | Stopwatch Beta","protocol":17,"map":"pl_swiftwater_final1","folder":"tf","game":"Team Fortress","app_id":440,"player_count":0,"max_players":24,"Bots":0,"server_type":"Dedicated","server_os":"Linux","password":true,"vac":true,"version":"7757534","steam_id":85568392924515217,"keywords":["nocrits","nodmgspread","payload","uncletopia"],"game_id":440,"stv_port":27036,"stv_name":"Uncletopia | Seattle | 3 | Stopwatch Beta | STV","players":null},{"server_id":17,"name":"Uncletopia | San Francisco | 1 | All Maps","name_short":"sfo-1","host":"sfo-1.us.uncletopia.com","port":27015,"enabled":true,"region":"us-west","cc":"us","latitude":37.77397,"longitude":-122.4313,"reserved":0,"last_update":"0001-01-01T00:00:00Z","name_a2s":"Uncletopia | San Francisco | 1 | All Maps","protocol":17,"map":"pl_badwater","folder":"tf","game":"Team Fortress","app_id":440,"player_count":24,"max_players":24,"Bots":0,"server_type":"Dedicated","server_os":"Linux","password":true,"vac":true,"version":"7757534","steam_id":85568392924469999,"keywords":["nocrits","nodmgspread","payload","uncletopia"],"game_id":440,"stv_port":27016,"stv_name":"Uncletopia | San Francisco | 1 | All Maps | STV","players":[{"user_id":727,"name":"you bored her legs shut!","steam_id":76561198035698704,"connected_time":2633000000000,"state":"active","ping":54},{"user_id":725,"name":"crowe","steam_id":76561198142185527,"connected_time":3015000000000,"state":"active","ping":62},{"user_id":754,"name":"Mom","steam_id":76561198207936000,"connected_time":264000000000,"state":"active","ping":36},{"user_id":752,"name":"Toad :)","steam_id":76561198163008022,"connected_time":650000000000,"state":"active","ping":66},{"user_id":746,"name":"Ducks","steam_id":76561198130038345,"connected_time":1229000000000,"state":"active","ping":89},{"user_id":711,"name":"p9 delight","steam_id":76561197980280272,"connected_time":3887000000000,"state":"active","ping":62},{"user_id":753,"name":"The Oni","steam_id":76561198208689031,"connected_time":598000000000,"state":"active","ping":55},{"user_id":743,"name":"OATS rise","steam_id":76561198452312880,"connected_time":1723000000000,"state":"active","ping":56},{"user_id":714,"name":"pyrotechnic","steam_id":76561198043558709,"connected_time":3845000000000,"state":"active","ping":62},{"user_id":683,"name":"p9 beam dreamer","steam_id":76561198131166135,"connected_time":6483000000000,"state":"active","ping":54},{"user_id":751,"name":"dP | I'm in a Wookie Suit","steam_id":76561198083307644,"connected_time":798000000000,"state":"active","ping":80},{"user_id":742,"name":"fortnitejimmy2015","steam_id":76561198381841894,"connected_time":2065000000000,"state":"active","ping":107},{"user_id":699,"name":"squash","steam_id":76561198150281353,"connected_time":5613000000000,"state":"active","ping":72},{"user_id":671,"name":"El Gato Paranoico","steam_id":76561198116567116,"connected_time":7310000000000,"state":"active","ping":102},{"user_id":705,"name":"esports are my passion","steam_id":76561198169755734,"connected_time":4595000000000,"state":"active","ping":45},{"user_id":744,"name":"rorywashere /·ê† - Àï -„Éû ‚≥ä","steam_id":76561198065825165,"connected_time":1505000000000,"state":"active","ping":103},{"user_id":689,"name":"p9 jorts FULL of soup","steam_id":76561199041179985,"connected_time":6391000000000,"state":"active","ping":82},{"user_id":757,"name":"voidpuppy","steam_id":76561198799922000,"connected_time":212000000000,"state":"active","ping":69},{"user_id":736,"name":"Isopentyl Ethanoate","steam_id":76561198116389072,"connected_time":2349000000000,"state":"active","ping":81},{"user_id":690,"name":"Florist","steam_id":76561198009121060,"connected_time":6359000000000,"state":"active","ping":63},{"user_id":706,"name":"Shields","steam_id":76561198043216746,"connected_time":4579000000000,"state":"active","ping":77},{"user_id":745,"name":"Strength!!","steam_id":76561198001241984,"connected_time":1345000000000,"state":"active","ping":71},{"user_id":748,"name":"mega","steam_id":76561198089520959,"connected_time":863000000000,"state":"active","ping":116},{"user_id":747,"name":"amoeba","steam_id":76561198970261784,"connected_time":866000000000,"state":"active","ping":68}]},{"server_id":18,"name":"Uncletopia | San Francisco | 2 | All Maps","name_short":"sfo-2","host":"sfo-1.us.uncletopia.com","port":27025,"enabled":true,"region":"us-west","cc":"us","latitude":37.77397,"longitude":-122.4313,"reserved":0,"last_update":"0001-01-01T00:00:00Z","name_a2s":"Uncletopia | San Francisco | 2 | All Maps","protocol":17,"map":"cp_snakewater_final1","folder":"tf","game":"Team Fortress","app_id":440,"player_count":19,"max_players":24,"Bots":0,"server_type":"Dedicated","server_os":"Linux","password":true,"vac":true,"version":"7757534","steam_id":85568392924470000,"keywords":["cp","nocrits","nodmgspread","uncletopia"],"game_id":440,"stv_port":27026,"stv_name":"Uncletopia | San Francisco | 2 | All Maps | STV","players":[{"user_id":431,"name":"Krimmblz","steam_id":76561198326488448,"connected_time":32000000000,"state":"connecting","ping":247},{"user_id":432,"name":"Obama's_last_name","steam_id":76561198218387083,"connected_time":4000000000,"state":"spawning","ping":74},{"user_id":411,"name":"GoldtoothFour","steam_id":76561198055529332,"connected_time":1543000000000,"state":"active","ping":102},{"user_id":395,"name":"Gabe","steam_id":76561198081153719,"connected_time":2298000000000,"state":"active","ping":56},{"user_id":378,"name":"josie","steam_id":76561198170848553,"connected_time":3205000000000,"state":"active","ping":67},{"user_id":382,"name":"loyaldandan0764","steam_id":76561199231020424,"connected_time":3043000000000,"state":"active","ping":97},{"user_id":430,"name":"wearing my socks","steam_id":76561198090650250,"connected_time":383000000000,"state":"spawning","ping":48},{"user_id":384,"name":"hummusexual !Bye Bye!","steam_id":76561198063403549,"connected_time":3035000000000,"state":"spawning","ping":53},{"user_id":412,"name":"Yosh","steam_id":76561198027078899,"connected_time":1540000000000,"state":"active","ping":94},{"user_id":416,"name":"Salt and Fries","steam_id":76561198102272728,"connected_time":1299000000000,"state":"active","ping":63},{"user_id":372,"name":"mrjibjaber","steam_id":76561198025229908,"connected_time":3783000000000,"state":"active","ping":117},{"user_id":414,"name":"Dusklight","steam_id":76561198036982638,"connected_time":1335000000000,"state":"active","ping":99},{"user_id":418,"name":"TrustMeILie","steam_id":76561199089990183,"connected_time":1209000000000,"state":"active","ping":59},{"user_id":425,"name":"Yume","steam_id":76561198018060136,"connected_time":1017000000000,"state":"spawning","ping":75},{"user_id":424,"name":"OH-","steam_id":76561199475821142,"connected_time":1091000000000,"state":"active","ping":97},{"user_id":428,"name":"Vile","steam_id":76561198085615710,"connected_time":771000000000,"state":"active","ping":80},{"user_id":402,"name":"Tom Foolery","steam_id":76561198142772896,"connected_time":2097000000000,"state":"active","ping":123},{"user_id":410,"name":"Akkawi","steam_id":76561198203159952,"connected_time":1735000000000,"state":"active","ping":86},{"user_id":423,"name":"happer","steam_id":76561198018252253,"connected_time":1162000000000,"state":"active","ping":58}]},{"server_id":19,"name":"Uncletopia | San Francisco | 3 | Stopwatch Beta","name_short":"sfo-3","host":"sfo-1.us.uncletopia.com","port":27035,"enabled":true,"region":"us-west","cc":"us","latitude":37.77397,"longitude":-122.4313,"reserved":0,"last_update":"0001-01-01T00:00:00Z","name_a2s":"Uncletopia | San Francisco | 3 | Stopwatch Beta","protocol":17,"map":"workshop/pl_badwater_pro_v12.ugc2142942074","folder":"tf","game":"Team Fortress","app_id":440,"player_count":0,"max_players":24,"Bots":0,"server_type":"Dedicated","server_os":"Linux","password":true,"vac":true,"version":"7757534","steam_id":85568392924742824,"keywords":["nocrits","nodmgspread","payload","uncletopia"],"game_id":440,"stv_port":27036,"stv_name":"Uncletopia | San Francisco | 3 | Stopwatch Beta | STV","players":null},{"server_id":20,"name":"Uncletopia | San Francisco | 4 | Community","name_short":"sfo-4","host":"sfo-1.us.uncletopia.com","port":27045,"enabled":true,"region":"us-west","cc":"us","latitude":37.77397,"longitude":-122.4313,"reserved":0,"last_update":"0001-01-01T00:00:00Z","name_a2s":"Uncletopia | San Francisco | 4 | Community","protocol":17,"map":"workshop/koth_trenchfoot_b1a.ugc731436616","folder":"tf","game":"Team Fortress","app_id":440,"player_count":0,"max_players":24,"Bots":0,"server_type":"Dedicated","server_os":"Linux","password":true,"vac":true,"version":"7757534","steam_id":85568392924742826,"keywords":["cp","nocrits","nodmgspread","uncletopia"],"game_id":440,"stv_port":27046,"stv_name":"Uncletopia | San Francisco | 4 | Community | STV","players":null},{"server_id":141,"name":"Uncletopia | Sydney | 1 | All Maps","name_short":"syd-1","host":"syd-1.au.uncletopia.com","port":27015,"enabled":true,"region":"au","cc":"au","latitude":-33.865143,"longitude":151.2099,"reserved":0,"last_update":"0001-01-01T00:00:00Z","name_a2s":"Uncletopia | Sydney | 1 | All Maps","protocol":17,"map":"pl_frontier_final","folder":"tf","game":"Team Fortress","app_id":440,"player_count":24,"max_players":24,"Bots":0,"server_type":"Dedicated","server_os":"Linux","password":true,"vac":true,"version":"7757534","steam_id":85568392924470001,"keywords":["nocrits","nodmgspread","payload","uncletopia"],"game_id":440,"stv_port":27016,"stv_name":"Uncletopia | Sydney | 1 | All Maps | STV","players":[{"user_id":45,"name":"Cofwee","steam_id":76561198072414195,"connected_time":4995000000000,"state":"active","ping":74},{"user_id":134,"name":"Ralph Wiggum","steam_id":76561198243808014,"connected_time":1113000000000,"state":"active","ping":61},{"user_id":131,"name":"DIY Miracle","steam_id":76561198046228152,"connected_time":1430000000000,"state":"active","ping":68},{"user_id":143,"name":"michael","steam_id":76561198052848358,"connected_time":737000000000,"state":"active","ping":63},{"user_id":89,"name":"MR Martian","steam_id":76561198157854561,"connected_time":3271000000000,"state":"active","ping":90},{"user_id":75,"name":"Ok Mate","steam_id":76561198254922035,"connected_time":3658000000000,"state":"active","ping":52},{"user_id":105,"name":"KnowZero","steam_id":76561198095752015,"connected_time":2680000000000,"state":"active","ping":59},{"user_id":65,"name":"Sledgehammer","steam_id":76561198066726621,"connected_time":4103000000000,"state":"active","ping":46},{"user_id":109,"name":"bread.  üî™","steam_id":76561199102895674,"connected_time":2397000000000,"state":"active","ping":78},{"user_id":122,"name":"Deep Fried Pyro","steam_id":76561198063545062,"connected_time":1652000000000,"state":"active","ping":153},{"user_id":119,"name":"electro599","steam_id":76561198058148858,"connected_time":1671000000000,"state":"active","ping":59},{"user_id":150,"name":"no teles 4 u","steam_id":76561198018478297,"connected_time":1000000000,"state":"spawning","ping":48},{"user_id":121,"name":"Chooka","steam_id":76561197992307814,"connected_time":1660000000000,"state":"active","ping":69},{"user_id":147,"name":"Rumoshiji","steam_id":76561199174449723,"connected_time":615000000000,"state":"active","ping":177},{"user_id":124,"name":"The Goon","steam_id":76561198434696450,"connected_time":1618000000000,"state":"active","ping":153},{"user_id":120,"name":"Lincoln2603","steam_id":76561198170236666,"connected_time":1671000000000,"state":"active","ping":40},{"user_id":77,"name":"Warren","steam_id":76561198120350917,"connected_time":3626000000000,"state":"active","ping":44},{"user_id":86,"name":"4 Day Old Meat","steam_id":76561198992922627,"connected_time":3425000000000,"state":"active","ping":91},{"user_id":118,"name":"Jacob","steam_id":76561198059341907,"connected_time":1847000000000,"state":"active","ping":35},{"user_id":123,"name":"Legend27","steam_id":76561199475312777,"connected_time":1649000000000,"state":"active","ping":51},{"user_id":125,"name":"CrowPBS1 PC","steam_id":76561198943274401,"connected_time":1606000000000,"state":"active","ping":84},{"user_id":128,"name":"[T√êK] KeRpaL","steam_id":76561197974427061,"connected_time":1555000000000,"state":"active","ping":65},{"user_id":145,"name":"Bing Soy","steam_id":76561198057093383,"connected_time":703000000000,"state":"active","ping":46},{"user_id":100,"name":"Zeron","steam_id":76561198125778202,"connected_time":2936000000000,"state":"active","ping":55}]},{"server_id":123,"name":"Uncletopia | Sydney | 2 | All Maps","name_short":"syd-2","host":"syd-1.au.uncletopia.com","port":27025,"enabled":true,"region":"au","cc":"au","latitude":-33.865143,"longitude":151.2099,"reserved":0,"last_update":"0001-01-01T00:00:00Z","name_a2s":"Uncletopia | Sydney | 2 | All Maps","protocol":17,"map":"cp_process_final","folder":"tf","game":"Team Fortress","app_id":440,"player_count":0,"max_players":24,"Bots":0,"server_type":"Dedicated","server_os":"Linux","password":true,"vac":true,"version":"7757534","steam_id":85568392924470002,"keywords":["cp","nocrits","nodmgspread","uncletopia"],"game_id":440,"stv_port":27026,"stv_name":"Uncletopia | Sydney | 2 | All Maps | STV","players":null},{"server_id":395,"name":"Uncletopia | Sydney | 3 | All Maps","name_short":"syd-3","host":"syd-1.au.uncletopia.com","port":27035,"enabled":true,"region":"au","cc":"au","latitude":-33.865143,"longitude":151.2099,"reserved":0,"last_update":"0001-01-01T00:00:00Z","name_a2s":"Uncletopia | Sydney | 3 | All Maps","protocol":17,"map":"cp_altitude","folder":"tf","game":"Team Fortress","app_id":440,"player_count":0,"max_players":24,"Bots":0,"server_type":"Dedicated","server_os":"Linux","password":true,"vac":true,"version":"7757534","steam_id":85568392925194467,"keywords":["cp","nocrits","nodmgspread","uncletopia"],"game_id":440,"stv_port":27036,"stv_name":"Uncletopia | Sydney | 3 | All Maps | STV","players":null},{"server_id":396,"name":"Uncletopia | Sydney | 4 | All Maps","name_short":"syd-4","host":"syd-1.au.uncletopia.com","port":27045,"enabled":true,"region":"au","cc":"au","latitude":-33.865143,"longitude":151.2099,"reserved":0,"last_update":"0001-01-01T00:00:00Z","name_a2s":"Uncletopia | Sydney | 4 | All Maps","protocol":17,"map":"pl_frontier_final","folder":"tf","game":"Team Fortress","app_id":440,"player_count":0,"max_players":24,"Bots":0,"server_type":"Dedicated","server_os":"Linux","password":true,"vac":true,"version":"7757534","steam_id":85568392925397958,"keywords":["nocrits","nodmgspread","payload","uncletopia"],"game_id":440,"stv_port":27046,"stv_name":"Uncletopia | Sydney | 4 | All Maps | STV","players":null},{"server_id":58,"name":"Uncletopia | Sydney | 5 | Stopwatch Beta","name_short":"syd-5","host":"syd-1.au.uncletopia.com","port":27055,"enabled":true,"region":"au","cc":"au","latitude":-33.865143,"longitude":151.2099,"reserved":0,"last_update":"0001-01-01T00:00:00Z","name_a2s":"Uncletopia | Sydney | 5 | Stopwatch Beta","protocol":17,"map":"workshop/cp_process_f12.ugc2302948105","folder":"tf","game":"Team Fortress","app_id":440,"player_count":0,"max_players":24,"Bots":0,"server_type":"Dedicated","server_os":"Linux","password":true,"vac":true,"version":"7757534","steam_id":85568392925397959,"keywords":["cp","nocrits","nodmgspread","uncletopia"],"game_id":440,"stv_port":27056,"stv_name":"Uncletopia | Sydney | 5 | Stopwatch Beta | STV","players":null},{"server_id":59,"name":"Uncletopia | Sydney | 6 | Community","name_short":"syd-6","host":"syd-1.au.uncletopia.com","port":27065,"enabled":true,"region":"au","cc":"au","latitude":-33.865143,"longitude":151.2099,"reserved":0,"last_update":"0001-01-01T00:00:00Z","name_a2s":"Uncletopia | Sydney | 6 | Community","protocol":17,"map":"workshop/koth_bagel_rc6.ugc2514036946","folder":"tf","game":"Team Fortress","app_id":440,"player_count":0,"max_players":24,"Bots":0,"server_type":"Dedicated","server_os":"Linux","password":true,"vac":true,"version":"7757534","steam_id":85568392925397960,"keywords":["cp","nocrits","nodmgspread","uncletopia"],"game_id":440,"stv_port":27066,"stv_name":"Uncletopia | Sydney | 6 | Community | STV","players":null},{"server_id":49,"name":"Uncletopia | Warsaw | 1 | All Maps","name_short":"waw-1","host":"waw-1.pl.uncletopia.com","port":27015,"enabled":true,"region":"eu","cc":"pl","latitude":52.2297,"longitude":21.017532,"reserved":0,"last_update":"0001-01-01T00:00:00Z","name_a2s":"","protocol":0,"map":"","folder":"","game":"","app_id":0,"player_count":0,"max_players":0,"Bots":0,"server_type":"","server_os":"","password":false,"vac":false,"version":"","steam_id":0,"keywords":null,"game_id":0,"stv_port":0,"stv_name":"","players":null},{"server_id":50,"name":"Uncletopia | Warsaw | 2 | All Maps","name_short":"waw-2","host":"waw-1.pl.uncletopia.com","port":27025,"enabled":true,"region":"eu","cc":"pl","latitude":52.2297,"longitude":21.017532,"reserved":0,"last_update":"0001-01-01T00:00:00Z","name_a2s":"Uncletopia | Warsaw | 2 | All Maps","protocol":17,"map":"pl_barnblitz","folder":"tf","game":"Team Fortress","app_id":440,"player_count":0,"max_players":24,"Bots":0,"server_type":"Dedicated","server_os":"Linux","password":true,"vac":true,"version":"7757534","steam_id":85568392925397851,"keywords":["nocrits","nodmgspread","payload","uncletopia"],"game_id":440,"stv_port":27026,"stv_name":"Uncletopia | Warsaw | 2 | All Maps | STV","players":null},{"server_id":51,"name":"Uncletopia | Warsaw | 3 | All Maps","name_short":"waw-3","host":"waw-1.pl.uncletopia.com","port":27035,"enabled":true,"region":"eu","cc":"pl","latitude":52.2297,"longitude":21.017532,"reserved":0,"last_update":"0001-01-01T00:00:00Z","name_a2s":"Uncletopia | Warsaw | 3 | All Maps","protocol":17,"map":"koth_cascade","folder":"tf","game":"Team Fortress","app_id":440,"player_count":0,"max_players":24,"Bots":0,"server_type":"Dedicated","server_os":"Linux","password":true,"vac":true,"version":"7757534","steam_id":85568392925397852,"keywords":["cp","nocrits","nodmgspread","uncletopia"],"game_id":440,"stv_port":27036,"stv_name":"Uncletopia | Warsaw | 3 | All Maps | STV","players":null},{"server_id":52,"name":"Uncletopia | Warsaw | 4 | All Maps","name_short":"waw-4","host":"waw-1.pl.uncletopia.com","port":27045,"enabled":true,"region":"eu","cc":"pl","latitude":52.2297,"longitude":21.017532,"reserved":0,"last_update":"0001-01-01T00:00:00Z","name_a2s":"Uncletopia | Warsaw | 4 | All Maps","protocol":17,"map":"cp_altitude","folder":"tf","game":"Team Fortress","app_id":440,"player_count":0,"max_players":24,"Bots":0,"server_type":"Dedicated","server_os":"Linux","password":true,"vac":true,"version":"7757534","steam_id":85568392925397853,"keywords":["cp","nocrits","nodmgspread","uncletopia"],"game_id":440,"stv_port":27046,"stv_name":"Uncletopia | Warsaw | 4 | All Maps | STV","players":null},{"server_id":53,"name":"Uncletopia | Warsaw | 5 | Stopwatch Beta","name_short":"waw-5","host":"waw-1.pl.uncletopia.com","port":27055,"enabled":true,"region":"eu","cc":"pl","latitude":52.2297,"longitude":21.017532,"reserved":0,"last_update":"0001-01-01T00:00:00Z","name_a2s":"Uncletopia | Warsaw | 5 | Stopwatch Beta","protocol":17,"map":"pl_pier","folder":"tf","game":"Team Fortress","app_id":440,"player_count":0,"max_players":24,"Bots":0,"server_type":"Dedicated","server_os":"Linux","password":true,"vac":true,"version":"7757534","steam_id":85568392925397854,"keywords":["nocrits","nodmgspread","payload","uncletopia"],"game_id":440,"stv_port":27056,"stv_name":"Uncletopia | Warsaw | 5 | Stopwatch Beta | STV","players":null},{"server_id":54,"name":"Uncletopia | Warsaw | 6 | Community","name_short":"waw-6","host":"waw-1.pl.uncletopia.com","port":27065,"enabled":true,"region":"eu","cc":"pl","latitude":52.2297,"longitude":21.017532,"reserved":0,"last_update":"0001-01-01T00:00:00Z","name_a2s":"Uncletopia | Warsaw | 6 | Community","protocol":17,"map":"koth_highpass","folder":"tf","game":"Team Fortress","app_id":440,"player_count":0,"max_players":24,"Bots":0,"server_type":"Dedicated","server_os":"Linux","password":true,"vac":true,"version":"7757534","steam_id":85568392925397856,"keywords":["cp","nocrits","nodmgspread","uncletopia"],"game_id":440,"stv_port":27066,"stv_name":"Uncletopia | Warsaw | 6 | Community | STV","players":null}]}