{"status":true,"message":"","result":[{"server_id":9,"name":"Uncletopia | Atlanta | 1 | All Maps","name_short":"atl-1","host":"atl-1.us.uncletopia.com","port":27015,"enabled":true,"region":"us-east","cc":"us","latitude":33.753746,"longitude":-84.38633,"reserved":0,"last_update":"0001-01-01T00:00:00Z","name_a2s":"Uncletopia | Atlanta | 1 | All Maps","protocol":17,"map":"cp_process_final","folder":"tf","game":"Team Fortress","app_id":440,"player_count":24,"max_players":24,"Bots":0,"server_type":"Dedicated","server_os":"Linux","password":true,"vac":true,"version":"7961495","steam_id":85568392924469982,"keywords":["cp","nocrits","nodmgspread","uncletopia"],"game_id":440,"stv_port":27016,"stv_name":"Uncletopia | Atlanta | 1 | All Maps | STV","players":null},{"server_id":104,"name":"Uncletopia | Atlanta | 2 | All Maps","name_short":"atl-2","host":"atl-1.us.uncletopia.com","port":27025,"enabled":true,"region":"us-east","cc":"us","latitude":33.753746,"longitude":-84.38633,"reserved":0,"last_update":"0001-01-01T00:00:00Z","name_a2s":"Uncletopia | Atlanta | 2 | All Maps","protocol":17,"map":"pl_snowycoast","folder":"tf","game":"Team Fortress","app_id":440,"player_count":24,"max_players":24,"Bots":0,"server_type":"Dedicated","server_os":"Linux","password":true,"vac":true,"version":"7961495","steam_id":85568392924469983,"keywords":["nocrits","nodmgspread","payload","uncletopia"],"game_id":440,"stv_port":27026,"stv_name":"Uncletopia | Atlanta | 2 | All Maps | STV","players":null},{"server_id":400,"name":"Uncletopia | Atlanta | 3 | Stopwatch","name_short":"atl-3","host":"atl-1.us.uncletopia.com","port":27035,"enabled":true,"region":"us-east","cc":"us","latitude":33.753746,"longitude":-84.38633,"reserved":0,"last_update":"0001-01-01T00:00:00Z","name_a2s":"Uncletopia | Atlanta | 3 | Stopwatch","protocol":17,"map":"pl_badwater","folder":"tf","game":"Team Fortress","app_id":440,"player_count":0,"max_players":24,"Bots":0,"server_type":"Dedicated","server_os":"Linux","password":true,"vac":true,"version":"7961495","steam_id":85568392924515187,"keywords":["nocrits","nodmgspread","payload","uncletopia"],"game_id":440,"stv_port":27036,"stv_name":"Uncletopia | Atlanta | 3 | Stopwatch | STV","players":null},{"server_id":401,"name":"Uncletopia | Atlanta | 4 | Community","name_short":"atl-4","host":"atl-1.us.uncletopia.com","port":27045,"enabled":true,"region":"us-east","cc":"us","latitude":33.753746,"longitude":-84.38633,"reserved":0,"last_update":"0001-01-01T00:00:00Z","name_a2s":"Uncletopia | Atlanta | 4 | Community","protocol":17,"map":"cp_caldera_rc2","folder":"tf","game":"Team Fortress","app_id":440,"player_count":0,"max_players":24,"Bots":0,"server_type":"Dedicated","server_os":"Linux","password":true,"vac":true,"version":"7961495","steam_id":85568392924515188,"keywords":["cp","nocrits","nodmgspread","uncletopia"],"game_id":440,"stv_port":27046,"stv_name":"Uncletopia | Atlanta | 4 | Community | STV","players":null},{"server_id":2,"name":"Uncletopia | Chicago | 1 | All Maps","name_short":"chi-1","host":"chi-1.us.uncletopia.com","port":27015,"enabled":true,"region":"us-central","cc":"us","latitude":41.881832,"longitude":-87.62318,"reserved":0,"last_update":"0001-01-01T00:00:00Z","name_a2s":"Uncletopia | Chicago | 1 | All Maps","protocol":17,"map":"pl_badwater","folder":"tf","game":"Team Fortress","app_id":440,"player_count":24,"max_players":24,"Bots":0,"server_type":"Dedicated","server_os":"Linux","password":true,"vac":true,"version":"7961495","steam_id":85568392924469984,"keywords":["nocrits","nodmgspread","payload","uncletopia"],"game_id":440,"stv_port":27016,"stv_name":"Uncletopia | Chicago | 1 | All Maps | STV","players":[{"user_id":1006,"name":"subdromeda","steam_id":76561198884351860,"connected_time":6443000000000,"state":"active","ping":61},{"user_id":1085,"name":"badboy6996","steam_id":76561197969386201,"connected_time":1029000000000,"state":"active","ping":45},{"user_id":1100,"name":"amberenix","steam_id":76561198805110908,"connected_time":82000000000,"state":"active","ping":74},{"user_id":1077,"name":"cheesebro","steam_id":76561198002072852,"connected_time":1928000000000,"state":"active","ping":99},{"user_id":1058,"name":"Halfy","steam_id":76561198086809084,"connected_time":2913000000000,"state":"active","ping":63},{"user_id":1064,"name":"hamletespacial","steam_id":76561199084414649,"connected_time":2603000000000,"state":"active","ping":56},{"user_id":1059,"name":"Deantallica","steam_id":76561198287223999,"connected_time":2901000000000,"state":"active","ping":72},{"user_id":1065,"name":"the master of cats","steam_id":76561198819255576,"connected_time":2601000000000,"state":"active","ping":97},{"user_id":1094,"name":"Rambly Dambly","steam_id":76561198844496567,"connected_time":241000000000,"state":"active","ping":51},{"user_id":1073,"name":"NjoKuAni","steam_id":76561199061380038,"connected_time":2005000000000,"state":"active","ping":61},{"user_id":1093,"name":"Raccoon Wizard","steam_id":76561198072562591,"connected_time":372000000000,"state":"active","ping":90},{"user_id":1090,"name":"Whole Lotta VTEC","steam_id":76561198926416886,"connected_time":605000000000,"state":"active","ping":68},{"user_id":1099,"name":"ShapedSky0","steam_id":76561199486555735,"connected_time":94000000000,"state":"active","ping":81},{"user_id":1084,"name":"ZombieDog[N8]","steam_id":76561198056076918,"connected_time":1232000000000,"state":"active","ping":77},{"user_id":1054,"name":"BurritoCat","steam_id":76561198059822805,"connected_time":3620000000000,"state":"active","ping":95},{"user_id":1092,"name":"cotton candy ghooost","steam_id":76561198058998371,"connected_time":378000000000,"state":"active","ping":65},{"user_id":1091,"name":"B4NNY UNIVERSITY GRADUATE","steam_id":76561198144766439,"connected_time":403000000000,"state":"active","ping":43},{"user_id":1055,"name":"i suffer from ligma","steam_id":76561199158496518,"connected_time":3610000000000,"state":"active","ping":111},{"user_id":1056,"name":"REspecWizard","steam_id":76561198097950624,"connected_time":3573000000000,"state":"active","ping":109},{"user_id":1069,"name":"Octto","steam_id":76561198070124921,"connected_time":2247000000000,"state":"active","ping":59},{"user_id":1101,"name":"Love","steam_id":76561198118431677,"connected_time":72000000000,"state":"active","ping":84},{"user_id":1098,"name":"hej","steam_id":76561198110530761,"connected_time":102000000000,"state":"active","ping":140},{"user_id":1079,"name":"Billychicken54","steam_id":76561198022365463,"connected_time":1878000000000,"state":"active","ping":69},{"user_id":1089,"name":"dunk","steam_id":76561198132476501,"connected_time":971000000000,"state":"active","ping":48}]},{"server_id":106,"name":"Uncletopia | Chicago | 2 | All Maps","name_short":"chi-2","host":"chi-1.us.uncletopia.com","port":27025,"enabled":true,"region":"us-central","cc":"us","latitude":41.881832,"longitude":-87.62318,"reserved":0,"last_update":"0001-01-01T00:00:00Z","name_a2s":"Uncletopia | Chicago | 2 | All Maps","protocol":17,"map":"koth_viaduct","folder":"tf","game":"Team Fortress","app_id":440,"player_count":0,"max_players":24,"Bots":0,"server_type":"Dedicated","server_os":"Linux","password":true,"vac":true,"version":"7961495","steam_id":85568392924469985,"keywords":["cp","nocrits","nodmgspread","uncletopia"],"game_id":440,"stv_port":27026,"stv_name":"Uncletopia | Chicago | 2 | All Maps | STV","players":null},{"server_id":402,"name":"Uncletopia | Chicago | 3 | All Maps","name_short":"chi-3","host":"chi-1.us.uncletopia.com","port":27035,"enabled":true,"region":"us-central","cc":"us","latitude":41.881832,"longitude":-87.62318,"reserved":0,"last_update":"0001-01-01T00:00:00Z","name_a2s":"Uncletopia | Chicago | 3 | All Maps","protocol":17,"map":"cp_mountainlab","folder":"tf","game":"Team Fortress","app_id":440,"player_count":0,"max_players":24,"Bots":0,"server_type":"Dedicated","server_os":"Linux","password":true,"vac":true,"version":"7961495","steam_id":85568392924515191,"keywords":["cp","nocrits","nodmgspread","uncletopia"],"game_id":440,"stv_port":27036,"stv_name":"Uncletopia | Chicago | 3 | All Maps | STV","players":null},{"server_id":403,"name":"Uncletopia | Chicago | 4 | All Maps","name_short":"chi-4","host":"chi-1.us.uncletopia.com","port":27045,"enabled":true,"region":"us-central","cc":"us","latitude":41.881832,"longitude":-87.62318,"reserved":0,"last_update":"0001-01-01T00:00:00Z","name_a2s":"Uncletopia | Chicago | 4 | All Maps","protocol":17,"map":"cp_gullywash_final1","folder":"tf","game":"Team Fortress","app_id":440,"player_count":24,"max_players":24,"Bots":0,"server_type":"Dedicated","server_os":"Linux","password":true,"vac":true,"version":"7961495","steam_id":85568392924515193,"keywords":["cp","nocrits","nodmgspread","uncletopia"],"game_id":440,"stv_port":27046,"stv_name":"Uncletopia | Chicago | 4 | All Maps | STV","players":[{"user_id":374,"name":"SteveC","steam_id":76561197994786195,"connected_time":620000000000,"state":"active","ping":62},{"user_id":335,"name":"Llama gaming","steam_id":76561199096881883,"connected_time":2454000000000,"state":"active","ping":64},{"user_id":339,"name":"Bryguy","steam_id":76561198092096120,"connected_time":2135000000000,"state":"active","ping":45},{"user_id":383,"name":"mimimimimimimimi","steam_id":76561198103496593,"connected_time":183000000000,"state":"active","ping":62},{"user_id":371,"name":"exten-z","steam_id":76561198004359190,"connected_time":939000000000,"state":"active","ping":51},{"user_id":323,"name":"Natsuki the Scunt","steam_id":76561199175922684,"connected_time":3244000000000,"state":"active","ping":98},{"user_id":340,"name":"Major_Pippy","steam_id":76561198004482878,"connected_time":2054000000000,"state":"active","ping":103},{"user_id":382,"name":"BLAST MASTER","steam_id":76561198138221795,"connected_time":405000000000,"state":"active","ping":71},{"user_id":367,"name":"*:･ﾟ✧smolgols*:･ﾟ✧","steam_id":76561198356567673,"connected_time":977000000000,"state":"active","ping":65},{"user_id":358,"name":"Shotaway's Kitten","steam_id":76561198284226688,"connected_time":1421000000000,"state":"active","ping":60},{"user_id":324,"name":"The Rock","steam_id":76561198433328517,"connected_time":3196000000000,"state":"active","ping":71},{"user_id":381,"name":"Joebobio","steam_id":76561198024442760,"connected_time":552000000000,"state":"active","ping":69},{"user_id":299,"name":"alN","steam_id":76561198329171346,"connected_time":4710000000000,"state":"active","ping":49},{"user_id":348,"name":"✪ dSaner -iwnl-","steam_id":76561198082291174,"connected_time":1578000000000,"state":"active","ping":61},{"user_id":375,"name":"merlin","steam_id":76561198334511480,"connected_time":616000000000,"state":"active","ping":76},{"user_id":363,"name":"RagingRoosevelt","steam_id":76561197985483153,"connected_time":1195000000000,"state":"active","ping":99},{"user_id":352,"name":"Bearegard","steam_id":76561198061926542,"connected_time":1539000000000,"state":"active","ping":68},{"user_id":353,"name":"realCptJack","steam_id":76561198021082168,"connected_time":1538000000000,"state":"active","ping":61},{"user_id":376,"name":"Big Chad","steam_id":76561198015304658,"connected_time":608000000000,"state":"active","ping":52},{"user_id":360,"name":"lem0n","steam_id":76561198114936623,"connected_time":1291000000000,"state":"active","ping":63},{"user_id":354,"name":"sherlock gnomes","steam_id":76561198050681704,"connected_time":1537000000000,"state":"active","ping":59},{"user_id":355,"name":"\u003c3","steam_id":76561198065872641,"connected_time":1532000000000,"state":"active","ping":115},{"user_id":368,"name":"TheKyleB","steam_id":76561198202515104,"connected_time":957000000000,"state":"active","ping":40},{"user_id":370,"name":"Suck Her Dick Sunday","steam_id":76561198029274581,"connected_time":944000000000,"state":"active","ping":64}]},{"server_id":36,"name":"Uncletopia | Chicago | 5 | All Maps","name_short":"chi-5","host":"chi-2.us.uncletopia.com","port":27015,"enabled":true,"region":"us-central","cc":"us","latitude":41.881832,"longitude":-87.62318,"reserved":0,"last_update":"0001-01-01T00:00:00Z","name_a2s":"Uncletopia | Chicago | 5 | All Maps","protocol":17,"map":"cp_mountainlab","folder":"tf","game":"Team Fortress","app_id":440,"player_count":0,"max_players":24,"Bots":0,"server_type":"Dedicated","server_os":"Linux","password":true,"vac":true,"version":"7961495","steam_id":85568392924866362,"keywords":["cp","nocrits","nodmgspread","uncletopia"],"game_id":440,"stv_port":27016,"stv_name":"Uncletopia | Chicago | 5 | All Maps | STV","players":null},{"server_id":37,"name":"Uncletopia | Chicago | 6 | All Maps","name_short":"chi-6","host":"chi-2.us.uncletopia.com","port":27025,"enabled":true,"region":"us-central","cc":"us","latitude":41.881832,"longitude":-87.62318,"reserved":0,"last_update":"0001-01-01T00:00:00Z","name_a2s":"Uncletopia | Chicago | 6 | All Maps","protocol":17,"map":"pl_barnblitz","folder":"tf","game":"Team Fortress","app_id":440,"player_count":0,"max_players":24,"Bots":0,"server_type":"Dedicated","server_os":"Linux","password":true,"vac":true,"version":"7961495","steam_id":85568392924866363,"keywords":["nocrits","nodmgspread","payload","uncletopia"],"game_id":440,"stv_port":27026,"stv_name":"Uncletopia | Chicago | 6 | All Maps | STV","players":null},{"server_id":38,"name":"Uncletopia | Chicago | 7 | Stopwatch","name_short":"chi-7","host":"chi-2.us.uncletopia.com","port":27035,"enabled":true,"region":"us-central","cc":"us","latitude":41.881832,"longitude":-87.62318,"reserved":0,"last_update":"0001-01-01T00:00:00Z","name_a2s":"Uncletopia | Chicago | 7 | Stopwatch","protocol":17,"map":"cp_metalworks","folder":"tf","game":"Team Fortress","app_id":440,"player_count":1,"max_players":24,"Bots":0,"server_type":"Dedicated","server_os":"Linux","password":true,"vac":true,"version":"7961495","steam_id":85568392924866364,"keywords":["cp","nocrits","nodmgspread","uncletopia"],"game_id":440,"stv_port":27036,"stv_name":"Uncletopia | Chicago | 7 | Stopwatch | STV","players":[{"user_id":23,"name":"Scrappy J. Dogwater","steam_id":76561199419345617,"connected_time":5149000000000,"state":"active","ping":64}]},{"server_id":39,"name":"Uncletopia | Chicago | 8 | Community","name_short":"chi-8","host":"chi-2.us.uncletopia.com","port":27045,"enabled":true,"region":"us-central","cc":"us","latitude":41.881832,"longitude":-87.62318,"reserved":0,"last_update":"0001-01-01T00:00:00Z","name_a2s":"Uncletopia | Chicago | 8 | Community","protocol":17,"map":"workshop/koth_slaughter_rc1.ugc1712845210","folder":"tf","game":"Team Fortress","app_id":440,"player_count":0,"max_players":24,"Bots":0,"server_type":"Dedicated","server_os":"Linux","password":true,"vac":true,"version":"7961495","steam_id":85568392924866365,"keywords":["cp","nocrits","nodmgspread","uncletopia"],"game_id":440,"stv_port":27046,"stv_name":"Uncletopia | Chicago | 8 | Community | STV","players":null},{"server_id":8,"name":"Uncletopia | Dallas | 1 | All Maps","name_short":"dal-1","host":"dal-1.us.uncletopia.com","port":27015,"enabled":true,"region":"us-central","cc":"us","latitude":32.779167,"longitude":-96.80889,"reserved":0,"last_update":"0001-01-01T00:00:00Z","name_a2s":"Uncletopia | Dallas | 1 | All Maps","protocol":17,"map":"ctf_doublecross","folder":"tf","game":"Team Fortress","app_id":440,"player_count":21,"max_players":24,"Bots":0,"server_type":"Dedicated","server_os":"Linux","password":true,"vac":true,"version":"7961495","steam_id":85568392924469986,"keywords":["ctf","nocrits","nodmgspread","uncletopia"],"game_id":440,"stv_port":27016,"stv_name":"Uncletopia | Dallas | 1 | All Maps | STV","players":[{"user_id":517,"name":"bulbasaur890","steam_id":76561198093443639,"connected_time":2183000000000,"state":"active","ping":53},{"user_id":518,"name":"rusofdog","steam_id":76561198411224235,"connected_time":2092000000000,"state":"active","ping":91},{"user_id":458,"name":"HUESO","steam_id":76561198276383681,"connected_time":7322000000000,"state":"active","ping":83},{"user_id":530,"name":"weed lesbian","steam_id":76561198042263805,"connected_time":513000000000,"state":"active","ping":92},{"user_id":528,"name":"Paradon","steam_id":76561198242214772,"connected_time":960000000000,"state":"active","ping":78},{"user_id":529,"name":"floofy","steam_id":76561198389769098,"connected_time":957000000000,"state":"active","ping":75},{"user_id":511,"name":"Moffein","steam_id":76561198016739296,"connected_time":3104000000000,"state":"active","ping":79},{"user_id":515,"name":"uhooter","steam_id":76561198007829078,"connected_time":2640000000000,"state":"active","ping":75},{"user_id":533,"name":"Úntermensch","steam_id":76561198149634242,"connected_time":216000000000,"state":"active","ping":123},{"user_id":532,"name":"AntiCapitalist","steam_id":76561198055447355,"connected_time":236000000000,"state":"active","ping":60},{"user_id":445,"name":"ghor","steam_id":76561197994547132,"connected_time":8181000000000,"state":"active","ping":94},{"user_id":534,"name":"1000 Ping","steam_id":76561198098330939,"connected_time":205000000000,"state":"active","ping":99},{"user_id":535,"name":"Season Leaf","steam_id":76561198133121805,"connected_time":203000000000,"state":"active","ping":85},{"user_id":482,"name":"Username","steam_id":76561198198918781,"connected_time":5128000000000,"state":"active","ping":100},{"user_id":536,"name":"Wang of Wall St","steam_id":76561198047460598,"connected_time":95000000000,"state":"active","ping":101},{"user_id":537,"name":"✡yuri✡joint✡","steam_id":76561198799337306,"connected_time":38000000000,"state":"active","ping":45},{"user_id":370,"name":"BADWOLF42","steam_id":76561198055447523,"connected_time":12732000000000,"state":"active","ping":49},{"user_id":493,"name":"Squiliam","steam_id":76561198025278006,"connected_time":4064000000000,"state":"active","ping":51},{"user_id":522,"name":"Charles","steam_id":76561198155322277,"connected_time":2030000000000,"state":"active","ping":84},{"user_id":538,"name":"małię","steam_id":76561198337705174,"connected_time":12000000000,"state":"active","ping":533},{"user_id":524,"name":"Starkiller","steam_id":76561198101643120,"connected_time":1869000000000,"state":"active","ping":103}]},{"server_id":108,"name":"Uncletopia | Dallas | 2 | All Maps","name_short":"dal-2","host":"dal-1.us.uncletopia.com","port":27025,"enabled":true,"region":"us-central","cc":"us","latitude":32.779167,"longitude":-96.80889,"reserved":0,"last_update":"0001-01-01T00:00:00Z","name_a2s":"Uncletopia | Dallas | 2 | All Maps","protocol":17,"map":"cp_dustbowl","folder":"tf","game":"Team Fortress","app_id":440,"player_count":0,"max_players":24,"Bots":0,"server_type":"Dedicated","server_os":"Linux","password":true,"vac":true,"version":"7961495","steam_id":85568392924469988,"keywords":["cp","nocrits","nodmgspread","uncletopia"],"game_id":440,"stv_port":27026,"stv_name":"Uncletopia | Dallas | 2 | All Maps | STV","players":null},{"server_id":404,"name":"Uncletopia | Dallas | 3 | All Maps","name_short":"dal-3","host":"dal-1.us.uncletopia.com","port":27035,"enabled":true,"region":"us-central","cc":"us","latitude":32.779167,"longitude":-96.80889,"reserved":0,"last_update":"0001-01-01T00:00:00Z","name_a2s":"Uncletopia | Dallas | 3 | All Maps","protocol":17,"map":"pl_goldrush","folder":"tf","game":"Team Fortress","app_id":440,"player_count":2,"max_players":24,"Bots":0,"server_type":"Dedicated","server_os":"Linux","password":true,"vac":true,"version":"7961495","steam_id":85568392924515219,"keywords":["nocrits","nodmgspread","payload","uncletopia"],"game_id":440,"stv_port":27036,"stv_name":"Uncletopia | Dallas | 3 | All Maps | STV","players":[{"user_id":754,"name":"Cairna ♥","steam_id":76561198035418464,"connected_time":138000000000,"state":"active","ping":68},{"user_id":728,"name":"Foxer57","steam_id":76561197998108860,"connected_time":3055000000000,"state":"active","ping":72}]},{"server_id":405,"name":"Uncletopia | Dallas | 4 | Community","name_short":"dal-4","host":"dal-1.us.uncletopia.com","port":27045,"enabled":true,"region":"us-central","cc":"us","latitude":32.779167,"longitude":-96.80889,"reserved":0,"last_update":"0001-01-01T00:00:00Z","name_a2s":"Uncletopia | Dallas | 4 | Community","protocol":17,"map":"workshop/rd_asteroid_redux_b1.ugc2154902912","folder":"tf","game":"Team Fortress","app_id":440,"player_count":0,"max_players":24,"Bots":0,"server_type":"Dedicated","server_os":"Linux","password":true,"vac":true,"version":"7961495","steam_id":85568392924515220,"keywords":["beta","nocrits","nodmgspread","rd","uncletopia"],"game_id":440,"stv_port":27046,"stv_name":"Uncletopia | Dallas | 4 | Community | STV","players":null},{"server_id":5,"name":"Uncletopia | Frankfurt | 1 | All Maps","name_short":"frk-1","host":"frk-1.de.uncletopia.com","port":27015,"enabled":true,"region":"eu","cc":"de","latitude":50.110924,"longitude":8.682127,"reserved":0,"last_update":"0001-01-01T00:00:00Z","name_a2s":"Uncletopia | Frankfurt | 1 | All Maps","protocol":17,"map":"koth_highpass","folder":"tf","game":"Team Fortress","app_id":440,"player_count":0,"max_players":24,"Bots":0,"server_type":"Dedicated","server_os":"Linux","password":true,"vac":true,"version":"7961495","steam_id":85568392924469989,"keywords":["cp","nocrits","nodmgspread","uncletopia"],"game_id":440,"stv_port":27016,"stv_name":"Uncletopia | Frankfurt | 1 | All Maps | STV","players":null},{"server_id":110,"name":"Uncletopia | Frankfurt | 2 | All Maps","name_short":"frk-2","host":"frk-1.de.uncletopia.com","port":27025,"enabled":true,"region":"eu","cc":"de","latitude":50.110924,"longitude":8.682127,"reserved":0,"last_update":"0001-01-01T00:00:00Z","name_a2s":"Uncletopia | Frankfurt | 2 | All Maps","protocol":17,"map":"cp_dustbowl","folder":"tf","game":"Team Fortress","app_id":440,"player_count":0,"max_players":24,"Bots":0,"server_type":"Dedicated","server_os":"Linux","password":true,"vac":true,"version":"7961495","steam_id":85568392924469990,"keywords":["cp","nocrits","nodmgspread","uncletopia"],"game_id":440,"stv_port":27026,"stv_name":"Uncletopia | Frankfurt | 2 | All Maps | STV","players":null},{"server_id":308,"name":"Uncletopia | Frankfurt | 3 | All Maps","name_short":"frk-3","host":"frk-1.de.uncletopia.com","port":27035,"enabled":true,"region":"eu","cc":"de","latitude":50.110924,"longitude":8.682127,"reserved":0,"last_update":"0001-01-01T00:00:00Z","name_a2s":"Uncletopia | Frankfurt | 3 | All Maps","protocol":17,"map":"pl_barnblitz","folder":"tf","game":"Team Fortress","app_id":440,"player_count":0,"max_players":24,"Bots":0,"server_type":"Dedicated","server_os":"Linux","password":true,"vac":true,"version":"7961495","steam_id":85568392924504274,"keywords":["nocrits","nodmgspread","payload","uncletopia"],"game_id":440,"stv_port":27036,"stv_name":"Uncletopia | Frankfurt | 3 | All Maps | STV","players":null},{"server_id":309,"name":"Uncletopia | Frankfurt | 4 | All Maps","name_short":"frk-4","host":"frk-1.de.uncletopia.com","port":27045,"enabled":true,"region":"eu","cc":"de","latitude":50.110924,"longitude":8.682127,"reserved":0,"last_update":"0001-01-01T00:00:00Z","name_a2s":"Uncletopia | Frankfurt | 4 | All Maps","protocol":17,"map":"koth_highpass","folder":"tf","game":"Team Fortress","app_id":440,"player_count":0,"max_players":24,"Bots":0,"server_type":"Dedicated","server_os":"Linux","password":true,"vac":true,"version":"7961495","steam_id":85568392924504275,"keywords":["cp","nocrits","nodmgspread","uncletopia"],"game_id":440,"stv_port":27046,"stv_name":"Uncletopia | Frankfurt | 4 | All Maps | STV","players":null},{"server_id":310,"name":"Uncletopia | Frankfurt | 5 | All Maps","name_short":"frk-5","host":"frk-1.de.uncletopia.com","port":27055,"enabled":true,"region":"eu","cc":"de","latitude":50.110924,"longitude":8.682127,"reserved":0,"last_update":"0001-01-01T00:00:00Z","name_a2s":"Uncletopia | Frankfurt | 5 | All Maps","protocol":17,"map":"pl_badwater","folder":"tf","game":"Team Fortress","app_id":440,"player_count":0,"max_players":24,"Bots":0,"server_type":"Dedicated","server_os":"Linux","password":true,"vac":true,"version":"7961495","steam_id":85568392924504277,"keywords":["nocrits","nodmgspread","payload","uncletopia"],"game_id":440,"stv_port":27056,"stv_name":"Uncletopia | Frankfurt | 5 | All Maps | STV","players":null},{"server_id":311,"name":"Uncletopia | Frankfurt | 6 | All Maps","name_short":"frk-6","host":"frk-1.de.uncletopia.com","port":27065,"enabled":true,"region":"eu","cc":"de","latitude":50.110924,"longitude":8.682127,"reserved":0,"last_update":"0001-01-01T00:00:00Z","name_a2s":"Uncletopia | Frankfurt | 6 | All Maps","protocol":17,"map":"cp_altitude","folder":"tf","game":"Team Fortress","app_id":440,"player_count":0,"max_players":24,"Bots":0,"server_type":"Dedicated","server_os":"Linux","password":true,"vac":true,"version":"7961495","steam_id":85568392924504278,"keywords":["cp","nocrits","nodmgspread","uncletopia"],"game_id":440,"stv_port":27066,"stv_name":"Uncletopia | Frankfurt | 6 | All Maps | STV","players":null},{"server_id":23,"name":"Uncletopia | Frankfurt | 7 | Stopwatch","name_short":"frk-7","host":"frk-1.de.uncletopia.com","port":27075,"enabled":true,"region":"eu","cc":"de","latitude":50.110924,"longitude":8.682127,"reserved":0,"last_update":"0001-01-01T00:00:00Z","name_a2s":"Uncletopia | Frankfurt | 7 | Stopwatch","protocol":17,"map":"pl_frontier_final","folder":"tf","game":"Team Fortress","app_id":440,"player_count":0,"max_players":24,"Bots":0,"server_type":"Dedicated","server_os":"Linux","password":true,"vac":true,"version":"7961495","steam_id":85568392924742827,"keywords":["nocrits","nodmgspread","payload","uncletopia"],"game_id":440,"stv_port":27076,"stv_name":"Uncletopia | Frankfurt | 7 | Stopwatch | STV","players":null},{"server_id":24,"name":"Uncletopia | Frankfurt | 8 | Community","name_short":"frk-8","host":"frk-1.de.uncletopia.com","port":27085,"enabled":true,"region":"eu","cc":"de","latitude":50.110924,"longitude":8.682127,"reserved":0,"last_update":"0001-01-01T00:00:00Z","name_a2s":"Uncletopia | Frankfurt | 8 | Community","protocol":17,"map":"cp_mountainlab","folder":"tf","game":"Team Fortress","app_id":440,"player_count":0,"max_players":24,"Bots":0,"server_type":"Dedicated","server_os":"Linux","password":true,"vac":true,"version":"7961495","steam_id":85568392924742828,"keywords":["cp","nocrits","nodmgspread","uncletopia"],"game_id":440,"stv_port":27086,"stv_name":"Uncletopia | Frankfurt | 8 | Community | STV","players":null},{"server_id":202,"name":"Uncletopia | Hong Kong | 1 | All Maps","name_short":"hgk-1","host":"hgk-1.hk.uncletopia.com","port":27015,"enabled":true,"region":"asia","cc":"hk","latitude":22.302711,"longitude":114.177216,"reserved":0,"last_update":"0001-01-01T00:00:00Z","name_a2s":"Uncletopia | Hong Kong | 1 | All Maps","protocol":17,"map":"cp_mossrock","folder":"tf","game":"Team Fortress","app_id":440,"player_count":11,"max_players":24,"Bots":0,"server_type":"Dedicated","server_os":"Linux","password":true,"vac":true,"version":"7961495","steam_id":85568392924494504,"keywords":["cp","nocrits","nodmgspread","uncletopia"],"game_id":440,"stv_port":27016,"stv_name":"Uncletopia | Hong Kong | 1 | All Maps | STV","players":[{"user_id":169,"name":"sugar rush","steam_id":76561199221278400,"connected_time":84000000000,"state":"active","ping":51},{"user_id":171,"name":"I'm GAMING","steam_id":76561199229248492,"connected_time":40000000000,"state":"active","ping":73},{"user_id":163,"name":"Telekhine","steam_id":76561198387120618,"connected_time":306000000000,"state":"active","ping":55},{"user_id":152,"name":"im_0ff","steam_id":76561198339346695,"connected_time":2265000000000,"state":"active","ping":114},{"user_id":129,"name":"ArcticDolphin","steam_id":76561198203626319,"connected_time":4195000000000,"state":"active","ping":125},{"user_id":146,"name":"BazooKa","steam_id":76561198061628689,"connected_time":2708000000000,"state":"active","ping":53},{"user_id":105,"name":"Goldy","steam_id":76561199008543001,"connected_time":6017000000000,"state":"active","ping":57},{"user_id":159,"name":"SunShine","steam_id":76561198323642446,"connected_time":554000000000,"state":"active","ping":98},{"user_id":133,"name":"MANCO FETT","steam_id":76561198107128889,"connected_time":3846000000000,"state":"active","ping":92},{"user_id":138,"name":"villy","steam_id":76561198169263597,"connected_time":3583000000000,"state":"active","ping":33},{"user_id":121,"name":"vintage","steam_id":76561198230213828,"connected_time":5166000000000,"state":"active","ping":60}]},{"server_id":1,"name":"Uncletopia | Los Angeles | 1 | All Maps","name_short":"lax-1","host":"lax-1.us.uncletopia.com","port":27015,"enabled":true,"region":"us-west","cc":"us","latitude":33.94279,"longitude":-118.41004,"reserved":0,"last_update":"0001-01-01T00:00:00Z","name_a2s":"Uncletopia | Los Angeles | 1 | All Maps","protocol":17,"map":"cp_steel","folder":"tf","game":"Team Fortress","app_id":440,"player_count":23,"max_players":24,"Bots":0,"server_type":"Dedicated","server_os":"Linux","password":true,"vac":true,"version":"7961495","steam_id":85568392924469991,"keywords":["cp","nocrits","nodmgspread","uncletopia"],"game_id":440,"stv_port":27016,"stv_name":"Uncletopia | Los Angeles | 1 | All Maps | STV","players":[{"user_id":427,"name":"Ghostpepper62","steam_id":76561198303116920,"connected_time":1112000000000,"state":"active","ping":100},{"user_id":351,"name":"RadioRave","steam_id":76561198240837534,"connected_time":7884000000000,"state":"active","ping":51},{"user_id":430,"name":"Prof. Anesthesia","steam_id":76561198993250002,"connected_time":959000000000,"state":"active","ping":70},{"user_id":433,"name":"glizzy gladiator","steam_id":76561199028538939,"connected_time":727000000000,"state":"active","ping":59},{"user_id":340,"name":"Lambchop","steam_id":76561198043900363,"connected_time":8324000000000,"state":"active","ping":68},{"user_id":429,"name":"cringy","steam_id":76561198323000455,"connected_time":975000000000,"state":"active","ping":59},{"user_id":450,"name":"HeroOfTime","steam_id":76561199096218001,"connected_time":347000000000,"state":"active","ping":51},{"user_id":406,"name":"roach","steam_id":76561198354811369,"connected_time":3553000000000,"state":"active","ping":48},{"user_id":431,"name":"Andrew Tate's Third Nipple","steam_id":76561198066142119,"connected_time":920000000000,"state":"active","ping":67},{"user_id":428,"name":"♥♡∞iMaCH∞♡♥","steam_id":76561198820527565,"connected_time":1077000000000,"state":"active","ping":65},{"user_id":454,"name":"Gardenof_onion","steam_id":76561198182087497,"connected_time":297000000000,"state":"active","ping":83},{"user_id":359,"name":"M_Zuy","steam_id":76561199005898955,"connected_time":7356000000000,"state":"active","ping":54},{"user_id":437,"name":"zpalmtree","steam_id":76561198134307620,"connected_time":620000000000,"state":"active","ping":119},{"user_id":444,"name":"Meko","steam_id":76561197998717287,"connected_time":471000000000,"state":"active","ping":45},{"user_id":445,"name":"[OP] 1upist","steam_id":76561198031006501,"connected_time":427000000000,"state":"active","ping":105},{"user_id":442,"name":"Jacl⇜","steam_id":76561198124990154,"connected_time":556000000000,"state":"active","ping":96},{"user_id":451,"name":"Claybae","steam_id":76561198064290179,"connected_time":347000000000,"state":"active","ping":92},{"user_id":446,"name":"binka bonk","steam_id":76561198174751517,"connected_time":415000000000,"state":"active","ping":85},{"user_id":447,"name":"FunnyGoomba","steam_id":76561198279865229,"connected_time":406000000000,"state":"active","ping":84},{"user_id":448,"name":"Alf Creepypasta","steam_id":76561198841844093,"connected_time":395000000000,"state":"active","ping":45},{"user_id":452,"name":"VanWic","steam_id":76561198094537538,"connected_time":306000000000,"state":"active","ping":83},{"user_id":403,"name":"HAT-WEARING™ Maggot Gamer Cat","steam_id":76561197973992705,"connected_time":3729000000000,"state":"active","ping":71},{"user_id":453,"name":"Tots","steam_id":76561198027485007,"connected_time":301000000000,"state":"active","ping":89}]},{"server_id":112,"name":"Uncletopia | Los Angeles | 2 | All Maps","name_short":"lax-2","host":"lax-1.us.uncletopia.com","port":27025,"enabled":true,"region":"us-west","cc":"us","latitude":33.94279,"longitude":-118.41004,"reserved":0,"last_update":"0001-01-01T00:00:00Z","name_a2s":"Uncletopia | Los Angeles | 2 | All Maps","protocol":17,"map":"koth_lakeside_final","folder":"tf","game":"Team Fortress","app_id":440,"player_count":0,"max_players":24,"Bots":0,"server_type":"Dedicated","server_os":"Linux","password":true,"vac":true,"version":"7961495","steam_id":85568392924469992,"keywords":["cp","nocrits","nodmgspread","uncletopia"],"game_id":440,"stv_port":27026,"stv_name":"Uncletopia | Los Angeles | 2 | All Maps | STV","players":null},{"server_id":324,"name":"Uncletopia | Los Angeles | 3 | All Maps","name_short":"lax-3","host":"lax-1.us.uncletopia.com","port":27035,"enabled":true,"region":"us-west","cc":"us","latitude":33.94279,"longitude":-118.41004,"reserved":0,"last_update":"0001-01-01T00:00:00Z","name_a2s":"Uncletopia | Los Angeles | 3 | All Maps","protocol":17,"map":"pl_upward","folder":"tf","game":"Team Fortress","app_id":440,"player_count":24,"max_players":24,"Bots":0,"server_type":"Dedicated","server_os":"Linux","password":true,"vac":true,"version":"7961495","steam_id":85568392924510198,"keywords":["nocrits","nodmgspread","payload","uncletopia"],"game_id":440,"stv_port":27036,"stv_name":"Uncletopia | Los Angeles | 3 | All Maps | STV","players":[{"user_id":235,"name":"Aviastur","steam_id":76561198066776250,"connected_time":915000000000,"state":"active","ping":101},{"user_id":230,"name":"Alltrex","steam_id":76561198202254225,"connected_time":1158000000000,"state":"active","ping":64},{"user_id":192,"name":"ReDiculous22","steam_id":76561198038391383,"connected_time":3305000000000,"state":"active","ping":68},{"user_id":226,"name":"Closeted femboy enjoyer","steam_id":76561198217747041,"connected_time":1424000000000,"state":"active","ping":72},{"user_id":236,"name":"Grim","steam_id":76561198158911860,"connected_time":893000000000,"state":"active","ping":92},{"user_id":116,"name":"vvitch","steam_id":76561198279661941,"connected_time":10219000000000,"state":"active","ping":46},{"user_id":237,"name":"An00bis","steam_id":76561198044084508,"connected_time":881000000000,"state":"active","ping":54},{"user_id":220,"name":"Artic_Ryuu","steam_id":76561198182194918,"connected_time":1674000000000,"state":"active","ping":43},{"user_id":229,"name":"Rockinbacon","steam_id":76561198047159811,"connected_time":1257000000000,"state":"active","ping":76},{"user_id":238,"name":"Jam Jams","steam_id":76561198128811267,"connected_time":881000000000,"state":"active","ping":98},{"user_id":227,"name":"smetc","steam_id":76561198240696986,"connected_time":1411000000000,"state":"active","ping":111},{"user_id":208,"name":"Madeline (She/Her)","steam_id":76561198336551859,"connected_time":2319000000000,"state":"active","ping":46},{"user_id":215,"name":"Hernandez$","steam_id":76561198019324588,"connected_time":1886000000000,"state":"active","ping":55},{"user_id":224,"name":"Gerbias","steam_id":76561198001002427,"connected_time":1486000000000,"state":"active","ping":66},{"user_id":243,"name":"Nova Academy of Salmon Action","steam_id":76561198021842526,"connected_time":553000000000,"state":"active","ping":70},{"user_id":239,"name":"Whisper!","steam_id":76561198119609795,"connected_time":866000000000,"state":"active","ping":56},{"user_id":225,"name":"rmbl (fork eater)","steam_id":76561198150137369,"connected_time":1469000000000,"state":"active","ping":59},{"user_id":242,"name":"NormanVillage","steam_id":76561198330337371,"connected_time":695000000000,"state":"active","ping":74},{"user_id":240,"name":"rice white","steam_id":76561198320732910,"connected_time":861000000000,"state":"active","ping":118},{"user_id":212,"name":"Anon","steam_id":76561198109740776,"connected_time":1987000000000,"state":"active","ping":66},{"user_id":244,"name":"ุ","steam_id":76561198404271005,"connected_time":443000000000,"state":"active","ping":56},{"user_id":222,"name":"Randle of John","steam_id":76561198328210524,"connected_time":1619000000000,"state":"active","ping":47},{"user_id":232,"name":"SpecialForce19","steam_id":76561198120974644,"connected_time":1026000000000,"state":"active","ping":121},{"user_id":233,"name":"Hindmost","steam_id":76561199081837220,"connected_time":982000000000,"state":"active","ping":89}]},{"server_id":25,"name":"Uncletopia | Los Angeles | 4 | Stopwatch","name_short":"lax-4","host":"lax-1.us.uncletopia.com","port":27045,"enabled":true,"region":"us-west","cc":"us","latitude":33.94279,"longitude":-118.41004,"reserved":0,"last_update":"0001-01-01T00:00:00Z","name_a2s":"Uncletopia | Los Angeles | 4 | Stopwatch","protocol":17,"map":"workshop/pl_barnblitz_pro7.ugc582280235","folder":"tf","game":"Team Fortress","app_id":440,"player_count":0,"max_players":24,"Bots":0,"server_type":"Dedicated","server_os":"Linux","password":true,"vac":true,"version":"7961495","steam_id":85568392924510199,"keywords":["nocrits","nodmgspread","payload","uncletopia"],"game_id":440,"stv_port":27046,"stv_name":"Uncletopia | Los Angeles | 4 | Stopwatch | STV","players":null},{"server_id":11,"name":"Uncletopia | London | 1 | All Maps","name_short":"lon-1","host":"lon-1.uk.uncletopia.com","port":27015,"enabled":true,"region":"eu","cc":"gb","latitude":51.509865,"longitude":-0.118092,"reserved":0,"last_update":"0001-01-01T00:00:00Z","name_a2s":"Uncletopia | London | 1 | All Maps","protocol":17,"map":"koth_highpass","folder":"tf","game":"Team Fortress","app_id":440,"player_count":0,"max_players":24,"Bots":0,"server_type":"Dedicated","server_os":"Linux","password":true,"vac":true,"version":"7961495","steam_id":85568392924367362,"keywords":["cp","nocrits","nodmgspread","uncletopia"],"game_id":440,"stv_port":27016,"stv_name":"Uncletopia | London | 1 | All Maps | STV","players":null},{"server_id":114,"name":"Uncletopia | London | 2 | All Maps","name_short":"lon-2","host":"lon-1.uk.uncletopia.com","port":27025,"enabled":true,"region":"eu","cc":"gb","latitude":51.509865,"longitude":-0.118092,"reserved":0,"last_update":"0001-01-01T00:00:00Z","name_a2s":"Uncletopia | London | 2 | All Maps","protocol":17,"map":"koth_lakeside_final","folder":"tf","game":"Team Fortress","app_id":440,"player_count":0,"max_players":24,"Bots":0,"server_type":"Dedicated","server_os":"Linux","password":true,"vac":true,"version":"7961495","steam_id":85568392924470941,"keywords":["cp","nocrits","nodmgspread","uncletopia"],"game_id":440,"stv_port":27026,"stv_name":"Uncletopia | London | 2 | All Maps | STV","players":null},{"server_id":320,"name":"Uncletopia | London | 3 | All Maps","name_short":"lon-3","host":"lon-1.uk.uncletopia.com","port":27035,"enabled":true,"region":"eu","cc":"gb","latitude":51.509865,"longitude":-0.118092,"reserved":0,"last_update":"0001-01-01T00:00:00Z","name_a2s":"Uncletopia | London | 3 | All Maps","protocol":17,"map":"cp_process_final","folder":"tf","game":"Team Fortress","app_id":440,"player_count":0,"max_players":24,"Bots":0,"server_type":"Dedicated","server_os":"Linux","password":true,"vac":true,"version":"7961495","steam_id":85568392924510192,"keywords":["cp","nocrits","nodmgspread","uncletopia"],"game_id":440,"stv_port":27036,"stv_name":"Uncletopia | London | 3 | All Maps | STV","players":null},{"server_id":321,"name":"Uncletopia | London | 4 | All Maps","name_short":"lon-4","host":"lon-1.uk.uncletopia.com","port":27045,"enabled":true,"region":"eu","cc":"gb","latitude":51.509865,"longitude":-0.118092,"reserved":0,"last_update":"0001-01-01T00:00:00Z","name_a2s":"Uncletopia | London | 4 | All Maps","protocol":17,"map":"koth_cascade","folder":"tf","game":"Team Fortress","app_id":440,"player_count":0,"max_players":24,"Bots":0,"server_type":"Dedicated","server_os":"Linux","password":true,"vac":true,"version":"7961495","steam_id":85568392924510193,"keywords":["cp","nocrits","nodmgspread","uncletopia"],"game_id":440,"stv_port":27046,"stv_name":"Uncletopia | London | 4 | All Maps | STV","players":null},{"server_id":21,"name":"Uncletopia | London | 5 | All Maps","name_short":"lon-5","host":"lon-1.uk.uncletopia.com","port":27055,"enabled":true,"region":"eu","cc":"gb","latitude":51.509865,"longitude":-0.118092,"reserved":0,"last_update":"0001-01-01T00:00:00Z","name_a2s":"Uncletopia | London | 5 | All Maps","protocol":17,"map":"koth_lakeside_final","folder":"tf","game":"Team Fortress","app_id":440,"player_count":0,"max_players":24,"Bots":0,"server_type":"Dedicated","server_os":"Linux","password":true,"vac":true,"version":"7961495","steam_id":85568392924742829,"keywords":["cp","nocrits","nodmgspread","uncletopia"],"game_id":440,"stv_port":27056,"stv_name":"Uncletopia | London | 5 | All Maps | STV","players":null},{"server_id":22,"name":"Uncletopia | London | 6 | All Maps","name_short":"lon-6","host":"lon-1.uk.uncletopia.com","port":27065,"enabled":true,"region":"eu","cc":"gb","latitude":51.509865,"longitude":-0.118092,"reserved":0,"last_update":"0001-01-01T00:00:00Z","name_a2s":"Uncletopia | London | 6 | All Maps","protocol":17,"map":"cp_dustbowl","folder":"tf","game":"Team Fortress","app_id":440,"player_count":0,"max_players":24,"Bots":0,"server_type":"Dedicated","server_os":"Linux","password":true,"vac":true,"version":"7961495","steam_id":85568392924742830,"keywords":["cp","nocrits","nodmgspread","uncletopia"],"game_id":440,"stv_port":27066,"stv_name":"Uncletopia | London | 6 | All Maps | STV","players":null},{"server_id":40,"name":"Uncletopia | London | 7 | Stopwatch","name_short":"lon-7","host":"lon-1.uk.uncletopia.com","port":27075,"enabled":true,"region":"eu","cc":"gb","latitude":51.509865,"longitude":-0.118092,"reserved":0,"last_update":"0001-01-01T00:00:00Z","name_a2s":"Uncletopia | London | 7 | Stopwatch","protocol":17,"map":"koth_lakeside_final","folder":"tf","game":"Team Fortress","app_id":440,"player_count":0,"max_players":24,"Bots":0,"server_type":"Dedicated","server_os":"Linux","password":true,"vac":true,"version":"7961495","steam_id":85568392924964314,"keywords":["cp","nocrits","nodmgspread","uncletopia"],"game_id":440,"stv_port":27076,"stv_name":"Uncletopia | London | 7 | Stopwatch | STV","players":null},{"server_id":41,"name":"Uncletopia | London | 8 | Community","name_short":"lon-8","host":"lon-1.uk.uncletopia.com","port":27085,"enabled":true,"region":"eu","cc":"gb","latitude":51.509865,"longitude":-0.118092,"reserved":0,"last_update":"0001-01-01T00:00:00Z","name_a2s":"Uncletopia | London | 8 | Community","protocol":17,"map":"cp_snakewater_final1","folder":"tf","game":"Team Fortress","app_id":440,"player_count":0,"max_players":24,"Bots":0,"server_type":"Dedicated","server_os":"Linux","password":true,"vac":true,"version":"7961495","steam_id":85568392924964315,"keywords":["cp","nocrits","nodmgspread","uncletopia"],"game_id":440,"stv_port":27086,"stv_name":"Uncletopia | London | 8 | Community | STV","players":null},{"server_id":300,"name":"Uncletopia | Montréal | 1 | One Thousand Uncles","name_short":"mtl-1","host":"mtl-1.ca.uncletopia.com","port":27015,"enabled":true,"region":"us-east","cc":"ca","latitude":45.50889,"longitude":-73.56167,"reserved":0,"last_update":"0001-01-01T00:00:00Z","name_a2s":"","protocol":0,"map":"","folder":"","game":"","app_id":0,"player_count":0,"max_players":0,"Bots":0,"server_type":"","server_os":"","password":false,"vac":false,"version":"","steam_id":0,"keywords":null,"game_id":0,"stv_port":0,"stv_name":"","players":null},{"server_id":301,"name":"Uncletopia | Montréal | 2 | One Thousand Uncles","name_short":"mtl-2","host":"mtl-1.ca.uncletopia.com","port":27025,"enabled":true,"region":"us-east","cc":"ca","latitude":45.50889,"longitude":-73.56167,"reserved":0,"last_update":"0001-01-01T00:00:00Z","name_a2s":"","protocol":0,"map":"","folder":"","game":"","app_id":0,"player_count":11,"max_players":0,"Bots":0,"server_type":"","server_os":"","password":false,"vac":false,"version":"","steam_id":0,"keywords":null,"game_id":0,"stv_port":0,"stv_name":"","players":[{"user_id":223,"name":"euphoricfilth","steam_id":76561198100160865,"connected_time":635000000000,"state":"active","ping":56},{"user_id":197,"name":"Word To Your Mothership","steam_id":76561198034329138,"connected_time":1562000000000,"state":"active","ping":104},{"user_id":198,"name":"ExplosiveGamer21","steam_id":76561198132370955,"connected_time":1462000000000,"state":"active","ping":128},{"user_id":199,"name":"Krabby","steam_id":76561198038002264,"connected_time":1442000000000,"state":"active","ping":73},{"user_id":171,"name":"Anthid","steam_id":76561198074493797,"connected_time":4609000000000,"state":"active","ping":86},{"user_id":175,"name":"cheetaz","steam_id":76561198224614084,"connected_time":3776000000000,"state":"active","ping":74},{"user_id":200,"name":"Lore","steam_id":76561198098407538,"connected_time":1342000000000,"state":"active","ping":66},{"user_id":224,"name":"blunder","steam_id":76561198838223023,"connected_time":391000000000,"state":"active","ping":47},{"user_id":202,"name":"NotAfraidOfSpiders","steam_id":76561199043160196,"connected_time":1049000000000,"state":"active","ping":105},{"user_id":203,"name":"9221669701","steam_id":76561199221669701,"connected_time":1002000000000,"state":"active","ping":95},{"user_id":225,"name":"SharkGuillotine","steam_id":76561198109028172,"connected_time":386000000000,"state":"active","ping":58}]},{"server_id":302,"name":"Uncletopia | Montréal | 3 | One Thousand Uncles","name_short":"mtl-3","host":"mtl-1.ca.uncletopia.com","port":27035,"enabled":true,"region":"us-east","cc":"ca","latitude":45.50889,"longitude":-73.56167,"reserved":0,"last_update":"0001-01-01T00:00:00Z","name_a2s":"","protocol":0,"map":"","folder":"","game":"","app_id":0,"player_count":0,"max_players":0,"Bots":0,"server_type":"","server_os":"","password":false,"vac":false,"version":"","steam_id":0,"keywords":null,"game_id":0,"stv_port":0,"stv_name":"","players":null},{"server_id":13,"name":"Uncletopia | New York City | 1 | All Maps","name_short":"nyc-1","host":"nyc-1.us.uncletopia.com","port":27015,"enabled":true,"region":"us-east","cc":"us","latitude":40.73061,"longitude":-73.93524,"reserved":0,"last_update":"0001-01-01T00:00:00Z","name_a2s":"Uncletopia | New York City | 1 | All Maps","protocol":17,"map":"cp_snakewater_final1","folder":"tf","game":"Team Fortress","app_id":440,"player_count":24,"max_players":24,"Bots":0,"server_type":"Dedicated","server_os":"Linux","password":true,"vac":true,"version":"7961495","steam_id":85568392924469993,"keywords":["cp","nocrits","nodmgspread","uncletopia"],"game_id":440,"stv_port":27016,"stv_name":"Uncletopia | New York City | 1 | All Maps | STV","players":[{"user_id":636,"name":"Bimbonito","steam_id":76561198069676563,"connected_time":1208000000000,"state":"active","ping":64},{"user_id":557,"name":"Dot.","steam_id":76561198149463984,"connected_time":6319000000000,"state":"active","ping":49},{"user_id":612,"name":"Delta","steam_id":76561198158985472,"connected_time":3099000000000,"state":"active","ping":117},{"user_id":629,"name":"CTRLZ0Y","steam_id":76561198183346187,"connected_time":1467000000000,"state":"active","ping":56},{"user_id":560,"name":"MISSINGNO9 (She/Her)","steam_id":76561198322494579,"connected_time":6286000000000,"state":"active","ping":70},{"user_id":616,"name":"ℇ:","steam_id":76561198111403028,"connected_time":2769000000000,"state":"active","ping":60},{"user_id":586,"name":"Two-Teste Tommy","steam_id":76561198064308936,"connected_time":5295000000000,"state":"active","ping":60},{"user_id":642,"name":"daddyonpc","steam_id":76561198972388081,"connected_time":789000000000,"state":"active","ping":134},{"user_id":603,"name":"Bee_Pirate","steam_id":76561199000599111,"connected_time":3291000000000,"state":"active","ping":65},{"user_id":600,"name":"ᗜˬᗜ","steam_id":76561198049076233,"connected_time":3583000000000,"state":"active","ping":54},{"user_id":563,"name":"Bombsgamer","steam_id":76561198350009050,"connected_time":6234000000000,"state":"active","ping":87},{"user_id":622,"name":"Rock Kickass","steam_id":76561198450510841,"connected_time":2237000000000,"state":"active","ping":134},{"user_id":646,"name":"sophie","steam_id":76561198272979713,"connected_time":53000000000,"state":"active","ping":54},{"user_id":648,"name":"rach9411","steam_id":76561198256535721,"connected_time":13000000000,"state":"active","ping":187},{"user_id":647,"name":"JJHarvey","steam_id":76561199213659136,"connected_time":29000000000,"state":"spawning","ping":136},{"user_id":637,"name":"pigswill","steam_id":76561197999081865,"connected_time":1170000000000,"state":"active","ping":69},{"user_id":645,"name":"Pablo Johnson","steam_id":76561199009805208,"connected_time":270000000000,"state":"active","ping":186},{"user_id":643,"name":"Gram Tokers Count Doinkula","steam_id":76561198112811565,"connected_time":523000000000,"state":"active","ping":59},{"user_id":410,"name":"A Puppy","steam_id":76561198828184456,"connected_time":21149000000000,"state":"active","ping":56},{"user_id":584,"name":"Tea Enthusiast","steam_id":76561198185583925,"connected_time":5575000000000,"state":"active","ping":41},{"user_id":638,"name":"fucked-up electronic punk.","steam_id":76561198294013916,"connected_time":1117000000000,"state":"active","ping":45},{"user_id":639,"name":"E.V.I.L","steam_id":76561198069909083,"connected_time":1114000000000,"state":"active","ping":61},{"user_id":644,"name":"avotoast","steam_id":76561198339644583,"connected_time":445000000000,"state":"active","ping":80},{"user_id":550,"name":"Bert.","steam_id":76561198140666346,"connected_time":7523000000000,"state":"active","ping":59}]},{"server_id":14,"name":"Uncletopia | New York City | 2 | All Maps","name_short":"nyc-2","host":"nyc-1.us.uncletopia.com","port":27025,"enabled":true,"region":"us-east","cc":"us","latitude":40.73061,"longitude":-73.93524,"reserved":0,"last_update":"0001-01-01T00:00:00Z","name_a2s":"Uncletopia | New York City | 2 | All Maps","protocol":17,"map":"pl_badwater","folder":"tf","game":"Team Fortress","app_id":440,"player_count":6,"max_players":24,"Bots":0,"server_type":"Dedicated","server_os":"Linux","password":true,"vac":true,"version":"7961495","steam_id":85568392924469994,"keywords":["nocrits","nodmgspread","payload","uncletopia"],"game_id":440,"stv_port":27026,"stv_name":"Uncletopia | New York City | 2 | All Maps | STV","players":[{"user_id":832,"name":"jebs strognest soljer","steam_id":76561198056622157,"connected_time":1864000000000,"state":"active","ping":47},{"user_id":836,"name":"Coca162","steam_id":76561198230656540,"connected_time":1579000000000,"state":"active","ping":104},{"user_id":837,"name":"jmgstartan618 [GL]","steam_id":76561198136194367,"connected_time":1244000000000,"state":"active","ping":50},{"user_id":845,"name":"Beezos","steam_id":76561198370692549,"connected_time":407000000000,"state":"active","ping":53},{"user_id":842,"name":"chesterwnimitz","steam_id":76561198062664377,"connected_time":947000000000,"state":"active","ping":103},{"user_id":846,"name":"Fireboy1-UP","steam_id":76561199073267048,"connected_time":361000000000,"state":"active","ping":117}]},{"server_id":15,"name":"Uncletopia | New York City | 3 | Stopwatch","name_short":"nyc-3","host":"nyc-1.us.uncletopia.com","port":27035,"enabled":true,"region":"us-east","cc":"us","latitude":40.73061,"longitude":-73.93524,"reserved":0,"last_update":"0001-01-01T00:00:00Z","name_a2s":"Uncletopia | New York City | 3 | Stopwatch","protocol":17,"map":"koth_lakeside_final","folder":"tf","game":"Team Fortress","app_id":440,"player_count":0,"max_players":24,"Bots":0,"server_type":"Dedicated","server_os":"Linux","password":true,"vac":true,"version":"7961495","steam_id":85568392924742820,"keywords":["cp","nocrits","nodmgspread","uncletopia"],"game_id":440,"stv_port":27036,"stv_name":"Uncletopia | New York City | 3 | Stopwatch | STV","players":null},{"server_id":16,"name":"Uncletopia | New York City | 4 | Community","name_short":"nyc-4","host":"nyc-1.us.uncletopia.com","port":27045,"enabled":true,"region":"us-east","cc":"us","latitude":40.73061,"longitude":-73.93524,"reserved":0,"last_update":"0001-01-01T00:00:00Z","name_a2s":"Uncletopia | New York City | 4 | Community","protocol":17,"map":"workshop/cp_sulfur_rc2.ugc619869471","folder":"tf","game":"Team Fortress","app_id":440,"player_count":0,"max_players":24,"Bots":0,"server_type":"Dedicated","server_os":"Linux","password":true,"vac":true,"version":"7961495","steam_id":85568392924742821,"keywords":["cp","nocrits","nodmgspread","uncletopia"],"game_id":440,"stv_port":27046,"stv_name":"Uncletopia | New York City | 4 | Community | STV","players":null},{"server_id":142,"name":"Uncletopia | São Paulo | 1 | All Maps","name_short":"sao-1","host":"sao-1.br.uncletopia.com","port":27015,"enabled":true,"region":"sa","cc":"br","latitude":-23.533773,"longitude":-46.62529,"reserved":0,"last_update":"0001-01-01T00:00:00Z","name_a2s":"Uncletopia | São Paulo | 1 | All Maps","protocol":17,"map":"koth_harvest_final","folder":"tf","game":"Team Fortress","app_id":440,"player_count":0,"max_players":24,"Bots":0,"server_type":"Dedicated","server_os":"Linux","password":true,"vac":true,"version":"7961495","steam_id":85568392924469996,"keywords":["cp","nocrits","nodmgspread","uncletopia"],"game_id":440,"stv_port":27016,"stv_name":"Uncletopia | São Paulo | 1 | All Maps | STV","players":null},{"server_id":143,"name":"Uncletopia | São Paulo | 2 | Community","name_short":"sao-2","host":"sao-2.br.uncletopia.com","port":27015,"enabled":true,"region":"sa","cc":"br","latitude":-23.533773,"longitude":-46.62529,"reserved":0,"last_update":"0001-01-01T00:00:00Z","name_a2s":"Uncletopia | São Paulo | 2 | Community","protocol":17,"map":"workshop/pl_highwood_b13.ugc1769496557","folder":"tf","game":"Team Fortress","app_id":440,"player_count":0,"max_players":24,"Bots":0,"server_type":"Dedicated","server_os":"Linux","password":true,"vac":true,"version":"7961495","steam_id":85568392924485349,"keywords":["nocrits","nodmgspread","payload","uncletopia"],"game_id":440,"stv_port":27016,"stv_name":"Uncletopia | São Paulo | 2 | Community | STV","players":null},{"server_id":7,"name":"Uncletopia | Seattle | 1 | All Maps","name_short":"sea-1","host":"sea-1.us.uncletopia.com","port":27015,"enabled":true,"region":"us-west","cc":"us","latitude":47.608013,"longitude":-122.33517,"reserved":0,"last_update":"0001-01-01T00:00:00Z","name_a2s":"Uncletopia | Seattle | 1 | All Maps","protocol":17,"map":"pl_barnblitz","folder":"tf","game":"Team Fortress","app_id":440,"player_count":24,"max_players":24,"Bots":0,"server_type":"Dedicated","server_os":"Linux","password":true,"vac":true,"version":"7961495","steam_id":85568392924469997,"keywords":["nocrits","nodmgspread","payload","uncletopia"],"game_id":440,"stv_port":27016,"stv_name":"Uncletopia | Seattle | 1 | All Maps | STV","players":[{"user_id":450,"name":"Spicy Chicken","steam_id":76561198074209737,"connected_time":1308000000000,"state":"active","ping":92},{"user_id":403,"name":"Mr8bittripper","steam_id":76561198133894229,"connected_time":5665000000000,"state":"active","ping":52},{"user_id":454,"name":"noellehound (she/her)","steam_id":76561198108844158,"connected_time":966000000000,"state":"active","ping":89},{"user_id":445,"name":"Tom Skirrett","steam_id":76561198014600788,"connected_time":1757000000000,"state":"active","ping":62},{"user_id":427,"name":"Shazzy","steam_id":76561198145460523,"connected_time":3051000000000,"state":"active","ping":46},{"user_id":460,"name":"S Q U I S H E  T H A T  C A T","steam_id":76561198293865429,"connected_time":304000000000,"state":"active","ping":44},{"user_id":422,"name":"Sniff","steam_id":76561198010270922,"connected_time":3879000000000,"state":"active","ping":43},{"user_id":452,"name":"DroidFreak36","steam_id":76561198028681032,"connected_time":1221000000000,"state":"active","ping":91},{"user_id":453,"name":"Templar Senpai","steam_id":76561198105659850,"connected_time":1093000000000,"state":"active","ping":45},{"user_id":457,"name":"Arsonist Goose","steam_id":76561198147441830,"connected_time":620000000000,"state":"active","ping":71},{"user_id":430,"name":"Lord Hater","steam_id":76561199158148782,"connected_time":2990000000000,"state":"active","ping":86},{"user_id":451,"name":"mub","steam_id":76561197961943948,"connected_time":1277000000000,"state":"active","ping":49},{"user_id":459,"name":"Sweets(?)","steam_id":76561198998446307,"connected_time":495000000000,"state":"active","ping":67},{"user_id":401,"name":"The King of Piss World","steam_id":76561198082806956,"connected_time":5685000000000,"state":"active","ping":145},{"user_id":418,"name":"Hawksgamer","steam_id":76561198152405941,"connected_time":4103000000000,"state":"active","ping":82},{"user_id":425,"name":"rat who can kickflip","steam_id":76561198073620027,"connected_time":3289000000000,"state":"active","ping":44},{"user_id":434,"name":"Poundcake","steam_id":76561198042196918,"connected_time":2618000000000,"state":"active","ping":47},{"user_id":438,"name":"SadFapping","steam_id":76561198076651049,"connected_time":2353000000000,"state":"active","ping":47},{"user_id":455,"name":"moomin","steam_id":76561198336244269,"connected_time":812000000000,"state":"active","ping":75},{"user_id":420,"name":"Daz","steam_id":76561198041431938,"connected_time":4100000000000,"state":"active","ping":54},{"user_id":442,"name":"TROY","steam_id":76561197983852176,"connected_time":1788000000000,"state":"active","ping":76},{"user_id":446,"name":"Leidon","steam_id":76561198078386945,"connected_time":1746000000000,"state":"active","ping":65},{"user_id":448,"name":"banjobun","steam_id":76561198116814525,"connected_time":1372000000000,"state":"active","ping":54},{"user_id":402,"name":"rat gets the cheese","steam_id":76561198031234032,"connected_time":5683000000000,"state":"active","ping":104}]},{"server_id":119,"name":"Uncletopia | Seattle | 2 | All Maps","name_short":"sea-2","host":"sea-1.us.uncletopia.com","port":27025,"enabled":true,"region":"us-west","cc":"us","latitude":47.608013,"longitude":-122.33517,"reserved":0,"last_update":"0001-01-01T00:00:00Z","name_a2s":"Uncletopia | Seattle | 2 | All Maps","protocol":17,"map":"cp_dustbowl","folder":"tf","game":"Team Fortress","app_id":440,"player_count":2,"max_players":24,"Bots":0,"server_type":"Dedicated","server_os":"Linux","password":true,"vac":true,"version":"7961495","steam_id":85568392924469998,"keywords":["cp","nocrits","nodmgspread","uncletopia"],"game_id":440,"stv_port":27026,"stv_name":"Uncletopia | Seattle | 2 | All Maps | STV","players":[{"user_id":771,"name":"mmmBoyo","steam_id":76561198821360261,"connected_time":606000000000,"state":"active","ping":30},{"user_id":770,"name":"truebosnianking","steam_id":76561199440060597,"connected_time":1008000000000,"state":"active","ping":193}]},{"server_id":406,"name":"Uncletopia | Seattle | 3 | Stopwatch","name_short":"sea-3","host":"sea-1.us.uncletopia.com","port":27035,"enabled":true,"region":"us-west","cc":"us","latitude":47.608013,"longitude":-122.33517,"reserved":0,"last_update":"0001-01-01T00:00:00Z","name_a2s":"Uncletopia | Seattle | 3 | Stopwatch","protocol":17,"map":"workshop/koth_product_final.ugc454272353","folder":"tf","game":"Team Fortress","app_id":440,"player_count":0,"max_players":24,"Bots":0,"server_type":"Dedicated","server_os":"Linux","password":true,"vac":true,"version":"7961495","steam_id":85568392924515217,"keywords":["cp","nocrits","nodmgspread","uncletopia"],"game_id":440,"stv_port":27036,"stv_name":"Uncletopia | Seattle | 3 | Stopwatch | STV","players":null},{"server_id":17,"name":"Uncletopia | San Francisco | 1 | All Maps","name_short":"sfo-1","host":"sfo-1.us.uncletopia.com","port":27015,"enabled":true,"region":"us-west","cc":"us","latitude":37.77397,"longitude":-122.4313,"reserved":0,"last_update":"0001-01-01T00:00:00Z","name_a2s":"Uncletopia | San Francisco | 1 | All Maps","protocol":17,"map":"pl_upward","folder":"tf","game":"Team Fortress","app_id":440,"player_count":24,"max_players":24,"Bots":0,"server_type":"Dedicated","server_os":"Linux","password":true,"vac":true,"version":"7961495","steam_id":85568392924469999,"keywords":["nocrits","nodmgspread","payload","uncletopia"],"game_id":440,"stv_port":27016,"stv_name":"Uncletopia | San Francisco | 1 | All Maps | STV","players":[{"user_id":124,"name":"The Foolish Samurai","steam_id":76561198094494945,"connected_time":4728000000000,"state":"active","ping":79},{"user_id":147,"name":"EpsilonEagle","steam_id":76561197999126769,"connected_time":3399000000000,"state":"active","ping":152},{"user_id":58,"name":"FI LO","steam_id":76561198976530881,"connected_time":11182000000000,"state":"active","ping":47},{"user_id":180,"name":"PTR","steam_id":76561198237253772,"connected_time":221000000000,"state":"active","ping":79},{"user_id":181,"name":"RDW777","steam_id":76561199013249418,"connected_time":216000000000,"state":"active","ping":82},{"user_id":122,"name":"Quigi","steam_id":76561198144645874,"connected_time":4802000000000,"state":"active","ping":75},{"user_id":176,"name":"BigGoose","steam_id":76561198833281392,"connected_time":702000000000,"state":"active","ping":76},{"user_id":178,"name":"The Caretaker","steam_id":76561198125241411,"connected_time":289000000000,"state":"active","ping":92},{"user_id":132,"name":"A class hero","steam_id":76561198066091050,"connected_time":4457000000000,"state":"active","ping":62},{"user_id":175,"name":"Cursed","steam_id":76561199161458959,"connected_time":1059000000000,"state":"active","ping":114},{"user_id":125,"name":"lol","steam_id":76561198026491738,"connected_time":4727000000000,"state":"active","ping":64},{"user_id":182,"name":"Thequirka","steam_id":76561198968058652,"connected_time":214000000000,"state":"active","ping":59},{"user_id":133,"name":"Polar","steam_id":76561198271964253,"connected_time":4406000000000,"state":"active","ping":102},{"user_id":184,"name":"CandorDanceFloor","steam_id":76561198062980511,"connected_time":8000000000,"state":"active","ping":149},{"user_id":152,"name":"JACK BRUNO","steam_id":76561198027957690,"connected_time":2431000000000,"state":"active","ping":59},{"user_id":167,"name":"MR MODE","steam_id":76561198046775352,"connected_time":1427000000000,"state":"active","ping":46},{"user_id":174,"name":"TheArachnidGamer","steam_id":76561198304986752,"connected_time":1093000000000,"state":"active","ping":75},{"user_id":183,"name":"Phoenix","steam_id":76561199465534945,"connected_time":159000000000,"state":"active","ping":80},{"user_id":158,"name":"Brandon_411","steam_id":76561198024522909,"connected_time":1974000000000,"state":"active","ping":58},{"user_id":162,"name":"tincant","steam_id":76561198357137800,"connected_time":1662000000000,"state":"active","ping":82},{"user_id":179,"name":"the bonks","steam_id":76561198418172095,"connected_time":288000000000,"state":"active","ping":91},{"user_id":171,"name":"video games","steam_id":76561198334059206,"connected_time":1321000000000,"state":"active","ping":54},{"user_id":172,"name":"mouse broke","steam_id":76561198067810273,"connected_time":1229000000000,"state":"active","ping":61},{"user_id":177,"name":"Chronic Bad At Game Disease","steam_id":76561198179387139,"connected_time":473000000000,"state":"active","ping":48}]},{"server_id":18,"name":"Uncletopia | San Francisco | 2 | All Maps","name_short":"sfo-2","host":"sfo-1.us.uncletopia.com","port":27025,"enabled":true,"region":"us-west","cc":"us","latitude":37.77397,"longitude":-122.4313,"reserved":0,"last_update":"0001-01-01T00:00:00Z","name_a2s":"Uncletopia | San Francisco | 2 | All Maps","protocol":17,"map":"cp_mountainlab","folder":"tf","game":"Team Fortress","app_id":440,"player_count":24,"max_players":24,"Bots":0,"server_type":"Dedicated","server_os":"Linux","password":true,"vac":true,"version":"7961495","steam_id":85568392924470000,"keywords":["cp","nocrits","nodmgspread","uncletopia"],"game_id":440,"stv_port":27026,"stv_name":"Uncletopia | San Francisco | 2 | All Maps | STV","players":[{"user_id":259,"name":"Henway","steam_id":76561198998561104,"connected_time":3773000000000,"state":"active","ping":66},{"user_id":282,"name":"oil","steam_id":76561198099980149,"connected_time":2434000000000,"state":"active","ping":52},{"user_id":268,"name":"MiksStuff","steam_id":76561198114092485,"connected_time":3478000000000,"state":"active","ping":116},{"user_id":307,"name":"Cebula33","steam_id":76561197984964095,"connected_time":377000000000,"state":"active","ping":63},{"user_id":308,"name":"jorts (zoot)","steam_id":76561199041179985,"connected_time":313000000000,"state":"active","ping":72},{"user_id":302,"name":"fansut","steam_id":76561198000372587,"connected_time":867000000000,"state":"active","ping":109},{"user_id":301,"name":"rushy :))","steam_id":76561198065825165,"connected_time":981000000000,"state":"active","ping":98},{"user_id":185,"name":"mwee machine","steam_id":76561198047126327,"connected_time":7912000000000,"state":"active","ping":75},{"user_id":275,"name":"airy","steam_id":76561198174632198,"connected_time":3094000000000,"state":"active","ping":82},{"user_id":306,"name":"LivingRaccoon","steam_id":76561198035425632,"connected_time":397000000000,"state":"active","ping":64},{"user_id":316,"name":"Dropped Dababi","steam_id":76561197990495205,"connected_time":184000000000,"state":"active","ping":100},{"user_id":310,"name":"mega","steam_id":76561198089520959,"connected_time":302000000000,"state":"active","ping":102},{"user_id":311,"name":"SpamTheAlien","steam_id":76561199122290968,"connected_time":282000000000,"state":"active","ping":79},{"user_id":287,"name":"puffer","steam_id":76561199049164456,"connected_time":2128000000000,"state":"active","ping":66},{"user_id":312,"name":"Laventhey","steam_id":76561198977523626,"connected_time":276000000000,"state":"active","ping":66},{"user_id":313,"name":"Ecliptica","steam_id":76561198171951333,"connected_time":276000000000,"state":"active","ping":123},{"user_id":314,"name":"SHADOW","steam_id":76561198207768148,"connected_time":276000000000,"state":"active","ping":61},{"user_id":281,"name":"The Piss Warrior","steam_id":76561198151927029,"connected_time":2487000000000,"state":"active","ping":71},{"user_id":292,"name":"fungi bowie.gg","steam_id":76561198169755734,"connected_time":1699000000000,"state":"active","ping":50},{"user_id":279,"name":"chanoc","steam_id":76561198026734746,"connected_time":2600000000000,"state":"active","ping":47},{"user_id":296,"name":"Lord Pretty Flocko Jordye","steam_id":76561198962880749,"connected_time":1466000000000,"state":"active","ping":71},{"user_id":286,"name":"Bolbi","steam_id":76561198051811597,"connected_time":2275000000000,"state":"active","ping":65},{"user_id":315,"name":"saneggzings","steam_id":76561199465922101,"connected_time":232000000000,"state":"active","ping":80},{"user_id":303,"name":"Mr. Carfox","steam_id":76561198041664428,"connected_time":773000000000,"state":"active","ping":48}]},{"server_id":19,"name":"Uncletopia | San Francisco | 3 | Stopwatch","name_short":"sfo-3","host":"sfo-1.us.uncletopia.com","port":27035,"enabled":true,"region":"us-west","cc":"us","latitude":37.77397,"longitude":-122.4313,"reserved":0,"last_update":"0001-01-01T00:00:00Z","name_a2s":"Uncletopia | San Francisco | 3 | Stopwatch","protocol":17,"map":"workshop/pl_vigil_rc10.ugc1266210012","folder":"tf","game":"Team Fortress","app_id":440,"player_count":0,"max_players":24,"Bots":0,"server_type":"Dedicated","server_os":"Linux","password":true,"vac":true,"version":"7961495","steam_id":85568392924742824,"keywords":["nocrits","nodmgspread","payload","uncletopia"],"game_id":440,"stv_port":27036,"stv_name":"Uncletopia | San Francisco | 3 | Stopwatch | STV","players":null},{"server_id":20,"name":"Uncletopia | San Francisco | 4 | Community","name_short":"sfo-4","host":"sfo-1.us.uncletopia.com","port":27045,"enabled":true,"region":"us-west","cc":"us","latitude":37.77397,"longitude":-122.4313,"reserved":0,"last_update":"0001-01-01T00:00:00Z","name_a2s":"Uncletopia | San Francisco | 4 | Community","protocol":17,"map":"workshop/cp_reckoner_rc6.ugc674719999","folder":"tf","game":"Team Fortress","app_id":440,"player_count":0,"max_players":24,"Bots":0,"server_type":"Dedicated","server_os":"Linux","password":true,"vac":true,"version":"7961495","steam_id":85568392924742826,"keywords":["cp","nocrits","nodmgspread","uncletopia"],"game_id":440,"stv_port":27046,"stv_name":"Uncletopia | San Francisco | 4 | Community | STV","players":null},{"server_id":141,"name":"Uncletopia | Sydney | 1 | All Maps","name_short":"syd-1","host":"syd-1.au.uncletopia.com","port":27015,"enabled":true,"region":"au","cc":"au","latitude":-33.865143,"longitude":151.2099,"reserved":0,"last_update":"0001-01-01T00:00:00Z","name_a2s":"Uncletopia | Sydney | 1 | All Maps","protocol":17,"map":"pl_snowycoast","folder":"tf","game":"Team Fortress","app_id":440,"player_count":23,"max_players":24,"Bots":0,"server_type":"Dedicated","server_os":"Linux","password":true,"vac":true,"version":"7961495","steam_id":85568392924470001,"keywords":["nocrits","nodmgspread","payload","uncletopia"],"game_id":440,"stv_port":27016,"stv_name":"Uncletopia | Sydney | 1 | All Maps | STV","players":[{"user_id":82,"name":"King Stan II","steam_id":76561198890742309,"connected_time":1008000000000,"state":"active","ping":76},{"user_id":91,"name":"whitebronco32","steam_id":76561197990814265,"connected_time":141000000000,"state":"active","ping":44},{"user_id":73,"name":"Leekduck","steam_id":76561198201978381,"connected_time":1390000000000,"state":"active","ping":69},{"user_id":36,"name":"snowy steel [HF]","steam_id":76561199024624434,"connected_time":3373000000000,"state":"active","ping":43},{"user_id":74,"name":"Lobarté","steam_id":76561198090116136,"connected_time":1353000000000,"state":"active","ping":60},{"user_id":37,"name":"Snuky","steam_id":76561198117902338,"connected_time":3351000000000,"state":"active","ping":44},{"user_id":84,"name":"Muon","steam_id":76561198031870803,"connected_time":900000000000,"state":"active","ping":60},{"user_id":72,"name":"lau","steam_id":76561198045451991,"connected_time":1423000000000,"state":"active","ping":44},{"user_id":69,"name":"soupy","steam_id":76561198073734936,"connected_time":1800000000000,"state":"active","ping":88},{"user_id":46,"name":"Sover blw.tf","steam_id":76561198136347837,"connected_time":2661000000000,"state":"active","ping":126},{"user_id":90,"name":"Tiblyat","steam_id":76561198093077688,"connected_time":154000000000,"state":"active","ping":72},{"user_id":86,"name":"Mr Doctor","steam_id":76561198081415999,"connected_time":676000000000,"state":"active","ping":64},{"user_id":50,"name":"whiteshaq","steam_id":76561198131988811,"connected_time":2489000000000,"state":"active","ping":74},{"user_id":51,"name":"cakey","steam_id":76561198173746761,"connected_time":2414000000000,"state":"active","ping":46},{"user_id":76,"name":"Uncle_Bowlcut","steam_id":76561198225191728,"connected_time":1301000000000,"state":"active","ping":55},{"user_id":53,"name":"hhhh","steam_id":76561198019740135,"connected_time":2390000000000,"state":"active","ping":57},{"user_id":54,"name":"reClyde beans","steam_id":76561198301282416,"connected_time":2386000000000,"state":"active","ping":60},{"user_id":89,"name":"Finios","steam_id":76561198209013071,"connected_time":209000000000,"state":"active","ping":53},{"user_id":56,"name":"Cat Allergies","steam_id":76561198214351613,"connected_time":2332000000000,"state":"active","ping":60},{"user_id":94,"name":"ToxicFlame","steam_id":76561199439459721,"connected_time":30000000000,"state":"active","ping":70},{"user_id":87,"name":"SpeeeedwaGONnnn","steam_id":76561198006944737,"connected_time":672000000000,"state":"active","ping":46},{"user_id":88,"name":"tava","steam_id":76561197968995542,"connected_time":637000000000,"state":"active","ping":57},{"user_id":62,"name":"❤callie❤","steam_id":76561198231953400,"connected_time":2252000000000,"state":"active","ping":63}]},{"server_id":123,"name":"Uncletopia | Sydney | 2 | All Maps","name_short":"syd-2","host":"syd-1.au.uncletopia.com","port":27025,"enabled":true,"region":"au","cc":"au","latitude":-33.865143,"longitude":151.2099,"reserved":0,"last_update":"0001-01-01T00:00:00Z","name_a2s":"Uncletopia | Sydney | 2 | All Maps","protocol":17,"map":"koth_lakeside_final","folder":"tf","game":"Team Fortress","app_id":440,"player_count":0,"max_players":24,"Bots":0,"server_type":"Dedicated","server_os":"Linux","password":true,"vac":true,"version":"7961495","steam_id":85568392924470002,"keywords":["cp","nocrits","nodmgspread","uncletopia"],"game_id":440,"stv_port":27026,"stv_name":"Uncletopia | Sydney | 2 | All Maps | STV","players":null},{"server_id":395,"name":"Uncletopia | Sydney | 3 | All Maps","name_short":"syd-3","host":"syd-1.au.uncletopia.com","port":27035,"enabled":true,"region":"au","cc":"au","latitude":-33.865143,"longitude":151.2099,"reserved":0,"last_update":"0001-01-01T00:00:00Z","name_a2s":"Uncletopia | Sydney | 3 | All Maps","protocol":17,"map":"pl_frontier_final","folder":"tf","game":"Team Fortress","app_id":440,"player_count":0,"max_players":24,"Bots":0,"server_type":"Dedicated","server_os":"Linux","password":true,"vac":true,"version":"7961495","steam_id":85568392925194467,"keywords":["nocrits","nodmgspread","payload","uncletopia"],"game_id":440,"stv_port":27036,"stv_name":"Uncletopia | Sydney | 3 | All Maps | STV","players":null},{"server_id":396,"name":"Uncletopia | Sydney | 4 | All Maps","name_short":"syd-4","host":"syd-1.au.uncletopia.com","port":27045,"enabled":true,"region":"au","cc":"au","latitude":-33.865143,"longitude":151.2099,"reserved":0,"last_update":"0001-01-01T00:00:00Z","name_a2s":"Uncletopia | Sydney | 4 | All Maps","protocol":17,"map":"koth_lakeside_final","folder":"tf","game":"Team Fortress","app_id":440,"player_count":5,"max_players":24,"Bots":0,"server_type":"Dedicated","server_os":"Linux","password":true,"vac":true,"version":"7961495","steam_id":85568392925397958,"keywords":["cp","nocrits","nodmgspread","uncletopia"],"game_id":440,"stv_port":27046,"stv_name":"Uncletopia | Sydney | 4 | All Maps | STV","players":[{"user_id":4,"name":"fat obama","steam_id":76561199128395555,"connected_time":5041000000000,"state":"active","ping":69},{"user_id":28,"name":"Luckycharm","steam_id":76561199073672243,"connected_time":1648000000000,"state":"active","ping":92},{"user_id":6,"name":"Very Wealthy Business man Gamin","steam_id":76561199018063750,"connected_time":5023000000000,"state":"active","ping":57},{"user_id":32,"name":"Hikoirangi","steam_id":76561199394424656,"connected_time":326000000000,"state":"active","ping":84},{"user_id":8,"name":"French China","steam_id":76561199435850354,"connected_time":4800000000000,"state":"active","ping":83}]},{"server_id":58,"name":"Uncletopia | Sydney | 5 | Stopwatch","name_short":"syd-5","host":"syd-1.au.uncletopia.com","port":27055,"enabled":true,"region":"au","cc":"au","latitude":-33.865143,"longitude":151.2099,"reserved":0,"last_update":"0001-01-01T00:00:00Z","name_a2s":"Uncletopia | Sydney | 5 | Stopwatch","protocol":17,"map":"pl_frontier_final","folder":"tf","game":"Team Fortress","app_id":440,"player_count":0,"max_players":24,"Bots":0,"server_type":"Dedicated","server_os":"Linux","password":true,"vac":true,"version":"7961495","steam_id":85568392925397959,"keywords":["nocrits","nodmgspread","payload","uncletopia"],"game_id":440,"stv_port":27056,"stv_name":"Uncletopia | Sydney | 5 | Stopwatch | STV","players":null},{"server_id":59,"name":"Uncletopia | Sydney | 6 | Community","name_short":"syd-6","host":"syd-1.au.uncletopia.com","port":27065,"enabled":true,"region":"au","cc":"au","latitude":-33.865143,"longitude":151.2099,"reserved":0,"last_update":"0001-01-01T00:00:00Z","name_a2s":"Uncletopia | Sydney | 6 | Community","protocol":17,"map":"cp_sunshine","folder":"tf","game":"Team Fortress","app_id":440,"player_count":0,"max_players":24,"Bots":0,"server_type":"Dedicated","server_os":"Linux","password":true,"vac":true,"version":"7961495","steam_id":85568392925397960,"keywords":["cp","nocrits","nodmgspread","uncletopia"],"game_id":440,"stv_port":27066,"stv_name":"Uncletopia | Sydney | 6 | Community | STV","players":null},{"server_id":49,"name":"Uncletopia | Warsaw | 1 | One Thousand Uncles","name_short":"waw-1","host":"waw-1.pl.uncletopia.com","port":27015,"enabled":true,"region":"eu","cc":"pl","latitude":52.2297,"longitude":21.017532,"reserved":0,"last_update":"0001-01-01T00:00:00Z","name_a2s":"Uncletopia | Warsaw | 1 | One Thousand Uncles","protocol":17,"map":"koth_highpass","folder":"tf","game":"Team Fortress","app_id":440,"player_count":0,"max_players":32,"Bots":0,"server_type":"Dedicated","server_os":"Linux","password":true,"vac":true,"version":"7961495","steam_id":85568392925397850,"keywords":["alltalk","cp","danepve","increased_maxplayers","nocrits","norespawntime","uncletopia"],"game_id":440,"stv_port":0,"stv_name":"","players":null},{"server_id":50,"name":"Uncletopia | Warsaw | 2 | One Thousand Uncles","name_short":"waw-2","host":"waw-1.pl.uncletopia.com","port":27025,"enabled":true,"region":"eu","cc":"pl","latitude":52.2297,"longitude":21.017532,"reserved":0,"last_update":"0001-01-01T00:00:00Z","name_a2s":"Uncletopia | Warsaw | 2 | One Thousand Uncles","protocol":17,"map":"cp_mercenarypark","folder":"tf","game":"Team Fortress","app_id":440,"player_count":17,"max_players":32,"Bots":16,"server_type":"Dedicated","server_os":"Linux","password":true,"vac":true,"version":"7961495","steam_id":85568392925397851,"keywords":["alltalk","bots","cp","danepve","increased_maxplayers","nocrits","norespawntime","uncletopia"],"game_id":440,"stv_port":0,"stv_name":"","players":[{"user_id":41,"name":"Truegr","steam_id":76561198811912339,"connected_time":977000000000,"state":"active","ping":77}]},{"server_id":51,"name":"Uncletopia | Warsaw | 3 | All Maps","name_short":"waw-3","host":"waw-1.pl.uncletopia.com","port":27035,"enabled":true,"region":"eu","cc":"pl","latitude":52.2297,"longitude":21.017532,"reserved":0,"last_update":"0001-01-01T00:00:00Z","name_a2s":"Uncletopia | Warsaw | 3 | All Maps","protocol":17,"map":"plr_pipeline","folder":"tf","game":"Team Fortress","app_id":440,"player_count":0,"max_players":24,"Bots":0,"server_type":"Dedicated","server_os":"Linux","password":true,"vac":true,"version":"7961495","steam_id":85568392925397852,"keywords":["nocrits","nodmgspread","payload","uncletopia"],"game_id":440,"stv_port":27036,"stv_name":"Uncletopia | Warsaw | 3 | All Maps | STV","players":null},{"server_id":52,"name":"Uncletopia | Warsaw | 4 | All Maps","name_short":"waw-4","host":"waw-1.pl.uncletopia.com","port":27045,"enabled":true,"region":"eu","cc":"pl","latitude":52.2297,"longitude":21.017532,"reserved":0,"last_update":"0001-01-01T00:00:00Z","name_a2s":"Uncletopia | Warsaw | 4 | All Maps","protocol":17,"map":"cp_coldfront","folder":"tf","game":"Team Fortress","app_id":440,"player_count":0,"max_players":24,"Bots":0,"server_type":"Dedicated","server_os":"Linux","password":true,"vac":true,"version":"7961495","steam_id":85568392925397853,"keywords":["cp","nocrits","nodmgspread","uncletopia"],"game_id":440,"stv_port":27046,"stv_name":"Uncletopia | Warsaw | 4 | All Maps | STV","players":null},{"server_id":53,"name":"Uncletopia | Warsaw | 5 | Stopwatch","name_short":"waw-5","host":"waw-1.pl.uncletopia.com","port":27055,"enabled":true,"region":"eu","cc":"pl","latitude":52.2297,"longitude":21.017532,"reserved":0,"last_update":"0001-01-01T00:00:00Z","name_a2s":"Uncletopia | Warsaw | 5 | Stopwatch","protocol":17,"map":"workshop/koth_bagel_rc6.ugc2514036946","folder":"tf","game":"Team Fortress","app_id":440,"player_count":0,"max_players":24,"Bots":0,"server_type":"Dedicated","server_os":"Linux","password":true,"vac":true,"version":"7961495","steam_id":85568392925397854,"keywords":["cp","nocrits","nodmgspread","uncletopia"],"game_id":440,"stv_port":27056,"stv_name":"Uncletopia | Warsaw | 5 | Stopwatch | STV","players":null},{"server_id":54,"name":"Uncletopia | Warsaw | 6 | Community","name_short":"waw-6","host":"waw-1.pl.uncletopia.com","port":27065,"enabled":true,"region":"eu","cc":"pl","latitude":52.2297,"longitude":21.017532,"reserved":0,"last_update":"0001-01-01T00:00:00Z","name_a2s":"Uncletopia | Warsaw | 6 | Community","protocol":17,"map":"workshop/pl_badwater_pro_v12.ugc2142942074","folder":"tf","game":"Team Fortress","app_id":440,"player_count":0,"max_players":24,"Bots":0,"server_type":"Dedicated","server_os":"Linux","password":true,"vac":true,"version":"7961495","steam_id":85568392925397856,"keywords":["nocrits","nodmgspread","payload","uncletopia"],"game_id":440,"stv_port":27066,"stv_name":"Uncletopia | Warsaw | 6 | Community | STV","players":null}]}