{"status":true,"message":"","result":[{"server_id":9,"name":"Uncletopia | Atlanta | 1 | All Maps","name_short":"atl-1","host":"atl-1.us.uncletopia.com","port":27015,"enabled":true,"region":"us-east","cc":"us","latitude":33.753746,"longitude":-84.38633,"reserved":0,"last_update":"0001-01-01T00:00:00Z","name_a2s":"Uncletopia | Atlanta | 1 | All Maps","protocol":17,"map":"pl_snowycoast","folder":"tf","game":"Team Fortress","app_id":440,"player_count":24,"max_players":24,"Bots":0,"server_type":"Dedicated","server_os":"Linux","password":true,"vac":true,"version":"7882260","steam_id":85568392924469982,"keywords":["nocrits","nodmgspread","payload","uncletopia"],"game_id":440,"stv_port":27016,"stv_name":"Uncletopia | Atlanta | 1 | All Maps | STV","players":[{"user_id":903,"name":"Sophie","steam_id":76561198170408057,"connected_time":429000000000,"state":"active","ping":48},{"user_id":904,"name":"rose","steam_id":76561198048882285,"connected_time":398000000000,"state":"active","ping":54},{"user_id":901,"name":"Br1 AV","steam_id":76561198802433117,"connected_time":637000000000,"state":"active","ping":132},{"user_id":910,"name":"LUKS.tar.gz","steam_id":76561199178556785,"connected_time":331000000000,"state":"active","ping":101},{"user_id":906,"name":"Toonice","steam_id":76561198402994885,"connected_time":387000000000,"state":"active","ping":82},{"user_id":876,"name":"paetho YT","steam_id":76561198152690003,"connected_time":2232000000000,"state":"active","ping":42},{"user_id":864,"name":"dunkaroos 4 ogryns","steam_id":76561198000564263,"connected_time":2744000000000,"state":"active","ping":46},{"user_id":891,"name":"kree","steam_id":76561197979960008,"connected_time":891000000000,"state":"active","ping":81},{"user_id":905,"name":"eish","steam_id":76561198089463603,"connected_time":391000000000,"state":"active","ping":123},{"user_id":878,"name":"Duckywinner","steam_id":76561198254828139,"connected_time":2073000000000,"state":"active","ping":60},{"user_id":866,"name":"java","steam_id":76561198030276792,"connected_time":2720000000000,"state":"active","ping":45},{"user_id":907,"name":"nomad","steam_id":76561197998740399,"connected_time":384000000000,"state":"active","ping":68},{"user_id":883,"name":"Monochrome | Cashmoney","steam_id":76561198377320040,"connected_time":1597000000000,"state":"active","ping":61},{"user_id":894,"name":"4903726023","steam_id":76561199384861214,"connected_time":846000000000,"state":"active","ping":64},{"user_id":821,"name":"Animator","steam_id":76561199021232504,"connected_time":5399000000000,"state":"active","ping":72},{"user_id":847,"name":"THE KILLER","steam_id":76561198042444734,"connected_time":3270000000000,"state":"active","ping":45},{"user_id":879,"name":"[R–Ø] ShibesGoneWow","steam_id":76561198036090516,"connected_time":2071000000000,"state":"active","ping":47},{"user_id":897,"name":"lanoc","steam_id":76561198055415367,"connected_time":814000000000,"state":"active","ping":48},{"user_id":912,"name":"sdschildberg","steam_id":76561198119699413,"connected_time":222000000000,"state":"active","ping":69},{"user_id":909,"name":"Am da Best","steam_id":76561198163825955,"connected_time":356000000000,"state":"active","ping":104},{"user_id":914,"name":"plasmaofthedawn","steam_id":76561198287916194,"connected_time":140000000000,"state":"active","ping":63},{"user_id":900,"name":"Kasodani Kyouko","steam_id":76561198023178589,"connected_time":742000000000,"state":"active","ping":100},{"user_id":915,"name":"eepy kitty","steam_id":76561198106313563,"connected_time":87000000000,"state":"active","ping":67},{"user_id":916,"name":"Zeodexic","steam_id":76561198055636655,"connected_time":33000000000,"state":"spawning","ping":69}]},{"server_id":104,"name":"Uncletopia | Atlanta | 2 | All Maps","name_short":"atl-2","host":"atl-1.us.uncletopia.com","port":27025,"enabled":true,"region":"us-east","cc":"us","latitude":33.753746,"longitude":-84.38633,"reserved":0,"last_update":"0001-01-01T00:00:00Z","name_a2s":"Uncletopia | Atlanta | 2 | All Maps","protocol":17,"map":"pl_pier","folder":"tf","game":"Team Fortress","app_id":440,"player_count":24,"max_players":24,"Bots":0,"server_type":"Dedicated","server_os":"Linux","password":true,"vac":true,"version":"7882260","steam_id":85568392924469983,"keywords":["nocrits","nodmgspread","payload","uncletopia"],"game_id":440,"stv_port":27026,"stv_name":"Uncletopia | Atlanta | 2 | All Maps | STV","players":[{"user_id":527,"name":"jeremy elbertson","steam_id":76561198044420428,"connected_time":2521000000000,"state":"active","ping":44},{"user_id":556,"name":"SubZeroDestruction","steam_id":76561198145082209,"connected_time":1232000000000,"state":"active","ping":61},{"user_id":533,"name":"Big Yoshi","steam_id":76561199160576376,"connected_time":2004000000000,"state":"active","ping":121},{"user_id":534,"name":"General Of Kicking Your Ass.","steam_id":76561198879929343,"connected_time":1951000000000,"state":"active","ping":55},{"user_id":483,"name":"lol.. nevar.. naur! ! !","steam_id":76561198103496593,"connected_time":4845000000000,"state":"active","ping":46},{"user_id":532,"name":"Argon","steam_id":76561199254804349,"connected_time":2114000000000,"state":"active","ping":126},{"user_id":564,"name":"Meowcenary","steam_id":76561197998566857,"connected_time":601000000000,"state":"active","ping":105},{"user_id":496,"name":"MontellWilliams","steam_id":76561198172143015,"connected_time":4290000000000,"state":"active","ping":70},{"user_id":562,"name":"Grand Wizard Autismo","steam_id":76561198069834979,"connected_time":734000000000,"state":"active","ping":48},{"user_id":560,"name":"cris","steam_id":76561198065929810,"connected_time":878000000000,"state":"active","ping":74},{"user_id":535,"name":"SleepingBrim","steam_id":76561198067650229,"connected_time":1931000000000,"state":"active","ping":114},{"user_id":569,"name":"G.Flewit","steam_id":76561199214365392,"connected_time":104000000000,"state":"active","ping":83},{"user_id":536,"name":"Jebediah Kerman","steam_id":76561199215798445,"connected_time":1865000000000,"state":"active","ping":75},{"user_id":555,"name":"mos","steam_id":76561197995777973,"connected_time":1275000000000,"state":"active","ping":85},{"user_id":487,"name":"lost fox","steam_id":76561198406252824,"connected_time":4836000000000,"state":"active","ping":119},{"user_id":538,"name":"KritzKow","steam_id":76561198086164003,"connected_time":1800000000000,"state":"active","ping":90},{"user_id":540,"name":"Sham Cow","steam_id":76561198064556977,"connected_time":1797000000000,"state":"active","ping":105},{"user_id":542,"name":"Bob the Minion","steam_id":76561197972389354,"connected_time":1770000000000,"state":"active","ping":84},{"user_id":563,"name":"Handle On The Fridge","steam_id":76561198881228117,"connected_time":697000000000,"state":"active","ping":89},{"user_id":567,"name":"Timmy Riggs","steam_id":76561198040743777,"connected_time":284000000000,"state":"active","ping":79},{"user_id":570,"name":"highschool drop-out","steam_id":76561198366299848,"connected_time":10000000000,"state":"spawning","ping":53},{"user_id":546,"name":"Jeeper","steam_id":76561198155583692,"connected_time":1624000000000,"state":"active","ping":71},{"user_id":571,"name":"blue of days","steam_id":76561199113013688,"connected_time":1000000000,"state":"spawning","ping":78},{"user_id":495,"name":"thebob16","steam_id":76561199005310059,"connected_time":4334000000000,"state":"active","ping":77}]},{"server_id":400,"name":"Uncletopia | Atlanta | 3 | Community","name_short":"atl-3","host":"atl-1.us.uncletopia.com","port":27035,"enabled":true,"region":"us-east","cc":"us","latitude":33.753746,"longitude":-84.38633,"reserved":0,"last_update":"0001-01-01T00:00:00Z","name_a2s":"Uncletopia | Atlanta | 3 | Community","protocol":17,"map":"workshop/koth_synthetic_rc6a.ugc1549817316","folder":"tf","game":"Team Fortress","app_id":440,"player_count":0,"max_players":24,"Bots":0,"server_type":"Dedicated","server_os":"Linux","password":true,"vac":true,"version":"7882260","steam_id":85568392924515187,"keywords":["cp","nocrits","nodmgspread","uncletopia"],"game_id":440,"stv_port":27036,"stv_name":"Uncletopia | Atlanta | 3 | Community | STV","players":null},{"server_id":401,"name":"Uncletopia | Atlanta | 4 | No Payload","name_short":"atl-4","host":"atl-1.us.uncletopia.com","port":27045,"enabled":true,"region":"us-east","cc":"us","latitude":33.753746,"longitude":-84.38633,"reserved":0,"last_update":"0001-01-01T00:00:00Z","name_a2s":"","protocol":0,"map":"","folder":"","game":"","app_id":0,"player_count":0,"max_players":0,"Bots":0,"server_type":"","server_os":"","password":false,"vac":false,"version":"","steam_id":0,"keywords":null,"game_id":0,"stv_port":0,"stv_name":"","players":null},{"server_id":2,"name":"Uncletopia | Chicago | 1 | All Maps","name_short":"chi-1","host":"chi-1.us.uncletopia.com","port":27015,"enabled":true,"region":"us-central","cc":"us","latitude":41.881832,"longitude":-87.62318,"reserved":0,"last_update":"0001-01-01T00:00:00Z","name_a2s":"Uncletopia | Chicago | 1 | All Maps","protocol":17,"map":"pl_upward","folder":"tf","game":"Team Fortress","app_id":440,"player_count":24,"max_players":24,"Bots":0,"server_type":"Dedicated","server_os":"Linux","password":true,"vac":true,"version":"7882260","steam_id":85568392924469984,"keywords":["nocrits","nodmgspread","payload","uncletopia"],"game_id":440,"stv_port":27016,"stv_name":"Uncletopia | Chicago | 1 | All Maps | STV","players":[{"user_id":752,"name":"c9","steam_id":76561198136642793,"connected_time":5360000000000,"state":"active","ping":64},{"user_id":789,"name":"Comic","steam_id":76561198391882145,"connected_time":1166000000000,"state":"active","ping":42},{"user_id":781,"name":"Dr Smeggman","steam_id":76561197966614845,"connected_time":2043000000000,"state":"active","ping":133},{"user_id":793,"name":"Tree","steam_id":76561198195445331,"connected_time":688000000000,"state":"active","ping":109},{"user_id":779,"name":"CheeseLikeSubstance","steam_id":76561197977170646,"connected_time":2301000000000,"state":"active","ping":47},{"user_id":784,"name":"Starkiller","steam_id":76561198101643120,"connected_time":1315000000000,"state":"active","ping":67},{"user_id":718,"name":"Makina","steam_id":76561198057475567,"connected_time":9585000000000,"state":"active","ping":70},{"user_id":798,"name":"mjan456","steam_id":76561198139918670,"connected_time":351000000000,"state":"active","ping":62},{"user_id":787,"name":"Jaydyn","steam_id":76561198140326797,"connected_time":1208000000000,"state":"active","ping":79},{"user_id":797,"name":"AJ","steam_id":76561198115726121,"connected_time":516000000000,"state":"active","ping":69},{"user_id":729,"name":"tidal47","steam_id":76561198219084819,"connected_time":7388000000000,"state":"active","ping":100},{"user_id":783,"name":"Jihad","steam_id":76561198199803242,"connected_time":1388000000000,"state":"active","ping":82},{"user_id":802,"name":"Buncake","steam_id":76561198072541212,"connected_time":118000000000,"state":"active","ping":100},{"user_id":796,"name":"Ademar","steam_id":76561199391802581,"connected_time":527000000000,"state":"active","ping":59},{"user_id":754,"name":"SLICK PAPI #IMDADDYASF","steam_id":76561198144766439,"connected_time":5331000000000,"state":"active","ping":43},{"user_id":755,"name":"Swiftmend","steam_id":76561197995595692,"connected_time":5330000000000,"state":"active","ping":75},{"user_id":748,"name":"Melody","steam_id":76561198407789232,"connected_time":5450000000000,"state":"active","ping":114},{"user_id":651,"name":"Iceman10a","steam_id":76561198171922098,"connected_time":13726000000000,"state":"active","ping":112},{"user_id":800,"name":"frank","steam_id":76561198137777483,"connected_time":167000000000,"state":"active","ping":74},{"user_id":602,"name":"Takyon","steam_id":76561198172075186,"connected_time":15945000000000,"state":"active","ping":170},{"user_id":792,"name":"BigNugs","steam_id":76561198056402610,"connected_time":896000000000,"state":"active","ping":70},{"user_id":801,"name":"ARegularJohnDoe","steam_id":76561198015020139,"connected_time":139000000000,"state":"active","ping":60},{"user_id":670,"name":"Shakey","steam_id":76561198012340821,"connected_time":11627000000000,"state":"active","ping":162},{"user_id":728,"name":"Dinty","steam_id":76561198147607809,"connected_time":7805000000000,"state":"active","ping":76}]},{"server_id":106,"name":"Uncletopia | Chicago | 2 | All Maps","name_short":"chi-2","host":"chi-1.us.uncletopia.com","port":27025,"enabled":true,"region":"us-central","cc":"us","latitude":41.881832,"longitude":-87.62318,"reserved":0,"last_update":"0001-01-01T00:00:00Z","name_a2s":"Uncletopia | Chicago | 2 | All Maps","protocol":17,"map":"koth_harvest_final","folder":"tf","game":"Team Fortress","app_id":440,"player_count":14,"max_players":24,"Bots":0,"server_type":"Dedicated","server_os":"Linux","password":true,"vac":true,"version":"7882260","steam_id":85568392924469985,"keywords":["cp","nocrits","nodmgspread","uncletopia"],"game_id":440,"stv_port":27026,"stv_name":"Uncletopia | Chicago | 2 | All Maps | STV","players":[{"user_id":840,"name":"lycoris","steam_id":76561199113965768,"connected_time":2961000000000,"state":"active","ping":76},{"user_id":895,"name":"ultra lox","steam_id":76561199427318825,"connected_time":190000000000,"state":"active","ping":318},{"user_id":893,"name":"„Ç≥„Ç´„Ç§„É≥","steam_id":76561198254360137,"connected_time":414000000000,"state":"active","ping":104},{"user_id":888,"name":"Sqooky","steam_id":76561198838054669,"connected_time":892000000000,"state":"active","ping":65},{"user_id":896,"name":"Malcor","steam_id":76561198017594953,"connected_time":160000000000,"state":"active","ping":88},{"user_id":832,"name":"Elite_Friendly","steam_id":76561198819972127,"connected_time":3573000000000,"state":"active","ping":80},{"user_id":897,"name":"lite","steam_id":76561198300633951,"connected_time":88000000000,"state":"active","ping":102},{"user_id":874,"name":"Oni","steam_id":76561198112066584,"connected_time":1392000000000,"state":"active","ping":61},{"user_id":898,"name":"‚ô• kiss me ‚ô•","steam_id":76561198014557455,"connected_time":48000000000,"state":"active","ping":49},{"user_id":847,"name":"üÖúüÖîüÖîüÖöüÖ¢üÖ£üÖî\ufffd\ufffd\ufffd","steam_id":76561197999748343,"connected_time":2531000000000,"state":"active","ping":60},{"user_id":848,"name":"Blitzy","steam_id":76561198149472890,"connected_time":2499000000000,"state":"active","ping":74},{"user_id":879,"name":"Restricted_Files","steam_id":76561199448121007,"connected_time":1222000000000,"state":"active","ping":117},{"user_id":813,"name":"Codo Sapien","steam_id":76561198014206810,"connected_time":5225000000000,"state":"active","ping":30},{"user_id":891,"name":"AudaCD","steam_id":76561198202775853,"connected_time":813000000000,"state":"active","ping":66}]},{"server_id":402,"name":"Uncletopia | Chicago | 3 | All Maps","name_short":"chi-3","host":"chi-1.us.uncletopia.com","port":27035,"enabled":true,"region":"us-central","cc":"us","latitude":41.881832,"longitude":-87.62318,"reserved":0,"last_update":"0001-01-01T00:00:00Z","name_a2s":"Uncletopia | Chicago | 3 | All Maps","protocol":17,"map":"cp_dustbowl","folder":"tf","game":"Team Fortress","app_id":440,"player_count":24,"max_players":24,"Bots":0,"server_type":"Dedicated","server_os":"Linux","password":true,"vac":true,"version":"7882260","steam_id":85568392924515191,"keywords":["cp","nocrits","nodmgspread","uncletopia"],"game_id":440,"stv_port":27036,"stv_name":"Uncletopia | Chicago | 3 | All Maps | STV","players":[{"user_id":991,"name":"Elias","steam_id":76561198106431732,"connected_time":6817000000000,"state":"active","ping":39},{"user_id":984,"name":"seldom","steam_id":76561198166193756,"connected_time":7071000000000,"state":"active","ping":59},{"user_id":1067,"name":"basmati jarate","steam_id":76561198319442494,"connected_time":749000000000,"state":"active","ping":109},{"user_id":1056,"name":"the unstoppable tide of islam","steam_id":76561198027183394,"connected_time":1944000000000,"state":"active","ping":89},{"user_id":1061,"name":"AgentEpsilon","steam_id":76561198043705715,"connected_time":1153000000000,"state":"active","ping":70},{"user_id":1040,"name":"HolyHitbox","steam_id":76561198071723763,"connected_time":4054000000000,"state":"active","ping":55},{"user_id":1062,"name":"VidzCMC","steam_id":76561198848142973,"connected_time":1074000000000,"state":"active","ping":52},{"user_id":1068,"name":"TF2 Drip Designer","steam_id":76561198069735882,"connected_time":642000000000,"state":"active","ping":72},{"user_id":1069,"name":"SomeFuckingGuy #SAVETF2","steam_id":76561199239165015,"connected_time":539000000000,"state":"active","ping":82},{"user_id":1058,"name":"King De","steam_id":76561198194427422,"connected_time":1297000000000,"state":"active","ping":57},{"user_id":1027,"name":"Sean Bae","steam_id":76561198036909521,"connected_time":4320000000000,"state":"active","ping":86},{"user_id":1070,"name":"Jeugh","steam_id":76561198073498865,"connected_time":504000000000,"state":"active","ping":105},{"user_id":1071,"name":"Weebmcgee","steam_id":76561198081231557,"connected_time":409000000000,"state":"active","ping":64},{"user_id":1048,"name":"ShadowDragon0125","steam_id":76561198343849022,"connected_time":3051000000000,"state":"active","ping":70},{"user_id":1064,"name":"minish","steam_id":76561198086618284,"connected_time":973000000000,"state":"active","ping":99},{"user_id":1036,"name":"kbsfnk","steam_id":76561198036884600,"connected_time":4139000000000,"state":"active","ping":68},{"user_id":1065,"name":"Grand","steam_id":76561198290143399,"connected_time":956000000000,"state":"active","ping":67},{"user_id":1073,"name":"Michaelpc1","steam_id":76561198088365519,"connected_time":180000000000,"state":"active","ping":75},{"user_id":996,"name":"Terror-Billy #SaveTF2","steam_id":76561198328141870,"connected_time":6282000000000,"state":"active","ping":65},{"user_id":1042,"name":"Calamity","steam_id":76561198287505512,"connected_time":3945000000000,"state":"active","ping":146},{"user_id":1060,"name":"Scrux","steam_id":76561198129763115,"connected_time":1275000000000,"state":"active","ping":107},{"user_id":1043,"name":"EULA JoJoJo","steam_id":76561198067153390,"connected_time":3931000000000,"state":"active","ping":57},{"user_id":1066,"name":"Truffles","steam_id":76561198095868800,"connected_time":917000000000,"state":"active","ping":85},{"user_id":1026,"name":"Aedaxe","steam_id":76561198036555143,"connected_time":4526000000000,"state":"active","ping":76}]},{"server_id":403,"name":"Uncletopia | Chicago | 4 | All Maps","name_short":"chi-4","host":"chi-1.us.uncletopia.com","port":27045,"enabled":true,"region":"us-central","cc":"us","latitude":41.881832,"longitude":-87.62318,"reserved":0,"last_update":"0001-01-01T00:00:00Z","name_a2s":"Uncletopia | Chicago | 4 | All Maps","protocol":17,"map":"pl_borneo","folder":"tf","game":"Team Fortress","app_id":440,"player_count":24,"max_players":24,"Bots":0,"server_type":"Dedicated","server_os":"Linux","password":true,"vac":true,"version":"7882260","steam_id":85568392924515193,"keywords":["nocrits","nodmgspread","payload","uncletopia"],"game_id":440,"stv_port":27046,"stv_name":"Uncletopia | Chicago | 4 | All Maps | STV","players":[{"user_id":849,"name":"Scaredy Cat","steam_id":76561198246037452,"connected_time":2077000000000,"state":"active","ping":73},{"user_id":856,"name":"That Canadian Dude","steam_id":76561198024985831,"connected_time":1945000000000,"state":"active","ping":60},{"user_id":877,"name":"Someone","steam_id":76561199030195879,"connected_time":321000000000,"state":"active","ping":133},{"user_id":831,"name":"Leon","steam_id":76561198950938712,"connected_time":3667000000000,"state":"active","ping":99},{"user_id":866,"name":"running for some za","steam_id":76561198204995668,"connected_time":1384000000000,"state":"active","ping":80},{"user_id":862,"name":"JiggleCakes","steam_id":76561199005649151,"connected_time":1674000000000,"state":"active","ping":101},{"user_id":835,"name":"sonic1394","steam_id":76561198054636788,"connected_time":2960000000000,"state":"active","ping":71},{"user_id":865,"name":"FreshRight","steam_id":76561198271937353,"connected_time":1429000000000,"state":"active","ping":123},{"user_id":838,"name":"Heaping_Handful","steam_id":76561198120448833,"connected_time":2761000000000,"state":"active","ping":64},{"user_id":867,"name":"_cza","steam_id":76561198079793576,"connected_time":1304000000000,"state":"active","ping":91},{"user_id":794,"name":"T√ñZI","steam_id":76561198045268695,"connected_time":6750000000000,"state":"active","ping":82},{"user_id":852,"name":"iEdwin1000","steam_id":76561199090055051,"connected_time":2002000000000,"state":"active","ping":124},{"user_id":863,"name":"Jeff the 19th","steam_id":76561198189315491,"connected_time":1534000000000,"state":"active","ping":65},{"user_id":874,"name":"Racoon.zip","steam_id":76561199023759321,"connected_time":660000000000,"state":"active","ping":83},{"user_id":868,"name":"*","steam_id":76561198173047169,"connected_time":1283000000000,"state":"active","ping":59},{"user_id":864,"name":"jpuzza","steam_id":76561198035535731,"connected_time":1440000000000,"state":"active","ping":67},{"user_id":872,"name":"marvxpensiv3","steam_id":76561199020502894,"connected_time":951000000000,"state":"active","ping":163},{"user_id":855,"name":"Moon the Boom","steam_id":76561198100625361,"connected_time":1972000000000,"state":"active","ping":87},{"user_id":845,"name":"JECKL505","steam_id":76561198017971785,"connected_time":2629000000000,"state":"active","ping":96},{"user_id":857,"name":"quirked up white girl","steam_id":76561198069407799,"connected_time":1935000000000,"state":"active","ping":93},{"user_id":876,"name":"SIN K4RMA ringme","steam_id":76561198869287223,"connected_time":451000000000,"state":"active","ping":82},{"user_id":858,"name":"Sir Grey The Ranger","steam_id":76561198096235582,"connected_time":1920000000000,"state":"active","ping":46},{"user_id":859,"name":"Generator","steam_id":76561198011762257,"connected_time":1914000000000,"state":"active","ping":117},{"user_id":860,"name":"DonoC","steam_id":76561198274473338,"connected_time":1909000000000,"state":"active","ping":90}]},{"server_id":36,"name":"Uncletopia | Chicago | 5 | All Maps","name_short":"chi-5","host":"chi-2.us.uncletopia.com","port":27015,"enabled":true,"region":"us-central","cc":"us","latitude":41.881832,"longitude":-87.62318,"reserved":0,"last_update":"0001-01-01T00:00:00Z","name_a2s":"Uncletopia | Chicago | 5 | All Maps","protocol":17,"map":"cp_mountainlab","folder":"tf","game":"Team Fortress","app_id":440,"player_count":0,"max_players":24,"Bots":0,"server_type":"Dedicated","server_os":"Linux","password":true,"vac":true,"version":"7882260","steam_id":85568392924866362,"keywords":["cp","nocrits","nodmgspread","uncletopia"],"game_id":440,"stv_port":27016,"stv_name":"Uncletopia | Chicago | 5 | All Maps | STV","players":null},{"server_id":37,"name":"Uncletopia | Chicago | 6 | All Maps","name_short":"chi-6","host":"chi-2.us.uncletopia.com","port":27025,"enabled":true,"region":"us-central","cc":"us","latitude":41.881832,"longitude":-87.62318,"reserved":0,"last_update":"0001-01-01T00:00:00Z","name_a2s":"Uncletopia | Chicago | 6 | All Maps","protocol":17,"map":"ctf_2fort","folder":"tf","game":"Team Fortress","app_id":440,"player_count":5,"max_players":24,"Bots":0,"server_type":"Dedicated","server_os":"Linux","password":true,"vac":true,"version":"7882260","steam_id":85568392924866363,"keywords":["ctf","nocrits","nodmgspread","uncletopia"],"game_id":440,"stv_port":27026,"stv_name":"Uncletopia | Chicago | 6 | All Maps | STV","players":[{"user_id":413,"name":"Fumpo","steam_id":76561198206873365,"connected_time":3500000000000,"state":"active","ping":57},{"user_id":450,"name":"ornithopter_02","steam_id":76561198267827977,"connected_time":614000000000,"state":"active","ping":69},{"user_id":451,"name":"gamer rat","steam_id":76561199278864569,"connected_time":183000000000,"state":"active","ping":113},{"user_id":393,"name":"nori_420 (mute)","steam_id":76561199117134203,"connected_time":4588000000000,"state":"active","ping":100},{"user_id":416,"name":"Action_Quacktion","steam_id":76561198407062426,"connected_time":3414000000000,"state":"active","ping":55}]},{"server_id":38,"name":"Uncletopia | Chicago | 7 | Stopwatch Beta","name_short":"chi-7","host":"chi-2.us.uncletopia.com","port":27035,"enabled":true,"region":"us-central","cc":"us","latitude":41.881832,"longitude":-87.62318,"reserved":0,"last_update":"0001-01-01T00:00:00Z","name_a2s":"Uncletopia | Chicago | 7 | Stopwatch Beta","protocol":17,"map":"pl_swiftwater_final1","folder":"tf","game":"Team Fortress","app_id":440,"player_count":0,"max_players":24,"Bots":0,"server_type":"Dedicated","server_os":"Linux","password":true,"vac":true,"version":"7882260","steam_id":85568392924866364,"keywords":["nocrits","nodmgspread","payload","uncletopia"],"game_id":440,"stv_port":27036,"stv_name":"Uncletopia | Chicago | 7 | Stopwatch Beta | STV","players":null},{"server_id":39,"name":"Uncletopia | Chicago | 8 | Community","name_short":"chi-8","host":"chi-2.us.uncletopia.com","port":27045,"enabled":true,"region":"us-central","cc":"us","latitude":41.881832,"longitude":-87.62318,"reserved":0,"last_update":"0001-01-01T00:00:00Z","name_a2s":"Uncletopia | Chicago | 8 | Community","protocol":17,"map":"workshop/cp_villa_b19.ugc2113052569","folder":"tf","game":"Team Fortress","app_id":440,"player_count":9,"max_players":24,"Bots":0,"server_type":"Dedicated","server_os":"Linux","password":true,"vac":true,"version":"7882260","steam_id":85568392924866365,"keywords":["cp","nocrits","nodmgspread","uncletopia"],"game_id":440,"stv_port":27046,"stv_name":"Uncletopia | Chicago | 8 | Community | STV","players":[{"user_id":472,"name":"The Pan Man From Slavic Land","steam_id":76561198401875841,"connected_time":6898000000000,"state":"active","ping":50},{"user_id":537,"name":"Kasm","steam_id":76561198151165548,"connected_time":2350000000000,"state":"active","ping":90},{"user_id":543,"name":"HP","steam_id":76561198430090173,"connected_time":945000000000,"state":"active","ping":89},{"user_id":473,"name":"BigFloppa","steam_id":76561199011056745,"connected_time":6864000000000,"state":"active","ping":85},{"user_id":532,"name":"hog ryder","steam_id":76561198133887117,"connected_time":2934000000000,"state":"active","ping":85},{"user_id":533,"name":"Float","steam_id":76561198101933311,"connected_time":2877000000000,"state":"active","ping":71},{"user_id":517,"name":"Protato","steam_id":76561198061182563,"connected_time":3312000000000,"state":"active","ping":63},{"user_id":519,"name":"Bolty","steam_id":76561198084199165,"connected_time":3237000000000,"state":"active","ping":79},{"user_id":520,"name":"Mister Rattlebones","steam_id":76561198065560157,"connected_time":3229000000000,"state":"active","ping":52}]},{"server_id":8,"name":"Uncletopia | Dallas | 1 | All Maps","name_short":"dal-1","host":"dal-1.us.uncletopia.com","port":27015,"enabled":true,"region":"us-central","cc":"us","latitude":32.779167,"longitude":-96.80889,"reserved":0,"last_update":"0001-01-01T00:00:00Z","name_a2s":"Uncletopia | Dallas | 1 | All Maps","protocol":17,"map":"cp_powerhouse","folder":"tf","game":"Team Fortress","app_id":440,"player_count":24,"max_players":24,"Bots":0,"server_type":"Dedicated","server_os":"Linux","password":true,"vac":true,"version":"7882260","steam_id":85568392924469986,"keywords":["cp","nocrits","nodmgspread","uncletopia"],"game_id":440,"stv_port":27016,"stv_name":"Uncletopia | Dallas | 1 | All Maps | STV","players":[{"user_id":568,"name":"Drozz Misses Shots","steam_id":76561198072555204,"connected_time":927000000000,"state":"active","ping":72},{"user_id":561,"name":"hand","steam_id":76561198152618810,"connected_time":1141000000000,"state":"active","ping":59},{"user_id":543,"name":"0x01FE","steam_id":76561198838881917,"connected_time":2864000000000,"state":"active","ping":59},{"user_id":574,"name":"Dr. Wario","steam_id":76561198901238861,"connected_time":133000000000,"state":"active","ping":76},{"user_id":497,"name":"Mecha Sonic","steam_id":76561198327063410,"connected_time":7067000000000,"state":"active","ping":65},{"user_id":528,"name":"{ST} Oxythemoron","steam_id":76561198060089965,"connected_time":4986000000000,"state":"active","ping":49},{"user_id":571,"name":"the man","steam_id":76561198389268114,"connected_time":848000000000,"state":"active","ping":92},{"user_id":563,"name":"The 28th Wafful","steam_id":76561198072242170,"connected_time":984000000000,"state":"active","ping":61},{"user_id":564,"name":"noellehound","steam_id":76561198108844158,"connected_time":968000000000,"state":"active","ping":68},{"user_id":565,"name":"JohnnyGitGud","steam_id":76561198401455467,"connected_time":963000000000,"state":"active","ping":93},{"user_id":562,"name":"skin ≥·µç","steam_id":76561198268689844,"connected_time":1135000000000,"state":"active","ping":73},{"user_id":570,"name":"Tateki","steam_id":76561198062283395,"connected_time":898000000000,"state":"active","ping":60},{"user_id":541,"name":"Manic","steam_id":76561198128149670,"connected_time":3249000000000,"state":"active","ping":46},{"user_id":553,"name":"PotatoLegs","steam_id":76561198842472208,"connected_time":1832000000000,"state":"active","ping":83},{"user_id":527,"name":"Charlie","steam_id":76561199098209171,"connected_time":5307000000000,"state":"active","ping":83},{"user_id":558,"name":"Salda√±a","steam_id":76561198214473001,"connected_time":1546000000000,"state":"active","ping":73},{"user_id":501,"name":"wubber","steam_id":76561198286627157,"connected_time":6970000000000,"state":"active","ping":79},{"user_id":551,"name":"Cutimus *‚ô•‚Äß‚ÇäÀö","steam_id":76561198029813157,"connected_time":2419000000000,"state":"active","ping":85},{"user_id":517,"name":"mountain*‚ú©‚Äß‚ÇäÀö","steam_id":76561198078395002,"connected_time":6493000000000,"state":"active","ping":82},{"user_id":516,"name":"kira","steam_id":76561198277979851,"connected_time":6580000000000,"state":"active","ping":105},{"user_id":518,"name":"wf boberton","steam_id":76561198133102865,"connected_time":6432000000000,"state":"active","ping":70},{"user_id":515,"name":"apple bottom jeans (with rizz)","steam_id":76561198079488962,"connected_time":6659000000000,"state":"active","ping":118},{"user_id":489,"name":"Greg Boberton 2012","steam_id":76561198983566026,"connected_time":8047000000000,"state":"active","ping":84}]},{"server_id":108,"name":"Uncletopia | Dallas | 2 | All Maps","name_short":"dal-2","host":"dal-1.us.uncletopia.com","port":27025,"enabled":true,"region":"us-central","cc":"us","latitude":32.779167,"longitude":-96.80889,"reserved":0,"last_update":"0001-01-01T00:00:00Z","name_a2s":"Uncletopia | Dallas | 2 | All Maps","protocol":17,"map":"cp_steel","folder":"tf","game":"Team Fortress","app_id":440,"player_count":22,"max_players":24,"Bots":0,"server_type":"Dedicated","server_os":"Linux","password":true,"vac":true,"version":"7882260","steam_id":85568392924469988,"keywords":["cp","nocrits","nodmgspread","uncletopia"],"game_id":440,"stv_port":27026,"stv_name":"Uncletopia | Dallas | 2 | All Maps | STV","players":[{"user_id":439,"name":"Daanish","steam_id":76561198080556773,"connected_time":2585000000000,"state":"active","ping":65},{"user_id":433,"name":"Ann Ziegler (No Sound)","steam_id":76561198052249401,"connected_time":2861000000000,"state":"active","ping":71},{"user_id":460,"name":"bolainassr0","steam_id":76561199079078845,"connected_time":648000000000,"state":"active","ping":82},{"user_id":438,"name":"the smiling zombie","steam_id":76561199246231090,"connected_time":2623000000000,"state":"active","ping":74},{"user_id":468,"name":"smittenkittenmittens","steam_id":76561198130900442,"connected_time":102000000000,"state":"active","ping":121},{"user_id":464,"name":"Clumsy","steam_id":76561198056345245,"connected_time":401000000000,"state":"active","ping":60},{"user_id":461,"name":"Julimark","steam_id":76561198060434171,"connected_time":562000000000,"state":"active","ping":83},{"user_id":466,"name":"swiftyy","steam_id":76561198142939433,"connected_time":232000000000,"state":"active","ping":79},{"user_id":426,"name":"n99k","steam_id":76561198203732449,"connected_time":3059000000000,"state":"active","ping":75},{"user_id":441,"name":"Ryan","steam_id":76561198046600383,"connected_time":2520000000000,"state":"active","ping":62},{"user_id":452,"name":"Shabzoo","steam_id":76561198037638775,"connected_time":1482000000000,"state":"active","ping":84},{"user_id":446,"name":"A man with no plan","steam_id":76561198031075099,"connected_time":2420000000000,"state":"active","ping":115},{"user_id":372,"name":"CreepyCook","steam_id":76561198242874622,"connected_time":6292000000000,"state":"active","ping":63},{"user_id":448,"name":"ClosetBotany","steam_id":76561198088324821,"connected_time":1909000000000,"state":"active","ping":63},{"user_id":469,"name":"FI LO","steam_id":76561198976530881,"connected_time":1000000000,"state":"spawning","ping":46},{"user_id":419,"name":"my piss is neon yellow","steam_id":76561198257023512,"connected_time":3757000000000,"state":"active","ping":49},{"user_id":462,"name":"Gugomo","steam_id":76561198121428316,"connected_time":560000000000,"state":"active","ping":62},{"user_id":463,"name":"Patinaz","steam_id":76561198096920230,"connected_time":543000000000,"state":"active","ping":82},{"user_id":459,"name":"mr.edderkopper","steam_id":76561198152614478,"connected_time":731000000000,"state":"active","ping":66},{"user_id":455,"name":"zpalmtree","steam_id":76561198134307620,"connected_time":1410000000000,"state":"active","ping":90},{"user_id":373,"name":"M4tT","steam_id":76561198118764868,"connected_time":6275000000000,"state":"active","ping":55},{"user_id":449,"name":"DragonHeart","steam_id":76561198013245625,"connected_time":1831000000000,"state":"active","ping":70}]},{"server_id":5,"name":"Uncletopia | Frankfurt | 1 | All Maps","name_short":"frk-1","host":"frk-1.de.uncletopia.com","port":27015,"enabled":true,"region":"eu","cc":"de","latitude":50.110924,"longitude":8.682127,"reserved":0,"last_update":"0001-01-01T00:00:00Z","name_a2s":"Uncletopia | Frankfurt | 1 | All Maps","protocol":17,"map":"cp_process_final","folder":"tf","game":"Team Fortress","app_id":440,"player_count":0,"max_players":24,"Bots":0,"server_type":"Dedicated","server_os":"Linux","password":true,"vac":true,"version":"7882260","steam_id":85568392924469989,"keywords":["cp","nocrits","nodmgspread","uncletopia"],"game_id":440,"stv_port":27016,"stv_name":"Uncletopia | Frankfurt | 1 | All Maps | STV","players":null},{"server_id":110,"name":"Uncletopia | Frankfurt | 2 | All Maps","name_short":"frk-2","host":"frk-1.de.uncletopia.com","port":27025,"enabled":true,"region":"eu","cc":"de","latitude":50.110924,"longitude":8.682127,"reserved":0,"last_update":"0001-01-01T00:00:00Z","name_a2s":"Uncletopia | Frankfurt | 2 | All Maps","protocol":17,"map":"pl_swiftwater_final1","folder":"tf","game":"Team Fortress","app_id":440,"player_count":2,"max_players":24,"Bots":0,"server_type":"Dedicated","server_os":"Linux","password":true,"vac":true,"version":"7882260","steam_id":85568392924469990,"keywords":["nocrits","nodmgspread","payload","uncletopia"],"game_id":440,"stv_port":27026,"stv_name":"Uncletopia | Frankfurt | 2 | All Maps | STV","players":[{"user_id":3,"name":"Kaiki","steam_id":76561198429367825,"connected_time":285000000000,"state":"active","ping":106},{"user_id":4,"name":"PP_master69420","steam_id":76561199019913910,"connected_time":234000000000,"state":"active","ping":70}]},{"server_id":308,"name":"Uncletopia | Frankfurt | 3 | All Maps","name_short":"frk-3","host":"frk-1.de.uncletopia.com","port":27035,"enabled":true,"region":"eu","cc":"de","latitude":50.110924,"longitude":8.682127,"reserved":0,"last_update":"0001-01-01T00:00:00Z","name_a2s":"Uncletopia | Frankfurt | 3 | All Maps","protocol":17,"map":"pl_snowycoast","folder":"tf","game":"Team Fortress","app_id":440,"player_count":0,"max_players":24,"Bots":0,"server_type":"Dedicated","server_os":"Linux","password":true,"vac":true,"version":"7882260","steam_id":85568392924504274,"keywords":["nocrits","nodmgspread","payload","uncletopia"],"game_id":440,"stv_port":27036,"stv_name":"Uncletopia | Frankfurt | 3 | All Maps | STV","players":null},{"server_id":309,"name":"Uncletopia | Frankfurt | 4 | All Maps","name_short":"frk-4","host":"frk-1.de.uncletopia.com","port":27045,"enabled":true,"region":"eu","cc":"de","latitude":50.110924,"longitude":8.682127,"reserved":0,"last_update":"0001-01-01T00:00:00Z","name_a2s":"Uncletopia | Frankfurt | 4 | All Maps","protocol":17,"map":"cp_sunshine","folder":"tf","game":"Team Fortress","app_id":440,"player_count":0,"max_players":24,"Bots":0,"server_type":"Dedicated","server_os":"Linux","password":true,"vac":true,"version":"7882260","steam_id":85568392924504275,"keywords":["cp","nocrits","nodmgspread","uncletopia"],"game_id":440,"stv_port":27046,"stv_name":"Uncletopia | Frankfurt | 4 | All Maps | STV","players":null},{"server_id":310,"name":"Uncletopia | Frankfurt | 5 | All Maps","name_short":"frk-5","host":"frk-1.de.uncletopia.com","port":27055,"enabled":true,"region":"eu","cc":"de","latitude":50.110924,"longitude":8.682127,"reserved":0,"last_update":"0001-01-01T00:00:00Z","name_a2s":"Uncletopia | Frankfurt | 5 | All Maps","protocol":17,"map":"cp_mountainlab","folder":"tf","game":"Team Fortress","app_id":440,"player_count":0,"max_players":24,"Bots":0,"server_type":"Dedicated","server_os":"Linux","password":true,"vac":true,"version":"7882260","steam_id":85568392924504277,"keywords":["cp","nocrits","nodmgspread","uncletopia"],"game_id":440,"stv_port":27056,"stv_name":"Uncletopia | Frankfurt | 5 | All Maps | STV","players":null},{"server_id":311,"name":"Uncletopia | Frankfurt | 6 | All Maps","name_short":"frk-6","host":"frk-1.de.uncletopia.com","port":27065,"enabled":true,"region":"eu","cc":"de","latitude":50.110924,"longitude":8.682127,"reserved":0,"last_update":"0001-01-01T00:00:00Z","name_a2s":"Uncletopia | Frankfurt | 6 | All Maps","protocol":17,"map":"pl_badwater","folder":"tf","game":"Team Fortress","app_id":440,"player_count":0,"max_players":24,"Bots":0,"server_type":"Dedicated","server_os":"Linux","password":true,"vac":true,"version":"7882260","steam_id":85568392924504278,"keywords":["nocrits","nodmgspread","payload","uncletopia"],"game_id":440,"stv_port":27066,"stv_name":"Uncletopia | Frankfurt | 6 | All Maps | STV","players":null},{"server_id":23,"name":"Uncletopia | Frankfurt | 7 | Stopwatch Beta","name_short":"frk-7","host":"frk-1.de.uncletopia.com","port":27075,"enabled":true,"region":"eu","cc":"de","latitude":50.110924,"longitude":8.682127,"reserved":0,"last_update":"0001-01-01T00:00:00Z","name_a2s":"Uncletopia | Frankfurt | 7 | Stopwatch Beta","protocol":17,"map":"cp_dustbowl","folder":"tf","game":"Team Fortress","app_id":440,"player_count":0,"max_players":24,"Bots":0,"server_type":"Dedicated","server_os":"Linux","password":true,"vac":true,"version":"7882260","steam_id":85568392924742827,"keywords":["cp","nocrits","nodmgspread","uncletopia"],"game_id":440,"stv_port":27076,"stv_name":"Uncletopia | Frankfurt | 7 | Stopwatch Beta | STV","players":null},{"server_id":24,"name":"Uncletopia | Frankfurt | 8 | Community","name_short":"frk-8","host":"frk-1.de.uncletopia.com","port":27085,"enabled":true,"region":"eu","cc":"de","latitude":50.110924,"longitude":8.682127,"reserved":0,"last_update":"0001-01-01T00:00:00Z","name_a2s":"Uncletopia | Frankfurt | 8 | Community","protocol":17,"map":"koth_cascade","folder":"tf","game":"Team Fortress","app_id":440,"player_count":0,"max_players":24,"Bots":0,"server_type":"Dedicated","server_os":"Linux","password":true,"vac":true,"version":"7882260","steam_id":85568392924742828,"keywords":["cp","nocrits","nodmgspread","uncletopia"],"game_id":440,"stv_port":27086,"stv_name":"Uncletopia | Frankfurt | 8 | Community | STV","players":null},{"server_id":202,"name":"Uncletopia | Hong Kong | 1 | All Maps","name_short":"hgk-1","host":"hgk-1.hk.uncletopia.com","port":27015,"enabled":true,"region":"asia","cc":"hk","latitude":22.302711,"longitude":114.177216,"reserved":0,"last_update":"0001-01-01T00:00:00Z","name_a2s":"Uncletopia | Hong Kong | 1 | All Maps","protocol":17,"map":"cp_sunshine","folder":"tf","game":"Team Fortress","app_id":440,"player_count":24,"max_players":24,"Bots":0,"server_type":"Dedicated","server_os":"Linux","password":true,"vac":true,"version":"7882260","steam_id":85568392924494504,"keywords":["cp","nocrits","nodmgspread","uncletopia"],"game_id":440,"stv_port":27016,"stv_name":"Uncletopia | Hong Kong | 1 | All Maps | STV","players":[{"user_id":153,"name":"Momoxhien","steam_id":76561198414997429,"connected_time":2408000000000,"state":"active","ping":60},{"user_id":99,"name":"MeetTeMedic99","steam_id":76561199208706868,"connected_time":6233000000000,"state":"active","ping":123},{"user_id":132,"name":"vintage","steam_id":76561198230213828,"connected_time":3723000000000,"state":"active","ping":104},{"user_id":166,"name":"H·∫±ng Ra ƒë∆°","steam_id":76561199373637717,"connected_time":948000000000,"state":"active","ping":63},{"user_id":161,"name":"ÊØç„ÅÆËÇâÂõ£Â≠ê@hao123.com","steam_id":76561198069561896,"connected_time":1049000000000,"state":"active","ping":41},{"user_id":157,"name":"spinach (old mouse)","steam_id":76561198042539541,"connected_time":2097000000000,"state":"active","ping":79},{"user_id":158,"name":"bodacious bogey","steam_id":76561198055553140,"connected_time":1920000000000,"state":"active","ping":76},{"user_id":145,"name":"7853","steam_id":76561199390507975,"connected_time":2728000000000,"state":"active","ping":48},{"user_id":139,"name":"h","steam_id":76561199093572590,"connected_time":2932000000000,"state":"active","ping":66},{"user_id":97,"name":"JDSFE","steam_id":76561198975490851,"connected_time":6386000000000,"state":"active","ping":108},{"user_id":170,"name":"TomProPlayer","steam_id":76561199223292521,"connected_time":671000000000,"state":"active","ping":72},{"user_id":174,"name":"Stupid B","steam_id":76561198131423270,"connected_time":73000000000,"state":"active","ping":120},{"user_id":173,"name":"daigennki","steam_id":76561198046328609,"connected_time":199000000000,"state":"active","ping":99},{"user_id":177,"name":"Pizza_Jammies1345","steam_id":76561199228950246,"connected_time":51000000000,"state":"active","ping":146},{"user_id":175,"name":"johnpyro10","steam_id":76561199367040407,"connected_time":73000000000,"state":"active","ping":85},{"user_id":163,"name":"embr","steam_id":76561198048065303,"connected_time":1047000000000,"state":"active","ping":122},{"user_id":178,"name":"17","steam_id":76561198241530712,"connected_time":48000000000,"state":"active","ping":55},{"user_id":119,"name":"ksvk","steam_id":76561198152588681,"connected_time":5210000000000,"state":"active","ping":84},{"user_id":179,"name":"Noob","steam_id":76561199060468786,"connected_time":35000000000,"state":"active","ping":375},{"user_id":165,"name":"KARLA HOMOLKA","steam_id":76561199108354298,"connected_time":1030000000000,"state":"active","ping":116},{"user_id":133,"name":"Leroy","steam_id":76561199137927625,"connected_time":3438000000000,"state":"active","ping":93},{"user_id":141,"name":"NootNoot","steam_id":76561199122109977,"connected_time":2884000000000,"state":"active","ping":93},{"user_id":180,"name":"corpse_cadaver","steam_id":76561199225360457,"connected_time":31000000000,"state":"spawning","ping":37},{"user_id":160,"name":"Mega 00F","steam_id":76561198962485791,"connected_time":1918000000000,"state":"active","ping":124}]},{"server_id":1,"name":"Uncletopia | Los Angeles | 1 | All Maps","name_short":"lax-1","host":"lax-1.us.uncletopia.com","port":27015,"enabled":true,"region":"us-west","cc":"us","latitude":33.94279,"longitude":-118.41004,"reserved":0,"last_update":"0001-01-01T00:00:00Z","name_a2s":"Uncletopia | Los Angeles | 1 | All Maps","protocol":17,"map":"pl_swiftwater_final1","folder":"tf","game":"Team Fortress","app_id":440,"player_count":24,"max_players":24,"Bots":0,"server_type":"Dedicated","server_os":"Linux","password":true,"vac":true,"version":"7882260","steam_id":85568392924469991,"keywords":["nocrits","nodmgspread","payload","uncletopia"],"game_id":440,"stv_port":27016,"stv_name":"Uncletopia | Los Angeles | 1 | All Maps | STV","players":[{"user_id":513,"name":"Taekwondeshia OnlyFans","steam_id":76561198236109724,"connected_time":688000000000,"state":"active","ping":52},{"user_id":511,"name":"sneer","steam_id":76561199483226748,"connected_time":1213000000000,"state":"active","ping":114},{"user_id":517,"name":"vioxynteris","steam_id":76561198161428666,"connected_time":532000000000,"state":"active","ping":30},{"user_id":485,"name":"vuldrin","steam_id":76561198383695069,"connected_time":3655000000000,"state":"active","ping":62},{"user_id":495,"name":"JonBoy","steam_id":76561198082052480,"connected_time":2705000000000,"state":"active","ping":89},{"user_id":515,"name":"Polly Geist","steam_id":76561198271964253,"connected_time":554000000000,"state":"active","ping":107},{"user_id":518,"name":"Spaghetti","steam_id":76561199231170712,"connected_time":528000000000,"state":"active","ping":219},{"user_id":480,"name":"blood bath","steam_id":76561199001918194,"connected_time":3849000000000,"state":"active","ping":61},{"user_id":499,"name":"Kuudere","steam_id":76561198075028016,"connected_time":2604000000000,"state":"active","ping":89},{"user_id":488,"name":"big ol' buford","steam_id":76561198290675957,"connected_time":3364000000000,"state":"active","ping":75},{"user_id":522,"name":"Gentle Opp 3","steam_id":76561198150406851,"connected_time":80000000000,"state":"active","ping":56},{"user_id":519,"name":"orio","steam_id":76561198116550170,"connected_time":526000000000,"state":"active","ping":56},{"user_id":472,"name":"Fred","steam_id":76561197983870604,"connected_time":4207000000000,"state":"active","ping":53},{"user_id":500,"name":"Fluff Gaming","steam_id":76561198135969443,"connected_time":2560000000000,"state":"active","ping":73},{"user_id":521,"name":"drank baby","steam_id":76561199483723843,"connected_time":321000000000,"state":"active","ping":56},{"user_id":523,"name":"DRFEELGOOD","steam_id":76561198114603745,"connected_time":71000000000,"state":"active","ping":56},{"user_id":482,"name":"veryscaryreaper","steam_id":76561198380018244,"connected_time":3799000000000,"state":"active","ping":91},{"user_id":514,"name":"Gimme a Banana","steam_id":76561198087861668,"connected_time":566000000000,"state":"active","ping":68},{"user_id":507,"name":"LWebb","steam_id":76561199162936929,"connected_time":2225000000000,"state":"active","ping":83},{"user_id":520,"name":"Tech Deck","steam_id":76561199070437675,"connected_time":391000000000,"state":"active","ping":57},{"user_id":383,"name":"big car","steam_id":76561198067082350,"connected_time":14393000000000,"state":"active","ping":60},{"user_id":450,"name":"stboncho","steam_id":76561198172275301,"connected_time":6043000000000,"state":"active","ping":68},{"user_id":516,"name":"SneekiCheekiQbone","steam_id":76561198045077980,"connected_time":544000000000,"state":"active","ping":44},{"user_id":506,"name":"FROYO b4nny","steam_id":76561197970669109,"connected_time":2303000000000,"state":"active","ping":56}]},{"server_id":112,"name":"Uncletopia | Los Angeles | 2 | All Maps","name_short":"lax-2","host":"lax-1.us.uncletopia.com","port":27025,"enabled":true,"region":"us-west","cc":"us","latitude":33.94279,"longitude":-118.41004,"reserved":0,"last_update":"0001-01-01T00:00:00Z","name_a2s":"Uncletopia | Los Angeles | 2 | All Maps","protocol":17,"map":"pl_upward","folder":"tf","game":"Team Fortress","app_id":440,"player_count":24,"max_players":24,"Bots":0,"server_type":"Dedicated","server_os":"Linux","password":true,"vac":true,"version":"7882260","steam_id":85568392924469992,"keywords":["nocrits","nodmgspread","payload","uncletopia"],"game_id":440,"stv_port":27026,"stv_name":"Uncletopia | Los Angeles | 2 | All Maps | STV","players":[{"user_id":355,"name":"a chicken","steam_id":76561198313121580,"connected_time":95000000000,"state":"active","ping":45},{"user_id":324,"name":"MaDeuce","steam_id":76561198110732835,"connected_time":2515000000000,"state":"active","ping":90},{"user_id":351,"name":"NexFrost","steam_id":76561197985774837,"connected_time":597000000000,"state":"active","ping":68},{"user_id":322,"name":"sockgobblin","steam_id":76561198853494675,"connected_time":2668000000000,"state":"active","ping":75},{"user_id":310,"name":"DungeonKeeper","steam_id":76561199475507686,"connected_time":4023000000000,"state":"active","ping":103},{"user_id":338,"name":"Feel the bern","steam_id":76561198078824519,"connected_time":891000000000,"state":"active","ping":49},{"user_id":339,"name":"MasterCrafter27","steam_id":76561198151035981,"connected_time":857000000000,"state":"active","ping":87},{"user_id":340,"name":"accele—èator","steam_id":76561198046842513,"connected_time":825000000000,"state":"active","ping":65},{"user_id":342,"name":"pull up in that wtf","steam_id":76561198143132686,"connected_time":737000000000,"state":"active","ping":85},{"user_id":343,"name":"-L","steam_id":76561198046074220,"connected_time":704000000000,"state":"active","ping":39},{"user_id":326,"name":"Nez","steam_id":76561197963109059,"connected_time":1854000000000,"state":"active","ping":68},{"user_id":335,"name":"June","steam_id":76561198141803658,"connected_time":1021000000000,"state":"active","ping":46},{"user_id":330,"name":"takeshi_","steam_id":76561198148797456,"connected_time":1816000000000,"state":"active","ping":57},{"user_id":344,"name":"shittystripper","steam_id":76561198101012071,"connected_time":703000000000,"state":"active","ping":73},{"user_id":356,"name":"compass","steam_id":76561197991223433,"connected_time":69000000000,"state":"active","ping":69},{"user_id":346,"name":"ThatEmoEmu","steam_id":76561198272304706,"connected_time":682000000000,"state":"active","ping":102},{"user_id":348,"name":"Artic_Ryuu","steam_id":76561198182194918,"connected_time":665000000000,"state":"active","ping":43},{"user_id":357,"name":"Slim Charles","steam_id":76561197981687895,"connected_time":38000000000,"state":"active","ping":61},{"user_id":334,"name":"Chin, Bruce Lee's Relative","steam_id":76561198240105522,"connected_time":1079000000000,"state":"active","ping":111},{"user_id":352,"name":"sopmod","steam_id":76561198453203619,"connected_time":528000000000,"state":"active","ping":47},{"user_id":270,"name":"15inchcamboy","steam_id":76561199136651289,"connected_time":7047000000000,"state":"active","ping":78},{"user_id":353,"name":"confused","steam_id":76561199391930993,"connected_time":500000000000,"state":"active","ping":50},{"user_id":350,"name":"raya","steam_id":76561198051504581,"connected_time":638000000000,"state":"active","ping":76},{"user_id":354,"name":"Bald Rice","steam_id":76561199019142767,"connected_time":493000000000,"state":"active","ping":74}]},{"server_id":324,"name":"Uncletopia | Los Angeles | 3 | All Maps","name_short":"lax-3","host":"lax-1.us.uncletopia.com","port":27035,"enabled":true,"region":"us-west","cc":"us","latitude":33.94279,"longitude":-118.41004,"reserved":0,"last_update":"0001-01-01T00:00:00Z","name_a2s":"Uncletopia | Los Angeles | 3 | All Maps","protocol":17,"map":"cp_process_final","folder":"tf","game":"Team Fortress","app_id":440,"player_count":18,"max_players":24,"Bots":0,"server_type":"Dedicated","server_os":"Linux","password":true,"vac":true,"version":"7882260","steam_id":85568392924510198,"keywords":["cp","nocrits","nodmgspread","uncletopia"],"game_id":440,"stv_port":27036,"stv_name":"Uncletopia | Los Angeles | 3 | All Maps | STV","players":[{"user_id":444,"name":"Jones","steam_id":76561198046037216,"connected_time":21000000000,"state":"spawning","ping":96},{"user_id":423,"name":"NightmareTheCEO","steam_id":76561198349694120,"connected_time":1143000000000,"state":"active","ping":85},{"user_id":443,"name":"bob_2_","steam_id":76561198103511119,"connected_time":58000000000,"state":"active","ping":59},{"user_id":385,"name":"c a c t u s","steam_id":76561199273395913,"connected_time":4644000000000,"state":"active","ping":84},{"user_id":424,"name":"Twombly","steam_id":76561198056532348,"connected_time":1139000000000,"state":"active","ping":72},{"user_id":433,"name":"PinguEnjoyer6","steam_id":76561199186723516,"connected_time":445000000000,"state":"active","ping":37},{"user_id":334,"name":"Bandana Bullet","steam_id":76561198397347120,"connected_time":8497000000000,"state":"active","ping":88},{"user_id":432,"name":"Jard","steam_id":76561199224513814,"connected_time":530000000000,"state":"active","ping":45},{"user_id":421,"name":"porksoda","steam_id":76561198021451377,"connected_time":1216000000000,"state":"active","ping":67},{"user_id":429,"name":"cringy","steam_id":76561198323000455,"connected_time":910000000000,"state":"active","ping":59},{"user_id":426,"name":"Rusty","steam_id":76561198055585129,"connected_time":1079000000000,"state":"active","ping":74},{"user_id":434,"name":"Eyesac","steam_id":76561198839757321,"connected_time":429000000000,"state":"active","ping":55},{"user_id":431,"name":"Smellbow McArmpit","steam_id":76561198109445099,"connected_time":708000000000,"state":"active","ping":73},{"user_id":314,"name":"H-keyLF","steam_id":76561198376014891,"connected_time":9753000000000,"state":"active","ping":59},{"user_id":438,"name":"BoxCann0n","steam_id":76561199153390130,"connected_time":319000000000,"state":"active","ping":167},{"user_id":428,"name":"1738 gecs","steam_id":76561198058617608,"connected_time":1018000000000,"state":"active","ping":59},{"user_id":395,"name":"MonkeyNobody","steam_id":76561199451266605,"connected_time":3656000000000,"state":"active","ping":57},{"user_id":413,"name":"TheImmortalPyro","steam_id":76561198360333718,"connected_time":1936000000000,"state":"active","ping":82}]},{"server_id":25,"name":"Uncletopia | Los Angeles | 4 | Stopwatch Beta","name_short":"lax-4","host":"lax-1.us.uncletopia.com","port":27045,"enabled":true,"region":"us-west","cc":"us","latitude":33.94279,"longitude":-118.41004,"reserved":0,"last_update":"0001-01-01T00:00:00Z","name_a2s":"Uncletopia | Los Angeles | 4 | Stopwatch Beta","protocol":17,"map":"workshop/pl_badwater_pro_v12.ugc2142942074","folder":"tf","game":"Team Fortress","app_id":440,"player_count":0,"max_players":24,"Bots":0,"server_type":"Dedicated","server_os":"Linux","password":true,"vac":true,"version":"7882260","steam_id":85568392924510199,"keywords":["nocrits","nodmgspread","payload","uncletopia"],"game_id":440,"stv_port":27046,"stv_name":"Uncletopia | Los Angeles | 4 | Stopwatch Beta | STV","players":null},{"server_id":11,"name":"Uncletopia | London | 1 | All Maps","name_short":"lon-1","host":"lon-1.uk.uncletopia.com","port":27015,"enabled":true,"region":"eu","cc":"gb","latitude":51.509865,"longitude":-0.118092,"reserved":0,"last_update":"0001-01-01T00:00:00Z","name_a2s":"Uncletopia | London | 1 | All Maps","protocol":17,"map":"cp_process_final","folder":"tf","game":"Team Fortress","app_id":440,"player_count":0,"max_players":24,"Bots":0,"server_type":"Dedicated","server_os":"Linux","password":true,"vac":true,"version":"7882260","steam_id":85568392924367362,"keywords":["cp","nocrits","nodmgspread","uncletopia"],"game_id":440,"stv_port":27016,"stv_name":"Uncletopia | London | 1 | All Maps | STV","players":null},{"server_id":114,"name":"Uncletopia | London | 2 | All Maps","name_short":"lon-2","host":"lon-1.uk.uncletopia.com","port":27025,"enabled":true,"region":"eu","cc":"gb","latitude":51.509865,"longitude":-0.118092,"reserved":0,"last_update":"0001-01-01T00:00:00Z","name_a2s":"Uncletopia | London | 2 | All Maps","protocol":17,"map":"pl_swiftwater_final1","folder":"tf","game":"Team Fortress","app_id":440,"player_count":0,"max_players":24,"Bots":0,"server_type":"Dedicated","server_os":"Linux","password":true,"vac":true,"version":"7882260","steam_id":85568392924470941,"keywords":["nocrits","nodmgspread","payload","uncletopia"],"game_id":440,"stv_port":27026,"stv_name":"Uncletopia | London | 2 | All Maps | STV","players":null},{"server_id":320,"name":"Uncletopia | London | 3 | All Maps","name_short":"lon-3","host":"lon-1.uk.uncletopia.com","port":27035,"enabled":true,"region":"eu","cc":"gb","latitude":51.509865,"longitude":-0.118092,"reserved":0,"last_update":"0001-01-01T00:00:00Z","name_a2s":"Uncletopia | London | 3 | All Maps","protocol":17,"map":"koth_highpass","folder":"tf","game":"Team Fortress","app_id":440,"player_count":0,"max_players":24,"Bots":0,"server_type":"Dedicated","server_os":"Linux","password":true,"vac":true,"version":"7882260","steam_id":85568392924510192,"keywords":["cp","nocrits","nodmgspread","uncletopia"],"game_id":440,"stv_port":27036,"stv_name":"Uncletopia | London | 3 | All Maps | STV","players":null},{"server_id":321,"name":"Uncletopia | London | 4 | All Maps","name_short":"lon-4","host":"lon-1.uk.uncletopia.com","port":27045,"enabled":true,"region":"eu","cc":"gb","latitude":51.509865,"longitude":-0.118092,"reserved":0,"last_update":"0001-01-01T00:00:00Z","name_a2s":"Uncletopia | London | 4 | All Maps","protocol":17,"map":"pl_upward","folder":"tf","game":"Team Fortress","app_id":440,"player_count":0,"max_players":24,"Bots":0,"server_type":"Dedicated","server_os":"Linux","password":true,"vac":true,"version":"7882260","steam_id":85568392924510193,"keywords":["nocrits","nodmgspread","payload","uncletopia"],"game_id":440,"stv_port":27046,"stv_name":"Uncletopia | London | 4 | All Maps | STV","players":null},{"server_id":21,"name":"Uncletopia | London | 5 | All Maps","name_short":"lon-5","host":"lon-1.uk.uncletopia.com","port":27055,"enabled":true,"region":"eu","cc":"gb","latitude":51.509865,"longitude":-0.118092,"reserved":0,"last_update":"0001-01-01T00:00:00Z","name_a2s":"Uncletopia | London | 5 | All Maps","protocol":17,"map":"pl_frontier_final","folder":"tf","game":"Team Fortress","app_id":440,"player_count":0,"max_players":24,"Bots":0,"server_type":"Dedicated","server_os":"Linux","password":true,"vac":true,"version":"7882260","steam_id":85568392924742829,"keywords":["nocrits","nodmgspread","payload","uncletopia"],"game_id":440,"stv_port":27056,"stv_name":"Uncletopia | London | 5 | All Maps | STV","players":null},{"server_id":22,"name":"Uncletopia | London | 6 | All Maps","name_short":"lon-6","host":"lon-1.uk.uncletopia.com","port":27065,"enabled":true,"region":"eu","cc":"gb","latitude":51.509865,"longitude":-0.118092,"reserved":0,"last_update":"0001-01-01T00:00:00Z","name_a2s":"Uncletopia | London | 6 | All Maps","protocol":17,"map":"pl_frontier_final","folder":"tf","game":"Team Fortress","app_id":440,"player_count":17,"max_players":24,"Bots":0,"server_type":"Dedicated","server_os":"Linux","password":true,"vac":true,"version":"7882260","steam_id":85568392924742830,"keywords":["nocrits","nodmgspread","payload","uncletopia"],"game_id":440,"stv_port":27066,"stv_name":"Uncletopia | London | 6 | All Maps | STV","players":[{"user_id":3,"name":"spxcy","steam_id":76561198080296853,"connected_time":3241000000000,"state":"active","ping":92},{"user_id":32,"name":"night.s","steam_id":76561198326287823,"connected_time":373000000000,"state":"active","ping":74},{"user_id":5,"name":"Neimon","steam_id":76561198343485710,"connected_time":3228000000000,"state":"active","ping":124},{"user_id":7,"name":"Kokos","steam_id":76561198085501501,"connected_time":3194000000000,"state":"active","ping":85},{"user_id":27,"name":"Volmari","steam_id":76561198054253542,"connected_time":1089000000000,"state":"active","ping":80},{"user_id":24,"name":"Frylock","steam_id":76561198050292560,"connected_time":1307000000000,"state":"active","ping":45},{"user_id":25,"name":"johncenx","steam_id":76561198366703672,"connected_time":1284000000000,"state":"active","ping":79},{"user_id":37,"name":"vadim_kotler","steam_id":76561199016634369,"connected_time":80000000000,"state":"active","ping":122},{"user_id":30,"name":"Genuine","steam_id":76561197966295765,"connected_time":628000000000,"state":"active","ping":47},{"user_id":21,"name":"B.batt","steam_id":76561198998684199,"connected_time":1615000000000,"state":"active","ping":129},{"user_id":16,"name":"boom","steam_id":76561199004664917,"connected_time":2158000000000,"state":"active","ping":93},{"user_id":31,"name":"Zygocact","steam_id":76561197990776598,"connected_time":615000000000,"state":"active","ping":135},{"user_id":26,"name":"AnalPenetrator","steam_id":76561199010695727,"connected_time":1245000000000,"state":"active","ping":106},{"user_id":34,"name":"Zama","steam_id":76561199121691104,"connected_time":178000000000,"state":"active","ping":45},{"user_id":29,"name":"$t@lker_Tim","steam_id":76561198963658042,"connected_time":933000000000,"state":"active","ping":124},{"user_id":35,"name":"christoph","steam_id":76561198862617811,"connected_time":177000000000,"state":"active","ping":72},{"user_id":36,"name":"Zeyo","steam_id":76561198110198881,"connected_time":173000000000,"state":"active","ping":74}]},{"server_id":40,"name":"Uncletopia | London | 7 | No Payload","name_short":"lon-7","host":"lon-1.uk.uncletopia.com","port":27075,"enabled":true,"region":"eu","cc":"gb","latitude":51.509865,"longitude":-0.118092,"reserved":0,"last_update":"0001-01-01T00:00:00Z","name_a2s":"Uncletopia | London | 7 | No Payload","protocol":17,"map":"pl_pier","folder":"tf","game":"Team Fortress","app_id":440,"player_count":0,"max_players":24,"Bots":0,"server_type":"Dedicated","server_os":"Linux","password":true,"vac":true,"version":"7882260","steam_id":85568392924964314,"keywords":["nocrits","nodmgspread","payload","uncletopia"],"game_id":440,"stv_port":27076,"stv_name":"Uncletopia | London | 7 | No Payload | STV","players":null},{"server_id":41,"name":"Uncletopia | London | 8 | Community","name_short":"lon-8","host":"lon-1.uk.uncletopia.com","port":27085,"enabled":true,"region":"eu","cc":"gb","latitude":51.509865,"longitude":-0.118092,"reserved":0,"last_update":"0001-01-01T00:00:00Z","name_a2s":"Uncletopia | London | 8 | Community","protocol":17,"map":"pl_swiftwater_final1","folder":"tf","game":"Team Fortress","app_id":440,"player_count":0,"max_players":24,"Bots":0,"server_type":"Dedicated","server_os":"Linux","password":true,"vac":true,"version":"7882260","steam_id":85568392924964315,"keywords":["nocrits","nodmgspread","payload","uncletopia"],"game_id":440,"stv_port":27086,"stv_name":"Uncletopia | London | 8 | Community | STV","players":null},{"server_id":300,"name":"Uncletopia | Montr√©al | 1 | All Maps","name_short":"mtl-1","host":"mtl-1.ca.uncletopia.com","port":27015,"enabled":true,"region":"us-east","cc":"ca","latitude":45.50889,"longitude":-73.56167,"reserved":0,"last_update":"0001-01-01T00:00:00Z","name_a2s":"Uncletopia | Montr√©al | 1 | All Maps","protocol":17,"map":"pl_barnblitz","folder":"tf","game":"Team Fortress","app_id":440,"player_count":0,"max_players":24,"Bots":0,"server_type":"Dedicated","server_os":"Linux","password":true,"vac":true,"version":"7882260","steam_id":85568392924500087,"keywords":["nocrits","nodmgspread","payload","uncletopia"],"game_id":440,"stv_port":27016,"stv_name":"Uncletopia | Montr√©al | 1 | All Maps | STV","players":null},{"server_id":301,"name":"Uncletopia | Montr√©al | 2 | All Maps","name_short":"mtl-2","host":"mtl-1.ca.uncletopia.com","port":27025,"enabled":true,"region":"us-east","cc":"ca","latitude":45.50889,"longitude":-73.56167,"reserved":0,"last_update":"0001-01-01T00:00:00Z","name_a2s":"Uncletopia | Montr√©al | 2 | All Maps","protocol":17,"map":"koth_highpass","folder":"tf","game":"Team Fortress","app_id":440,"player_count":0,"max_players":24,"Bots":0,"server_type":"Dedicated","server_os":"Linux","password":true,"vac":true,"version":"7882260","steam_id":85568392924500088,"keywords":["cp","nocrits","nodmgspread","uncletopia"],"game_id":440,"stv_port":27026,"stv_name":"Uncletopia | Montr√©al | 2 | All Maps | STV","players":null},{"server_id":302,"name":"Uncletopia | Montr√©al | 3 | All Maps","name_short":"mtl-3","host":"mtl-1.ca.uncletopia.com","port":27035,"enabled":true,"region":"us-east","cc":"ca","latitude":45.50889,"longitude":-73.56167,"reserved":0,"last_update":"0001-01-01T00:00:00Z","name_a2s":"Uncletopia | Montr√©al | 3 | All Maps","protocol":17,"map":"koth_cascade","folder":"tf","game":"Team Fortress","app_id":440,"player_count":0,"max_players":24,"Bots":0,"server_type":"Dedicated","server_os":"Linux","password":true,"vac":true,"version":"7882260","steam_id":85568392924500089,"keywords":["cp","nocrits","nodmgspread","uncletopia"],"game_id":440,"stv_port":27036,"stv_name":"Uncletopia | Montr√©al | 3 | All Maps | STV","players":null},{"server_id":303,"name":"Uncletopia | Montr√©al | 4 | No Payload","name_short":"mtl-4","host":"mtl-1.ca.uncletopia.com","port":27045,"enabled":true,"region":"us-east","cc":"ca","latitude":45.50889,"longitude":-73.56167,"reserved":0,"last_update":"0001-01-01T00:00:00Z","name_a2s":"Uncletopia | Montr√©al | 4 | No Payload","protocol":17,"map":"koth_nucleus","folder":"tf","game":"Team Fortress","app_id":440,"player_count":0,"max_players":24,"Bots":0,"server_type":"Dedicated","server_os":"Linux","password":true,"vac":true,"version":"7882260","steam_id":85568392924500090,"keywords":["cp","nocrits","nodmgspread","uncletopia"],"game_id":440,"stv_port":27046,"stv_name":"Uncletopia | Montr√©al | 4 | No Payload | STV","players":null},{"server_id":13,"name":"Uncletopia | New York City | 1 | All Maps","name_short":"nyc-1","host":"nyc-1.us.uncletopia.com","port":27015,"enabled":true,"region":"us-east","cc":"us","latitude":40.73061,"longitude":-73.93524,"reserved":0,"last_update":"0001-01-01T00:00:00Z","name_a2s":"Uncletopia | New York City | 1 | All Maps","protocol":17,"map":"cp_egypt_final","folder":"tf","game":"Team Fortress","app_id":440,"player_count":22,"max_players":24,"Bots":0,"server_type":"Dedicated","server_os":"Linux","password":true,"vac":true,"version":"7882260","steam_id":85568392924469993,"keywords":["cp","nocrits","nodmgspread","uncletopia"],"game_id":440,"stv_port":27016,"stv_name":"Uncletopia | New York City | 1 | All Maps | STV","players":[{"user_id":710,"name":"Khaiden","steam_id":76561198104454754,"connected_time":4765000000000,"state":"active","ping":159},{"user_id":754,"name":"BigOrca54","steam_id":76561198181360271,"connected_time":2244000000000,"state":"active","ping":74},{"user_id":749,"name":"Kdash","steam_id":76561198043829155,"connected_time":2424000000000,"state":"active","ping":96},{"user_id":780,"name":"noah","steam_id":76561198173310157,"connected_time":813000000000,"state":"active","ping":67},{"user_id":699,"name":"Snoogs","steam_id":76561198444880931,"connected_time":5985000000000,"state":"active","ping":64},{"user_id":738,"name":"Ypuoi","steam_id":76561198170203261,"connected_time":2985000000000,"state":"active","ping":118},{"user_id":784,"name":"Joel the Green Wizard","steam_id":76561198097800277,"connected_time":131000000000,"state":"active","ping":65},{"user_id":736,"name":"Aristotle Voulton","steam_id":76561198100174923,"connected_time":3077000000000,"state":"active","ping":87},{"user_id":781,"name":"BigDeac","steam_id":76561198091237274,"connected_time":715000000000,"state":"active","ping":71},{"user_id":764,"name":"Anthoneeee","steam_id":76561199209220671,"connected_time":1391000000000,"state":"active","ping":119},{"user_id":768,"name":"Sho' Nuff, the Shogun of Harlem","steam_id":76561198010708247,"connected_time":1318000000000,"state":"active","ping":67},{"user_id":774,"name":"Error 4 Oh Four","steam_id":76561198121637567,"connected_time":1021000000000,"state":"active","ping":76},{"user_id":760,"name":"Tony hawks pro skater 2 dlc","steam_id":76561198243387974,"connected_time":1904000000000,"state":"active","ping":54},{"user_id":783,"name":"ivy^","steam_id":76561198986849199,"connected_time":275000000000,"state":"active","ping":135},{"user_id":785,"name":"BasicPeaches","steam_id":76561198190890150,"connected_time":32000000000,"state":"active","ping":70},{"user_id":761,"name":"Periculosum PhD in Funny","steam_id":76561198123370914,"connected_time":1885000000000,"state":"active","ping":87},{"user_id":786,"name":"thixon","steam_id":76561198046655575,"connected_time":28000000000,"state":"active","ping":45},{"user_id":770,"name":"Spring Beans","steam_id":76561197978546259,"connected_time":1243000000000,"state":"active","ping":75},{"user_id":742,"name":"BeanBandito","steam_id":76561198147970778,"connected_time":2908000000000,"state":"active","ping":56},{"user_id":743,"name":"The Pill","steam_id":76561198164782423,"connected_time":2905000000000,"state":"active","ping":54},{"user_id":778,"name":"ballsackfondler9000","steam_id":76561198332667074,"connected_time":933000000000,"state":"active","ping":64},{"user_id":782,"name":"DonutKillMe","steam_id":76561198160221212,"connected_time":538000000000,"state":"active","ping":75}]},{"server_id":14,"name":"Uncletopia | New York City | 2 | All Maps","name_short":"nyc-2","host":"nyc-1.us.uncletopia.com","port":27025,"enabled":true,"region":"us-east","cc":"us","latitude":40.73061,"longitude":-73.93524,"reserved":0,"last_update":"0001-01-01T00:00:00Z","name_a2s":"Uncletopia | New York City | 2 | All Maps","protocol":17,"map":"koth_lakeside_final","folder":"tf","game":"Team Fortress","app_id":440,"player_count":0,"max_players":24,"Bots":0,"server_type":"Dedicated","server_os":"Linux","password":true,"vac":true,"version":"7882260","steam_id":85568392924469994,"keywords":["cp","nocrits","nodmgspread","uncletopia"],"game_id":440,"stv_port":27026,"stv_name":"Uncletopia | New York City | 2 | All Maps | STV","players":null},{"server_id":15,"name":"Uncletopia | New York City | 3 | Stopwatch Beta","name_short":"nyc-3","host":"nyc-1.us.uncletopia.com","port":27035,"enabled":true,"region":"us-east","cc":"us","latitude":40.73061,"longitude":-73.93524,"reserved":0,"last_update":"0001-01-01T00:00:00Z","name_a2s":"Uncletopia | New York City | 3 | Stopwatch Beta","protocol":17,"map":"pl_borneo","folder":"tf","game":"Team Fortress","app_id":440,"player_count":0,"max_players":24,"Bots":0,"server_type":"Dedicated","server_os":"Linux","password":true,"vac":true,"version":"7882260","steam_id":85568392924742820,"keywords":["nocrits","nodmgspread","payload","uncletopia"],"game_id":440,"stv_port":27036,"stv_name":"Uncletopia | New York City | 3 | Stopwatch Beta | STV","players":null},{"server_id":16,"name":"Uncletopia | New York City | 4 | Community","name_short":"nyc-4","host":"nyc-1.us.uncletopia.com","port":27045,"enabled":true,"region":"us-east","cc":"us","latitude":40.73061,"longitude":-73.93524,"reserved":0,"last_update":"0001-01-01T00:00:00Z","name_a2s":"Uncletopia | New York City | 4 | Community","protocol":17,"map":"workshop/pl_fifthcurve_rc1.ugc648227046","folder":"tf","game":"Team Fortress","app_id":440,"player_count":21,"max_players":24,"Bots":0,"server_type":"Dedicated","server_os":"Linux","password":true,"vac":true,"version":"7882260","steam_id":85568392924742821,"keywords":["nocrits","nodmgspread","payload","uncletopia"],"game_id":440,"stv_port":27046,"stv_name":"Uncletopia | New York City | 4 | Community | STV","players":[{"user_id":404,"name":"Cluwn","steam_id":76561198001336085,"connected_time":98000000000,"state":"active","ping":87},{"user_id":376,"name":"olifur","steam_id":76561198045607732,"connected_time":2361000000000,"state":"active","ping":49},{"user_id":389,"name":"Hook, Line, and Sphincter","steam_id":76561198078207743,"connected_time":847000000000,"state":"active","ping":42},{"user_id":351,"name":"skosgo -eg","steam_id":76561197996403345,"connected_time":4368000000000,"state":"active","ping":114},{"user_id":390,"name":"erf","steam_id":76561198078203677,"connected_time":846000000000,"state":"active","ping":45},{"user_id":398,"name":"xxXStealthSuppositoriesXxx","steam_id":76561198075235541,"connected_time":236000000000,"state":"active","ping":140},{"user_id":309,"name":"Engiqueer","steam_id":76561198214080773,"connected_time":8451000000000,"state":"active","ping":67},{"user_id":399,"name":"Mighty","steam_id":76561198096569755,"connected_time":218000000000,"state":"active","ping":127},{"user_id":350,"name":"Dovy","steam_id":76561198308973032,"connected_time":4377000000000,"state":"active","ping":74},{"user_id":355,"name":"trobort","steam_id":76561198027150357,"connected_time":4310000000000,"state":"active","ping":88},{"user_id":352,"name":"arryuriru","steam_id":76561198043491837,"connected_time":4366000000000,"state":"active","ping":69},{"user_id":394,"name":"james.massey.2007","steam_id":76561198113716047,"connected_time":441000000000,"state":"active","ping":56},{"user_id":353,"name":"rockstar like pink floyd","steam_id":76561198099463706,"connected_time":4353000000000,"state":"active","ping":87},{"user_id":362,"name":"Misty Blu ‚úø","steam_id":76561198011442255,"connected_time":3609000000000,"state":"active","ping":106},{"user_id":356,"name":"Mr.Bady","steam_id":76561199094651706,"connected_time":4241000000000,"state":"active","ping":61},{"user_id":400,"name":"Drew","steam_id":76561198042864345,"connected_time":169000000000,"state":"active","ping":84},{"user_id":401,"name":"ianErick","steam_id":76561198000739125,"connected_time":165000000000,"state":"active","ping":66},{"user_id":402,"name":"SKOSGO HUNTER","steam_id":76561198038523571,"connected_time":138000000000,"state":"active","ping":101},{"user_id":403,"name":"RailRunner66","steam_id":76561198053779091,"connected_time":138000000000,"state":"active","ping":103},{"user_id":405,"name":"Sam","steam_id":76561198043918040,"connected_time":93000000000,"state":"active","ping":85},{"user_id":340,"name":"Unlicensed Therapist","steam_id":76561199207814518,"connected_time":5880000000000,"state":"active","ping":114}]},{"server_id":142,"name":"Uncletopia | S√£o Paulo | 1 | All Maps","name_short":"sao-1","host":"sao-1.br.uncletopia.com","port":27015,"enabled":true,"region":"sa","cc":"br","latitude":-23.533773,"longitude":-46.62529,"reserved":0,"last_update":"0001-01-01T00:00:00Z","name_a2s":"Uncletopia | S√£o Paulo | 1 | All Maps","protocol":17,"map":"koth_highpass","folder":"tf","game":"Team Fortress","app_id":440,"player_count":0,"max_players":24,"Bots":0,"server_type":"Dedicated","server_os":"Linux","password":true,"vac":true,"version":"7882260","steam_id":85568392924469996,"keywords":["cp","nocrits","nodmgspread","uncletopia"],"game_id":440,"stv_port":27016,"stv_name":"Uncletopia | S√£o Paulo | 1 | All Maps | STV","players":null},{"server_id":143,"name":"Uncletopia | S√£o Paulo | 2 | All Maps","name_short":"sao-2","host":"sao-2.br.uncletopia.com","port":27015,"enabled":true,"region":"sa","cc":"br","latitude":-23.533773,"longitude":-46.62529,"reserved":0,"last_update":"0001-01-01T00:00:00Z","name_a2s":"Uncletopia | S√£o Paulo | 2 | All Maps","protocol":17,"map":"koth_viaduct","folder":"tf","game":"Team Fortress","app_id":440,"player_count":0,"max_players":24,"Bots":0,"server_type":"Dedicated","server_os":"Linux","password":true,"vac":true,"version":"7882260","steam_id":85568392924485349,"keywords":["cp","nocrits","nodmgspread","uncletopia"],"game_id":440,"stv_port":27016,"stv_name":"Uncletopia | S√£o Paulo | 2 | All Maps | STV","players":null},{"server_id":7,"name":"Uncletopia | Seattle | 1 | All Maps","name_short":"sea-1","host":"sea-1.us.uncletopia.com","port":27015,"enabled":true,"region":"us-west","cc":"us","latitude":47.608013,"longitude":-122.33517,"reserved":0,"last_update":"0001-01-01T00:00:00Z","name_a2s":"Uncletopia | Seattle | 1 | All Maps","protocol":17,"map":"cp_powerhouse","folder":"tf","game":"Team Fortress","app_id":440,"player_count":24,"max_players":24,"Bots":0,"server_type":"Dedicated","server_os":"Linux","password":true,"vac":true,"version":"7882260","steam_id":85568392924469997,"keywords":["cp","nocrits","nodmgspread","uncletopia"],"game_id":440,"stv_port":27016,"stv_name":"Uncletopia | Seattle | 1 | All Maps | STV","players":[{"user_id":673,"name":"Shmoggledyne","steam_id":76561198130038345,"connected_time":1195000000000,"state":"active","ping":59},{"user_id":665,"name":"oil","steam_id":76561198099980149,"connected_time":2571000000000,"state":"active","ping":75},{"user_id":646,"name":"Thanks Ants","steam_id":76561197966221018,"connected_time":4224000000000,"state":"active","ping":55},{"user_id":666,"name":"mega","steam_id":76561198089520959,"connected_time":2563000000000,"state":"active","ping":93},{"user_id":680,"name":"Antwan","steam_id":76561198246200638,"connected_time":527000000000,"state":"active","ping":98},{"user_id":644,"name":"„Åµ„Çè„Åµ„ÇèÊØõÂ∏É","steam_id":76561198088403016,"connected_time":4516000000000,"state":"active","ping":182},{"user_id":660,"name":"pyrotechnic","steam_id":76561198043558709,"connected_time":2587000000000,"state":"active","ping":48},{"user_id":663,"name":"Ayayayayayahuasca","steam_id":76561199002906056,"connected_time":2577000000000,"state":"active","ping":50},{"user_id":638,"name":"ORANGE","steam_id":76561198000401769,"connected_time":5133000000000,"state":"active","ping":45},{"user_id":597,"name":"roryisonamobilehotspot","steam_id":76561198065825165,"connected_time":8924000000000,"state":"active","ping":97},{"user_id":664,"name":"Sweets","steam_id":76561198998446307,"connected_time":2575000000000,"state":"active","ping":70},{"user_id":611,"name":"dougrocks421","steam_id":76561198165063918,"connected_time":8359000000000,"state":"active","ping":34},{"user_id":681,"name":"h","steam_id":76561198868164815,"connected_time":460000000000,"state":"active","ping":56},{"user_id":637,"name":"El Gato Paranoico","steam_id":76561198116567116,"connected_time":5140000000000,"state":"active","ping":126},{"user_id":668,"name":"bota box burglar","steam_id":76561198134309750,"connected_time":2558000000000,"state":"active","ping":112},{"user_id":670,"name":"smeasly got the dab pen","steam_id":76561198028718812,"connected_time":2248000000000,"state":"active","ping":41},{"user_id":674,"name":"Arsonist Goose","steam_id":76561198147441830,"connected_time":1188000000000,"state":"active","ping":68},{"user_id":651,"name":"Stev the Prurient Oxymoron","steam_id":76561197999442625,"connected_time":3037000000000,"state":"active","ping":63},{"user_id":679,"name":"Stick Drift","steam_id":76561199019675078,"connected_time":1018000000000,"state":"active","ping":124},{"user_id":682,"name":"Dawk Rawk","steam_id":76561197996027396,"connected_time":454000000000,"state":"active","ping":116},{"user_id":612,"name":"Anthid","steam_id":76561198074493797,"connected_time":8200000000000,"state":"active","ping":75},{"user_id":662,"name":"fartstreaks active","steam_id":76561198046073848,"connected_time":2587000000000,"state":"active","ping":47},{"user_id":677,"name":"PopcornBucketGames","steam_id":76561199089562026,"connected_time":1053000000000,"state":"active","ping":49},{"user_id":555,"name":"Battery Acid Slurper","steam_id":76561198439793697,"connected_time":12940000000000,"state":"active","ping":109}]},{"server_id":119,"name":"Uncletopia | Seattle | 2 | All Maps","name_short":"sea-2","host":"sea-1.us.uncletopia.com","port":27025,"enabled":true,"region":"us-west","cc":"us","latitude":47.608013,"longitude":-122.33517,"reserved":0,"last_update":"0001-01-01T00:00:00Z","name_a2s":"Uncletopia | Seattle | 2 | All Maps","protocol":17,"map":"pl_upward","folder":"tf","game":"Team Fortress","app_id":440,"player_count":24,"max_players":24,"Bots":0,"server_type":"Dedicated","server_os":"Linux","password":true,"vac":true,"version":"7882260","steam_id":85568392924469998,"keywords":["nocrits","nodmgspread","payload","uncletopia"],"game_id":440,"stv_port":27026,"stv_name":"Uncletopia | Seattle | 2 | All Maps | STV","players":[{"user_id":650,"name":"Bagoool","steam_id":76561198065368286,"connected_time":6529000000000,"state":"active","ping":72},{"user_id":698,"name":"American Dad Funny Moments #32","steam_id":76561198254874328,"connected_time":590000000000,"state":"active","ping":59},{"user_id":683,"name":"Dongus","steam_id":76561197979056451,"connected_time":2005000000000,"state":"active","ping":45},{"user_id":696,"name":"SmallErection","steam_id":76561198071770147,"connected_time":1027000000000,"state":"active","ping":62},{"user_id":674,"name":"lite","steam_id":76561198041535914,"connected_time":3372000000000,"state":"active","ping":84},{"user_id":595,"name":"General Fisticuffs","steam_id":76561198255721392,"connected_time":10374000000000,"state":"active","ping":105},{"user_id":681,"name":"The Professor","steam_id":76561198046165617,"connected_time":2247000000000,"state":"active","ping":124},{"user_id":686,"name":"HideOnTate","steam_id":76561198209880837,"connected_time":1984000000000,"state":"active","ping":45},{"user_id":700,"name":"blorbule","steam_id":76561198872316133,"connected_time":373000000000,"state":"active","ping":71},{"user_id":695,"name":"super smash2josh","steam_id":76561198140864125,"connected_time":1436000000000,"state":"active","ping":64},{"user_id":699,"name":"BuysideElitist","steam_id":76561198068672882,"connected_time":540000000000,"state":"active","ping":69},{"user_id":656,"name":"Seriously Bruh","steam_id":76561198070408485,"connected_time":5734000000000,"state":"active","ping":59},{"user_id":697,"name":"goldhed","steam_id":76561198051751133,"connected_time":1021000000000,"state":"active","ping":62},{"user_id":654,"name":"T√ºCold","steam_id":76561198111278197,"connected_time":5881000000000,"state":"active","ping":59},{"user_id":701,"name":"hatsune miku‚ô°","steam_id":76561199445009981,"connected_time":345000000000,"state":"active","ping":48},{"user_id":690,"name":"Faefanger","steam_id":76561198201871002,"connected_time":1895000000000,"state":"active","ping":94},{"user_id":655,"name":"PillCosby","steam_id":76561199396184696,"connected_time":5862000000000,"state":"active","ping":57},{"user_id":689,"name":"Dive(z)","steam_id":76561198140843225,"connected_time":1930000000000,"state":"active","ping":111},{"user_id":702,"name":"Empty","steam_id":76561198289696924,"connected_time":228000000000,"state":"active","ping":85},{"user_id":676,"name":"Orb of Macaroni","steam_id":76561198080851298,"connected_time":2667000000000,"state":"active","ping":74},{"user_id":694,"name":"Samvich","steam_id":76561198263319227,"connected_time":1540000000000,"state":"active","ping":63},{"user_id":704,"name":"hosewater","steam_id":76561198023383126,"connected_time":50000000000,"state":"active","ping":51},{"user_id":703,"name":"Blows","steam_id":76561198065349185,"connected_time":190000000000,"state":"active","ping":77},{"user_id":691,"name":"Tea","steam_id":76561198004133638,"connected_time":1862000000000,"state":"active","ping":89}]},{"server_id":406,"name":"Uncletopia | Seattle | 3 | Stopwatch Beta","name_short":"sea-3","host":"sea-1.us.uncletopia.com","port":27035,"enabled":true,"region":"us-west","cc":"us","latitude":47.608013,"longitude":-122.33517,"reserved":0,"last_update":"0001-01-01T00:00:00Z","name_a2s":"Uncletopia | Seattle | 3 | Stopwatch Beta","protocol":17,"map":"pl_swiftwater_final1","folder":"tf","game":"Team Fortress","app_id":440,"player_count":0,"max_players":24,"Bots":0,"server_type":"Dedicated","server_os":"Linux","password":true,"vac":true,"version":"7882260","steam_id":85568392924515217,"keywords":["nocrits","nodmgspread","payload","uncletopia"],"game_id":440,"stv_port":27036,"stv_name":"Uncletopia | Seattle | 3 | Stopwatch Beta | STV","players":null},{"server_id":17,"name":"Uncletopia | San Francisco | 1 | All Maps","name_short":"sfo-1","host":"sfo-1.us.uncletopia.com","port":27015,"enabled":true,"region":"us-west","cc":"us","latitude":37.77397,"longitude":-122.4313,"reserved":0,"last_update":"0001-01-01T00:00:00Z","name_a2s":"Uncletopia | San Francisco | 1 | All Maps","protocol":17,"map":"koth_suijin","folder":"tf","game":"Team Fortress","app_id":440,"player_count":19,"max_players":24,"Bots":0,"server_type":"Dedicated","server_os":"Linux","password":true,"vac":true,"version":"7882260","steam_id":85568392924469999,"keywords":["cp","nocrits","nodmgspread","uncletopia"],"game_id":440,"stv_port":27016,"stv_name":"Uncletopia | San Francisco | 1 | All Maps | STV","players":[{"user_id":115,"name":"hoOmIN","steam_id":76561198334947079,"connected_time":3318000000000,"state":"active","ping":45},{"user_id":146,"name":"Tockbird","steam_id":76561199437964594,"connected_time":701000000000,"state":"active","ping":54},{"user_id":147,"name":"FOOL","steam_id":76561198370866973,"connected_time":665000000000,"state":"active","ping":63},{"user_id":148,"name":"oh god i'm gonna CHUM","steam_id":76561198019210187,"connected_time":588000000000,"state":"active","ping":90},{"user_id":151,"name":"EduardoLopez2005","steam_id":76561198188481309,"connected_time":387000000000,"state":"active","ping":47},{"user_id":119,"name":"Deflated Horse","steam_id":76561199260931005,"connected_time":2571000000000,"state":"active","ping":78},{"user_id":120,"name":"Mihy","steam_id":76561199042677419,"connected_time":2568000000000,"state":"active","ping":57},{"user_id":121,"name":"Dogg wader","steam_id":76561199090314340,"connected_time":2486000000000,"state":"active","ping":84},{"user_id":128,"name":"Birdman743","steam_id":76561198799636748,"connected_time":1418000000000,"state":"active","ping":77},{"user_id":141,"name":"The Supreme Leader Kim Jong Un","steam_id":76561198067272391,"connected_time":1014000000000,"state":"active","ping":41},{"user_id":130,"name":"Bizz_Bot2000","steam_id":76561199205574389,"connected_time":1236000000000,"state":"active","ping":83},{"user_id":150,"name":"emaudispiegl13","steam_id":76561199374065051,"connected_time":516000000000,"state":"active","ping":78},{"user_id":152,"name":"jBracko","steam_id":76561198019261602,"connected_time":172000000000,"state":"active","ping":45},{"user_id":134,"name":"dabi","steam_id":76561198057179683,"connected_time":1172000000000,"state":"active","ping":88},{"user_id":135,"name":"skullkid498","steam_id":76561198428301218,"connected_time":1155000000000,"state":"active","ping":48},{"user_id":136,"name":"PitBitchDeadite","steam_id":76561199016145897,"connected_time":1131000000000,"state":"active","ping":60},{"user_id":140,"name":"BucketofIce","steam_id":76561199108563726,"connected_time":1031000000000,"state":"active","ping":60},{"user_id":142,"name":"The Collective","steam_id":76561198170423483,"connected_time":1007000000000,"state":"active","ping":117},{"user_id":144,"name":"[Colorbomb]","steam_id":76561198006316527,"connected_time":979000000000,"state":"active","ping":72}]},{"server_id":18,"name":"Uncletopia | San Francisco | 2 | All Maps","name_short":"sfo-2","host":"sfo-1.us.uncletopia.com","port":27025,"enabled":true,"region":"us-west","cc":"us","latitude":37.77397,"longitude":-122.4313,"reserved":0,"last_update":"0001-01-01T00:00:00Z","name_a2s":"Uncletopia | San Francisco | 2 | All Maps","protocol":17,"map":"pl_upward","folder":"tf","game":"Team Fortress","app_id":440,"player_count":24,"max_players":24,"Bots":0,"server_type":"Dedicated","server_os":"Linux","password":true,"vac":true,"version":"7882260","steam_id":85568392924470000,"keywords":["nocrits","nodmgspread","payload","uncletopia"],"game_id":440,"stv_port":27026,"stv_name":"Uncletopia | San Francisco | 2 | All Maps | STV","players":[{"user_id":132,"name":"‚ù§ Ashley ‚ù§","steam_id":76561198056428303,"connected_time":1155000000000,"state":"active","ping":60},{"user_id":110,"name":"Chicken Soup","steam_id":76561197989268948,"connected_time":3830000000000,"state":"active","ping":99},{"user_id":131,"name":"SvicidalBug","steam_id":76561198221390504,"connected_time":1474000000000,"state":"active","ping":82},{"user_id":22,"name":"OminousNoises","steam_id":76561198263320321,"connected_time":10807000000000,"state":"active","ping":100},{"user_id":140,"name":"Aqua Tofana","steam_id":76561198351183381,"connected_time":225000000000,"state":"active","ping":77},{"user_id":135,"name":"Ringo","steam_id":76561198066595010,"connected_time":703000000000,"state":"active","ping":58},{"user_id":142,"name":"shido","steam_id":76561198198194599,"connected_time":163000000000,"state":"active","ping":54},{"user_id":101,"name":"SadVeggie","steam_id":76561198163430099,"connected_time":4296000000000,"state":"active","ping":155},{"user_id":138,"name":"Orion","steam_id":76561198000418837,"connected_time":637000000000,"state":"active","ping":101},{"user_id":118,"name":"Jezzus","steam_id":76561199289676387,"connected_time":3500000000000,"state":"active","ping":97},{"user_id":133,"name":"self sufficient kitten","steam_id":76561197960592612,"connected_time":1044000000000,"state":"active","ping":60},{"user_id":123,"name":"Sixteen60","steam_id":76561198296453242,"connected_time":3188000000000,"state":"active","ping":68},{"user_id":128,"name":"AyoBreezyo","steam_id":76561199077837616,"connected_time":2358000000000,"state":"active","ping":66},{"user_id":52,"name":"perc 10","steam_id":76561198116471653,"connected_time":10195000000000,"state":"active","ping":47},{"user_id":76,"name":"mmmBoyo","steam_id":76561198821360261,"connected_time":6440000000000,"state":"active","ping":92},{"user_id":113,"name":"Suez","steam_id":76561198034642980,"connected_time":3785000000000,"state":"active","ping":50},{"user_id":143,"name":"TwoForFlinching","steam_id":76561198073814209,"connected_time":20000000000,"state":"spawning","ping":106},{"user_id":122,"name":"Dodobirdthe3rd","steam_id":76561199119848224,"connected_time":3270000000000,"state":"active","ping":51},{"user_id":114,"name":"xxa","steam_id":76561197984735021,"connected_time":3760000000000,"state":"active","ping":46},{"user_id":141,"name":"Squigzy_","steam_id":76561198061696667,"connected_time":224000000000,"state":"active","ping":105},{"user_id":115,"name":"FRANKY!!!","steam_id":76561199211305343,"connected_time":3723000000000,"state":"active","ping":36},{"user_id":136,"name":"ElectronX","steam_id":76561198116034988,"connected_time":699000000000,"state":"active","ping":56},{"user_id":129,"name":"CG.ConfusingFoe","steam_id":76561199005898955,"connected_time":2224000000000,"state":"active","ping":67},{"user_id":104,"name":"parallax","steam_id":76561198004438881,"connected_time":4244000000000,"state":"active","ping":68}]},{"server_id":19,"name":"Uncletopia | San Francisco | 3 | Stopwatch Beta","name_short":"sfo-3","host":"sfo-1.us.uncletopia.com","port":27035,"enabled":true,"region":"us-west","cc":"us","latitude":37.77397,"longitude":-122.4313,"reserved":0,"last_update":"0001-01-01T00:00:00Z","name_a2s":"Uncletopia | San Francisco | 3 | Stopwatch Beta","protocol":17,"map":"pl_frontier_final","folder":"tf","game":"Team Fortress","app_id":440,"player_count":0,"max_players":24,"Bots":0,"server_type":"Dedicated","server_os":"Linux","password":true,"vac":true,"version":"7882260","steam_id":85568392924742824,"keywords":["nocrits","nodmgspread","payload","uncletopia"],"game_id":440,"stv_port":27036,"stv_name":"Uncletopia | San Francisco | 3 | Stopwatch Beta | STV","players":null},{"server_id":20,"name":"Uncletopia | San Francisco | 4 | Community","name_short":"sfo-4","host":"sfo-1.us.uncletopia.com","port":27045,"enabled":true,"region":"us-west","cc":"us","latitude":37.77397,"longitude":-122.4313,"reserved":0,"last_update":"0001-01-01T00:00:00Z","name_a2s":"Uncletopia | San Francisco | 4 | Community","protocol":17,"map":"workshop/pl_divulgence_b4b.ugc2884808746","folder":"tf","game":"Team Fortress","app_id":440,"player_count":22,"max_players":24,"Bots":0,"server_type":"Dedicated","server_os":"Linux","password":true,"vac":true,"version":"7882260","steam_id":85568392924742826,"keywords":["nocrits","nodmgspread","payload","uncletopia"],"game_id":440,"stv_port":27046,"stv_name":"Uncletopia | San Francisco | 4 | Community | STV","players":[{"user_id":213,"name":"N√º√æ","steam_id":76561198043956703,"connected_time":9437000000000,"state":"active","ping":56},{"user_id":340,"name":"salad","steam_id":76561198022225618,"connected_time":972000000000,"state":"active","ping":75},{"user_id":335,"name":"Shogun","steam_id":76561199007842829,"connected_time":1332000000000,"state":"active","ping":49},{"user_id":330,"name":"raduski","steam_id":76561198795699119,"connected_time":1825000000000,"state":"active","ping":90},{"user_id":341,"name":"KitKats","steam_id":76561198201069328,"connected_time":963000000000,"state":"active","ping":68},{"user_id":342,"name":"Uncle Scruncle (real)","steam_id":76561198083414610,"connected_time":944000000000,"state":"active","ping":56},{"user_id":343,"name":"THEQUIRKA (ALL CAPS ARC)","steam_id":76561198968058652,"connected_time":828000000000,"state":"active","ping":67},{"user_id":336,"name":"||:‚ô©‚ô©‚ô©‚ô™:|| Opplydead","steam_id":76561198028630334,"connected_time":1303000000000,"state":"active","ping":54},{"user_id":277,"name":"Dorso","steam_id":76561198380590080,"connected_time":5533000000000,"state":"active","ping":60},{"user_id":344,"name":"Stupid Monkey =3","steam_id":76561198024580166,"connected_time":800000000000,"state":"active","ping":69},{"user_id":346,"name":"jazzyneo","steam_id":76561198248799992,"connected_time":779000000000,"state":"active","ping":67},{"user_id":279,"name":"Major_Pippy","steam_id":76561198004482878,"connected_time":5481000000000,"state":"active","ping":70},{"user_id":280,"name":"RagingRoosevelt","steam_id":76561197985483153,"connected_time":5476000000000,"state":"active","ping":69},{"user_id":284,"name":"A Can of Arizona Green Tea","steam_id":76561198062481133,"connected_time":5331000000000,"state":"active","ping":87},{"user_id":347,"name":"Reisen Udongein Inaba","steam_id":76561198051082314,"connected_time":277000000000,"state":"active","ping":58},{"user_id":293,"name":"elder lich joe biden","steam_id":76561198257134732,"connected_time":4979000000000,"state":"active","ping":84},{"user_id":348,"name":"!","steam_id":76561199189013920,"connected_time":241000000000,"state":"active","ping":43},{"user_id":349,"name":"xjlm","steam_id":76561198043497260,"connected_time":180000000000,"state":"active","ping":82},{"user_id":351,"name":"selling rice","steam_id":76561198063357023,"connected_time":166000000000,"state":"active","ping":46},{"user_id":327,"name":"STILLZ","steam_id":76561198131892406,"connected_time":2145000000000,"state":"active","ping":120},{"user_id":313,"name":"cliftoce","steam_id":76561197998912007,"connected_time":3213000000000,"state":"active","ping":56},{"user_id":288,"name":"rock gaming","steam_id":76561199402868311,"connected_time":5196000000000,"state":"active","ping":70}]},{"server_id":141,"name":"Uncletopia | Sydney | 1 | All Maps","name_short":"syd-1","host":"syd-1.au.uncletopia.com","port":27015,"enabled":true,"region":"au","cc":"au","latitude":-33.865143,"longitude":151.2099,"reserved":0,"last_update":"0001-01-01T00:00:00Z","name_a2s":"Uncletopia | Sydney | 1 | All Maps","protocol":17,"map":"cp_coldfront","folder":"tf","game":"Team Fortress","app_id":440,"player_count":24,"max_players":24,"Bots":0,"server_type":"Dedicated","server_os":"Linux","password":true,"vac":true,"version":"7882260","steam_id":85568392924470001,"keywords":["cp","nocrits","nodmgspread","uncletopia"],"game_id":440,"stv_port":27016,"stv_name":"Uncletopia | Sydney | 1 | All Maps | STV","players":[{"user_id":77,"name":"Burnt_Taiyaki","steam_id":76561198045566851,"connected_time":1039000000000,"state":"active","ping":95},{"user_id":72,"name":"Judgement","steam_id":76561199232551668,"connected_time":1341000000000,"state":"active","ping":89},{"user_id":75,"name":"DrackieCutie","steam_id":76561198216207177,"connected_time":1214000000000,"state":"active","ping":62},{"user_id":86,"name":"Bilbo Swaggins","steam_id":76561198984446872,"connected_time":66000000000,"state":"active","ping":52},{"user_id":68,"name":"MikkyD","steam_id":76561198043452962,"connected_time":1810000000000,"state":"active","ping":65},{"user_id":39,"name":"Branko","steam_id":76561199262196710,"connected_time":2708000000000,"state":"active","ping":36},{"user_id":38,"name":"Local Femboy \u003c3 (No sound)","steam_id":76561198355333388,"connected_time":2810000000000,"state":"active","ping":66},{"user_id":54,"name":"Herr Doktor","steam_id":76561198080981482,"connected_time":2267000000000,"state":"active","ping":35},{"user_id":84,"name":"Blander_17","steam_id":76561198068232508,"connected_time":111000000000,"state":"active","ping":65},{"user_id":60,"name":"ibus","steam_id":76561199026701614,"connected_time":2052000000000,"state":"active","ping":57},{"user_id":46,"name":"Shadow Puppeteer","steam_id":76561198151121997,"connected_time":2392000000000,"state":"active","ping":77},{"user_id":47,"name":"Noble Chernobyl","steam_id":76561198011803825,"connected_time":2369000000000,"state":"active","ping":53},{"user_id":48,"name":"Bigrichard","steam_id":76561198032092945,"connected_time":2364000000000,"state":"active","ping":81},{"user_id":55,"name":"little raw meat boy","steam_id":76561199248254676,"connected_time":2267000000000,"state":"active","ping":46},{"user_id":78,"name":"Original Glazed (Krispy/Kreme)","steam_id":76561197997362731,"connected_time":907000000000,"state":"active","ping":45},{"user_id":81,"name":"Ambrai","steam_id":76561197994379835,"connected_time":673000000000,"state":"active","ping":66},{"user_id":69,"name":"Bonker","steam_id":76561198845159846,"connected_time":1757000000000,"state":"active","ping":57},{"user_id":80,"name":"Qwertles","steam_id":76561198033779273,"connected_time":796000000000,"state":"active","ping":58},{"user_id":57,"name":"koyaa","steam_id":76561198047484772,"connected_time":2183000000000,"state":"active","ping":76},{"user_id":85,"name":"Fps","steam_id":76561198077651488,"connected_time":76000000000,"state":"active","ping":45},{"user_id":62,"name":"Zieria","steam_id":76561199261811388,"connected_time":2013000000000,"state":"active","ping":35},{"user_id":83,"name":"Original Dog","steam_id":76561198046480594,"connected_time":178000000000,"state":"active","ping":82},{"user_id":74,"name":"Sover blw.tf","steam_id":76561198136347837,"connected_time":1244000000000,"state":"active","ping":131},{"user_id":82,"name":"Shotty 2 Hotty","steam_id":76561199174449723,"connected_time":576000000000,"state":"active","ping":161}]},{"server_id":123,"name":"Uncletopia | Sydney | 2 | All Maps","name_short":"syd-2","host":"syd-1.au.uncletopia.com","port":27025,"enabled":true,"region":"au","cc":"au","latitude":-33.865143,"longitude":151.2099,"reserved":0,"last_update":"0001-01-01T00:00:00Z","name_a2s":"Uncletopia | Sydney | 2 | All Maps","protocol":17,"map":"cp_sunshine","folder":"tf","game":"Team Fortress","app_id":440,"player_count":11,"max_players":24,"Bots":0,"server_type":"Dedicated","server_os":"Linux","password":true,"vac":true,"version":"7882260","steam_id":85568392924470002,"keywords":["cp","nocrits","nodmgspread","uncletopia"],"game_id":440,"stv_port":27026,"stv_name":"Uncletopia | Sydney | 2 | All Maps | STV","players":[{"user_id":222,"name":"Retrovertigo","steam_id":76561198049285942,"connected_time":1366000000000,"state":"active","ping":77},{"user_id":223,"name":"Doc","steam_id":76561198065324789,"connected_time":1359000000000,"state":"active","ping":48},{"user_id":238,"name":"PeNGU","steam_id":76561198860536387,"connected_time":563000000000,"state":"active","ping":100},{"user_id":228,"name":"In The Balls","steam_id":76561198830756098,"connected_time":1225000000000,"state":"active","ping":183},{"user_id":227,"name":"Jarcana","steam_id":76561199272069665,"connected_time":1259000000000,"state":"active","ping":73},{"user_id":230,"name":"DropBearWarrior","steam_id":76561198352774039,"connected_time":1160000000000,"state":"active","ping":71},{"user_id":231,"name":"dumbvent","steam_id":76561198190062810,"connected_time":1125000000000,"state":"active","ping":60},{"user_id":232,"name":"marink","steam_id":76561198446126519,"connected_time":1114000000000,"state":"active","ping":45},{"user_id":243,"name":"summer fun","steam_id":76561198289852805,"connected_time":331000000000,"state":"active","ping":82},{"user_id":245,"name":"Sparky","steam_id":76561198117687688,"connected_time":273000000000,"state":"active","ping":63},{"user_id":247,"name":"WRERwrAWRF","steam_id":76561199388667527,"connected_time":225000000000,"state":"active","ping":157}]},{"server_id":395,"name":"Uncletopia | Sydney | 3 | All Maps","name_short":"syd-3","host":"syd-1.au.uncletopia.com","port":27035,"enabled":true,"region":"au","cc":"au","latitude":-33.865143,"longitude":151.2099,"reserved":0,"last_update":"0001-01-01T00:00:00Z","name_a2s":"Uncletopia | Sydney | 3 | All Maps","protocol":17,"map":"cp_altitude","folder":"tf","game":"Team Fortress","app_id":440,"player_count":0,"max_players":24,"Bots":0,"server_type":"Dedicated","server_os":"Linux","password":true,"vac":true,"version":"7882260","steam_id":85568392925194467,"keywords":["cp","nocrits","nodmgspread","uncletopia"],"game_id":440,"stv_port":27036,"stv_name":"Uncletopia | Sydney | 3 | All Maps | STV","players":null},{"server_id":396,"name":"Uncletopia | Sydney | 4 | All Maps","name_short":"syd-4","host":"syd-1.au.uncletopia.com","port":27045,"enabled":true,"region":"au","cc":"au","latitude":-33.865143,"longitude":151.2099,"reserved":0,"last_update":"0001-01-01T00:00:00Z","name_a2s":"Uncletopia | Sydney | 4 | All Maps","protocol":17,"map":"koth_highpass","folder":"tf","game":"Team Fortress","app_id":440,"player_count":0,"max_players":24,"Bots":0,"server_type":"Dedicated","server_os":"Linux","password":true,"vac":true,"version":"7882260","steam_id":85568392925397958,"keywords":["cp","nocrits","nodmgspread","uncletopia"],"game_id":440,"stv_port":27046,"stv_name":"Uncletopia | Sydney | 4 | All Maps | STV","players":null},{"server_id":58,"name":"Uncletopia | Sydney | 5 | Stopwatch Beta","name_short":"syd-5","host":"syd-1.au.uncletopia.com","port":27055,"enabled":true,"region":"au","cc":"au","latitude":-33.865143,"longitude":151.2099,"reserved":0,"last_update":"0001-01-01T00:00:00Z","name_a2s":"Uncletopia | Sydney | 5 | Stopwatch Beta","protocol":17,"map":"koth_highpass","folder":"tf","game":"Team Fortress","app_id":440,"player_count":0,"max_players":24,"Bots":0,"server_type":"Dedicated","server_os":"Linux","password":true,"vac":true,"version":"7882260","steam_id":85568392925397959,"keywords":["cp","nocrits","nodmgspread","uncletopia"],"game_id":440,"stv_port":27056,"stv_name":"Uncletopia | Sydney | 5 | Stopwatch Beta | STV","players":null},{"server_id":59,"name":"Uncletopia | Sydney | 6 | Community","name_short":"syd-6","host":"syd-1.au.uncletopia.com","port":27065,"enabled":true,"region":"au","cc":"au","latitude":-33.865143,"longitude":151.2099,"reserved":0,"last_update":"0001-01-01T00:00:00Z","name_a2s":"Uncletopia | Sydney | 6 | Community","protocol":17,"map":"workshop/koth_product_final.ugc454272353","folder":"tf","game":"Team Fortress","app_id":440,"player_count":0,"max_players":24,"Bots":0,"server_type":"Dedicated","server_os":"Linux","password":true,"vac":true,"version":"7882260","steam_id":85568392925397960,"keywords":["cp","nocrits","nodmgspread","uncletopia"],"game_id":440,"stv_port":27066,"stv_name":"Uncletopia | Sydney | 6 | Community | STV","players":null},{"server_id":49,"name":"Uncletopia | Warsaw | 1 | All Maps","name_short":"waw-1","host":"waw-1.pl.uncletopia.com","port":27015,"enabled":true,"region":"eu","cc":"pl","latitude":52.2297,"longitude":21.017532,"reserved":0,"last_update":"0001-01-01T00:00:00Z","name_a2s":"","protocol":0,"map":"","folder":"","game":"","app_id":0,"player_count":0,"max_players":0,"Bots":0,"server_type":"","server_os":"","password":false,"vac":false,"version":"","steam_id":0,"keywords":null,"game_id":0,"stv_port":0,"stv_name":"","players":null},{"server_id":50,"name":"Uncletopia | Warsaw | 2 | All Maps","name_short":"waw-2","host":"waw-1.pl.uncletopia.com","port":27025,"enabled":true,"region":"eu","cc":"pl","latitude":52.2297,"longitude":21.017532,"reserved":0,"last_update":"0001-01-01T00:00:00Z","name_a2s":"Uncletopia | Warsaw | 2 | All Maps","protocol":17,"map":"pl_swiftwater_final1","folder":"tf","game":"Team Fortress","app_id":440,"player_count":0,"max_players":24,"Bots":0,"server_type":"Dedicated","server_os":"Linux","password":true,"vac":true,"version":"7882260","steam_id":85568392925397851,"keywords":["nocrits","nodmgspread","payload","uncletopia"],"game_id":440,"stv_port":27026,"stv_name":"Uncletopia | Warsaw | 2 | All Maps | STV","players":null},{"server_id":51,"name":"Uncletopia | Warsaw | 3 | All Maps","name_short":"waw-3","host":"waw-1.pl.uncletopia.com","port":27035,"enabled":true,"region":"eu","cc":"pl","latitude":52.2297,"longitude":21.017532,"reserved":0,"last_update":"0001-01-01T00:00:00Z","name_a2s":"Uncletopia | Warsaw | 3 | All Maps","protocol":17,"map":"koth_viaduct","folder":"tf","game":"Team Fortress","app_id":440,"player_count":0,"max_players":24,"Bots":0,"server_type":"Dedicated","server_os":"Linux","password":true,"vac":true,"version":"7882260","steam_id":85568392925397852,"keywords":["cp","nocrits","nodmgspread","uncletopia"],"game_id":440,"stv_port":27036,"stv_name":"Uncletopia | Warsaw | 3 | All Maps | STV","players":null},{"server_id":52,"name":"Uncletopia | Warsaw | 4 | All Maps","name_short":"waw-4","host":"waw-1.pl.uncletopia.com","port":27045,"enabled":true,"region":"eu","cc":"pl","latitude":52.2297,"longitude":21.017532,"reserved":0,"last_update":"0001-01-01T00:00:00Z","name_a2s":"Uncletopia | Warsaw | 4 | All Maps","protocol":17,"map":"koth_highpass","folder":"tf","game":"Team Fortress","app_id":440,"player_count":0,"max_players":24,"Bots":0,"server_type":"Dedicated","server_os":"Linux","password":true,"vac":true,"version":"7882260","steam_id":85568392925397853,"keywords":["cp","nocrits","nodmgspread","uncletopia"],"game_id":440,"stv_port":27046,"stv_name":"Uncletopia | Warsaw | 4 | All Maps | STV","players":null},{"server_id":53,"name":"Uncletopia | Warsaw | 5 | Stopwatch Beta","name_short":"waw-5","host":"waw-1.pl.uncletopia.com","port":27055,"enabled":true,"region":"eu","cc":"pl","latitude":52.2297,"longitude":21.017532,"reserved":0,"last_update":"0001-01-01T00:00:00Z","name_a2s":"Uncletopia | Warsaw | 5 | Stopwatch Beta","protocol":17,"map":"cp_mountainlab","folder":"tf","game":"Team Fortress","app_id":440,"player_count":0,"max_players":24,"Bots":0,"server_type":"Dedicated","server_os":"Linux","password":true,"vac":true,"version":"7882260","steam_id":85568392925397854,"keywords":["cp","nocrits","nodmgspread","uncletopia"],"game_id":440,"stv_port":27056,"stv_name":"Uncletopia | Warsaw | 5 | Stopwatch Beta | STV","players":null},{"server_id":54,"name":"Uncletopia | Warsaw | 6 | Community","name_short":"waw-6","host":"waw-1.pl.uncletopia.com","port":27065,"enabled":true,"region":"eu","cc":"pl","latitude":52.2297,"longitude":21.017532,"reserved":0,"last_update":"0001-01-01T00:00:00Z","name_a2s":"Uncletopia | Warsaw | 6 | Community","protocol":17,"map":"koth_viaduct","folder":"tf","game":"Team Fortress","app_id":440,"player_count":0,"max_players":24,"Bots":0,"server_type":"Dedicated","server_os":"Linux","password":true,"vac":true,"version":"7882260","steam_id":85568392925397856,"keywords":["cp","nocrits","nodmgspread","uncletopia"],"game_id":440,"stv_port":27066,"stv_name":"Uncletopia | Warsaw | 6 | Community | STV","players":null}]}