{"status":true,"message":"","result":[{"server_id":9,"name":"Uncletopia | Atlanta | 1 | All Maps","name_short":"atl-1","host":"atl-1.us.uncletopia.com","port":27015,"enabled":true,"region":"us-east","cc":"us","latitude":33.753746,"longitude":-84.38633,"reserved":0,"last_update":"0001-01-01T00:00:00Z","name_a2s":"Uncletopia | Atlanta | 1 | All Maps","protocol":17,"map":"koth_nucleus","folder":"tf","game":"Team Fortress","app_id":440,"player_count":23,"max_players":24,"Bots":0,"server_type":"Dedicated","server_os":"Linux","password":true,"vac":true,"version":"7704440","steam_id":85568392924469982,"keywords":["cp","nocrits","nodmgspread","uncletopia"],"game_id":440,"stv_port":27016,"stv_name":"Uncletopia | Atlanta | 1 | All Maps | STV","players":[{"user_id":261,"name":"lucree","steam_id":76561198276738225,"connected_time":780000000000,"state":"active","ping":151},{"user_id":231,"name":"бездомный дурак","steam_id":76561198207659099,"connected_time":2725000000000,"state":"active","ping":144},{"user_id":212,"name":"GabetIV femboy","steam_id":76561198145700338,"connected_time":3888000000000,"state":"active","ping":73},{"user_id":248,"name":"Sabaman55","steam_id":76561198212267979,"connected_time":1256000000000,"state":"active","ping":52},{"user_id":200,"name":"+","steam_id":76561198262422184,"connected_time":4197000000000,"state":"active","ping":66},{"user_id":249,"name":"Soap","steam_id":76561198074619142,"connected_time":1231000000000,"state":"active","ping":71},{"user_id":186,"name":"Bunt","steam_id":76561198124477567,"connected_time":5118000000000,"state":"active","ping":44},{"user_id":250,"name":"synin","steam_id":76561198076540384,"connected_time":1207000000000,"state":"active","ping":99},{"user_id":267,"name":"Gay Cake","steam_id":76561198004388831,"connected_time":37000000000,"state":"active","ping":78},{"user_id":247,"name":"KookieZz","steam_id":76561198058522898,"connected_time":1662000000000,"state":"active","ping":133},{"user_id":226,"name":"NoShen","steam_id":76561198147434663,"connected_time":3087000000000,"state":"active","ping":45},{"user_id":252,"name":"Cobra","steam_id":76561198148418531,"connected_time":1182000000000,"state":"active","ping":107},{"user_id":263,"name":"KRELLAH","steam_id":76561198287045069,"connected_time":652000000000,"state":"active","ping":75},{"user_id":259,"name":"kametro4","steam_id":76561198835430429,"connected_time":980000000000,"state":"active","ping":100},{"user_id":254,"name":"Aittrium","steam_id":76561199435287672,"connected_time":1140000000000,"state":"active","ping":54},{"user_id":198,"name":"Fl4re","steam_id":76561198273001762,"connected_time":4358000000000,"state":"active","ping":94},{"user_id":265,"name":"Beauty School Dropout","steam_id":76561198320924681,"connected_time":473000000000,"state":"active","ping":67},{"user_id":266,"name":"Ducter","steam_id":76561198085369908,"connected_time":187000000000,"state":"active","ping":58},{"user_id":256,"name":"autumn","steam_id":76561198036901822,"connected_time":1118000000000,"state":"active","ping":83},{"user_id":229,"name":"Amaretto Sour","steam_id":76561198063112844,"connected_time":2949000000000,"state":"active","ping":75},{"user_id":243,"name":"beats_femboy","steam_id":76561199245717718,"connected_time":2232000000000,"state":"active","ping":74},{"user_id":221,"name":"FemboyNate","steam_id":76561198146636410,"connected_time":3475000000000,"state":"active","ping":55},{"user_id":257,"name":"Lord Pretty Flocko Jordye","steam_id":76561198962880749,"connected_time":1102000000000,"state":"active","ping":109}]},{"server_id":400,"name":"Uncletopia | Atlanta | 3 | All Maps","name_short":"atl-3","host":"atl-1.us.uncletopia.com","port":27035,"enabled":true,"region":"us-east","cc":"us","latitude":33.753746,"longitude":-84.38633,"reserved":0,"last_update":"0001-01-01T00:00:00Z","name_a2s":"Uncletopia | Atlanta | 3 | All Maps","protocol":17,"map":"cp_sunshine","folder":"tf","game":"Team Fortress","app_id":440,"player_count":0,"max_players":24,"Bots":0,"server_type":"Dedicated","server_os":"Linux","password":true,"vac":true,"version":"7704440","steam_id":85568392924515187,"keywords":["cp","nocrits","nodmgspread","uncletopia"],"game_id":440,"stv_port":27036,"stv_name":"Uncletopia | Atlanta | 3 | All Maps | STV","players":null},{"server_id":401,"name":"Uncletopia | Atlanta | 4 | No Payload","name_short":"atl-4","host":"atl-1.us.uncletopia.com","port":27045,"enabled":true,"region":"us-east","cc":"us","latitude":33.753746,"longitude":-84.38633,"reserved":0,"last_update":"0001-01-01T00:00:00Z","name_a2s":"Uncletopia | Atlanta | 4 | No Payload","protocol":17,"map":"pl_swiftwater_final1","folder":"tf","game":"Team Fortress","app_id":440,"player_count":0,"max_players":24,"Bots":0,"server_type":"Dedicated","server_os":"Linux","password":true,"vac":true,"version":"7704440","steam_id":85568392924515188,"keywords":["nocrits","nodmgspread","payload","uncletopia"],"game_id":440,"stv_port":0,"stv_name":"","players":null},{"server_id":2,"name":"Uncletopia | Chicago | 1 | All Maps","name_short":"chi-1","host":"chi-1.us.uncletopia.com","port":27015,"enabled":true,"region":"us-central","cc":"us","latitude":41.881832,"longitude":-87.62318,"reserved":0,"last_update":"0001-01-01T00:00:00Z","name_a2s":"Uncletopia | Chicago | 1 | All Maps","protocol":17,"map":"pl_thundermountain","folder":"tf","game":"Team Fortress","app_id":440,"player_count":20,"max_players":24,"Bots":0,"server_type":"Dedicated","server_os":"Linux","password":true,"vac":true,"version":"7704440","steam_id":85568392924469984,"keywords":["nocrits","nodmgspread","payload","uncletopia"],"game_id":440,"stv_port":27016,"stv_name":"Uncletopia | Chicago | 1 | All Maps | STV","players":[{"user_id":248,"name":"Arkentus_Teatus","steam_id":76561198154996170,"connected_time":1707000000000,"state":"active","ping":169},{"user_id":226,"name":"eeeee","steam_id":76561198235875882,"connected_time":2966000000000,"state":"active","ping":74},{"user_id":244,"name":"skaj","steam_id":76561198082278586,"connected_time":1875000000000,"state":"active","ping":74},{"user_id":253,"name":"ZM","steam_id":76561198143340983,"connected_time":860000000000,"state":"active","ping":68},{"user_id":258,"name":"earthtraveler413","steam_id":76561198865139926,"connected_time":193000000000,"state":"active","ping":96},{"user_id":252,"name":"Souper Scott","steam_id":76561198045518926,"connected_time":1162000000000,"state":"active","ping":60},{"user_id":225,"name":"ÒwÓ","steam_id":76561197997304387,"connected_time":3028000000000,"state":"active","ping":73},{"user_id":231,"name":"Red Charge","steam_id":76561198084465764,"connected_time":2530000000000,"state":"active","ping":68},{"user_id":259,"name":"hunkidorri","steam_id":76561198313288475,"connected_time":155000000000,"state":"active","ping":104},{"user_id":239,"name":"Milk T34","steam_id":76561198116115227,"connected_time":1968000000000,"state":"active","ping":84},{"user_id":245,"name":"Pika","steam_id":76561198068063436,"connected_time":1874000000000,"state":"active","ping":49},{"user_id":251,"name":"Meatwad","steam_id":76561198803721236,"connected_time":1473000000000,"state":"active","ping":61},{"user_id":240,"name":"JUNTS WE CHOKE II","steam_id":76561198077902438,"connected_time":1950000000000,"state":"active","ping":74},{"user_id":199,"name":"gangstalker","steam_id":76561198363267009,"connected_time":5448000000000,"state":"active","ping":75},{"user_id":218,"name":"stop","steam_id":76561198268686419,"connected_time":3702000000000,"state":"active","ping":46},{"user_id":224,"name":"Kapu1178","steam_id":76561198107212766,"connected_time":3050000000000,"state":"active","ping":68},{"user_id":246,"name":"Ekorn","steam_id":76561198042756755,"connected_time":1846000000000,"state":"active","ping":48},{"user_id":256,"name":"Zenn","steam_id":76561198032618254,"connected_time":380000000000,"state":"active","ping":92},{"user_id":221,"name":"Convo-B-Gone","steam_id":76561198029527751,"connected_time":3658000000000,"state":"active","ping":68},{"user_id":223,"name":"puer delicatus","steam_id":76561198102681457,"connected_time":3556000000000,"state":"active","ping":72}]},{"server_id":106,"name":"Uncletopia | Chicago | 2 | All Maps","name_short":"chi-2","host":"chi-1.us.uncletopia.com","port":27025,"enabled":true,"region":"us-central","cc":"us","latitude":41.881832,"longitude":-87.62318,"reserved":0,"last_update":"0001-01-01T00:00:00Z","name_a2s":"Uncletopia | Chicago | 2 | All Maps","protocol":17,"map":"cp_snakewater_final1","folder":"tf","game":"Team Fortress","app_id":440,"player_count":9,"max_players":24,"Bots":0,"server_type":"Dedicated","server_os":"Linux","password":true,"vac":true,"version":"7704440","steam_id":85568392924469985,"keywords":["cp","nocrits","nodmgspread","uncletopia"],"game_id":440,"stv_port":27026,"stv_name":"Uncletopia | Chicago | 2 | All Maps | STV","players":[{"user_id":196,"name":"randomusername","steam_id":76561199078214700,"connected_time":5791000000000,"state":"active","ping":64},{"user_id":229,"name":"best of gaslighting","steam_id":76561198410957728,"connected_time":2690000000000,"state":"active","ping":39},{"user_id":243,"name":"❤birbohex❤","steam_id":76561198392961483,"connected_time":1075000000000,"state":"active","ping":41},{"user_id":248,"name":"Grighton","steam_id":76561198042863339,"connected_time":393000000000,"state":"active","ping":69},{"user_id":247,"name":"Throckmorton627","steam_id":76561199147734259,"connected_time":608000000000,"state":"active","ping":67},{"user_id":204,"name":"John Fortnite Kennedy","steam_id":76561198075501786,"connected_time":5517000000000,"state":"active","ping":57},{"user_id":230,"name":"sleepy gay bitch","steam_id":76561198128164970,"connected_time":2574000000000,"state":"active","ping":107},{"user_id":228,"name":"sonnovasmurf","steam_id":76561199092251434,"connected_time":2922000000000,"state":"active","ping":47},{"user_id":241,"name":"FigBaguette","steam_id":76561198076596803,"connected_time":1500000000000,"state":"active","ping":80}]},{"server_id":402,"name":"Uncletopia | Chicago | 3 | All Maps","name_short":"chi-3","host":"chi-1.us.uncletopia.com","port":27035,"enabled":true,"region":"us-central","cc":"us","latitude":41.881832,"longitude":-87.62318,"reserved":0,"last_update":"0001-01-01T00:00:00Z","name_a2s":"Uncletopia | Chicago | 3 | All Maps","protocol":17,"map":"pl_thundermountain","folder":"tf","game":"Team Fortress","app_id":440,"player_count":22,"max_players":24,"Bots":0,"server_type":"Dedicated","server_os":"Linux","password":true,"vac":true,"version":"7704440","steam_id":85568392924515191,"keywords":["nocrits","nodmgspread","payload","uncletopia"],"game_id":440,"stv_port":27036,"stv_name":"Uncletopia | Chicago | 3 | All Maps | STV","players":[{"user_id":183,"name":"JustAWisp","steam_id":76561198311924005,"connected_time":1931000000000,"state":"active","ping":61},{"user_id":211,"name":"Medical Asshat","steam_id":76561198004584315,"connected_time":232000000000,"state":"active","ping":70},{"user_id":212,"name":"MonsterMashinMan","steam_id":76561198116459312,"connected_time":178000000000,"state":"active","ping":119},{"user_id":186,"name":"Censure","steam_id":76561198850891374,"connected_time":1882000000000,"state":"active","ping":70},{"user_id":208,"name":"[9AD] Midheaven","steam_id":76561198023217314,"connected_time":314000000000,"state":"active","ping":123},{"user_id":201,"name":"Blargian Snagglebeast","steam_id":76561198115831507,"connected_time":572000000000,"state":"active","ping":51},{"user_id":161,"name":"Couriadore","steam_id":76561198055814008,"connected_time":2609000000000,"state":"active","ping":47},{"user_id":184,"name":"Bizcocho","steam_id":76561198086236897,"connected_time":1921000000000,"state":"active","ping":61},{"user_id":197,"name":"Timmy Rigs","steam_id":76561198040743777,"connected_time":842000000000,"state":"active","ping":55},{"user_id":209,"name":"33","steam_id":76561198894676484,"connected_time":244000000000,"state":"active","ping":107},{"user_id":198,"name":"El Doktor","steam_id":76561198413013439,"connected_time":618000000000,"state":"active","ping":94},{"user_id":153,"name":"Superpseudo","steam_id":76561198044135274,"connected_time":3252000000000,"state":"active","ping":128},{"user_id":205,"name":"Halcyon","steam_id":76561197999409268,"connected_time":432000000000,"state":"active","ping":80},{"user_id":213,"name":"0-9 snowie","steam_id":76561198285819311,"connected_time":158000000000,"state":"active","ping":108},{"user_id":202,"name":"Partaker of Sex","steam_id":76561198137880777,"connected_time":556000000000,"state":"active","ping":69},{"user_id":206,"name":"fig newton enjoyer","steam_id":76561198110046630,"connected_time":415000000000,"state":"active","ping":54},{"user_id":196,"name":"The_Quiet_One","steam_id":76561198132476501,"connected_time":888000000000,"state":"active","ping":52},{"user_id":203,"name":"foureyesfries","steam_id":76561198271831555,"connected_time":539000000000,"state":"active","ping":159},{"user_id":215,"name":"aeop","steam_id":76561198153671643,"connected_time":74000000000,"state":"active","ping":60},{"user_id":191,"name":"mrBoi","steam_id":76561198012015536,"connected_time":1772000000000,"state":"active","ping":61},{"user_id":182,"name":"bruh this scramble","steam_id":76561199021276664,"connected_time":2037000000000,"state":"active","ping":132},{"user_id":192,"name":"MG","steam_id":76561197980131846,"connected_time":1750000000000,"state":"active","ping":116}]},{"server_id":403,"name":"Uncletopia | Chicago | 4 | All Maps","name_short":"chi-4","host":"chi-1.us.uncletopia.com","port":27045,"enabled":true,"region":"us-central","cc":"us","latitude":41.881832,"longitude":-87.62318,"reserved":0,"last_update":"0001-01-01T00:00:00Z","name_a2s":"Uncletopia | Chicago | 4 | All Maps","protocol":17,"map":"koth_lakeside_final","folder":"tf","game":"Team Fortress","app_id":440,"player_count":0,"max_players":24,"Bots":0,"server_type":"Dedicated","server_os":"Linux","password":true,"vac":true,"version":"7704440","steam_id":85568392924515193,"keywords":["cp","nocrits","nodmgspread","uncletopia"],"game_id":440,"stv_port":0,"stv_name":"","players":null},{"server_id":36,"name":"Uncletopia | Chicago | 5 | All Maps","name_short":"chi-5","host":"chi-2.us.uncletopia.com","port":27015,"enabled":true,"region":"us-central","cc":"us","latitude":41.881832,"longitude":-87.62318,"reserved":0,"last_update":"0001-01-01T00:00:00Z","name_a2s":"Uncletopia | Chicago | 5 | All Maps","protocol":17,"map":"pl_borneo","folder":"tf","game":"Team Fortress","app_id":440,"player_count":0,"max_players":24,"Bots":0,"server_type":"Dedicated","server_os":"Linux","password":true,"vac":true,"version":"7704440","steam_id":85568392924866362,"keywords":["nocrits","nodmgspread","payload","uncletopia"],"game_id":440,"stv_port":0,"stv_name":"","players":null},{"server_id":37,"name":"Uncletopia | Chicago | 6 | All Maps","name_short":"chi-6","host":"chi-2.us.uncletopia.com","port":27025,"enabled":true,"region":"us-central","cc":"us","latitude":41.881832,"longitude":-87.62318,"reserved":0,"last_update":"0001-01-01T00:00:00Z","name_a2s":"Uncletopia | Chicago | 6 | All Maps","protocol":17,"map":"pl_pier","folder":"tf","game":"Team Fortress","app_id":440,"player_count":0,"max_players":24,"Bots":0,"server_type":"Dedicated","server_os":"Linux","password":true,"vac":true,"version":"7704440","steam_id":85568392924866363,"keywords":["nocrits","nodmgspread","payload","uncletopia"],"game_id":440,"stv_port":27026,"stv_name":"Uncletopia | Chicago | 6 | All Maps | STV","players":null},{"server_id":38,"name":"Uncletopia | Chicago | 7 | No Payload","name_short":"chi-7","host":"chi-2.us.uncletopia.com","port":27035,"enabled":true,"region":"us-central","cc":"us","latitude":41.881832,"longitude":-87.62318,"reserved":0,"last_update":"0001-01-01T00:00:00Z","name_a2s":"Uncletopia | Chicago | 7 | No Payload","protocol":17,"map":"cp_vanguard","folder":"tf","game":"Team Fortress","app_id":440,"player_count":0,"max_players":24,"Bots":0,"server_type":"Dedicated","server_os":"Linux","password":true,"vac":true,"version":"7704440","steam_id":85568392924866364,"keywords":["cp","nocrits","nodmgspread","uncletopia"],"game_id":440,"stv_port":27036,"stv_name":"Uncletopia | Chicago | 7 | No Payload | STV","players":null},{"server_id":39,"name":"Uncletopia | Chicago | 8 | Community","name_short":"chi-8","host":"chi-2.us.uncletopia.com","port":27045,"enabled":true,"region":"us-central","cc":"us","latitude":41.881832,"longitude":-87.62318,"reserved":0,"last_update":"0001-01-01T00:00:00Z","name_a2s":"Uncletopia | Chicago | 8 | Community","protocol":17,"map":"workshop/cp_overgrown_rc7b.ugc503939302","folder":"tf","game":"Team Fortress","app_id":440,"player_count":0,"max_players":24,"Bots":0,"server_type":"Dedicated","server_os":"Linux","password":true,"vac":true,"version":"7704440","steam_id":85568392924866365,"keywords":["cp","nocrits","nodmgspread","uncletopia"],"game_id":440,"stv_port":27046,"stv_name":"Uncletopia | Chicago | 8 | Community | STV","players":null},{"server_id":8,"name":"Uncletopia | Dallas | 1 | All Maps","name_short":"dal-1","host":"dal-1.us.uncletopia.com","port":27015,"enabled":true,"region":"us-central","cc":"us","latitude":32.779167,"longitude":-96.80889,"reserved":0,"last_update":"0001-01-01T00:00:00Z","name_a2s":"Uncletopia | Dallas | 1 | All Maps","protocol":17,"map":"cp_dustbowl","folder":"tf","game":"Team Fortress","app_id":440,"player_count":0,"max_players":24,"Bots":0,"server_type":"Dedicated","server_os":"Linux","password":true,"vac":true,"version":"7704440","steam_id":85568392924469986,"keywords":["cp","nocrits","nodmgspread","uncletopia"],"game_id":440,"stv_port":27016,"stv_name":"Uncletopia | Dallas | 1 | All Maps | STV","players":null},{"server_id":108,"name":"Uncletopia | Dallas | 2 | All Maps","name_short":"dal-2","host":"dal-1.us.uncletopia.com","port":27025,"enabled":true,"region":"us-central","cc":"us","latitude":32.779167,"longitude":-96.80889,"reserved":0,"last_update":"0001-01-01T00:00:00Z","name_a2s":"Uncletopia | Dallas | 2 | All Maps","protocol":17,"map":"plr_pipeline","folder":"tf","game":"Team Fortress","app_id":440,"player_count":0,"max_players":24,"Bots":0,"server_type":"Dedicated","server_os":"Linux","password":true,"vac":true,"version":"7704440","steam_id":85568392924469988,"keywords":["nocrits","nodmgspread","payload","uncletopia"],"game_id":440,"stv_port":27026,"stv_name":"Uncletopia | Dallas | 2 | All Maps | STV","players":null},{"server_id":5,"name":"Uncletopia | Frankfurt | 1 | All Maps","name_short":"frk-1","host":"frk-1.de.uncletopia.com","port":27015,"enabled":true,"region":"eu","cc":"de","latitude":50.110924,"longitude":8.682127,"reserved":0,"last_update":"0001-01-01T00:00:00Z","name_a2s":"Uncletopia | Frankfurt | 1 | All Maps","protocol":17,"map":"koth_lakeside_final","folder":"tf","game":"Team Fortress","app_id":440,"player_count":16,"max_players":24,"Bots":0,"server_type":"Dedicated","server_os":"Linux","password":true,"vac":true,"version":"7704440","steam_id":85568392924469989,"keywords":["cp","nocrits","nodmgspread","uncletopia"],"game_id":440,"stv_port":0,"stv_name":"","players":[{"user_id":4,"name":"Mata","steam_id":76561198308191713,"connected_time":2974000000000,"state":"active","ping":59},{"user_id":3,"name":"Lena ^^","steam_id":76561199435586696,"connected_time":3077000000000,"state":"active","ping":91},{"user_id":17,"name":"Gordon","steam_id":76561198303652059,"connected_time":965000000000,"state":"active","ping":92},{"user_id":18,"name":"dafydd","steam_id":76561198052200325,"connected_time":746000000000,"state":"active","ping":74},{"user_id":8,"name":"weed fairy","steam_id":76561197998843096,"connected_time":2196000000000,"state":"active","ping":70},{"user_id":9,"name":"Nya-rlathotep","steam_id":76561198057091119,"connected_time":2025000000000,"state":"active","ping":67},{"user_id":20,"name":"cream crimson","steam_id":76561199442415175,"connected_time":551000000000,"state":"active","ping":95},{"user_id":15,"name":"denji741games","steam_id":76561198067499762,"connected_time":1546000000000,"state":"active","ping":70},{"user_id":22,"name":"LAMC","steam_id":76561199066888917,"connected_time":317000000000,"state":"active","ping":59},{"user_id":23,"name":"Capvin","steam_id":76561198989449047,"connected_time":297000000000,"state":"active","ping":117},{"user_id":24,"name":"PASTAMANIA!","steam_id":76561197967858558,"connected_time":291000000000,"state":"active","ping":51},{"user_id":25,"name":"Cpt. Buttucks Commiesbad","steam_id":76561198353168371,"connected_time":225000000000,"state":"active","ping":74},{"user_id":26,"name":"Jarate Gaming","steam_id":76561199403451667,"connected_time":219000000000,"state":"active","ping":82},{"user_id":27,"name":"Bollie_731","steam_id":76561199036394139,"connected_time":152000000000,"state":"active","ping":64},{"user_id":29,"name":"MomoInTheBox","steam_id":76561197994150695,"connected_time":44000000000,"state":"active","ping":63}]},{"server_id":110,"name":"Uncletopia | Frankfurt | 2 | All Maps","name_short":"frk-2","host":"frk-1.de.uncletopia.com","port":27025,"enabled":true,"region":"eu","cc":"de","latitude":50.110924,"longitude":8.682127,"reserved":0,"last_update":"0001-01-01T00:00:00Z","name_a2s":"Uncletopia | Frankfurt | 2 | All Maps","protocol":17,"map":"pl_swiftwater_final1","folder":"tf","game":"Team Fortress","app_id":440,"player_count":0,"max_players":24,"Bots":0,"server_type":"Dedicated","server_os":"Linux","password":true,"vac":true,"version":"7704440","steam_id":85568392924469990,"keywords":["nocrits","nodmgspread","payload","uncletopia"],"game_id":440,"stv_port":0,"stv_name":"","players":null},{"server_id":308,"name":"Uncletopia | Frankfurt | 3 | All Maps","name_short":"frk-3","host":"frk-1.de.uncletopia.com","port":27035,"enabled":true,"region":"eu","cc":"de","latitude":50.110924,"longitude":8.682127,"reserved":0,"last_update":"0001-01-01T00:00:00Z","name_a2s":"Uncletopia | Frankfurt | 3 | All Maps","protocol":17,"map":"cp_altitude","folder":"tf","game":"Team Fortress","app_id":440,"player_count":0,"max_players":24,"Bots":0,"server_type":"Dedicated","server_os":"Linux","password":true,"vac":true,"version":"7704440","steam_id":85568392924504274,"keywords":["cp","nocrits","nodmgspread","uncletopia"],"game_id":440,"stv_port":27036,"stv_name":"Uncletopia | Frankfurt | 3 | All Maps | STV","players":null},{"server_id":309,"name":"Uncletopia | Frankfurt | 4 | All Maps","name_short":"frk-4","host":"frk-1.de.uncletopia.com","port":27045,"enabled":true,"region":"eu","cc":"de","latitude":50.110924,"longitude":8.682127,"reserved":0,"last_update":"0001-01-01T00:00:00Z","name_a2s":"Uncletopia | Frankfurt | 4 | All Maps","protocol":17,"map":"cp_sunshine","folder":"tf","game":"Team Fortress","app_id":440,"player_count":0,"max_players":24,"Bots":0,"server_type":"Dedicated","server_os":"Linux","password":true,"vac":true,"version":"7704440","steam_id":85568392924504275,"keywords":["cp","nocrits","nodmgspread","uncletopia"],"game_id":440,"stv_port":0,"stv_name":"","players":null},{"server_id":310,"name":"Uncletopia | Frankfurt | 5 | All Maps","name_short":"frk-5","host":"frk-1.de.uncletopia.com","port":27055,"enabled":true,"region":"eu","cc":"de","latitude":50.110924,"longitude":8.682127,"reserved":0,"last_update":"0001-01-01T00:00:00Z","name_a2s":"Uncletopia | Frankfurt | 5 | All Maps","protocol":17,"map":"cp_process_final","folder":"tf","game":"Team Fortress","app_id":440,"player_count":0,"max_players":24,"Bots":0,"server_type":"Dedicated","server_os":"Linux","password":true,"vac":true,"version":"7704440","steam_id":85568392924504277,"keywords":["cp","nocrits","nodmgspread","uncletopia"],"game_id":440,"stv_port":0,"stv_name":"","players":null},{"server_id":311,"name":"Uncletopia | Frankfurt | 6 | All Maps","name_short":"frk-6","host":"frk-1.de.uncletopia.com","port":27065,"enabled":true,"region":"eu","cc":"de","latitude":50.110924,"longitude":8.682127,"reserved":0,"last_update":"0001-01-01T00:00:00Z","name_a2s":"Uncletopia | Frankfurt | 6 | All Maps","protocol":17,"map":"koth_lakeside_final","folder":"tf","game":"Team Fortress","app_id":440,"player_count":0,"max_players":24,"Bots":0,"server_type":"Dedicated","server_os":"Linux","password":true,"vac":true,"version":"7704440","steam_id":85568392924504278,"keywords":["cp","nocrits","nodmgspread","uncletopia"],"game_id":440,"stv_port":0,"stv_name":"","players":null},{"server_id":23,"name":"Uncletopia | Frankfurt | 7 | No Payload","name_short":"frk-7","host":"frk-1.de.uncletopia.com","port":27075,"enabled":true,"region":"eu","cc":"de","latitude":50.110924,"longitude":8.682127,"reserved":0,"last_update":"0001-01-01T00:00:00Z","name_a2s":"Uncletopia | Frankfurt | 7 | No Payload","protocol":17,"map":"cp_process_final","folder":"tf","game":"Team Fortress","app_id":440,"player_count":0,"max_players":24,"Bots":0,"server_type":"Dedicated","server_os":"Linux","password":true,"vac":true,"version":"7704440","steam_id":85568392924742827,"keywords":["cp","nocrits","nodmgspread","uncletopia"],"game_id":440,"stv_port":0,"stv_name":"","players":null},{"server_id":24,"name":"Uncletopia | Frankfurt | 8 | Community","name_short":"frk-8","host":"frk-1.de.uncletopia.com","port":27085,"enabled":true,"region":"eu","cc":"de","latitude":50.110924,"longitude":8.682127,"reserved":0,"last_update":"0001-01-01T00:00:00Z","name_a2s":"Uncletopia | Frankfurt | 8 | Community","protocol":17,"map":"cp_process_final","folder":"tf","game":"Team Fortress","app_id":440,"player_count":0,"max_players":24,"Bots":0,"server_type":"Dedicated","server_os":"Linux","password":true,"vac":true,"version":"7704440","steam_id":85568392924742828,"keywords":["cp","nocrits","nodmgspread","uncletopia"],"game_id":440,"stv_port":0,"stv_name":"","players":null},{"server_id":202,"name":"Uncletopia | Hong Kong | 1 | All Maps","name_short":"hgk-1","host":"hgk-1.hk.uncletopia.com","port":27015,"enabled":true,"region":"asia","cc":"hk","latitude":22.302711,"longitude":114.177216,"reserved":0,"last_update":"0001-01-01T00:00:00Z","name_a2s":"Uncletopia | Hong Kong | 1 | All Maps","protocol":17,"map":"cp_dustbowl","folder":"tf","game":"Team Fortress","app_id":440,"player_count":24,"max_players":24,"Bots":0,"server_type":"Dedicated","server_os":"Linux","password":true,"vac":true,"version":"7704440","steam_id":85568392924494504,"keywords":["cp","nocrits","nodmgspread","uncletopia"],"game_id":440,"stv_port":27016,"stv_name":"Uncletopia | Hong Kong | 1 | All Maps | STV","players":[{"user_id":3,"name":"MS PowerPoint","steam_id":76561198369523192,"connected_time":15164000000000,"state":"active","ping":62},{"user_id":172,"name":"Medwolf","steam_id":76561198067175880,"connected_time":2342000000000,"state":"active","ping":82},{"user_id":177,"name":"Neji","steam_id":76561199045440852,"connected_time":1611000000000,"state":"active","ping":84},{"user_id":179,"name":"deezers","steam_id":76561199199118750,"connected_time":1037000000000,"state":"active","ping":100},{"user_id":153,"name":"duck1e","steam_id":76561198422098581,"connected_time":3478000000000,"state":"active","ping":73},{"user_id":180,"name":"mmtn","steam_id":76561198084465546,"connected_time":926000000000,"state":"active","ping":62},{"user_id":27,"name":"Nimbus","steam_id":76561198877713016,"connected_time":11047000000000,"state":"active","ping":82},{"user_id":173,"name":"Degenerate and Deranged","steam_id":76561198403808601,"connected_time":2051000000000,"state":"active","ping":66},{"user_id":68,"name":"Kiyomi","steam_id":76561198240627872,"connected_time":8334000000000,"state":"active","ping":53},{"user_id":183,"name":"zenaidaguevarra0828","steam_id":76561199439691372,"connected_time":688000000000,"state":"active","ping":66},{"user_id":95,"name":"moo","steam_id":76561198055553140,"connected_time":6328000000000,"state":"active","ping":99},{"user_id":182,"name":"煙海 | Enkai","steam_id":76561198050460825,"connected_time":704000000000,"state":"active","ping":81},{"user_id":147,"name":"¿?","steam_id":76561198225715416,"connected_time":3807000000000,"state":"active","ping":38},{"user_id":184,"name":"Notive","steam_id":76561199020600466,"connected_time":674000000000,"state":"active","ping":72},{"user_id":185,"name":"sett.","steam_id":76561199010718657,"connected_time":617000000000,"state":"active","ping":75},{"user_id":41,"name":"2232","steam_id":76561198074339034,"connected_time":9589000000000,"state":"active","ping":76},{"user_id":170,"name":"yuyu26071","steam_id":76561199363142727,"connected_time":2879000000000,"state":"active","ping":109},{"user_id":174,"name":"Wakiiiz","steam_id":76561198850134590,"connected_time":1918000000000,"state":"active","ping":63},{"user_id":64,"name":"Violezine","steam_id":76561199000502615,"connected_time":8634000000000,"state":"active","ping":78},{"user_id":188,"name":"DC","steam_id":76561198837122605,"connected_time":212000000000,"state":"active","ping":64},{"user_id":119,"name":"Creeper-Chan","steam_id":76561198172623219,"connected_time":5168000000000,"state":"active","ping":53},{"user_id":131,"name":"JayJ","steam_id":76561198324008555,"connected_time":4713000000000,"state":"active","ping":55},{"user_id":122,"name":"Trivia","steam_id":76561198889862851,"connected_time":5134000000000,"state":"active","ping":41},{"user_id":105,"name":"Lym0n","steam_id":76561199192420260,"connected_time":5843000000000,"state":"active","ping":120}]},{"server_id":1,"name":"Uncletopia | Los Angeles | 1 | All Maps","name_short":"lax-1","host":"lax-1.us.uncletopia.com","port":27015,"enabled":true,"region":"us-west","cc":"us","latitude":33.94279,"longitude":-118.41004,"reserved":0,"last_update":"0001-01-01T00:00:00Z","name_a2s":"Uncletopia | Los Angeles | 1 | All Maps","protocol":17,"map":"cp_dustbowl","folder":"tf","game":"Team Fortress","app_id":440,"player_count":17,"max_players":24,"Bots":0,"server_type":"Dedicated","server_os":"Linux","password":true,"vac":true,"version":"7704440","steam_id":85568392924469991,"keywords":["cp","nocrits","nodmgspread","uncletopia"],"game_id":440,"stv_port":27016,"stv_name":"Uncletopia | Los Angeles | 1 | All Maps | STV","players":[{"user_id":210,"name":"Cypress","steam_id":76561198070560915,"connected_time":79000000000,"state":"active","ping":53},{"user_id":161,"name":"Larry King's Prostate Report","steam_id":76561197968109006,"connected_time":3510000000000,"state":"active","ping":51},{"user_id":186,"name":"Azas3l","steam_id":76561198172069302,"connected_time":2195000000000,"state":"active","ping":53},{"user_id":204,"name":"ayaya?","steam_id":76561199000188109,"connected_time":465000000000,"state":"active","ping":42},{"user_id":208,"name":"Lire","steam_id":76561197995998650,"connected_time":123000000000,"state":"active","ping":46},{"user_id":196,"name":"Larry Gooseman","steam_id":76561198018696922,"connected_time":1368000000000,"state":"active","ping":49},{"user_id":124,"name":"Petey","steam_id":76561198007339151,"connected_time":6392000000000,"state":"active","ping":45},{"user_id":173,"name":"hoots","steam_id":76561198015609525,"connected_time":2769000000000,"state":"active","ping":108},{"user_id":177,"name":"Ian","steam_id":76561198159334435,"connected_time":2616000000000,"state":"active","ping":172},{"user_id":191,"name":"Cactus™ ♥","steam_id":76561198036441270,"connected_time":2014000000000,"state":"active","ping":156},{"user_id":206,"name":"Madvillain","steam_id":76561198037734204,"connected_time":194000000000,"state":"active","ping":40},{"user_id":197,"name":"mexfrag.4 life","steam_id":76561198175961598,"connected_time":1339000000000,"state":"active","ping":58},{"user_id":207,"name":"A Jonas Brother","steam_id":76561198339527138,"connected_time":194000000000,"state":"active","ping":45},{"user_id":209,"name":"AHHHHHHHHH","steam_id":76561198105392791,"connected_time":119000000000,"state":"active","ping":105},{"user_id":192,"name":"everythingrhymeswithorange","steam_id":76561198010306193,"connected_time":1928000000000,"state":"active","ping":58},{"user_id":198,"name":"Greg","steam_id":76561198299543780,"connected_time":1300000000000,"state":"active","ping":125},{"user_id":194,"name":"ROTTINGGIRL","steam_id":76561198051445358,"connected_time":1781000000000,"state":"active","ping":29}]},{"server_id":112,"name":"Uncletopia | Los Angeles | 2 | All Maps","name_short":"lax-2","host":"lax-1.us.uncletopia.com","port":27025,"enabled":true,"region":"us-west","cc":"us","latitude":33.94279,"longitude":-118.41004,"reserved":0,"last_update":"0001-01-01T00:00:00Z","name_a2s":"Uncletopia | Los Angeles | 2 | All Maps","protocol":17,"map":"pl_upward","folder":"tf","game":"Team Fortress","app_id":440,"player_count":0,"max_players":24,"Bots":0,"server_type":"Dedicated","server_os":"Linux","password":true,"vac":true,"version":"7704440","steam_id":85568392924469992,"keywords":["nocrits","nodmgspread","payload","uncletopia"],"game_id":440,"stv_port":27026,"stv_name":"Uncletopia | Los Angeles | 2 | All Maps | STV","players":null},{"server_id":324,"name":"Uncletopia | Los Angeles | 3 | All Maps","name_short":"lax-3","host":"lax-1.us.uncletopia.com","port":27035,"enabled":true,"region":"us-west","cc":"us","latitude":33.94279,"longitude":-118.41004,"reserved":0,"last_update":"0001-01-01T00:00:00Z","name_a2s":"Uncletopia | Los Angeles | 3 | All Maps","protocol":17,"map":"koth_lakeside_final","folder":"tf","game":"Team Fortress","app_id":440,"player_count":0,"max_players":24,"Bots":0,"server_type":"Dedicated","server_os":"Linux","password":true,"vac":true,"version":"7704440","steam_id":85568392924510198,"keywords":["cp","nocrits","nodmgspread","uncletopia"],"game_id":440,"stv_port":27036,"stv_name":"Uncletopia | Los Angeles | 3 | All Maps | STV","players":null},{"server_id":25,"name":"Uncletopia | Los Angeles | 4 | No Payload","name_short":"lax-4","host":"lax-1.us.uncletopia.com","port":27045,"enabled":true,"region":"us-west","cc":"us","latitude":33.94279,"longitude":-118.41004,"reserved":0,"last_update":"0001-01-01T00:00:00Z","name_a2s":"Uncletopia | Los Angeles | 4 | No Payload","protocol":17,"map":"koth_sawmill","folder":"tf","game":"Team Fortress","app_id":440,"player_count":23,"max_players":24,"Bots":0,"server_type":"Dedicated","server_os":"Linux","password":true,"vac":true,"version":"7704440","steam_id":85568392924510199,"keywords":["cp","nocrits","nodmgspread","uncletopia"],"game_id":440,"stv_port":27046,"stv_name":"Uncletopia | Los Angeles | 4 | No Payload | STV","players":[{"user_id":174,"name":"☆Atomic Waffle☆","steam_id":76561198100385184,"connected_time":3568000000000,"state":"active","ping":40},{"user_id":192,"name":"Killerofzombie23","steam_id":76561198799173778,"connected_time":2085000000000,"state":"active","ping":64},{"user_id":195,"name":"Seriously Bruh","steam_id":76561198070408485,"connected_time":1055000000000,"state":"active","ping":74},{"user_id":197,"name":"moe","steam_id":76561198929586245,"connected_time":930000000000,"state":"active","ping":41},{"user_id":163,"name":"Communist Killing Candy Cactus\ufffd","steam_id":76561198074980635,"connected_time":4302000000000,"state":"active","ping":58},{"user_id":175,"name":"KooK0nut","steam_id":76561198025339756,"connected_time":3465000000000,"state":"active","ping":59},{"user_id":162,"name":"Blackcat","steam_id":76561199013406735,"connected_time":4324000000000,"state":"active","ping":51},{"user_id":196,"name":"SmallErection","steam_id":76561198071770147,"connected_time":1040000000000,"state":"active","ping":80},{"user_id":179,"name":"Hernandez","steam_id":76561199011082207,"connected_time":3220000000000,"state":"active","ping":61},{"user_id":204,"name":"Super Mighty G","steam_id":76561198020932806,"connected_time":432000000000,"state":"active","ping":47},{"user_id":205,"name":"able","steam_id":76561198292552182,"connected_time":301000000000,"state":"active","ping":105},{"user_id":194,"name":"Hideous Mincer","steam_id":76561198209881263,"connected_time":1972000000000,"state":"active","ping":49},{"user_id":209,"name":"trans gaming troll (she/her)","steam_id":76561198085410622,"connected_time":135000000000,"state":"active","ping":74},{"user_id":199,"name":"Tortuah","steam_id":76561198074328293,"connected_time":755000000000,"state":"active","ping":65},{"user_id":188,"name":"jolly and cozypilled","steam_id":76561198342480009,"connected_time":2201000000000,"state":"active","ping":53},{"user_id":206,"name":"Red","steam_id":76561198059964992,"connected_time":281000000000,"state":"active","ping":84},{"user_id":185,"name":"Rock Goblin","steam_id":76561198073699764,"connected_time":2830000000000,"state":"active","ping":53},{"user_id":150,"name":"autumnal.messenger","steam_id":76561199345816635,"connected_time":5340000000000,"state":"active","ping":74},{"user_id":170,"name":"Yu","steam_id":76561198161656164,"connected_time":3939000000000,"state":"active","ping":63},{"user_id":207,"name":"scuffed+","steam_id":76561198375321244,"connected_time":215000000000,"state":"active","ping":53},{"user_id":171,"name":"benson","steam_id":76561198105075752,"connected_time":3939000000000,"state":"active","ping":60},{"user_id":191,"name":"Zykio","steam_id":76561198122490182,"connected_time":2185000000000,"state":"active","ping":95},{"user_id":87,"name":"illious","steam_id":76561198169925494,"connected_time":11026000000000,"state":"active","ping":99}]},{"server_id":11,"name":"Uncletopia | London | 1 | All Maps","name_short":"lon-1","host":"lon-1.uk.uncletopia.com","port":27015,"enabled":true,"region":"eu","cc":"gb","latitude":51.509865,"longitude":-0.118092,"reserved":0,"last_update":"0001-01-01T00:00:00Z","name_a2s":"Uncletopia | London | 1 | All Maps","protocol":17,"map":"pl_badwater","folder":"tf","game":"Team Fortress","app_id":440,"player_count":0,"max_players":24,"Bots":0,"server_type":"Dedicated","server_os":"Linux","password":true,"vac":true,"version":"7704440","steam_id":85568392924367362,"keywords":["nocrits","nodmgspread","payload","uncletopia"],"game_id":440,"stv_port":27016,"stv_name":"Uncletopia | London | 1 | All Maps | STV","players":null},{"server_id":114,"name":"Uncletopia | London | 2 | All Maps","name_short":"lon-2","host":"lon-1.uk.uncletopia.com","port":27025,"enabled":true,"region":"eu","cc":"gb","latitude":51.509865,"longitude":-0.118092,"reserved":0,"last_update":"0001-01-01T00:00:00Z","name_a2s":"Uncletopia | London | 2 | All Maps","protocol":17,"map":"cp_altitude","folder":"tf","game":"Team Fortress","app_id":440,"player_count":0,"max_players":24,"Bots":0,"server_type":"Dedicated","server_os":"Linux","password":true,"vac":true,"version":"7704440","steam_id":85568392924470941,"keywords":["cp","nocrits","nodmgspread","uncletopia"],"game_id":440,"stv_port":0,"stv_name":"","players":null},{"server_id":320,"name":"Uncletopia | London | 3 | All Maps","name_short":"lon-3","host":"lon-1.uk.uncletopia.com","port":27035,"enabled":true,"region":"eu","cc":"gb","latitude":51.509865,"longitude":-0.118092,"reserved":0,"last_update":"0001-01-01T00:00:00Z","name_a2s":"Uncletopia | London | 3 | All Maps","protocol":17,"map":"pl_pier","folder":"tf","game":"Team Fortress","app_id":440,"player_count":0,"max_players":24,"Bots":0,"server_type":"Dedicated","server_os":"Linux","password":true,"vac":true,"version":"7704440","steam_id":85568392924510192,"keywords":["nocrits","nodmgspread","payload","uncletopia"],"game_id":440,"stv_port":0,"stv_name":"","players":null},{"server_id":321,"name":"Uncletopia | London | 4 | All Maps","name_short":"lon-4","host":"lon-1.uk.uncletopia.com","port":27045,"enabled":true,"region":"eu","cc":"gb","latitude":51.509865,"longitude":-0.118092,"reserved":0,"last_update":"0001-01-01T00:00:00Z","name_a2s":"Uncletopia | London | 4 | All Maps","protocol":17,"map":"koth_viaduct","folder":"tf","game":"Team Fortress","app_id":440,"player_count":0,"max_players":24,"Bots":0,"server_type":"Dedicated","server_os":"Linux","password":true,"vac":true,"version":"7704440","steam_id":85568392924510193,"keywords":["cp","nocrits","nodmgspread","uncletopia"],"game_id":440,"stv_port":0,"stv_name":"","players":null},{"server_id":21,"name":"Uncletopia | London | 5 | All Maps","name_short":"lon-5","host":"lon-1.uk.uncletopia.com","port":27055,"enabled":true,"region":"eu","cc":"gb","latitude":51.509865,"longitude":-0.118092,"reserved":0,"last_update":"0001-01-01T00:00:00Z","name_a2s":"Uncletopia | London | 5 | All Maps","protocol":17,"map":"pl_barnblitz","folder":"tf","game":"Team Fortress","app_id":440,"player_count":0,"max_players":24,"Bots":0,"server_type":"Dedicated","server_os":"Linux","password":true,"vac":true,"version":"7704440","steam_id":85568392924742829,"keywords":["nocrits","nodmgspread","payload","uncletopia"],"game_id":440,"stv_port":0,"stv_name":"","players":null},{"server_id":22,"name":"Uncletopia | London | 6 | All Maps","name_short":"lon-6","host":"lon-1.uk.uncletopia.com","port":27065,"enabled":true,"region":"eu","cc":"gb","latitude":51.509865,"longitude":-0.118092,"reserved":0,"last_update":"0001-01-01T00:00:00Z","name_a2s":"Uncletopia | London | 6 | All Maps","protocol":17,"map":"cp_process_final","folder":"tf","game":"Team Fortress","app_id":440,"player_count":0,"max_players":24,"Bots":0,"server_type":"Dedicated","server_os":"Linux","password":true,"vac":true,"version":"7704440","steam_id":85568392924742830,"keywords":["cp","nocrits","nodmgspread","uncletopia"],"game_id":440,"stv_port":0,"stv_name":"","players":null},{"server_id":40,"name":"Uncletopia | London | 7 | No Payload","name_short":"lon-7","host":"lon-1.uk.uncletopia.com","port":27075,"enabled":true,"region":"eu","cc":"gb","latitude":51.509865,"longitude":-0.118092,"reserved":0,"last_update":"0001-01-01T00:00:00Z","name_a2s":"Uncletopia | London | 7 | No Payload","protocol":17,"map":"pl_badwater","folder":"tf","game":"Team Fortress","app_id":440,"player_count":0,"max_players":24,"Bots":0,"server_type":"Dedicated","server_os":"Linux","password":true,"vac":true,"version":"7704440","steam_id":85568392924964314,"keywords":["nocrits","nodmgspread","payload","uncletopia"],"game_id":440,"stv_port":0,"stv_name":"","players":null},{"server_id":41,"name":"Uncletopia | London | 8 | Community","name_short":"lon-8","host":"lon-1.uk.uncletopia.com","port":27085,"enabled":true,"region":"eu","cc":"gb","latitude":51.509865,"longitude":-0.118092,"reserved":0,"last_update":"0001-01-01T00:00:00Z","name_a2s":"Uncletopia | London | 8 | Community","protocol":17,"map":"cp_snakewater_final1","folder":"tf","game":"Team Fortress","app_id":440,"player_count":0,"max_players":24,"Bots":0,"server_type":"Dedicated","server_os":"Linux","password":true,"vac":true,"version":"7704440","steam_id":85568392924964315,"keywords":["cp","nocrits","nodmgspread","uncletopia"],"game_id":440,"stv_port":0,"stv_name":"","players":null},{"server_id":300,"name":"Uncletopia | Montréal | 1 | All Maps","name_short":"mtl-1","host":"mtl-1.ca.uncletopia.com","port":27015,"enabled":true,"region":"us-east","cc":"ca","latitude":45.50889,"longitude":-73.56167,"reserved":0,"last_update":"0001-01-01T00:00:00Z","name_a2s":"Uncletopia | Montréal | 1 | All Maps","protocol":17,"map":"koth_lakeside_final","folder":"tf","game":"Team Fortress","app_id":440,"player_count":0,"max_players":24,"Bots":0,"server_type":"Dedicated","server_os":"Linux","password":true,"vac":true,"version":"7704440","steam_id":85568392924500087,"keywords":["cp","nocrits","nodmgspread","uncletopia"],"game_id":440,"stv_port":27016,"stv_name":"Uncletopia | Montréal | 1 | All Maps | STV","players":null},{"server_id":301,"name":"Uncletopia | Montréal | 2 | All Maps","name_short":"mtl-2","host":"mtl-1.ca.uncletopia.com","port":27025,"enabled":true,"region":"us-east","cc":"ca","latitude":45.50889,"longitude":-73.56167,"reserved":0,"last_update":"0001-01-01T00:00:00Z","name_a2s":"Uncletopia | Montréal | 2 | All Maps","protocol":17,"map":"pl_barnblitz","folder":"tf","game":"Team Fortress","app_id":440,"player_count":0,"max_players":24,"Bots":0,"server_type":"Dedicated","server_os":"Linux","password":true,"vac":true,"version":"7704440","steam_id":85568392924500088,"keywords":["nocrits","nodmgspread","payload","uncletopia"],"game_id":440,"stv_port":27026,"stv_name":"Uncletopia | Montréal | 2 | All Maps | STV","players":null},{"server_id":302,"name":"Uncletopia | Montréal | 3 | All Maps","name_short":"mtl-3","host":"mtl-1.ca.uncletopia.com","port":27035,"enabled":true,"region":"us-east","cc":"ca","latitude":45.50889,"longitude":-73.56167,"reserved":0,"last_update":"0001-01-01T00:00:00Z","name_a2s":"Uncletopia | Montréal | 3 | All Maps","protocol":17,"map":"pl_pier","folder":"tf","game":"Team Fortress","app_id":440,"player_count":0,"max_players":24,"Bots":0,"server_type":"Dedicated","server_os":"Linux","password":true,"vac":true,"version":"7704440","steam_id":85568392924500089,"keywords":["nocrits","nodmgspread","payload","uncletopia"],"game_id":440,"stv_port":0,"stv_name":"","players":null},{"server_id":303,"name":"Uncletopia | Montréal | 4 | No Payload","name_short":"mtl-4","host":"mtl-1.ca.uncletopia.com","port":27045,"enabled":true,"region":"us-east","cc":"ca","latitude":45.50889,"longitude":-73.56167,"reserved":0,"last_update":"0001-01-01T00:00:00Z","name_a2s":"Uncletopia | Montréal | 4 | No Payload","protocol":17,"map":"koth_cascade","folder":"tf","game":"Team Fortress","app_id":440,"player_count":0,"max_players":24,"Bots":0,"server_type":"Dedicated","server_os":"Linux","password":true,"vac":true,"version":"7704440","steam_id":85568392924500090,"keywords":["cp","nocrits","nodmgspread","uncletopia"],"game_id":440,"stv_port":27046,"stv_name":"Uncletopia | Montréal | 4 | No Payload | STV","players":null},{"server_id":13,"name":"Uncletopia | New York City | 1 | All Maps","name_short":"nyc-1","host":"nyc-1.us.uncletopia.com","port":27015,"enabled":true,"region":"us-east","cc":"us","latitude":40.73061,"longitude":-73.93524,"reserved":0,"last_update":"0001-01-01T00:00:00Z","name_a2s":"Uncletopia | New York City | 1 | All Maps","protocol":17,"map":"pl_swiftwater_final1","folder":"tf","game":"Team Fortress","app_id":440,"player_count":0,"max_players":24,"Bots":0,"server_type":"Dedicated","server_os":"Linux","password":true,"vac":true,"version":"7704440","steam_id":85568392924469993,"keywords":["nocrits","nodmgspread","payload","uncletopia"],"game_id":440,"stv_port":27016,"stv_name":"Uncletopia | New York City | 1 | All Maps | STV","players":null},{"server_id":14,"name":"Uncletopia | New York City | 2 | All Maps","name_short":"nyc-2","host":"nyc-1.us.uncletopia.com","port":27025,"enabled":true,"region":"us-east","cc":"us","latitude":40.73061,"longitude":-73.93524,"reserved":0,"last_update":"0001-01-01T00:00:00Z","name_a2s":"Uncletopia | New York City | 2 | All Maps","protocol":17,"map":"koth_lakeside_final","folder":"tf","game":"Team Fortress","app_id":440,"player_count":0,"max_players":24,"Bots":0,"server_type":"Dedicated","server_os":"Linux","password":true,"vac":true,"version":"7704440","steam_id":85568392924469994,"keywords":["cp","nocrits","nodmgspread","uncletopia"],"game_id":440,"stv_port":27026,"stv_name":"Uncletopia | New York City | 2 | All Maps | STV","players":null},{"server_id":15,"name":"Uncletopia | New York City | 3 | All Maps","name_short":"nyc-3","host":"nyc-1.us.uncletopia.com","port":27035,"enabled":true,"region":"us-east","cc":"us","latitude":40.73061,"longitude":-73.93524,"reserved":0,"last_update":"0001-01-01T00:00:00Z","name_a2s":"Uncletopia | New York City | 3 | All Maps","protocol":17,"map":"pl_borneo","folder":"tf","game":"Team Fortress","app_id":440,"player_count":0,"max_players":24,"Bots":0,"server_type":"Dedicated","server_os":"Linux","password":true,"vac":true,"version":"7704440","steam_id":85568392924742820,"keywords":["nocrits","nodmgspread","payload","uncletopia"],"game_id":440,"stv_port":27036,"stv_name":"Uncletopia | New York City | 3 | All Maps | STV","players":null},{"server_id":16,"name":"Uncletopia | New York City | 4 | Community","name_short":"nyc-4","host":"nyc-1.us.uncletopia.com","port":27045,"enabled":true,"region":"us-east","cc":"us","latitude":40.73061,"longitude":-73.93524,"reserved":0,"last_update":"0001-01-01T00:00:00Z","name_a2s":"Uncletopia | New York City | 4 | Community","protocol":17,"map":"cp_dustbowl","folder":"tf","game":"Team Fortress","app_id":440,"player_count":0,"max_players":24,"Bots":0,"server_type":"Dedicated","server_os":"Linux","password":true,"vac":true,"version":"7704440","steam_id":85568392924742821,"keywords":["cp","nocrits","nodmgspread","uncletopia"],"game_id":440,"stv_port":0,"stv_name":"","players":null},{"server_id":142,"name":"Uncletopia | São Paulo | 1 | All Maps","name_short":"sao-1","host":"sao-1.br.uncletopia.com","port":27015,"enabled":true,"region":"sa","cc":"br","latitude":-23.533773,"longitude":-46.62529,"reserved":0,"last_update":"0001-01-01T00:00:00Z","name_a2s":"Uncletopia | São Paulo | 1 | All Maps","protocol":17,"map":"koth_highpass","folder":"tf","game":"Team Fortress","app_id":440,"player_count":0,"max_players":24,"Bots":0,"server_type":"Dedicated","server_os":"Linux","password":true,"vac":true,"version":"7704440","steam_id":85568392924469996,"keywords":["cp","nocrits","nodmgspread","uncletopia"],"game_id":440,"stv_port":27016,"stv_name":"Uncletopia | São Paulo | 1 | All Maps | STV","players":null},{"server_id":143,"name":"Uncletopia | São Paulo | 2 | All Maps","name_short":"sao-2","host":"sao-2.br.uncletopia.com","port":27015,"enabled":true,"region":"sa","cc":"br","latitude":-23.533773,"longitude":-46.62529,"reserved":0,"last_update":"0001-01-01T00:00:00Z","name_a2s":"Uncletopia | São Paulo | 2 | All Maps","protocol":17,"map":"pl_frontier_final","folder":"tf","game":"Team Fortress","app_id":440,"player_count":0,"max_players":24,"Bots":0,"server_type":"Dedicated","server_os":"Linux","password":true,"vac":true,"version":"7704440","steam_id":85568392924485349,"keywords":["nocrits","nodmgspread","payload","uncletopia"],"game_id":440,"stv_port":0,"stv_name":"","players":null},{"server_id":7,"name":"Uncletopia | Seattle | 1 | All Maps","name_short":"sea-1","host":"sea-1.us.uncletopia.com","port":27015,"enabled":true,"region":"us-west","cc":"us","latitude":47.608013,"longitude":-122.33517,"reserved":0,"last_update":"0001-01-01T00:00:00Z","name_a2s":"Uncletopia | Seattle | 1 | All Maps","protocol":17,"map":"koth_harvest_final","folder":"tf","game":"Team Fortress","app_id":440,"player_count":23,"max_players":24,"Bots":0,"server_type":"Dedicated","server_os":"Linux","password":true,"vac":true,"version":"7704440","steam_id":85568392924469997,"keywords":["cp","nocrits","nodmgspread","uncletopia"],"game_id":440,"stv_port":27016,"stv_name":"Uncletopia | Seattle | 1 | All Maps | STV","players":[{"user_id":193,"name":"Slavic Pancake","steam_id":76561199319750064,"connected_time":630000000000,"state":"active","ping":94},{"user_id":188,"name":"Friends of Tina Kotek","steam_id":76561198257921898,"connected_time":1482000000000,"state":"active","ping":56},{"user_id":189,"name":"[TrC] Dackstrus","steam_id":76561197973518509,"connected_time":844000000000,"state":"active","ping":60},{"user_id":192,"name":"Brain Issue","steam_id":76561198068324695,"connected_time":723000000000,"state":"active","ping":72},{"user_id":184,"name":"Techo","steam_id":76561199169405285,"connected_time":2529000000000,"state":"active","ping":56},{"user_id":201,"name":"ms. anthrope","steam_id":76561198063533082,"connected_time":260000000000,"state":"active","ping":44},{"user_id":160,"name":"Aviyarn","steam_id":76561199074194652,"connected_time":4673000000000,"state":"active","ping":122},{"user_id":171,"name":"Foyboy™","steam_id":76561198072305817,"connected_time":3969000000000,"state":"active","ping":92},{"user_id":202,"name":"reshi","steam_id":76561198239598834,"connected_time":79000000000,"state":"active","ping":119},{"user_id":194,"name":"CoherentCarpet (ノಠ益ಠ)\ufffd\ufffd","steam_id":76561198045625360,"connected_time":630000000000,"state":"active","ping":69},{"user_id":136,"name":"Arsonist Goose","steam_id":76561198147441830,"connected_time":6573000000000,"state":"active","ping":73},{"user_id":175,"name":"gorlab","steam_id":76561198025089694,"connected_time":3280000000000,"state":"active","ping":58},{"user_id":186,"name":"An Old Lady","steam_id":76561198047480318,"connected_time":2139000000000,"state":"active","ping":70},{"user_id":181,"name":"TimeToPie","steam_id":76561197999411135,"connected_time":2714000000000,"state":"active","ping":76},{"user_id":113,"name":"Korey","steam_id":76561198210734407,"connected_time":8451000000000,"state":"active","ping":111},{"user_id":166,"name":"Yoshimelon","steam_id":76561198253054325,"connected_time":4459000000000,"state":"active","ping":96},{"user_id":85,"name":"Lord Hater","steam_id":76561199158148782,"connected_time":11098000000000,"state":"active","ping":61},{"user_id":145,"name":"Ayayahuasca","steam_id":76561199002906056,"connected_time":5704000000000,"state":"active","ping":48},{"user_id":183,"name":"NotAWeeb","steam_id":76561198165530739,"connected_time":2665000000000,"state":"active","ping":64},{"user_id":203,"name":"PirateJet","steam_id":76561198050858744,"connected_time":67000000000,"state":"active","ping":80},{"user_id":135,"name":"Mom","steam_id":76561198207936000,"connected_time":6616000000000,"state":"active","ping":60},{"user_id":198,"name":"Today","steam_id":76561198232213192,"connected_time":519000000000,"state":"active","ping":61},{"user_id":151,"name":"The Caretaker","steam_id":76561198125241411,"connected_time":5684000000000,"state":"active","ping":104}]},{"server_id":119,"name":"Uncletopia | Seattle | 2 | All Maps","name_short":"sea-2","host":"sea-1.us.uncletopia.com","port":27025,"enabled":true,"region":"us-west","cc":"us","latitude":47.608013,"longitude":-122.33517,"reserved":0,"last_update":"0001-01-01T00:00:00Z","name_a2s":"Uncletopia | Seattle | 2 | All Maps","protocol":17,"map":"pl_barnblitz","folder":"tf","game":"Team Fortress","app_id":440,"player_count":24,"max_players":24,"Bots":0,"server_type":"Dedicated","server_os":"Linux","password":true,"vac":true,"version":"7704440","steam_id":85568392924469998,"keywords":["nocrits","nodmgspread","payload","uncletopia"],"game_id":440,"stv_port":27026,"stv_name":"Uncletopia | Seattle | 2 | All Maps | STV","players":[{"user_id":241,"name":"Arlo","steam_id":76561198295343296,"connected_time":274000000000,"state":"active","ping":135},{"user_id":225,"name":"Sir Nope (TSS)","steam_id":76561198035935649,"connected_time":1453000000000,"state":"active","ping":84},{"user_id":244,"name":"WINNNNNIE","steam_id":76561198286650322,"connected_time":171000000000,"state":"active","ping":54},{"user_id":220,"name":"lamadre07","steam_id":76561198067337453,"connected_time":1556000000000,"state":"active","ping":116},{"user_id":196,"name":"GameGuru the Green Gryphon","steam_id":76561198118495354,"connected_time":2615000000000,"state":"active","ping":51},{"user_id":232,"name":"Brocklee","steam_id":76561198189330642,"connected_time":907000000000,"state":"active","ping":78},{"user_id":226,"name":"Bowl of Soup","steam_id":76561198114255273,"connected_time":1334000000000,"state":"active","ping":55},{"user_id":242,"name":"Xylemon","steam_id":76561197965297420,"connected_time":264000000000,"state":"active","ping":58},{"user_id":236,"name":"tobrehto","steam_id":76561198097544038,"connected_time":702000000000,"state":"active","ping":86},{"user_id":237,"name":"Bagaboned","steam_id":76561198043761335,"connected_time":603000000000,"state":"active","ping":47},{"user_id":238,"name":"Uni S. Gaming","steam_id":76561198971726967,"connected_time":546000000000,"state":"active","ping":122},{"user_id":208,"name":"Harley [Ramiel]","steam_id":76561198079510840,"connected_time":2035000000000,"state":"active","ping":46},{"user_id":198,"name":"M.L.JEW","steam_id":76561198997375055,"connected_time":2486000000000,"state":"active","ping":130},{"user_id":155,"name":"DORATHEEXPLORER","steam_id":76561198124773931,"connected_time":5573000000000,"state":"active","ping":81},{"user_id":209,"name":"Cinn","steam_id":76561198091650021,"connected_time":2008000000000,"state":"active","ping":51},{"user_id":180,"name":"Zorlovo","steam_id":76561198006443283,"connected_time":4257000000000,"state":"active","ping":88},{"user_id":210,"name":"doomshroom","steam_id":76561198092827250,"connected_time":1884000000000,"state":"active","ping":48},{"user_id":215,"name":"SvicidalBug","steam_id":76561198221390504,"connected_time":1783000000000,"state":"active","ping":60},{"user_id":227,"name":"Guy TIPS TOO FROSTY Fieri","steam_id":76561198065273751,"connected_time":1223000000000,"state":"active","ping":54},{"user_id":223,"name":"Arrythmia","steam_id":76561198093748123,"connected_time":1533000000000,"state":"active","ping":54},{"user_id":228,"name":"(sqrt(2)^sqrt(2))^sqrt(2)","steam_id":76561198337705174,"connected_time":1193000000000,"state":"active","ping":76},{"user_id":243,"name":"Dr DeFriend","steam_id":76561198081356344,"connected_time":260000000000,"state":"active","ping":62},{"user_id":218,"name":"mumbles","steam_id":76561197994528974,"connected_time":1707000000000,"state":"active","ping":86},{"user_id":235,"name":"skulldust","steam_id":76561198080237818,"connected_time":888000000000,"state":"active","ping":123}]},{"server_id":17,"name":"Uncletopia | San Francisco | 1 | All Maps","name_short":"sfo-1","host":"sfo-1.us.uncletopia.com","port":27015,"enabled":true,"region":"us-west","cc":"us","latitude":37.77397,"longitude":-122.4313,"reserved":0,"last_update":"0001-01-01T00:00:00Z","name_a2s":"Uncletopia | San Francisco | 1 | All Maps","protocol":17,"map":"pl_swiftwater_final1","folder":"tf","game":"Team Fortress","app_id":440,"player_count":5,"max_players":24,"Bots":0,"server_type":"Dedicated","server_os":"Linux","password":true,"vac":true,"version":"7704440","steam_id":85568392924469999,"keywords":["nocrits","nodmgspread","payload","uncletopia"],"game_id":440,"stv_port":27016,"stv_name":"Uncletopia | San Francisco | 1 | All Maps | STV","players":[{"user_id":181,"name":"Glorified Toaster With Legs","steam_id":76561199296009984,"connected_time":1732000000000,"state":"active","ping":145},{"user_id":183,"name":"Ember","steam_id":76561198201678098,"connected_time":1125000000000,"state":"active","ping":90},{"user_id":168,"name":"InfernoFlower64","steam_id":76561198181097391,"connected_time":2479000000000,"state":"active","ping":108},{"user_id":175,"name":"Dali","steam_id":76561198077593486,"connected_time":2172000000000,"state":"active","ping":72},{"user_id":178,"name":"PotatoChamp","steam_id":76561198074247215,"connected_time":2137000000000,"state":"active","ping":67}]},{"server_id":18,"name":"Uncletopia | San Francisco | 2 | All Maps","name_short":"sfo-2","host":"sfo-1.us.uncletopia.com","port":27025,"enabled":true,"region":"us-west","cc":"us","latitude":37.77397,"longitude":-122.4313,"reserved":0,"last_update":"0001-01-01T00:00:00Z","name_a2s":"Uncletopia | San Francisco | 2 | All Maps","protocol":17,"map":"koth_viaduct","folder":"tf","game":"Team Fortress","app_id":440,"player_count":0,"max_players":24,"Bots":0,"server_type":"Dedicated","server_os":"Linux","password":true,"vac":true,"version":"7704440","steam_id":85568392924470000,"keywords":["cp","nocrits","nodmgspread","uncletopia"],"game_id":440,"stv_port":27026,"stv_name":"Uncletopia | San Francisco | 2 | All Maps | STV","players":null},{"server_id":19,"name":"Uncletopia | San Francisco | 3 | No Payload","name_short":"sfo-3","host":"sfo-1.us.uncletopia.com","port":27035,"enabled":true,"region":"us-west","cc":"us","latitude":37.77397,"longitude":-122.4313,"reserved":0,"last_update":"0001-01-01T00:00:00Z","name_a2s":"Uncletopia | San Francisco | 3 | No Payload","protocol":17,"map":"cp_process_final","folder":"tf","game":"Team Fortress","app_id":440,"player_count":0,"max_players":24,"Bots":0,"server_type":"Dedicated","server_os":"Linux","password":true,"vac":true,"version":"7704440","steam_id":85568392924742824,"keywords":["cp","nocrits","nodmgspread","uncletopia"],"game_id":440,"stv_port":0,"stv_name":"","players":null},{"server_id":20,"name":"Uncletopia | San Francisco | 4 | Community","name_short":"sfo-4","host":"sfo-1.us.uncletopia.com","port":27045,"enabled":true,"region":"us-west","cc":"us","latitude":37.77397,"longitude":-122.4313,"reserved":0,"last_update":"0001-01-01T00:00:00Z","name_a2s":"Uncletopia | San Francisco | 4 | Community","protocol":17,"map":"workshop/koth_product_final.ugc454272353","folder":"tf","game":"Team Fortress","app_id":440,"player_count":5,"max_players":24,"Bots":0,"server_type":"Dedicated","server_os":"Linux","password":true,"vac":true,"version":"7704440","steam_id":85568392924742826,"keywords":["cp","nocrits","nodmgspread","uncletopia"],"game_id":440,"stv_port":27046,"stv_name":"Uncletopia | San Francisco | 4 | Community | STV","players":[{"user_id":11,"name":"epic gamer texan","steam_id":76561198199923638,"connected_time":7729000000000,"state":"active","ping":101},{"user_id":20,"name":"Savaqa","steam_id":76561198158016688,"connected_time":2240000000000,"state":"active","ping":43},{"user_id":12,"name":"Davy Croc","steam_id":76561198161642185,"connected_time":7698000000000,"state":"active","ping":58},{"user_id":22,"name":"CrackedSanity","steam_id":76561198279841251,"connected_time":1060000000000,"state":"active","ping":47},{"user_id":23,"name":"Bummerland","steam_id":76561199123707000,"connected_time":591000000000,"state":"active","ping":72}]},{"server_id":141,"name":"Uncletopia | Sydney | 1 | All Maps","name_short":"syd-1","host":"syd-1.au.uncletopia.com","port":27015,"enabled":true,"region":"au","cc":"au","latitude":-33.865143,"longitude":151.2099,"reserved":0,"last_update":"0001-01-01T00:00:00Z","name_a2s":"Uncletopia | Sydney | 1 | All Maps","protocol":17,"map":"pl_upward","folder":"tf","game":"Team Fortress","app_id":440,"player_count":24,"max_players":24,"Bots":0,"server_type":"Dedicated","server_os":"Linux","password":true,"vac":true,"version":"7704440","steam_id":85568392924470001,"keywords":["nocrits","nodmgspread","payload","uncletopia"],"game_id":440,"stv_port":27016,"stv_name":"Uncletopia | Sydney | 1 | All Maps | STV","players":[{"user_id":271,"name":"PyroShark","steam_id":76561198199915279,"connected_time":711000000000,"state":"active","ping":72},{"user_id":277,"name":"franky meatballs","steam_id":76561198048120251,"connected_time":458000000000,"state":"active","ping":87},{"user_id":244,"name":"Selling Anti-Matter for $543","steam_id":76561198070708382,"connected_time":2432000000000,"state":"active","ping":53},{"user_id":256,"name":"haiiii ^_^ hi!! \u003c3 haiii hii :3","steam_id":76561198930683342,"connected_time":1909000000000,"state":"active","ping":53},{"user_id":181,"name":"hobo","steam_id":76561199046481213,"connected_time":7047000000000,"state":"active","ping":62},{"user_id":275,"name":"_liam_sutton","steam_id":76561198249836518,"connected_time":607000000000,"state":"active","ping":78},{"user_id":274,"name":"michael","steam_id":76561198052848358,"connected_time":617000000000,"state":"active","ping":52},{"user_id":265,"name":"hyak","steam_id":76561198175700625,"connected_time":1311000000000,"state":"active","ping":88},{"user_id":280,"name":"jimboco","steam_id":76561198250813408,"connected_time":133000000000,"state":"active","ping":57},{"user_id":239,"name":"The Gaming","steam_id":76561198914415738,"connected_time":2722000000000,"state":"active","ping":56},{"user_id":278,"name":"Comedy Mode","steam_id":76561198293250088,"connected_time":325000000000,"state":"active","ping":104},{"user_id":279,"name":"ToeJam \u0026 Earl Sweatshirt","steam_id":76561198067883394,"connected_time":300000000000,"state":"active","ping":115},{"user_id":248,"name":"huh","steam_id":76561199092391643,"connected_time":2241000000000,"state":"active","ping":95},{"user_id":281,"name":"SoyBoy","steam_id":76561197992447102,"connected_time":120000000000,"state":"active","ping":49},{"user_id":249,"name":"mark cark","steam_id":76561198095659574,"connected_time":2203000000000,"state":"active","ping":41},{"user_id":267,"name":"Bykeshgoly","steam_id":76561198075046784,"connected_time":1285000000000,"state":"active","ping":55},{"user_id":240,"name":"Phlog enthusiast","steam_id":76561198344085093,"connected_time":2626000000000,"state":"active","ping":91},{"user_id":272,"name":"stevo","steam_id":76561198117749786,"connected_time":699000000000,"state":"active","ping":76},{"user_id":282,"name":"Snuke2001","steam_id":76561198234464628,"connected_time":116000000000,"state":"active","ping":79},{"user_id":283,"name":"theeg","steam_id":76561198985005836,"connected_time":111000000000,"state":"active","ping":58},{"user_id":284,"name":"Pookie","steam_id":76561198812306030,"connected_time":91000000000,"state":"active","ping":49},{"user_id":270,"name":"dogey","steam_id":76561198094083849,"connected_time":811000000000,"state":"active","ping":58},{"user_id":268,"name":"hijik","steam_id":76561198359069277,"connected_time":835000000000,"state":"active","ping":100},{"user_id":285,"name":"skud","steam_id":76561198136866711,"connected_time":66000000000,"state":"active","ping":59}]},{"server_id":123,"name":"Uncletopia | Sydney | 2 | All Maps","name_short":"syd-2","host":"syd-1.au.uncletopia.com","port":27025,"enabled":true,"region":"au","cc":"au","latitude":-33.865143,"longitude":151.2099,"reserved":0,"last_update":"0001-01-01T00:00:00Z","name_a2s":"Uncletopia | Sydney | 2 | All Maps","protocol":17,"map":"cp_mountainlab","folder":"tf","game":"Team Fortress","app_id":440,"player_count":12,"max_players":24,"Bots":0,"server_type":"Dedicated","server_os":"Linux","password":true,"vac":true,"version":"7704440","steam_id":85568392924470002,"keywords":["cp","nocrits","nodmgspread","uncletopia"],"game_id":440,"stv_port":27026,"stv_name":"Uncletopia | Sydney | 2 | All Maps | STV","players":[{"user_id":38,"name":"WebSpook","steam_id":76561197976931725,"connected_time":3369000000000,"state":"active","ping":49},{"user_id":57,"name":"Toba","steam_id":76561199218162666,"connected_time":1251000000000,"state":"active","ping":86},{"user_id":43,"name":"Jetgirljo","steam_id":76561198178284561,"connected_time":2808000000000,"state":"active","ping":59},{"user_id":61,"name":"D E T H","steam_id":76561198406959622,"connected_time":1141000000000,"state":"active","ping":62},{"user_id":64,"name":"D J","steam_id":76561198337506106,"connected_time":607000000000,"state":"active","ping":45},{"user_id":66,"name":"Soggy Con-Guog","steam_id":76561198115327706,"connected_time":369000000000,"state":"active","ping":59},{"user_id":54,"name":"Orsn","steam_id":76561198297074145,"connected_time":1697000000000,"state":"active","ping":89},{"user_id":44,"name":"AmieAmour","steam_id":76561198956469036,"connected_time":2751000000000,"state":"active","ping":257},{"user_id":45,"name":"Barchel (She/Her)","steam_id":76561197984629970,"connected_time":2671000000000,"state":"active","ping":62},{"user_id":67,"name":"Dark_Angel","steam_id":76561198248798154,"connected_time":360000000000,"state":"active","ping":45},{"user_id":49,"name":"Meihronias","steam_id":76561199163845108,"connected_time":2312000000000,"state":"active","ping":90},{"user_id":68,"name":"WAS THAT THE BITE OF 87?","steam_id":76561199213396688,"connected_time":269000000000,"state":"active","ping":98}]},{"server_id":395,"name":"Uncletopia | Sydney | 3 | All Maps","name_short":"syd-3","host":"syd-1.au.uncletopia.com","port":27035,"enabled":true,"region":"au","cc":"au","latitude":-33.865143,"longitude":151.2099,"reserved":0,"last_update":"0001-01-01T00:00:00Z","name_a2s":"Uncletopia | Sydney | 3 | All Maps","protocol":17,"map":"cp_snakewater_final1","folder":"tf","game":"Team Fortress","app_id":440,"player_count":0,"max_players":24,"Bots":0,"server_type":"Dedicated","server_os":"Linux","password":true,"vac":true,"version":"7704440","steam_id":85568392925194467,"keywords":["cp","nocrits","nodmgspread","uncletopia"],"game_id":440,"stv_port":27036,"stv_name":"Uncletopia | Sydney | 3 | All Maps | STV","players":null},{"server_id":396,"name":"Uncletopia | Sydney | 4 | All Maps","name_short":"syd-4","host":"syd-1.au.uncletopia.com","port":27045,"enabled":true,"region":"au","cc":"au","latitude":-33.865143,"longitude":151.2099,"reserved":0,"last_update":"0001-01-01T00:00:00Z","name_a2s":"Uncletopia | Sydney | 4 | All Maps","protocol":17,"map":"koth_viaduct","folder":"tf","game":"Team Fortress","app_id":440,"player_count":3,"max_players":24,"Bots":0,"server_type":"Dedicated","server_os":"Linux","password":true,"vac":true,"version":"7704440","steam_id":85568392925397958,"keywords":["cp","nocrits","nodmgspread","uncletopia"],"game_id":440,"stv_port":27046,"stv_name":"Uncletopia | Sydney | 4 | All Maps | STV","players":[{"user_id":24,"name":"nebraskafan123","steam_id":76561199050997638,"connected_time":3376000000000,"state":"active","ping":62},{"user_id":25,"name":"fishsauce94","steam_id":76561199248818077,"connected_time":2908000000000,"state":"active","ping":72},{"user_id":26,"name":"GTSW1FT","steam_id":76561198315785054,"connected_time":153000000000,"state":"active","ping":107}]},{"server_id":58,"name":"Uncletopia | Sydney | 5 | No Payload","name_short":"syd-5","host":"syd-1.au.uncletopia.com","port":27055,"enabled":true,"region":"au","cc":"au","latitude":-33.865143,"longitude":151.2099,"reserved":0,"last_update":"0001-01-01T00:00:00Z","name_a2s":"Uncletopia | Sydney | 5 | No Payload","protocol":17,"map":"pl_barnblitz","folder":"tf","game":"Team Fortress","app_id":440,"player_count":0,"max_players":24,"Bots":0,"server_type":"Dedicated","server_os":"Linux","password":true,"vac":true,"version":"7704440","steam_id":85568392925397959,"keywords":["nocrits","nodmgspread","payload","uncletopia"],"game_id":440,"stv_port":0,"stv_name":"","players":null},{"server_id":59,"name":"Uncletopia | Sydney | 6 | Community","name_short":"syd-6","host":"syd-1.au.uncletopia.com","port":27065,"enabled":true,"region":"au","cc":"au","latitude":-33.865143,"longitude":151.2099,"reserved":0,"last_update":"0001-01-01T00:00:00Z","name_a2s":"Uncletopia | Sydney | 6 | Community","protocol":17,"map":"workshop/rd_asteroid_redux_rc9.ugc2154902912","folder":"tf","game":"Team Fortress","app_id":440,"player_count":0,"max_players":24,"Bots":0,"server_type":"Dedicated","server_os":"Linux","password":true,"vac":true,"version":"7704440","steam_id":85568392925397960,"keywords":["beta","nocrits","nodmgspread","rd","uncletopia"],"game_id":440,"stv_port":27066,"stv_name":"Uncletopia | Sydney | 6 | Community | STV","players":null},{"server_id":49,"name":"Uncletopia | Warsaw | 1 | All Maps","name_short":"waw-1","host":"waw-1.pl.uncletopia.com","port":27015,"enabled":true,"region":"eu","cc":"pl","latitude":52.2297,"longitude":21.017532,"reserved":0,"last_update":"0001-01-01T00:00:00Z","name_a2s":"Uncletopia | Warsaw | 1 | All Maps","protocol":17,"map":"cp_process_final","folder":"tf","game":"Team Fortress","app_id":440,"player_count":0,"max_players":24,"Bots":0,"server_type":"Dedicated","server_os":"Linux","password":true,"vac":true,"version":"7704440","steam_id":85568392925397850,"keywords":["cp","nocrits","nodmgspread","uncletopia"],"game_id":440,"stv_port":0,"stv_name":"","players":null},{"server_id":50,"name":"Uncletopia | Warsaw | 2 | All Maps","name_short":"waw-2","host":"waw-1.pl.uncletopia.com","port":27025,"enabled":true,"region":"eu","cc":"pl","latitude":52.2297,"longitude":21.017532,"reserved":0,"last_update":"0001-01-01T00:00:00Z","name_a2s":"Uncletopia | Warsaw | 2 | All Maps","protocol":17,"map":"pl_badwater","folder":"tf","game":"Team Fortress","app_id":440,"player_count":0,"max_players":24,"Bots":0,"server_type":"Dedicated","server_os":"Linux","password":true,"vac":true,"version":"7704440","steam_id":85568392925397851,"keywords":["nocrits","nodmgspread","payload","uncletopia"],"game_id":440,"stv_port":0,"stv_name":"","players":null},{"server_id":51,"name":"Uncletopia | Warsaw | 3 | All Maps","name_short":"waw-3","host":"waw-1.pl.uncletopia.com","port":27035,"enabled":true,"region":"eu","cc":"pl","latitude":52.2297,"longitude":21.017532,"reserved":0,"last_update":"0001-01-01T00:00:00Z","name_a2s":"Uncletopia | Warsaw | 3 | All Maps","protocol":17,"map":"pl_swiftwater_final1","folder":"tf","game":"Team Fortress","app_id":440,"player_count":0,"max_players":24,"Bots":0,"server_type":"Dedicated","server_os":"Linux","password":true,"vac":true,"version":"7704440","steam_id":85568392925397852,"keywords":["nocrits","nodmgspread","payload","uncletopia"],"game_id":440,"stv_port":27036,"stv_name":"Uncletopia | Warsaw | 3 | All Maps | STV","players":null},{"server_id":52,"name":"Uncletopia | Warsaw | 4 | All Maps","name_short":"waw-4","host":"waw-1.pl.uncletopia.com","port":27045,"enabled":true,"region":"eu","cc":"pl","latitude":52.2297,"longitude":21.017532,"reserved":0,"last_update":"0001-01-01T00:00:00Z","name_a2s":"Uncletopia | Warsaw | 4 | All Maps","protocol":17,"map":"cp_process_final","folder":"tf","game":"Team Fortress","app_id":440,"player_count":0,"max_players":24,"Bots":0,"server_type":"Dedicated","server_os":"Linux","password":true,"vac":true,"version":"7704440","steam_id":85568392925397853,"keywords":["cp","nocrits","nodmgspread","uncletopia"],"game_id":440,"stv_port":0,"stv_name":"","players":null},{"server_id":53,"name":"Uncletopia | Warsaw | 5 | No Payload","name_short":"waw-5","host":"waw-1.pl.uncletopia.com","port":27055,"enabled":true,"region":"eu","cc":"pl","latitude":52.2297,"longitude":21.017532,"reserved":0,"last_update":"0001-01-01T00:00:00Z","name_a2s":"Uncletopia | Warsaw | 5 | No Payload","protocol":17,"map":"koth_cascade","folder":"tf","game":"Team Fortress","app_id":440,"player_count":0,"max_players":24,"Bots":0,"server_type":"Dedicated","server_os":"Linux","password":true,"vac":true,"version":"7704440","steam_id":85568392925397854,"keywords":["cp","nocrits","nodmgspread","uncletopia"],"game_id":440,"stv_port":0,"stv_name":"","players":null},{"server_id":54,"name":"Uncletopia | Warsaw | 6 | Community","name_short":"waw-6","host":"waw-1.pl.uncletopia.com","port":27065,"enabled":true,"region":"eu","cc":"pl","latitude":52.2297,"longitude":21.017532,"reserved":0,"last_update":"0001-01-01T00:00:00Z","name_a2s":"Uncletopia | Warsaw | 6 | Community","protocol":17,"map":"pl_badwater","folder":"tf","game":"Team Fortress","app_id":440,"player_count":0,"max_players":24,"Bots":0,"server_type":"Dedicated","server_os":"Linux","password":true,"vac":true,"version":"7704440","steam_id":85568392925397856,"keywords":["nocrits","nodmgspread","payload","uncletopia"],"game_id":440,"stv_port":0,"stv_name":"","players":null}]}