{"status":true,"message":"","result":[{"server_id":9,"name":"Uncletopia | Atlanta | 1 | All Maps","name_short":"atl-1","host":"atl-1.us.uncletopia.com","port":27015,"enabled":true,"region":"us-east","cc":"us","latitude":33.753746,"longitude":-84.38633,"reserved":0,"last_update":"0001-01-01T00:00:00Z","name_a2s":"Uncletopia | Atlanta | 1 | All Maps","protocol":17,"map":"koth_highpass","folder":"tf","game":"Team Fortress","app_id":440,"player_count":0,"max_players":24,"Bots":0,"server_type":"Dedicated","server_os":"Linux","password":true,"vac":true,"version":"7742253","steam_id":85568392924469982,"keywords":["cp","nocrits","nodmgspread","uncletopia"],"game_id":440,"stv_port":27016,"stv_name":"Uncletopia | Atlanta | 1 | All Maps | STV","players":null},{"server_id":400,"name":"Uncletopia | Atlanta | 3 | Stopwatch Beta","name_short":"atl-3","host":"atl-1.us.uncletopia.com","port":27035,"enabled":true,"region":"us-east","cc":"us","latitude":33.753746,"longitude":-84.38633,"reserved":0,"last_update":"0001-01-01T00:00:00Z","name_a2s":"Uncletopia | Atlanta | 3 | Stopwatch Beta","protocol":17,"map":"pl_pier","folder":"tf","game":"Team Fortress","app_id":440,"player_count":0,"max_players":24,"Bots":0,"server_type":"Dedicated","server_os":"Linux","password":true,"vac":true,"version":"7742253","steam_id":85568392924515187,"keywords":["nocrits","nodmgspread","payload","uncletopia"],"game_id":440,"stv_port":27036,"stv_name":"Uncletopia | Atlanta | 3 | Stopwatch Beta | STV","players":null},{"server_id":401,"name":"Uncletopia | Atlanta | 4 | No Payload","name_short":"atl-4","host":"atl-1.us.uncletopia.com","port":27045,"enabled":true,"region":"us-east","cc":"us","latitude":33.753746,"longitude":-84.38633,"reserved":0,"last_update":"0001-01-01T00:00:00Z","name_a2s":"Uncletopia | Atlanta | 4 | No Payload","protocol":17,"map":"pl_pier","folder":"tf","game":"Team Fortress","app_id":440,"player_count":0,"max_players":24,"Bots":0,"server_type":"Dedicated","server_os":"Linux","password":true,"vac":true,"version":"7723704","steam_id":85568392924515188,"keywords":["nocrits","nodmgspread","payload","uncletopia"],"game_id":440,"stv_port":27046,"stv_name":"Uncletopia | Atlanta | 4 | No Payload | STV","players":null},{"server_id":2,"name":"Uncletopia | Chicago | 1 | All Maps","name_short":"chi-1","host":"chi-1.us.uncletopia.com","port":27015,"enabled":true,"region":"us-central","cc":"us","latitude":41.881832,"longitude":-87.62318,"reserved":0,"last_update":"0001-01-01T00:00:00Z","name_a2s":"Uncletopia | Chicago | 1 | All Maps","protocol":17,"map":"pl_pier","folder":"tf","game":"Team Fortress","app_id":440,"player_count":0,"max_players":24,"Bots":0,"server_type":"Dedicated","server_os":"Linux","password":true,"vac":true,"version":"7742253","steam_id":85568392924469984,"keywords":["nocrits","nodmgspread","payload","uncletopia"],"game_id":440,"stv_port":27016,"stv_name":"Uncletopia | Chicago | 1 | All Maps | STV","players":null},{"server_id":106,"name":"Uncletopia | Chicago | 2 | All Maps","name_short":"chi-2","host":"chi-1.us.uncletopia.com","port":27025,"enabled":true,"region":"us-central","cc":"us","latitude":41.881832,"longitude":-87.62318,"reserved":0,"last_update":"0001-01-01T00:00:00Z","name_a2s":"Uncletopia | Chicago | 2 | All Maps","protocol":17,"map":"pl_borneo","folder":"tf","game":"Team Fortress","app_id":440,"player_count":0,"max_players":24,"Bots":0,"server_type":"Dedicated","server_os":"Linux","password":true,"vac":true,"version":"7742253","steam_id":85568392924469985,"keywords":["nocrits","nodmgspread","payload","uncletopia"],"game_id":440,"stv_port":27026,"stv_name":"Uncletopia | Chicago | 2 | All Maps | STV","players":null},{"server_id":402,"name":"Uncletopia | Chicago | 3 | All Maps","name_short":"chi-3","host":"chi-1.us.uncletopia.com","port":27035,"enabled":true,"region":"us-central","cc":"us","latitude":41.881832,"longitude":-87.62318,"reserved":0,"last_update":"0001-01-01T00:00:00Z","name_a2s":"Uncletopia | Chicago | 3 | All Maps","protocol":17,"map":"koth_cascade","folder":"tf","game":"Team Fortress","app_id":440,"player_count":0,"max_players":24,"Bots":0,"server_type":"Dedicated","server_os":"Linux","password":true,"vac":true,"version":"7742253","steam_id":85568392924515191,"keywords":["cp","nocrits","nodmgspread","uncletopia"],"game_id":440,"stv_port":27036,"stv_name":"Uncletopia | Chicago | 3 | All Maps | STV","players":null},{"server_id":403,"name":"Uncletopia | Chicago | 4 | All Maps","name_short":"chi-4","host":"chi-1.us.uncletopia.com","port":27045,"enabled":true,"region":"us-central","cc":"us","latitude":41.881832,"longitude":-87.62318,"reserved":0,"last_update":"0001-01-01T00:00:00Z","name_a2s":"Uncletopia | Chicago | 4 | All Maps","protocol":17,"map":"cp_egypt_final","folder":"tf","game":"Team Fortress","app_id":440,"player_count":0,"max_players":24,"Bots":0,"server_type":"Dedicated","server_os":"Linux","password":true,"vac":true,"version":"7742253","steam_id":85568392924515193,"keywords":["cp","nocrits","nodmgspread","uncletopia"],"game_id":440,"stv_port":27046,"stv_name":"Uncletopia | Chicago | 4 | All Maps | STV","players":null},{"server_id":36,"name":"Uncletopia | Chicago | 5 | All Maps","name_short":"chi-5","host":"chi-2.us.uncletopia.com","port":27015,"enabled":true,"region":"us-central","cc":"us","latitude":41.881832,"longitude":-87.62318,"reserved":0,"last_update":"0001-01-01T00:00:00Z","name_a2s":"Uncletopia | Chicago | 5 | All Maps","protocol":17,"map":"cp_dustbowl","folder":"tf","game":"Team Fortress","app_id":440,"player_count":24,"max_players":24,"Bots":0,"server_type":"Dedicated","server_os":"Linux","password":true,"vac":true,"version":"7742253","steam_id":85568392924866362,"keywords":["cp","nocrits","nodmgspread","uncletopia"],"game_id":440,"stv_port":27016,"stv_name":"Uncletopia | Chicago | 5 | All Maps | STV","players":[{"user_id":10,"name":"supermilk","steam_id":76561197978282744,"connected_time":11553000000000,"state":"active","ping":59},{"user_id":150,"name":"Loki❤","steam_id":76561198280150602,"connected_time":2832000000000,"state":"active","ping":102},{"user_id":182,"name":"womthedom","steam_id":76561198088768287,"connected_time":158000000000,"state":"active","ping":58},{"user_id":149,"name":"Branos","steam_id":76561198396414319,"connected_time":3065000000000,"state":"active","ping":103},{"user_id":152,"name":"captainspatklz","steam_id":76561198432167270,"connected_time":2788000000000,"state":"active","ping":68},{"user_id":175,"name":"ham gaming","steam_id":76561198072592880,"connected_time":1319000000000,"state":"active","ping":44},{"user_id":154,"name":"Gordon From White Castle (real)","steam_id":76561198364172677,"connected_time":2659000000000,"state":"active","ping":67},{"user_id":177,"name":"Purple brain","steam_id":76561198103924707,"connected_time":756000000000,"state":"active","ping":48},{"user_id":157,"name":"a fist sized river rock","steam_id":76561197991015780,"connected_time":2505000000000,"state":"active","ping":65},{"user_id":129,"name":"Frontier Psychiatrist","steam_id":76561198038689088,"connected_time":4655000000000,"state":"active","ping":86},{"user_id":173,"name":"atlas","steam_id":76561198184893754,"connected_time":1375000000000,"state":"active","ping":76},{"user_id":178,"name":"fitotutus","steam_id":76561197974993253,"connected_time":710000000000,"state":"active","ping":80},{"user_id":166,"name":"Huey","steam_id":76561198972816386,"connected_time":1566000000000,"state":"active","ping":75},{"user_id":168,"name":"hashmap","steam_id":76561198043794014,"connected_time":1517000000000,"state":"active","ping":50},{"user_id":140,"name":"Amogous Supreme","steam_id":76561198025476774,"connected_time":4018000000000,"state":"active","ping":105},{"user_id":179,"name":"Fat Fücking Lenny","steam_id":76561198110862909,"connected_time":581000000000,"state":"active","ping":48},{"user_id":180,"name":"AJSM","steam_id":76561198036852424,"connected_time":542000000000,"state":"active","ping":52},{"user_id":141,"name":"scottvar","steam_id":76561198032776766,"connected_time":3875000000000,"state":"active","ping":106},{"user_id":134,"name":"That Guy","steam_id":76561197997444126,"connected_time":4493000000000,"state":"active","ping":89},{"user_id":145,"name":"TYL☁R","steam_id":76561198082995812,"connected_time":3632000000000,"state":"active","ping":77},{"user_id":176,"name":"The Great Eagle Scourge of 1822","steam_id":76561198325086209,"connected_time":1119000000000,"state":"active","ping":108},{"user_id":172,"name":"Amoxacin","steam_id":76561198171121818,"connected_time":1502000000000,"state":"active","ping":67},{"user_id":164,"name":"steves gaming","steam_id":76561198069725758,"connected_time":1881000000000,"state":"active","ping":65},{"user_id":174,"name":"DIO","steam_id":76561198084174868,"connected_time":1334000000000,"state":"active","ping":149}]},{"server_id":37,"name":"Uncletopia | Chicago | 6 | All Maps","name_short":"chi-6","host":"chi-2.us.uncletopia.com","port":27025,"enabled":true,"region":"us-central","cc":"us","latitude":41.881832,"longitude":-87.62318,"reserved":0,"last_update":"0001-01-01T00:00:00Z","name_a2s":"Uncletopia | Chicago | 6 | All Maps","protocol":17,"map":"cp_sunshine","folder":"tf","game":"Team Fortress","app_id":440,"player_count":16,"max_players":24,"Bots":0,"server_type":"Dedicated","server_os":"Linux","password":true,"vac":true,"version":"7742253","steam_id":85568392924866363,"keywords":["cp","nocrits","nodmgspread","uncletopia"],"game_id":440,"stv_port":27026,"stv_name":"Uncletopia | Chicago | 6 | All Maps | STV","players":[{"user_id":128,"name":"pencil","steam_id":76561198104658102,"connected_time":1697000000000,"state":"connecting","ping":110},{"user_id":133,"name":"Bearegard","steam_id":76561198061926542,"connected_time":1355000000000,"state":"connecting","ping":72},{"user_id":156,"name":"schizo","steam_id":76561198016121536,"connected_time":34000000000,"state":"connecting","ping":73},{"user_id":132,"name":"kametro4","steam_id":76561198835430429,"connected_time":1420000000000,"state":"connecting","ping":114},{"user_id":117,"name":"fat fuck chicken joe","steam_id":76561198840876723,"connected_time":3963000000000,"state":"connecting","ping":135},{"user_id":135,"name":"thecal","steam_id":76561198307893384,"connected_time":1337000000000,"state":"connecting","ping":78},{"user_id":142,"name":"The_BurritoMan","steam_id":76561199100959451,"connected_time":1170000000000,"state":"connecting","ping":189},{"user_id":137,"name":"JaKaine","steam_id":76561199448143885,"connected_time":1289000000000,"state":"connecting","ping":79},{"user_id":62,"name":"bbqjunky","steam_id":76561198016224813,"connected_time":9574000000000,"state":"connecting","ping":87},{"user_id":93,"name":"Scorpie Doodle","steam_id":76561198021845763,"connected_time":5752000000000,"state":"connecting","ping":55},{"user_id":126,"name":"Loo7 goonin' Ca$hual","steam_id":76561198011675372,"connected_time":2108000000000,"state":"connecting","ping":123},{"user_id":138,"name":"MemeyBoi3rd","steam_id":76561199443570634,"connected_time":1288000000000,"state":"connecting","ping":166},{"user_id":151,"name":"matcha ^_^ \u003c3","steam_id":76561198832230598,"connected_time":834000000000,"state":"connecting","ping":88},{"user_id":143,"name":"Noxd67","steam_id":76561198962665838,"connected_time":1117000000000,"state":"connecting","ping":123},{"user_id":145,"name":"basil","steam_id":76561198075758026,"connected_time":964000000000,"state":"connecting","ping":109},{"user_id":147,"name":"Bread Baker","steam_id":76561198185335103,"connected_time":940000000000,"state":"connecting","ping":72}]},{"server_id":38,"name":"Uncletopia | Chicago | 7 | Stopwatch Beta","name_short":"chi-7","host":"chi-2.us.uncletopia.com","port":27035,"enabled":true,"region":"us-central","cc":"us","latitude":41.881832,"longitude":-87.62318,"reserved":0,"last_update":"0001-01-01T00:00:00Z","name_a2s":"Uncletopia | Chicago | 7 | Stopwatch Beta","protocol":17,"map":"pl_swiftwater_final1","folder":"tf","game":"Team Fortress","app_id":440,"player_count":0,"max_players":24,"Bots":0,"server_type":"Dedicated","server_os":"Linux","password":true,"vac":true,"version":"7742253","steam_id":85568392924866364,"keywords":["nocrits","nodmgspread","payload","uncletopia"],"game_id":440,"stv_port":27036,"stv_name":"Uncletopia | Chicago | 7 | Stopwatch Beta | STV","players":null},{"server_id":39,"name":"Uncletopia | Chicago | 8 | Community","name_short":"chi-8","host":"chi-2.us.uncletopia.com","port":27045,"enabled":true,"region":"us-central","cc":"us","latitude":41.881832,"longitude":-87.62318,"reserved":0,"last_update":"0001-01-01T00:00:00Z","name_a2s":"Uncletopia | Chicago | 8 | Community","protocol":17,"map":"koth_lakeside_final","folder":"tf","game":"Team Fortress","app_id":440,"player_count":0,"max_players":24,"Bots":0,"server_type":"Dedicated","server_os":"Linux","password":true,"vac":true,"version":"7742253","steam_id":85568392924866365,"keywords":["cp","nocrits","nodmgspread","uncletopia"],"game_id":440,"stv_port":27046,"stv_name":"Uncletopia | Chicago | 8 | Community | STV","players":null},{"server_id":8,"name":"Uncletopia | Dallas | 1 | All Maps","name_short":"dal-1","host":"dal-1.us.uncletopia.com","port":27015,"enabled":true,"region":"us-central","cc":"us","latitude":32.779167,"longitude":-96.80889,"reserved":0,"last_update":"0001-01-01T00:00:00Z","name_a2s":"Uncletopia | Dallas | 1 | All Maps","protocol":17,"map":"pl_borneo","folder":"tf","game":"Team Fortress","app_id":440,"player_count":23,"max_players":24,"Bots":0,"server_type":"Dedicated","server_os":"Linux","password":true,"vac":true,"version":"7742253","steam_id":85568392924469986,"keywords":["nocrits","nodmgspread","payload","uncletopia"],"game_id":440,"stv_port":27016,"stv_name":"Uncletopia | Dallas | 1 | All Maps | STV","players":[{"user_id":158,"name":"Vivi","steam_id":76561198402450455,"connected_time":170000000000,"state":"active","ping":86},{"user_id":160,"name":"tobrehto","steam_id":76561198097544038,"connected_time":86000000000,"state":"active","ping":64},{"user_id":124,"name":"{ST} Oxythemoron","steam_id":76561198060089965,"connected_time":3691000000000,"state":"active","ping":58},{"user_id":161,"name":"Poop Deck Joe","steam_id":76561198271397568,"connected_time":63000000000,"state":"active","ping":63},{"user_id":135,"name":"Mother Cucker","steam_id":76561198121926605,"connected_time":2890000000000,"state":"active","ping":81},{"user_id":145,"name":"Stan","steam_id":76561199057962816,"connected_time":1638000000000,"state":"active","ping":75},{"user_id":147,"name":"Pitch Stick","steam_id":76561198800287853,"connected_time":1611000000000,"state":"active","ping":122},{"user_id":162,"name":"yrvindell -tV","steam_id":76561198243237656,"connected_time":14000000000,"state":"spawning","ping":82},{"user_id":123,"name":"turnstyle","steam_id":76561199393438660,"connected_time":4026000000000,"state":"active","ping":76},{"user_id":100,"name":"Mr. Skerpentine","steam_id":76561198137244892,"connected_time":5441000000000,"state":"active","ping":89},{"user_id":157,"name":"DumbScout","steam_id":76561198059646395,"connected_time":297000000000,"state":"active","ping":88},{"user_id":133,"name":"Mikey","steam_id":76561199027332418,"connected_time":3264000000000,"state":"active","ping":83},{"user_id":155,"name":"leopardo123atl","steam_id":76561198872648238,"connected_time":1155000000000,"state":"active","ping":75},{"user_id":149,"name":"JAM","steam_id":76561198063900176,"connected_time":1529000000000,"state":"active","ping":80},{"user_id":163,"name":"twitch.tv/Yoshi21 | TF2Pugs.com","steam_id":76561198002516729,"connected_time":7000000000,"state":"spawning","ping":191},{"user_id":153,"name":"Gian","steam_id":76561198041434512,"connected_time":1450000000000,"state":"active","ping":110},{"user_id":87,"name":"iluvtoust","steam_id":76561198869269207,"connected_time":6279000000000,"state":"active","ping":47},{"user_id":105,"name":"Foomfa","steam_id":76561198007033616,"connected_time":4847000000000,"state":"active","ping":54},{"user_id":151,"name":"VeryOldYoda","steam_id":76561198059434527,"connected_time":1516000000000,"state":"active","ping":96},{"user_id":154,"name":"Hydroxianchaos","steam_id":76561198043786828,"connected_time":1405000000000,"state":"active","ping":88},{"user_id":132,"name":"JuanPaco","steam_id":76561199171739050,"connected_time":3377000000000,"state":"active","ping":63},{"user_id":122,"name":"dog","steam_id":76561198263873491,"connected_time":4049000000000,"state":"active","ping":61},{"user_id":138,"name":"mac_cheese","steam_id":76561198071334162,"connected_time":2534000000000,"state":"active","ping":90}]},{"server_id":108,"name":"Uncletopia | Dallas | 2 | All Maps","name_short":"dal-2","host":"dal-1.us.uncletopia.com","port":27025,"enabled":true,"region":"us-central","cc":"us","latitude":32.779167,"longitude":-96.80889,"reserved":0,"last_update":"0001-01-01T00:00:00Z","name_a2s":"Uncletopia | Dallas | 2 | All Maps","protocol":17,"map":"plr_bananabay","folder":"tf","game":"Team Fortress","app_id":440,"player_count":16,"max_players":24,"Bots":0,"server_type":"Dedicated","server_os":"Linux","password":true,"vac":true,"version":"7742253","steam_id":85568392924469988,"keywords":["nocrits","nodmgspread","payload","uncletopia"],"game_id":440,"stv_port":27026,"stv_name":"Uncletopia | Dallas | 2 | All Maps | STV","players":[{"user_id":173,"name":"Antwan","steam_id":76561198246200638,"connected_time":0,"state":"spawning","ping":26},{"user_id":142,"name":"Sw20k","steam_id":76561198104307477,"connected_time":3045000000000,"state":"active","ping":72},{"user_id":161,"name":"Sriracha","steam_id":76561198114781841,"connected_time":1597000000000,"state":"active","ping":46},{"user_id":159,"name":"Sdehv2","steam_id":76561198067719497,"connected_time":1632000000000,"state":"active","ping":40},{"user_id":123,"name":"Dannnnnn","steam_id":76561198442700385,"connected_time":4832000000000,"state":"active","ping":166},{"user_id":157,"name":"a bucket of chicken","steam_id":76561198023710042,"connected_time":1644000000000,"state":"active","ping":47},{"user_id":154,"name":"Len","steam_id":76561199141913673,"connected_time":2665000000000,"state":"active","ping":60},{"user_id":163,"name":"XX_gamer2001_XxX","steam_id":76561198105405869,"connected_time":1366000000000,"state":"active","ping":113},{"user_id":164,"name":"IZISOO","steam_id":76561198970380577,"connected_time":1363000000000,"state":"active","ping":61},{"user_id":171,"name":"[δ] Delta","steam_id":76561198287190116,"connected_time":967000000000,"state":"active","ping":59},{"user_id":168,"name":"Oshawott82","steam_id":76561198122783743,"connected_time":1296000000000,"state":"active","ping":46},{"user_id":132,"name":"UnlimitedRune","steam_id":76561199170761237,"connected_time":4447000000000,"state":"active","ping":44},{"user_id":116,"name":"ThtGyVrThr","steam_id":76561198805852870,"connected_time":5604000000000,"state":"active","ping":67},{"user_id":150,"name":"Drakon","steam_id":76561198078210822,"connected_time":2801000000000,"state":"active","ping":91},{"user_id":172,"name":"guy","steam_id":76561198196443262,"connected_time":568000000000,"state":"active","ping":85},{"user_id":155,"name":"NotTrunkMaster","steam_id":76561199465906631,"connected_time":2630000000000,"state":"spawning","ping":125}]},{"server_id":5,"name":"Uncletopia | Frankfurt | 1 | All Maps","name_short":"frk-1","host":"frk-1.de.uncletopia.com","port":27015,"enabled":true,"region":"eu","cc":"de","latitude":50.110924,"longitude":8.682127,"reserved":0,"last_update":"0001-01-01T00:00:00Z","name_a2s":"Uncletopia | Frankfurt | 1 | All Maps","protocol":17,"map":"pl_borneo","folder":"tf","game":"Team Fortress","app_id":440,"player_count":0,"max_players":24,"Bots":0,"server_type":"Dedicated","server_os":"Linux","password":true,"vac":true,"version":"7742253","steam_id":85568392924469989,"keywords":["nocrits","nodmgspread","payload","uncletopia"],"game_id":440,"stv_port":27016,"stv_name":"Uncletopia | Frankfurt | 1 | All Maps | STV","players":null},{"server_id":110,"name":"Uncletopia | Frankfurt | 2 | All Maps","name_short":"frk-2","host":"frk-1.de.uncletopia.com","port":27025,"enabled":true,"region":"eu","cc":"de","latitude":50.110924,"longitude":8.682127,"reserved":0,"last_update":"0001-01-01T00:00:00Z","name_a2s":"Uncletopia | Frankfurt | 2 | All Maps","protocol":17,"map":"pl_swiftwater_final1","folder":"tf","game":"Team Fortress","app_id":440,"player_count":0,"max_players":24,"Bots":0,"server_type":"Dedicated","server_os":"Linux","password":true,"vac":true,"version":"7742253","steam_id":85568392924469990,"keywords":["nocrits","nodmgspread","payload","uncletopia"],"game_id":440,"stv_port":27026,"stv_name":"Uncletopia | Frankfurt | 2 | All Maps | STV","players":null},{"server_id":308,"name":"Uncletopia | Frankfurt | 3 | All Maps","name_short":"frk-3","host":"frk-1.de.uncletopia.com","port":27035,"enabled":true,"region":"eu","cc":"de","latitude":50.110924,"longitude":8.682127,"reserved":0,"last_update":"0001-01-01T00:00:00Z","name_a2s":"Uncletopia | Frankfurt | 3 | All Maps","protocol":17,"map":"cp_dustbowl","folder":"tf","game":"Team Fortress","app_id":440,"player_count":0,"max_players":24,"Bots":0,"server_type":"Dedicated","server_os":"Linux","password":true,"vac":true,"version":"7742253","steam_id":85568392924504274,"keywords":["cp","nocrits","nodmgspread","uncletopia"],"game_id":440,"stv_port":27036,"stv_name":"Uncletopia | Frankfurt | 3 | All Maps | STV","players":null},{"server_id":309,"name":"Uncletopia | Frankfurt | 4 | All Maps","name_short":"frk-4","host":"frk-1.de.uncletopia.com","port":27045,"enabled":true,"region":"eu","cc":"de","latitude":50.110924,"longitude":8.682127,"reserved":0,"last_update":"0001-01-01T00:00:00Z","name_a2s":"Uncletopia | Frankfurt | 4 | All Maps","protocol":17,"map":"cp_sunshine","folder":"tf","game":"Team Fortress","app_id":440,"player_count":0,"max_players":24,"Bots":0,"server_type":"Dedicated","server_os":"Linux","password":true,"vac":true,"version":"7742253","steam_id":85568392924504275,"keywords":["cp","nocrits","nodmgspread","uncletopia"],"game_id":440,"stv_port":27046,"stv_name":"Uncletopia | Frankfurt | 4 | All Maps | STV","players":null},{"server_id":310,"name":"Uncletopia | Frankfurt | 5 | All Maps","name_short":"frk-5","host":"frk-1.de.uncletopia.com","port":27055,"enabled":true,"region":"eu","cc":"de","latitude":50.110924,"longitude":8.682127,"reserved":0,"last_update":"0001-01-01T00:00:00Z","name_a2s":"Uncletopia | Frankfurt | 5 | All Maps","protocol":17,"map":"pl_barnblitz","folder":"tf","game":"Team Fortress","app_id":440,"player_count":1,"max_players":24,"Bots":0,"server_type":"Dedicated","server_os":"Linux","password":true,"vac":true,"version":"7742253","steam_id":85568392924504277,"keywords":["nocrits","nodmgspread","payload","uncletopia"],"game_id":440,"stv_port":27056,"stv_name":"Uncletopia | Frankfurt | 5 | All Maps | STV","players":[{"user_id":3,"name":"PuLjArI | sudo rm -rf V.Putin","steam_id":76561197966337748,"connected_time":345000000000,"state":"active","ping":86}]},{"server_id":311,"name":"Uncletopia | Frankfurt | 6 | All Maps","name_short":"frk-6","host":"frk-1.de.uncletopia.com","port":27065,"enabled":true,"region":"eu","cc":"de","latitude":50.110924,"longitude":8.682127,"reserved":0,"last_update":"0001-01-01T00:00:00Z","name_a2s":"Uncletopia | Frankfurt | 6 | All Maps","protocol":17,"map":"koth_lakeside_final","folder":"tf","game":"Team Fortress","app_id":440,"player_count":0,"max_players":24,"Bots":0,"server_type":"Dedicated","server_os":"Linux","password":true,"vac":true,"version":"7742253","steam_id":85568392924504278,"keywords":["cp","nocrits","nodmgspread","uncletopia"],"game_id":440,"stv_port":27066,"stv_name":"Uncletopia | Frankfurt | 6 | All Maps | STV","players":null},{"server_id":23,"name":"Uncletopia | Frankfurt | 7 | Stopwatch Beta","name_short":"frk-7","host":"frk-1.de.uncletopia.com","port":27075,"enabled":true,"region":"eu","cc":"de","latitude":50.110924,"longitude":8.682127,"reserved":0,"last_update":"0001-01-01T00:00:00Z","name_a2s":"Uncletopia | Frankfurt | 7 | Stopwatch Beta","protocol":17,"map":"pl_badwater","folder":"tf","game":"Team Fortress","app_id":440,"player_count":0,"max_players":24,"Bots":0,"server_type":"Dedicated","server_os":"Linux","password":true,"vac":true,"version":"7742253","steam_id":85568392924742827,"keywords":["nocrits","nodmgspread","payload","uncletopia"],"game_id":440,"stv_port":27076,"stv_name":"Uncletopia | Frankfurt | 7 | Stopwatch Beta | STV","players":null},{"server_id":24,"name":"Uncletopia | Frankfurt | 8 | Community","name_short":"frk-8","host":"frk-1.de.uncletopia.com","port":27085,"enabled":true,"region":"eu","cc":"de","latitude":50.110924,"longitude":8.682127,"reserved":0,"last_update":"0001-01-01T00:00:00Z","name_a2s":"Uncletopia | Frankfurt | 8 | Community","protocol":17,"map":"koth_cascade","folder":"tf","game":"Team Fortress","app_id":440,"player_count":0,"max_players":24,"Bots":0,"server_type":"Dedicated","server_os":"Linux","password":true,"vac":true,"version":"7742253","steam_id":85568392924742828,"keywords":["cp","nocrits","nodmgspread","uncletopia"],"game_id":440,"stv_port":27086,"stv_name":"Uncletopia | Frankfurt | 8 | Community | STV","players":null},{"server_id":202,"name":"Uncletopia | Hong Kong | 1 | All Maps","name_short":"hgk-1","host":"hgk-1.hk.uncletopia.com","port":27015,"enabled":true,"region":"asia","cc":"hk","latitude":22.302711,"longitude":114.177216,"reserved":0,"last_update":"0001-01-01T00:00:00Z","name_a2s":"Uncletopia | Hong Kong | 1 | All Maps","protocol":17,"map":"cp_dustbowl","folder":"tf","game":"Team Fortress","app_id":440,"player_count":26,"max_players":24,"Bots":0,"server_type":"Dedicated","server_os":"Linux","password":true,"vac":true,"version":"7742253","steam_id":85568392924494504,"keywords":["cp","nocrits","nodmgspread","uncletopia"],"game_id":440,"stv_port":27016,"stv_name":"Uncletopia | Hong Kong | 1 | All Maps | STV","players":[{"user_id":105,"name":"professional esports fortnite","steam_id":76561198337887896,"connected_time":4060000000000,"state":"active","ping":78},{"user_id":223,"name":"Degenerate and Deranged","steam_id":76561198403808601,"connected_time":144000000000,"state":"active","ping":80},{"user_id":69,"name":"Wakiiiz","steam_id":76561198850134590,"connected_time":8067000000000,"state":"active","ping":59},{"user_id":78,"name":"uptriste","steam_id":76561198158666692,"connected_time":7058000000000,"state":"active","ping":44},{"user_id":7,"name":"Windmill","steam_id":76561199230997986,"connected_time":11422000000000,"state":"active","ping":74},{"user_id":8,"name":"lillalune","steam_id":76561198230213828,"connected_time":11418000000000,"state":"active","ping":70},{"user_id":125,"name":"煙海 | Enkai","steam_id":76561198050460825,"connected_time":2582000000000,"state":"active","ping":75},{"user_id":75,"name":"3wfFbdrjEze5d2G","steam_id":76561198435900451,"connected_time":7530000000000,"state":"active","ping":72},{"user_id":129,"name":"Momoxhien","steam_id":76561198414997429,"connected_time":1522000000000,"state":"active","ping":61},{"user_id":126,"name":"the sex","steam_id":76561198129661272,"connected_time":2576000000000,"state":"active","ping":65},{"user_id":134,"name":"o2","steam_id":76561199262570913,"connected_time":1050000000000,"state":"active","ping":76},{"user_id":135,"name":"예린","steam_id":76561199075190238,"connected_time":963000000000,"state":"active","ping":119},{"user_id":141,"name":"lettuce at 58p","steam_id":76561199401283123,"connected_time":740000000000,"state":"active","ping":88},{"user_id":122,"name":"The Cake is a lie","steam_id":76561198190738610,"connected_time":2602000000000,"state":"active","ping":94},{"user_id":110,"name":"Vortex Morez","steam_id":76561198833527091,"connected_time":3760000000000,"state":"active","ping":90},{"user_id":234,"name":"RandomGuy1085","steam_id":76561199053910995,"connected_time":15000000000,"state":"spawning","ping":86},{"user_id":95,"name":"iLikeMudrock ᗜ‸ᗜ","steam_id":76561199352285088,"connected_time":5027000000000,"state":"active","ping":87},{"user_id":131,"name":"Milk❤ (most loved guy in ut)","steam_id":76561198163911560,"connected_time":1297000000000,"state":"active","ping":118},{"user_id":235,"name":"xe","steam_id":76561198024666371,"connected_time":2000000000,"state":"spawning","ping":77},{"user_id":128,"name":"ZeniaPY","steam_id":76561198962485791,"connected_time":1536000000000,"state":"active","ping":88},{"user_id":37,"name":"Urotsuki","steam_id":76561198074339034,"connected_time":10872000000000,"state":"active","ping":73},{"user_id":136,"name":"藤原跳海","steam_id":76561198144000290,"connected_time":904000000000,"state":"active","ping":45},{"user_id":121,"name":"Buttman","steam_id":76561198044693388,"connected_time":3526000000000,"state":"active","ping":45},{"user_id":138,"name":"conq","steam_id":76561199110124835,"connected_time":824000000000,"state":"active","ping":98},{"user_id":81,"name":"Noyour","steam_id":76561198323259830,"connected_time":7039000000000,"state":"active","ping":118},{"user_id":145,"name":"LudE","steam_id":76561198828840546,"connected_time":635000000000,"state":"active","ping":74}]},{"server_id":1,"name":"Uncletopia | Los Angeles | 1 | All Maps","name_short":"lax-1","host":"lax-1.us.uncletopia.com","port":27015,"enabled":true,"region":"us-west","cc":"us","latitude":33.94279,"longitude":-118.41004,"reserved":0,"last_update":"0001-01-01T00:00:00Z","name_a2s":"Uncletopia | Los Angeles | 1 | All Maps","protocol":17,"map":"koth_cascade","folder":"tf","game":"Team Fortress","app_id":440,"player_count":24,"max_players":24,"Bots":0,"server_type":"Dedicated","server_os":"Linux","password":true,"vac":true,"version":"7742253","steam_id":85568392924469991,"keywords":["cp","nocrits","nodmgspread","uncletopia"],"game_id":440,"stv_port":27016,"stv_name":"Uncletopia | Los Angeles | 1 | All Maps | STV","players":[{"user_id":155,"name":"1000 Ping","steam_id":76561198098330939,"connected_time":75000000000,"state":"active","ping":54},{"user_id":119,"name":"II Sands II","steam_id":76561198403429242,"connected_time":2874000000000,"state":"active","ping":153},{"user_id":125,"name":"The Paperwork","steam_id":76561198385887698,"connected_time":1957000000000,"state":"active","ping":51},{"user_id":140,"name":"Razz","steam_id":76561198158027533,"connected_time":1339000000000,"state":"active","ping":106},{"user_id":113,"name":"Koyota","steam_id":76561198069878114,"connected_time":3816000000000,"state":"active","ping":83},{"user_id":147,"name":"BoomieMcBoomPants","steam_id":76561198144516828,"connected_time":531000000000,"state":"active","ping":75},{"user_id":128,"name":"thats it","steam_id":76561198133360797,"connected_time":1827000000000,"state":"active","ping":57},{"user_id":146,"name":"Frongus","steam_id":76561197979056451,"connected_time":759000000000,"state":"active","ping":67},{"user_id":132,"name":"Logan601 #savetf2","steam_id":76561198263116731,"connected_time":1617000000000,"state":"active","ping":53},{"user_id":135,"name":"beef posse","steam_id":76561198348280674,"connected_time":1511000000000,"state":"active","ping":83},{"user_id":129,"name":"The Arm","steam_id":76561197983066285,"connected_time":1802000000000,"state":"active","ping":66},{"user_id":131,"name":"bruh","steam_id":76561198120421485,"connected_time":1643000000000,"state":"active","ping":84},{"user_id":148,"name":"Archduke Franz Ferdinand","steam_id":76561198254351742,"connected_time":524000000000,"state":"active","ping":69},{"user_id":110,"name":"Tenma","steam_id":76561198296557689,"connected_time":4552000000000,"state":"active","ping":49},{"user_id":134,"name":"High Cotton","steam_id":76561197998894854,"connected_time":1537000000000,"state":"active","ping":103},{"user_id":149,"name":"McBogie","steam_id":76561198112407807,"connected_time":521000000000,"state":"active","ping":52},{"user_id":150,"name":"Jim Davis","steam_id":76561198931477991,"connected_time":447000000000,"state":"active","ping":52},{"user_id":91,"name":"Nüþ","steam_id":76561198043956703,"connected_time":6199000000000,"state":"active","ping":55},{"user_id":151,"name":"Ediot","steam_id":76561199349494096,"connected_time":337000000000,"state":"active","ping":133},{"user_id":139,"name":"oil","steam_id":76561198099980149,"connected_time":1420000000000,"state":"active","ping":49},{"user_id":152,"name":"Leviathan","steam_id":76561197997528907,"connected_time":333000000000,"state":"active","ping":92},{"user_id":81,"name":"cam","steam_id":76561198073426718,"connected_time":7901000000000,"state":"active","ping":48},{"user_id":144,"name":"ChuChu","steam_id":76561199443647976,"connected_time":1240000000000,"state":"active","ping":130},{"user_id":154,"name":"amrick","steam_id":76561198271788192,"connected_time":279000000000,"state":"active","ping":65}]},{"server_id":112,"name":"Uncletopia | Los Angeles | 2 | All Maps","name_short":"lax-2","host":"lax-1.us.uncletopia.com","port":27025,"enabled":true,"region":"us-west","cc":"us","latitude":33.94279,"longitude":-118.41004,"reserved":0,"last_update":"0001-01-01T00:00:00Z","name_a2s":"Uncletopia | Los Angeles | 2 | All Maps","protocol":17,"map":"pl_frontier_final","folder":"tf","game":"Team Fortress","app_id":440,"player_count":21,"max_players":24,"Bots":0,"server_type":"Dedicated","server_os":"Linux","password":true,"vac":true,"version":"7742253","steam_id":85568392924469992,"keywords":["nocrits","nodmgspread","payload","uncletopia"],"game_id":440,"stv_port":27026,"stv_name":"Uncletopia | Los Angeles | 2 | All Maps | STV","players":[{"user_id":144,"name":"music_hawk","steam_id":76561199183686977,"connected_time":1816000000000,"state":"active","ping":71},{"user_id":126,"name":"Testicular Torsion","steam_id":76561197968179862,"connected_time":3622000000000,"state":"active","ping":63},{"user_id":165,"name":"bingle","steam_id":76561198359413453,"connected_time":79000000000,"state":"active","ping":107},{"user_id":130,"name":"gazpacho","steam_id":76561198132903078,"connected_time":3491000000000,"state":"active","ping":58},{"user_id":106,"name":"gerg","steam_id":76561197997127387,"connected_time":6438000000000,"state":"active","ping":51},{"user_id":107,"name":"The Population of Sweden","steam_id":76561198202201644,"connected_time":6405000000000,"state":"active","ping":71},{"user_id":161,"name":"Telesphoros","steam_id":76561198094505320,"connected_time":568000000000,"state":"active","ping":42},{"user_id":156,"name":"TüCold","steam_id":76561198111278197,"connected_time":1290000000000,"state":"active","ping":60},{"user_id":153,"name":"Balatician","steam_id":76561198042394527,"connected_time":1391000000000,"state":"active","ping":115},{"user_id":132,"name":"shoes","steam_id":76561198044104086,"connected_time":3481000000000,"state":"active","ping":45},{"user_id":140,"name":"Cute Gatito","steam_id":76561198351147780,"connected_time":2747000000000,"state":"active","ping":54},{"user_id":163,"name":"whoa...","steam_id":76561198143132686,"connected_time":122000000000,"state":"active","ping":87},{"user_id":166,"name":"Lichy","steam_id":76561198310682841,"connected_time":37000000000,"state":"active","ping":99},{"user_id":113,"name":"Chiaki Nanami","steam_id":76561198164782653,"connected_time":5716000000000,"state":"active","ping":120},{"user_id":77,"name":"Brynkiwi","steam_id":76561198052177917,"connected_time":8145000000000,"state":"active","ping":72},{"user_id":167,"name":"ballistic onahole","steam_id":76561198103231699,"connected_time":18000000000,"state":"spawning","ping":89},{"user_id":164,"name":"Jarryl97","steam_id":76561198055451373,"connected_time":104000000000,"state":"active","ping":86},{"user_id":168,"name":"Nyx","steam_id":76561198100929724,"connected_time":10000000000,"state":"spawning","ping":89},{"user_id":169,"name":"StephenSketch","steam_id":76561198044004956,"connected_time":5000000000,"state":"spawning","ping":49},{"user_id":154,"name":"Raian","steam_id":76561199138048671,"connected_time":1379000000000,"state":"active","ping":44},{"user_id":112,"name":"social distance warrior","steam_id":76561198128992994,"connected_time":5857000000000,"state":"active","ping":60}]},{"server_id":324,"name":"Uncletopia | Los Angeles | 3 | All Maps","name_short":"lax-3","host":"lax-1.us.uncletopia.com","port":27035,"enabled":true,"region":"us-west","cc":"us","latitude":33.94279,"longitude":-118.41004,"reserved":0,"last_update":"0001-01-01T00:00:00Z","name_a2s":"Uncletopia | Los Angeles | 3 | All Maps","protocol":17,"map":"pl_barnblitz","folder":"tf","game":"Team Fortress","app_id":440,"player_count":0,"max_players":24,"Bots":0,"server_type":"Dedicated","server_os":"Linux","password":true,"vac":true,"version":"7742253","steam_id":85568392924510198,"keywords":["nocrits","nodmgspread","payload","uncletopia"],"game_id":440,"stv_port":27036,"stv_name":"Uncletopia | Los Angeles | 3 | All Maps | STV","players":null},{"server_id":25,"name":"Uncletopia | Los Angeles | 4 | Stopwatch Beta","name_short":"lax-4","host":"lax-1.us.uncletopia.com","port":27045,"enabled":true,"region":"us-west","cc":"us","latitude":33.94279,"longitude":-118.41004,"reserved":0,"last_update":"0001-01-01T00:00:00Z","name_a2s":"Uncletopia | Los Angeles | 4 | Stopwatch Beta","protocol":17,"map":"pl_borneo","folder":"tf","game":"Team Fortress","app_id":440,"player_count":0,"max_players":24,"Bots":0,"server_type":"Dedicated","server_os":"Linux","password":true,"vac":true,"version":"7742253","steam_id":85568392924510199,"keywords":["nocrits","nodmgspread","payload","uncletopia"],"game_id":440,"stv_port":27046,"stv_name":"Uncletopia | Los Angeles | 4 | Stopwatch Beta | STV","players":null},{"server_id":11,"name":"Uncletopia | London | 1 | All Maps","name_short":"lon-1","host":"lon-1.uk.uncletopia.com","port":27015,"enabled":true,"region":"eu","cc":"gb","latitude":51.509865,"longitude":-0.118092,"reserved":0,"last_update":"0001-01-01T00:00:00Z","name_a2s":"Uncletopia | London | 1 | All Maps","protocol":17,"map":"cp_snakewater_final1","folder":"tf","game":"Team Fortress","app_id":440,"player_count":1,"max_players":24,"Bots":0,"server_type":"Dedicated","server_os":"Linux","password":true,"vac":true,"version":"7742253","steam_id":85568392924367362,"keywords":["cp","nocrits","nodmgspread","uncletopia"],"game_id":440,"stv_port":27016,"stv_name":"Uncletopia | London | 1 | All Maps | STV","players":[{"user_id":13,"name":"ViralBoris","steam_id":76561199374945481,"connected_time":1903000000000,"state":"active","ping":185}]},{"server_id":114,"name":"Uncletopia | London | 2 | All Maps","name_short":"lon-2","host":"lon-1.uk.uncletopia.com","port":27025,"enabled":true,"region":"eu","cc":"gb","latitude":51.509865,"longitude":-0.118092,"reserved":0,"last_update":"0001-01-01T00:00:00Z","name_a2s":"Uncletopia | London | 2 | All Maps","protocol":17,"map":"pl_swiftwater_final1","folder":"tf","game":"Team Fortress","app_id":440,"player_count":0,"max_players":24,"Bots":0,"server_type":"Dedicated","server_os":"Linux","password":true,"vac":true,"version":"7742253","steam_id":85568392924470941,"keywords":["nocrits","nodmgspread","payload","uncletopia"],"game_id":440,"stv_port":27026,"stv_name":"Uncletopia | London | 2 | All Maps | STV","players":null},{"server_id":320,"name":"Uncletopia | London | 3 | All Maps","name_short":"lon-3","host":"lon-1.uk.uncletopia.com","port":27035,"enabled":true,"region":"eu","cc":"gb","latitude":51.509865,"longitude":-0.118092,"reserved":0,"last_update":"0001-01-01T00:00:00Z","name_a2s":"Uncletopia | London | 3 | All Maps","protocol":17,"map":"pl_upward","folder":"tf","game":"Team Fortress","app_id":440,"player_count":0,"max_players":24,"Bots":0,"server_type":"Dedicated","server_os":"Linux","password":true,"vac":true,"version":"7742253","steam_id":85568392924510192,"keywords":["nocrits","nodmgspread","payload","uncletopia"],"game_id":440,"stv_port":27036,"stv_name":"Uncletopia | London | 3 | All Maps | STV","players":null},{"server_id":321,"name":"Uncletopia | London | 4 | All Maps","name_short":"lon-4","host":"lon-1.uk.uncletopia.com","port":27045,"enabled":true,"region":"eu","cc":"gb","latitude":51.509865,"longitude":-0.118092,"reserved":0,"last_update":"0001-01-01T00:00:00Z","name_a2s":"Uncletopia | London | 4 | All Maps","protocol":17,"map":"pl_borneo","folder":"tf","game":"Team Fortress","app_id":440,"player_count":24,"max_players":24,"Bots":0,"server_type":"Dedicated","server_os":"Linux","password":true,"vac":true,"version":"7742253","steam_id":85568392924510193,"keywords":["nocrits","nodmgspread","payload","uncletopia"],"game_id":440,"stv_port":27046,"stv_name":"Uncletopia | London | 4 | All Maps | STV","players":[{"user_id":73,"name":"scout TF2","steam_id":76561198072037878,"connected_time":1792000000000,"state":"active","ping":49},{"user_id":46,"name":"Making Coffee","steam_id":76561198138281039,"connected_time":3925000000000,"state":"active","ping":64},{"user_id":79,"name":"Bonkers (f2p)","steam_id":76561199438106716,"connected_time":977000000000,"state":"active","ping":171},{"user_id":6,"name":"R A S M U S","steam_id":76561198279799226,"connected_time":5995000000000,"state":"active","ping":74},{"user_id":47,"name":"Marloo","steam_id":76561198210792815,"connected_time":3756000000000,"state":"active","ping":80},{"user_id":80,"name":"lagzer","steam_id":76561198029295449,"connected_time":975000000000,"state":"active","ping":80},{"user_id":64,"name":"Scarlet","steam_id":76561198075966579,"connected_time":2482000000000,"state":"active","ping":43},{"user_id":72,"name":"LAMC","steam_id":76561199066888917,"connected_time":1839000000000,"state":"active","ping":71},{"user_id":82,"name":"Mage","steam_id":76561198147713667,"connected_time":935000000000,"state":"active","ping":137},{"user_id":74,"name":"Nnyllazxz","steam_id":76561198247797436,"connected_time":1460000000000,"state":"active","ping":123},{"user_id":51,"name":"Karvahattu Hemuli","steam_id":76561198118334653,"connected_time":3380000000000,"state":"active","ping":91},{"user_id":83,"name":"Logan_Istre","steam_id":76561198137012584,"connected_time":931000000000,"state":"active","ping":156},{"user_id":16,"name":"BONK","steam_id":76561199120275042,"connected_time":5935000000000,"state":"active","ping":62},{"user_id":59,"name":".::[SerafeTTiN]::.","steam_id":76561198009471724,"connected_time":2814000000000,"state":"active","ping":101},{"user_id":50,"name":"Economic crisis","steam_id":76561198063562843,"connected_time":3478000000000,"state":"active","ping":60},{"user_id":86,"name":"Kanny","steam_id":76561198058810184,"connected_time":103000000000,"state":"active","ping":46},{"user_id":77,"name":"thekoolest88","steam_id":76561199022415672,"connected_time":1319000000000,"state":"active","ping":141},{"user_id":53,"name":"beornot2be","steam_id":76561199274918860,"connected_time":3343000000000,"state":"active","ping":92},{"user_id":66,"name":"Chad IV","steam_id":76561198107767058,"connected_time":2447000000000,"state":"active","ping":90},{"user_id":55,"name":"Bob","steam_id":76561198218200489,"connected_time":3295000000000,"state":"active","ping":56},{"user_id":60,"name":"DogBazooka23","steam_id":76561198251943518,"connected_time":2629000000000,"state":"active","ping":60},{"user_id":58,"name":"weed fairy","steam_id":76561197998843096,"connected_time":2878000000000,"state":"active","ping":86},{"user_id":63,"name":"Walle","steam_id":76561197995148937,"connected_time":2506000000000,"state":"active","ping":76},{"user_id":85,"name":"UN. THE SUN. THE SUN","steam_id":76561198132737410,"connected_time":738000000000,"state":"active","ping":75}]},{"server_id":21,"name":"Uncletopia | London | 5 | All Maps","name_short":"lon-5","host":"lon-1.uk.uncletopia.com","port":27055,"enabled":true,"region":"eu","cc":"gb","latitude":51.509865,"longitude":-0.118092,"reserved":0,"last_update":"0001-01-01T00:00:00Z","name_a2s":"Uncletopia | London | 5 | All Maps","protocol":17,"map":"pl_frontier_final","folder":"tf","game":"Team Fortress","app_id":440,"player_count":0,"max_players":24,"Bots":0,"server_type":"Dedicated","server_os":"Linux","password":true,"vac":true,"version":"7742253","steam_id":85568392924742829,"keywords":["nocrits","nodmgspread","payload","uncletopia"],"game_id":440,"stv_port":27056,"stv_name":"Uncletopia | London | 5 | All Maps | STV","players":null},{"server_id":22,"name":"Uncletopia | London | 6 | All Maps","name_short":"lon-6","host":"lon-1.uk.uncletopia.com","port":27065,"enabled":true,"region":"eu","cc":"gb","latitude":51.509865,"longitude":-0.118092,"reserved":0,"last_update":"0001-01-01T00:00:00Z","name_a2s":"Uncletopia | London | 6 | All Maps","protocol":17,"map":"pl_borneo","folder":"tf","game":"Team Fortress","app_id":440,"player_count":0,"max_players":24,"Bots":0,"server_type":"Dedicated","server_os":"Linux","password":true,"vac":true,"version":"7742253","steam_id":85568392924742830,"keywords":["nocrits","nodmgspread","payload","uncletopia"],"game_id":440,"stv_port":27066,"stv_name":"Uncletopia | London | 6 | All Maps | STV","players":null},{"server_id":40,"name":"Uncletopia | London | 7 | No Payload","name_short":"lon-7","host":"lon-1.uk.uncletopia.com","port":27075,"enabled":true,"region":"eu","cc":"gb","latitude":51.509865,"longitude":-0.118092,"reserved":0,"last_update":"0001-01-01T00:00:00Z","name_a2s":"Uncletopia | London | 7 | No Payload","protocol":17,"map":"koth_viaduct","folder":"tf","game":"Team Fortress","app_id":440,"player_count":0,"max_players":24,"Bots":0,"server_type":"Dedicated","server_os":"Linux","password":true,"vac":true,"version":"7742253","steam_id":85568392924964314,"keywords":["cp","nocrits","nodmgspread","uncletopia"],"game_id":440,"stv_port":27076,"stv_name":"Uncletopia | London | 7 | No Payload | STV","players":null},{"server_id":41,"name":"Uncletopia | London | 8 | Community","name_short":"lon-8","host":"lon-1.uk.uncletopia.com","port":27085,"enabled":true,"region":"eu","cc":"gb","latitude":51.509865,"longitude":-0.118092,"reserved":0,"last_update":"0001-01-01T00:00:00Z","name_a2s":"Uncletopia | London | 8 | Community","protocol":17,"map":"cp_altitude","folder":"tf","game":"Team Fortress","app_id":440,"player_count":0,"max_players":24,"Bots":0,"server_type":"Dedicated","server_os":"Linux","password":true,"vac":true,"version":"7742253","steam_id":85568392924964315,"keywords":["cp","nocrits","nodmgspread","uncletopia"],"game_id":440,"stv_port":27086,"stv_name":"Uncletopia | London | 8 | Community | STV","players":null},{"server_id":300,"name":"Uncletopia | Montréal | 1 | All Maps","name_short":"mtl-1","host":"mtl-1.ca.uncletopia.com","port":27015,"enabled":true,"region":"us-east","cc":"ca","latitude":45.50889,"longitude":-73.56167,"reserved":0,"last_update":"0001-01-01T00:00:00Z","name_a2s":"Uncletopia | Montréal | 1 | All Maps","protocol":17,"map":"pl_pier","folder":"tf","game":"Team Fortress","app_id":440,"player_count":0,"max_players":24,"Bots":0,"server_type":"Dedicated","server_os":"Linux","password":true,"vac":true,"version":"7742253","steam_id":85568392924500087,"keywords":["nocrits","nodmgspread","payload","uncletopia"],"game_id":440,"stv_port":27016,"stv_name":"Uncletopia | Montréal | 1 | All Maps | STV","players":null},{"server_id":301,"name":"Uncletopia | Montréal | 2 | All Maps","name_short":"mtl-2","host":"mtl-1.ca.uncletopia.com","port":27025,"enabled":true,"region":"us-east","cc":"ca","latitude":45.50889,"longitude":-73.56167,"reserved":0,"last_update":"0001-01-01T00:00:00Z","name_a2s":"Uncletopia | Montréal | 2 | All Maps","protocol":17,"map":"koth_highpass","folder":"tf","game":"Team Fortress","app_id":440,"player_count":0,"max_players":24,"Bots":0,"server_type":"Dedicated","server_os":"Linux","password":true,"vac":true,"version":"7742253","steam_id":85568392924500088,"keywords":["cp","nocrits","nodmgspread","uncletopia"],"game_id":440,"stv_port":27026,"stv_name":"Uncletopia | Montréal | 2 | All Maps | STV","players":null},{"server_id":302,"name":"Uncletopia | Montréal | 3 | All Maps","name_short":"mtl-3","host":"mtl-1.ca.uncletopia.com","port":27035,"enabled":true,"region":"us-east","cc":"ca","latitude":45.50889,"longitude":-73.56167,"reserved":0,"last_update":"0001-01-01T00:00:00Z","name_a2s":"Uncletopia | Montréal | 3 | All Maps","protocol":17,"map":"cp_mountainlab","folder":"tf","game":"Team Fortress","app_id":440,"player_count":0,"max_players":24,"Bots":0,"server_type":"Dedicated","server_os":"Linux","password":true,"vac":true,"version":"7742253","steam_id":85568392924500089,"keywords":["cp","nocrits","nodmgspread","uncletopia"],"game_id":440,"stv_port":27036,"stv_name":"Uncletopia | Montréal | 3 | All Maps | STV","players":null},{"server_id":303,"name":"Uncletopia | Montréal | 4 | No Payload","name_short":"mtl-4","host":"mtl-1.ca.uncletopia.com","port":27045,"enabled":true,"region":"us-east","cc":"ca","latitude":45.50889,"longitude":-73.56167,"reserved":0,"last_update":"0001-01-01T00:00:00Z","name_a2s":"Uncletopia | Montréal | 4 | No Payload","protocol":17,"map":"cp_snakewater_final1","folder":"tf","game":"Team Fortress","app_id":440,"player_count":0,"max_players":24,"Bots":0,"server_type":"Dedicated","server_os":"Linux","password":true,"vac":true,"version":"7742253","steam_id":85568392924500090,"keywords":["cp","nocrits","nodmgspread","uncletopia"],"game_id":440,"stv_port":27046,"stv_name":"Uncletopia | Montréal | 4 | No Payload | STV","players":null},{"server_id":13,"name":"Uncletopia | New York City | 1 | All Maps","name_short":"nyc-1","host":"nyc-1.us.uncletopia.com","port":27015,"enabled":true,"region":"us-east","cc":"us","latitude":40.73061,"longitude":-73.93524,"reserved":0,"last_update":"0001-01-01T00:00:00Z","name_a2s":"Uncletopia | New York City | 1 | All Maps","protocol":17,"map":"cp_mountainlab","folder":"tf","game":"Team Fortress","app_id":440,"player_count":24,"max_players":24,"Bots":0,"server_type":"Dedicated","server_os":"Linux","password":true,"vac":true,"version":"7742253","steam_id":85568392924469993,"keywords":["cp","nocrits","nodmgspread","uncletopia"],"game_id":440,"stv_port":27016,"stv_name":"Uncletopia | New York City | 1 | All Maps | STV","players":[{"user_id":163,"name":"astron","steam_id":76561198058546328,"connected_time":2285000000000,"state":"active","ping":77},{"user_id":141,"name":"Whyamidoingthisaaaa","steam_id":76561199168837342,"connected_time":3322000000000,"state":"active","ping":57},{"user_id":195,"name":"Trusty","steam_id":76561198035444237,"connected_time":84000000000,"state":"active","ping":53},{"user_id":173,"name":"Anshin","steam_id":76561198018803214,"connected_time":1629000000000,"state":"active","ping":68},{"user_id":165,"name":"sithreis","steam_id":76561198000564263,"connected_time":1786000000000,"state":"active","ping":75},{"user_id":166,"name":"AlecTheNefarious","steam_id":76561198035291230,"connected_time":1783000000000,"state":"active","ping":75},{"user_id":189,"name":"Degree","steam_id":76561198059812393,"connected_time":673000000000,"state":"active","ping":135},{"user_id":182,"name":"Kqware Sid","steam_id":76561198349858321,"connected_time":902000000000,"state":"active","ping":94},{"user_id":164,"name":"gangstalker","steam_id":76561198363267009,"connected_time":1816000000000,"state":"active","ping":87},{"user_id":168,"name":"lanoc","steam_id":76561198055415367,"connected_time":1761000000000,"state":"active","ping":60},{"user_id":169,"name":"pelicAn","steam_id":76561197963422599,"connected_time":1718000000000,"state":"active","ping":50},{"user_id":181,"name":"Koolaid","steam_id":76561198350574019,"connected_time":919000000000,"state":"active","ping":102},{"user_id":193,"name":"GoblinLover","steam_id":76561198333399233,"connected_time":390000000000,"state":"active","ping":48},{"user_id":194,"name":"afrocircus","steam_id":76561198102182937,"connected_time":383000000000,"state":"active","ping":77},{"user_id":123,"name":"the deadliest pyroshark","steam_id":76561198374227766,"connected_time":4961000000000,"state":"active","ping":57},{"user_id":192,"name":"john trevolta","steam_id":76561197998867160,"connected_time":446000000000,"state":"active","ping":62},{"user_id":187,"name":"Sky!","steam_id":76561198141953747,"connected_time":735000000000,"state":"active","ping":132},{"user_id":188,"name":"polar","steam_id":76561198435379565,"connected_time":719000000000,"state":"active","ping":67},{"user_id":190,"name":"kingofTOAST","steam_id":76561198079994110,"connected_time":668000000000,"state":"active","ping":114},{"user_id":180,"name":"TF2 xman","steam_id":76561198083815809,"connected_time":989000000000,"state":"active","ping":56},{"user_id":172,"name":"stockhack","steam_id":76561198050220225,"connected_time":1667000000000,"state":"active","ping":50},{"user_id":148,"name":"Adolf The Toast Jesus™","steam_id":76561198024553767,"connected_time":3055000000000,"state":"active","ping":92},{"user_id":191,"name":"Souper Scott","steam_id":76561198045518926,"connected_time":572000000000,"state":"active","ping":70},{"user_id":105,"name":"jingle shitmouth","steam_id":76561198055109192,"connected_time":6217000000000,"state":"active","ping":93}]},{"server_id":14,"name":"Uncletopia | New York City | 2 | All Maps","name_short":"nyc-2","host":"nyc-1.us.uncletopia.com","port":27025,"enabled":true,"region":"us-east","cc":"us","latitude":40.73061,"longitude":-73.93524,"reserved":0,"last_update":"0001-01-01T00:00:00Z","name_a2s":"Uncletopia | New York City | 2 | All Maps","protocol":17,"map":"pl_frontier_final","folder":"tf","game":"Team Fortress","app_id":440,"player_count":7,"max_players":24,"Bots":0,"server_type":"Dedicated","server_os":"Linux","password":true,"vac":true,"version":"7742253","steam_id":85568392924469994,"keywords":["nocrits","nodmgspread","payload","uncletopia"],"game_id":440,"stv_port":27026,"stv_name":"Uncletopia | New York City | 2 | All Maps | STV","players":[{"user_id":135,"name":"Hunt_er#SaveTf2","steam_id":76561198325350546,"connected_time":230000000000,"state":"active","ping":107},{"user_id":114,"name":"d-fens","steam_id":76561197969414326,"connected_time":2728000000000,"state":"active","ping":51},{"user_id":132,"name":"Norman The Purple","steam_id":76561198047169663,"connected_time":1207000000000,"state":"active","ping":68},{"user_id":118,"name":"Lost","steam_id":76561198025933206,"connected_time":2488000000000,"state":"active","ping":85},{"user_id":65,"name":"Lumpy","steam_id":76561198058840585,"connected_time":8640000000000,"state":"active","ping":48},{"user_id":127,"name":"brain griffin","steam_id":76561198865971290,"connected_time":1755000000000,"state":"active","ping":72},{"user_id":102,"name":"u/unhinged_person","steam_id":76561198085839920,"connected_time":4256000000000,"state":"active","ping":72}]},{"server_id":15,"name":"Uncletopia | New York City | 3 | Stopwatch Beta","name_short":"nyc-3","host":"nyc-1.us.uncletopia.com","port":27035,"enabled":true,"region":"us-east","cc":"us","latitude":40.73061,"longitude":-73.93524,"reserved":0,"last_update":"0001-01-01T00:00:00Z","name_a2s":"Uncletopia | New York City | 3 | Stopwatch Beta","protocol":17,"map":"pl_pier","folder":"tf","game":"Team Fortress","app_id":440,"player_count":0,"max_players":24,"Bots":0,"server_type":"Dedicated","server_os":"Linux","password":true,"vac":true,"version":"7742253","steam_id":85568392924742820,"keywords":["nocrits","nodmgspread","payload","uncletopia"],"game_id":440,"stv_port":27036,"stv_name":"Uncletopia | New York City | 3 | Stopwatch Beta | STV","players":null},{"server_id":16,"name":"Uncletopia | New York City | 4 | Community","name_short":"nyc-4","host":"nyc-1.us.uncletopia.com","port":27045,"enabled":true,"region":"us-east","cc":"us","latitude":40.73061,"longitude":-73.93524,"reserved":0,"last_update":"0001-01-01T00:00:00Z","name_a2s":"Uncletopia | New York City | 4 | Community","protocol":17,"map":"koth_viaduct","folder":"tf","game":"Team Fortress","app_id":440,"player_count":0,"max_players":24,"Bots":0,"server_type":"Dedicated","server_os":"Linux","password":true,"vac":true,"version":"7742253","steam_id":85568392924742821,"keywords":["cp","nocrits","nodmgspread","uncletopia"],"game_id":440,"stv_port":27046,"stv_name":"Uncletopia | New York City | 4 | Community | STV","players":null},{"server_id":142,"name":"Uncletopia | São Paulo | 1 | All Maps","name_short":"sao-1","host":"sao-1.br.uncletopia.com","port":27015,"enabled":true,"region":"sa","cc":"br","latitude":-23.533773,"longitude":-46.62529,"reserved":0,"last_update":"0001-01-01T00:00:00Z","name_a2s":"Uncletopia | São Paulo | 1 | All Maps","protocol":17,"map":"koth_viaduct","folder":"tf","game":"Team Fortress","app_id":440,"player_count":0,"max_players":24,"Bots":0,"server_type":"Dedicated","server_os":"Linux","password":true,"vac":true,"version":"7742253","steam_id":85568392924469996,"keywords":["cp","nocrits","nodmgspread","uncletopia"],"game_id":440,"stv_port":27016,"stv_name":"Uncletopia | São Paulo | 1 | All Maps | STV","players":null},{"server_id":143,"name":"Uncletopia | São Paulo | 2 | All Maps","name_short":"sao-2","host":"sao-2.br.uncletopia.com","port":27015,"enabled":true,"region":"sa","cc":"br","latitude":-23.533773,"longitude":-46.62529,"reserved":0,"last_update":"0001-01-01T00:00:00Z","name_a2s":"Uncletopia | São Paulo | 2 | All Maps","protocol":17,"map":"koth_viaduct","folder":"tf","game":"Team Fortress","app_id":440,"player_count":0,"max_players":24,"Bots":0,"server_type":"Dedicated","server_os":"Linux","password":true,"vac":true,"version":"7742253","steam_id":85568392924485349,"keywords":["cp","nocrits","nodmgspread","uncletopia"],"game_id":440,"stv_port":27016,"stv_name":"Uncletopia | São Paulo | 2 | All Maps | STV","players":null},{"server_id":7,"name":"Uncletopia | Seattle | 1 | All Maps","name_short":"sea-1","host":"sea-1.us.uncletopia.com","port":27015,"enabled":true,"region":"us-west","cc":"us","latitude":47.608013,"longitude":-122.33517,"reserved":0,"last_update":"0001-01-01T00:00:00Z","name_a2s":"Uncletopia | Seattle | 1 | All Maps","protocol":17,"map":"pl_badwater","folder":"tf","game":"Team Fortress","app_id":440,"player_count":24,"max_players":24,"Bots":0,"server_type":"Dedicated","server_os":"Linux","password":true,"vac":true,"version":"7742253","steam_id":85568392924469997,"keywords":["nocrits","nodmgspread","payload","uncletopia"],"game_id":440,"stv_port":27016,"stv_name":"Uncletopia | Seattle | 1 | All Maps | STV","players":[{"user_id":149,"name":"thehornyone","steam_id":76561198265116245,"connected_time":1204000000000,"state":"active","ping":83},{"user_id":107,"name":"geometrically insensitive","steam_id":76561198038142791,"connected_time":3946000000000,"state":"active","ping":55},{"user_id":138,"name":"Can of Oranges (Festive)","steam_id":76561199121813529,"connected_time":1805000000000,"state":"active","ping":37},{"user_id":154,"name":"Master Breather","steam_id":76561198077030391,"connected_time":392000000000,"state":"active","ping":74},{"user_id":155,"name":"Pizza Party","steam_id":76561198165730754,"connected_time":298000000000,"state":"active","ping":125},{"user_id":140,"name":"skosgo","steam_id":76561197996403345,"connected_time":1706000000000,"state":"active","ping":79},{"user_id":151,"name":"Dr. Karl, the AUS Science Guy","steam_id":76561198031278747,"connected_time":969000000000,"state":"active","ping":46},{"user_id":156,"name":"The Best Healer","steam_id":76561198079452621,"connected_time":264000000000,"state":"active","ping":52},{"user_id":120,"name":"coffee enjoyer","steam_id":76561198059900288,"connected_time":2701000000000,"state":"active","ping":122},{"user_id":126,"name":"sly1","steam_id":76561198049014977,"connected_time":2525000000000,"state":"active","ping":55},{"user_id":159,"name":"b_droid","steam_id":76561198103515747,"connected_time":181000000000,"state":"active","ping":67},{"user_id":110,"name":"doopsies","steam_id":76561198083000867,"connected_time":3262000000000,"state":"active","ping":59},{"user_id":124,"name":"- Knipples -","steam_id":76561197977061311,"connected_time":2614000000000,"state":"active","ping":119},{"user_id":158,"name":"agolem3214","steam_id":76561198121844002,"connected_time":242000000000,"state":"active","ping":65},{"user_id":160,"name":"anton ego","steam_id":76561199019583362,"connected_time":168000000000,"state":"active","ping":85},{"user_id":83,"name":"Savant","steam_id":76561197969881916,"connected_time":6785000000000,"state":"active","ping":58},{"user_id":93,"name":"profile name","steam_id":76561198032625036,"connected_time":6012000000000,"state":"active","ping":60},{"user_id":150,"name":"your friends dad","steam_id":76561199062326425,"connected_time":1186000000000,"state":"active","ping":54},{"user_id":92,"name":"KingToaster","steam_id":76561198007903802,"connected_time":6119000000000,"state":"active","ping":36},{"user_id":163,"name":"sweaterfan","steam_id":76561199389567214,"connected_time":14000000000,"state":"active","ping":133},{"user_id":162,"name":"An Old Lady","steam_id":76561198047480318,"connected_time":79000000000,"state":"active","ping":73},{"user_id":133,"name":"Ducks","steam_id":76561198130038345,"connected_time":2349000000000,"state":"active","ping":66},{"user_id":148,"name":"fapasaurusrex","steam_id":76561197994951255,"connected_time":1407000000000,"state":"active","ping":92},{"user_id":161,"name":"arashsmash","steam_id":76561198277649058,"connected_time":162000000000,"state":"active","ping":119}]},{"server_id":119,"name":"Uncletopia | Seattle | 2 | All Maps","name_short":"sea-2","host":"sea-1.us.uncletopia.com","port":27025,"enabled":true,"region":"us-west","cc":"us","latitude":47.608013,"longitude":-122.33517,"reserved":0,"last_update":"0001-01-01T00:00:00Z","name_a2s":"Uncletopia | Seattle | 2 | All Maps","protocol":17,"map":"pl_borneo","folder":"tf","game":"Team Fortress","app_id":440,"player_count":24,"max_players":24,"Bots":0,"server_type":"Dedicated","server_os":"Linux","password":true,"vac":true,"version":"7742253","steam_id":85568392924469998,"keywords":["nocrits","nodmgspread","payload","uncletopia"],"game_id":440,"stv_port":27026,"stv_name":"Uncletopia | Seattle | 2 | All Maps | STV","players":[{"user_id":130,"name":"Tomato Soup","steam_id":76561198051834684,"connected_time":966000000000,"state":"active","ping":52},{"user_id":126,"name":"I AM THE DANGER","steam_id":76561198261903052,"connected_time":1061000000000,"state":"active","ping":75},{"user_id":5,"name":"strong and healthy gamer","steam_id":76561198049489349,"connected_time":12076000000000,"state":"active","ping":60},{"user_id":117,"name":"dzcreeper","steam_id":76561198072250723,"connected_time":1802000000000,"state":"active","ping":90},{"user_id":143,"name":"lost in the sauce","steam_id":76561199043827112,"connected_time":208000000000,"state":"active","ping":107},{"user_id":148,"name":"mudunit","steam_id":76561198811544015,"connected_time":10000000000,"state":"active","ping":60},{"user_id":144,"name":"konqer","steam_id":76561199121819230,"connected_time":92000000000,"state":"active","ping":82},{"user_id":87,"name":"Salty.Sam","steam_id":76561198030933901,"connected_time":5242000000000,"state":"active","ping":98},{"user_id":127,"name":"Waltuh Gaming","steam_id":76561198173624978,"connected_time":1036000000000,"state":"active","ping":85},{"user_id":115,"name":"E","steam_id":76561198238236044,"connected_time":2010000000000,"state":"active","ping":124},{"user_id":120,"name":"_DrunkenGibberish_","steam_id":76561199123070071,"connected_time":1737000000000,"state":"active","ping":114},{"user_id":140,"name":"HO MY GOD HELP ME","steam_id":76561198119150842,"connected_time":530000000000,"state":"active","ping":56},{"user_id":76,"name":"butt3r_","steam_id":76561198156374792,"connected_time":6498000000000,"state":"active","ping":50},{"user_id":141,"name":"fruit brute fiend","steam_id":76561198811500361,"connected_time":412000000000,"state":"active","ping":48},{"user_id":125,"name":"Gaming","steam_id":76561198327632113,"connected_time":1569000000000,"state":"active","ping":45},{"user_id":107,"name":"goldhed","steam_id":76561198051751133,"connected_time":2438000000000,"state":"active","ping":59},{"user_id":110,"name":"Google","steam_id":76561198857237473,"connected_time":2278000000000,"state":"active","ping":45},{"user_id":145,"name":"Skip Hop Doo Bop","steam_id":76561199161571849,"connected_time":90000000000,"state":"active","ping":67},{"user_id":146,"name":"Mak","steam_id":76561198089197922,"connected_time":45000000000,"state":"active","ping":55},{"user_id":131,"name":"viedoamegs","steam_id":76561198025295263,"connected_time":872000000000,"state":"active","ping":106},{"user_id":138,"name":"GඞMER","steam_id":76561198340389876,"connected_time":576000000000,"state":"active","ping":94},{"user_id":147,"name":"Calypso","steam_id":76561198082939544,"connected_time":29000000000,"state":"active","ping":72},{"user_id":142,"name":"hamster.assassination","steam_id":76561199419949968,"connected_time":373000000000,"state":"active","ping":121},{"user_id":124,"name":"cardboard","steam_id":76561198193855346,"connected_time":1669000000000,"state":"active","ping":58}]},{"server_id":406,"name":"Uncletopia | Seattle | 3 | Stopwatch Beta","name_short":"sea-3","host":"sea-1.us.uncletopia.com","port":27035,"enabled":true,"region":"us-west","cc":"us","latitude":47.608013,"longitude":-122.33517,"reserved":0,"last_update":"0001-01-01T00:00:00Z","name_a2s":"Uncletopia | Seattle | 3 | Stopwatch Beta","protocol":17,"map":"cp_sunshine","folder":"tf","game":"Team Fortress","app_id":440,"player_count":0,"max_players":24,"Bots":0,"server_type":"Dedicated","server_os":"Linux","password":true,"vac":true,"version":"7742253","steam_id":85568392924515217,"keywords":["cp","nocrits","nodmgspread","uncletopia"],"game_id":440,"stv_port":27036,"stv_name":"Uncletopia | Seattle | 3 | Stopwatch Beta | STV","players":null},{"server_id":17,"name":"Uncletopia | San Francisco | 1 | All Maps","name_short":"sfo-1","host":"sfo-1.us.uncletopia.com","port":27015,"enabled":true,"region":"us-west","cc":"us","latitude":37.77397,"longitude":-122.4313,"reserved":0,"last_update":"0001-01-01T00:00:00Z","name_a2s":"Uncletopia | San Francisco | 1 | All Maps","protocol":17,"map":"cp_altitude","folder":"tf","game":"Team Fortress","app_id":440,"player_count":0,"max_players":24,"Bots":0,"server_type":"Dedicated","server_os":"Linux","password":true,"vac":true,"version":"7742253","steam_id":85568392924469999,"keywords":["cp","nocrits","nodmgspread","uncletopia"],"game_id":440,"stv_port":27016,"stv_name":"Uncletopia | San Francisco | 1 | All Maps | STV","players":null},{"server_id":18,"name":"Uncletopia | San Francisco | 2 | All Maps","name_short":"sfo-2","host":"sfo-1.us.uncletopia.com","port":27025,"enabled":true,"region":"us-west","cc":"us","latitude":37.77397,"longitude":-122.4313,"reserved":0,"last_update":"0001-01-01T00:00:00Z","name_a2s":"Uncletopia | San Francisco | 2 | All Maps","protocol":17,"map":"cp_altitude","folder":"tf","game":"Team Fortress","app_id":440,"player_count":0,"max_players":24,"Bots":0,"server_type":"Dedicated","server_os":"Linux","password":true,"vac":true,"version":"7742253","steam_id":85568392924470000,"keywords":["cp","nocrits","nodmgspread","uncletopia"],"game_id":440,"stv_port":27026,"stv_name":"Uncletopia | San Francisco | 2 | All Maps | STV","players":null},{"server_id":19,"name":"Uncletopia | San Francisco | 3 | Stopwatch Beta","name_short":"sfo-3","host":"sfo-1.us.uncletopia.com","port":27035,"enabled":true,"region":"us-west","cc":"us","latitude":37.77397,"longitude":-122.4313,"reserved":0,"last_update":"0001-01-01T00:00:00Z","name_a2s":"Uncletopia | San Francisco | 3 | Stopwatch Beta","protocol":17,"map":"cp_snakewater_final1","folder":"tf","game":"Team Fortress","app_id":440,"player_count":0,"max_players":24,"Bots":0,"server_type":"Dedicated","server_os":"Linux","password":true,"vac":true,"version":"7742253","steam_id":85568392924742824,"keywords":["cp","nocrits","nodmgspread","uncletopia"],"game_id":440,"stv_port":27036,"stv_name":"Uncletopia | San Francisco | 3 | Stopwatch Beta | STV","players":null},{"server_id":20,"name":"Uncletopia | San Francisco | 4 | Community","name_short":"sfo-4","host":"sfo-1.us.uncletopia.com","port":27045,"enabled":true,"region":"us-west","cc":"us","latitude":37.77397,"longitude":-122.4313,"reserved":0,"last_update":"0001-01-01T00:00:00Z","name_a2s":"Uncletopia | San Francisco | 4 | Community","protocol":17,"map":"cp_dustbowl","folder":"tf","game":"Team Fortress","app_id":440,"player_count":0,"max_players":24,"Bots":0,"server_type":"Dedicated","server_os":"Linux","password":true,"vac":true,"version":"7742253","steam_id":85568392924742826,"keywords":["cp","nocrits","nodmgspread","uncletopia"],"game_id":440,"stv_port":27046,"stv_name":"Uncletopia | San Francisco | 4 | Community | STV","players":null},{"server_id":141,"name":"Uncletopia | Sydney | 1 | All Maps","name_short":"syd-1","host":"syd-1.au.uncletopia.com","port":27015,"enabled":true,"region":"au","cc":"au","latitude":-33.865143,"longitude":151.2099,"reserved":0,"last_update":"0001-01-01T00:00:00Z","name_a2s":"Uncletopia | Sydney | 1 | All Maps","protocol":17,"map":"cp_dustbowl","folder":"tf","game":"Team Fortress","app_id":440,"player_count":24,"max_players":24,"Bots":0,"server_type":"Dedicated","server_os":"Linux","password":true,"vac":true,"version":"7742253","steam_id":85568392924470001,"keywords":["cp","nocrits","nodmgspread","uncletopia"],"game_id":440,"stv_port":27016,"stv_name":"Uncletopia | Sydney | 1 | All Maps | STV","players":[{"user_id":122,"name":"Eldritch Horror Dexter","steam_id":76561198017793171,"connected_time":2517000000000,"state":"active","ping":60},{"user_id":73,"name":"Rant","steam_id":76561198949751771,"connected_time":4733000000000,"state":"active","ping":31},{"user_id":125,"name":"Performance Issues","steam_id":76561198202341454,"connected_time":2426000000000,"state":"active","ping":70},{"user_id":121,"name":"Mr Asian","steam_id":76561199119648313,"connected_time":2623000000000,"state":"active","ping":67},{"user_id":137,"name":"Grantymunk","steam_id":76561198051439179,"connected_time":811000000000,"state":"active","ping":68},{"user_id":83,"name":"lofty","steam_id":76561198380588357,"connected_time":4335000000000,"state":"active","ping":70},{"user_id":116,"name":"hawk","steam_id":76561198135164277,"connected_time":3021000000000,"state":"active","ping":57},{"user_id":135,"name":"carf","steam_id":76561199142612869,"connected_time":1394000000000,"state":"active","ping":46},{"user_id":131,"name":"LeoJoeD","steam_id":76561198161848749,"connected_time":1666000000000,"state":"active","ping":44},{"user_id":124,"name":"ziah","steam_id":76561198159375596,"connected_time":2463000000000,"state":"active","ping":57},{"user_id":113,"name":"the coolest karlos","steam_id":76561198956180767,"connected_time":3098000000000,"state":"active","ping":47},{"user_id":112,"name":"Macca","steam_id":76561198010207998,"connected_time":3102000000000,"state":"active","ping":58},{"user_id":120,"name":"doctor morbin' (real)","steam_id":76561199365241695,"connected_time":2664000000000,"state":"active","ping":128},{"user_id":107,"name":"Dr Barry Mundy PhD","steam_id":76561198034512686,"connected_time":3366000000000,"state":"active","ping":38},{"user_id":111,"name":"Phoish","steam_id":76561198442526296,"connected_time":3154000000000,"state":"active","ping":74},{"user_id":140,"name":"SWAG DRAGON","steam_id":76561197960279341,"connected_time":576000000000,"state":"active","ping":48},{"user_id":141,"name":"idahs","steam_id":76561198073097952,"connected_time":340000000000,"state":"active","ping":81},{"user_id":136,"name":"Easel (any/all)","steam_id":76561198049213583,"connected_time":1385000000000,"state":"active","ping":61},{"user_id":72,"name":"₱elica₦","steam_id":76561198123827973,"connected_time":4753000000000,"state":"active","ping":90},{"user_id":142,"name":"mrgonzales123","steam_id":76561199052767588,"connected_time":326000000000,"state":"active","ping":67},{"user_id":118,"name":"Wake'n'Bake'n'Make'n'Bacon","steam_id":76561198061960926,"connected_time":2861000000000,"state":"active","ping":88},{"user_id":84,"name":"NewChris","steam_id":76561198254754182,"connected_time":4325000000000,"state":"active","ping":73},{"user_id":139,"name":"jcoll444","steam_id":76561198143025380,"connected_time":737000000000,"state":"active","ping":52},{"user_id":128,"name":"Sherpa","steam_id":76561198018913829,"connected_time":2181000000000,"state":"active","ping":57}]},{"server_id":123,"name":"Uncletopia | Sydney | 2 | All Maps","name_short":"syd-2","host":"syd-1.au.uncletopia.com","port":27025,"enabled":true,"region":"au","cc":"au","latitude":-33.865143,"longitude":151.2099,"reserved":0,"last_update":"0001-01-01T00:00:00Z","name_a2s":"Uncletopia | Sydney | 2 | All Maps","protocol":17,"map":"cp_dustbowl","folder":"tf","game":"Team Fortress","app_id":440,"player_count":13,"max_players":24,"Bots":0,"server_type":"Dedicated","server_os":"Linux","password":true,"vac":true,"version":"7742253","steam_id":85568392924470002,"keywords":["cp","nocrits","nodmgspread","uncletopia"],"game_id":440,"stv_port":27026,"stv_name":"Uncletopia | Sydney | 2 | All Maps | STV","players":[{"user_id":10,"name":"Morgenstern","steam_id":76561198253080474,"connected_time":3199000000000,"state":"active","ping":68},{"user_id":11,"name":"dingo","steam_id":76561198315774295,"connected_time":3167000000000,"state":"active","ping":55},{"user_id":14,"name":"Jasmine","steam_id":76561198872890799,"connected_time":2659000000000,"state":"active","ping":66},{"user_id":35,"name":"Branko","steam_id":76561199262196710,"connected_time":284000000000,"state":"active","ping":40},{"user_id":16,"name":"猫","steam_id":76561198077371097,"connected_time":2032000000000,"state":"active","ping":53},{"user_id":27,"name":"cimpact","steam_id":76561198452258917,"connected_time":831000000000,"state":"active","ping":121},{"user_id":36,"name":"oldbie","steam_id":76561198053297711,"connected_time":125000000000,"state":"active","ping":90},{"user_id":22,"name":"zeaphg","steam_id":76561199014878539,"connected_time":1574000000000,"state":"active","ping":76},{"user_id":26,"name":"Kouler","steam_id":76561197960804719,"connected_time":1416000000000,"state":"active","ping":56},{"user_id":38,"name":"teenie","steam_id":76561198208505499,"connected_time":55000000000,"state":"active","ping":56},{"user_id":31,"name":"Cubitonic","steam_id":76561199109012216,"connected_time":567000000000,"state":"active","ping":74},{"user_id":33,"name":"OforOlive1234","steam_id":76561199079214612,"connected_time":410000000000,"state":"active","ping":114},{"user_id":39,"name":"DelHasMangoes/yt","steam_id":76561198047183797,"connected_time":48000000000,"state":"active","ping":81}]},{"server_id":395,"name":"Uncletopia | Sydney | 3 | All Maps","name_short":"syd-3","host":"syd-1.au.uncletopia.com","port":27035,"enabled":true,"region":"au","cc":"au","latitude":-33.865143,"longitude":151.2099,"reserved":0,"last_update":"0001-01-01T00:00:00Z","name_a2s":"Uncletopia | Sydney | 3 | All Maps","protocol":17,"map":"ctf_2fort","folder":"tf","game":"Team Fortress","app_id":440,"player_count":0,"max_players":24,"Bots":0,"server_type":"Dedicated","server_os":"Linux","password":true,"vac":true,"version":"7742253","steam_id":85568392925194467,"keywords":["ctf","nocrits","nodmgspread","uncletopia"],"game_id":440,"stv_port":27036,"stv_name":"Uncletopia | Sydney | 3 | All Maps | STV","players":null},{"server_id":396,"name":"Uncletopia | Sydney | 4 | All Maps","name_short":"syd-4","host":"syd-1.au.uncletopia.com","port":27045,"enabled":true,"region":"au","cc":"au","latitude":-33.865143,"longitude":151.2099,"reserved":0,"last_update":"0001-01-01T00:00:00Z","name_a2s":"Uncletopia | Sydney | 4 | All Maps","protocol":17,"map":"ctf_2fort","folder":"tf","game":"Team Fortress","app_id":440,"player_count":0,"max_players":24,"Bots":0,"server_type":"Dedicated","server_os":"Linux","password":true,"vac":true,"version":"7742253","steam_id":85568392925397958,"keywords":["ctf","nocrits","nodmgspread","uncletopia"],"game_id":440,"stv_port":27046,"stv_name":"Uncletopia | Sydney | 4 | All Maps | STV","players":null},{"server_id":58,"name":"Uncletopia | Sydney | 5 | Stopwatch Beta","name_short":"syd-5","host":"syd-1.au.uncletopia.com","port":27055,"enabled":true,"region":"au","cc":"au","latitude":-33.865143,"longitude":151.2099,"reserved":0,"last_update":"0001-01-01T00:00:00Z","name_a2s":"Uncletopia | Sydney | 5 | Stopwatch Beta","protocol":17,"map":"workshop/koth_bagel_rc5.ugc2514036946","folder":"tf","game":"Team Fortress","app_id":440,"player_count":0,"max_players":24,"Bots":0,"server_type":"Dedicated","server_os":"Linux","password":true,"vac":true,"version":"7742253","steam_id":85568392925397959,"keywords":["cp","nocrits","nodmgspread","uncletopia"],"game_id":440,"stv_port":27056,"stv_name":"Uncletopia | Sydney | 5 | Stopwatch Beta | STV","players":null},{"server_id":59,"name":"Uncletopia | Sydney | 6 | Community","name_short":"syd-6","host":"syd-1.au.uncletopia.com","port":27065,"enabled":true,"region":"au","cc":"au","latitude":-33.865143,"longitude":151.2099,"reserved":0,"last_update":"0001-01-01T00:00:00Z","name_a2s":"Uncletopia | Sydney | 6 | Community","protocol":17,"map":"workshop/pl_cactuscanyon_redux_rc4b.ugc2579644293","folder":"tf","game":"Team Fortress","app_id":440,"player_count":0,"max_players":24,"Bots":0,"server_type":"Dedicated","server_os":"Linux","password":true,"vac":true,"version":"7742253","steam_id":85568392925397960,"keywords":["nocrits","nodmgspread","payload","uncletopia"],"game_id":440,"stv_port":27066,"stv_name":"Uncletopia | Sydney | 6 | Community | STV","players":null},{"server_id":49,"name":"Uncletopia | Warsaw | 1 | All Maps","name_short":"waw-1","host":"waw-1.pl.uncletopia.com","port":27015,"enabled":true,"region":"eu","cc":"pl","latitude":52.2297,"longitude":21.017532,"reserved":0,"last_update":"0001-01-01T00:00:00Z","name_a2s":"","protocol":0,"map":"","folder":"","game":"","app_id":0,"player_count":0,"max_players":0,"Bots":0,"server_type":"","server_os":"","password":false,"vac":false,"version":"","steam_id":0,"keywords":null,"game_id":0,"stv_port":0,"stv_name":"","players":null},{"server_id":50,"name":"Uncletopia | Warsaw | 2 | All Maps","name_short":"waw-2","host":"waw-1.pl.uncletopia.com","port":27025,"enabled":true,"region":"eu","cc":"pl","latitude":52.2297,"longitude":21.017532,"reserved":0,"last_update":"0001-01-01T00:00:00Z","name_a2s":"Uncletopia | Warsaw | 2 | All Maps","protocol":17,"map":"pl_borneo","folder":"tf","game":"Team Fortress","app_id":440,"player_count":0,"max_players":24,"Bots":0,"server_type":"Dedicated","server_os":"Linux","password":true,"vac":true,"version":"7742253","steam_id":85568392925397851,"keywords":["nocrits","nodmgspread","payload","uncletopia"],"game_id":440,"stv_port":27026,"stv_name":"Uncletopia | Warsaw | 2 | All Maps | STV","players":null},{"server_id":51,"name":"Uncletopia | Warsaw | 3 | All Maps","name_short":"waw-3","host":"waw-1.pl.uncletopia.com","port":27035,"enabled":true,"region":"eu","cc":"pl","latitude":52.2297,"longitude":21.017532,"reserved":0,"last_update":"0001-01-01T00:00:00Z","name_a2s":"Uncletopia | Warsaw | 3 | All Maps","protocol":17,"map":"koth_lakeside_final","folder":"tf","game":"Team Fortress","app_id":440,"player_count":0,"max_players":24,"Bots":0,"server_type":"Dedicated","server_os":"Linux","password":true,"vac":true,"version":"7742253","steam_id":85568392925397852,"keywords":["cp","nocrits","nodmgspread","uncletopia"],"game_id":440,"stv_port":27036,"stv_name":"Uncletopia | Warsaw | 3 | All Maps | STV","players":null},{"server_id":52,"name":"Uncletopia | Warsaw | 4 | All Maps","name_short":"waw-4","host":"waw-1.pl.uncletopia.com","port":27045,"enabled":true,"region":"eu","cc":"pl","latitude":52.2297,"longitude":21.017532,"reserved":0,"last_update":"0001-01-01T00:00:00Z","name_a2s":"Uncletopia | Warsaw | 4 | All Maps","protocol":17,"map":"pl_upward","folder":"tf","game":"Team Fortress","app_id":440,"player_count":0,"max_players":24,"Bots":0,"server_type":"Dedicated","server_os":"Linux","password":true,"vac":true,"version":"7742253","steam_id":85568392925397853,"keywords":["nocrits","nodmgspread","payload","uncletopia"],"game_id":440,"stv_port":27046,"stv_name":"Uncletopia | Warsaw | 4 | All Maps | STV","players":null},{"server_id":53,"name":"Uncletopia | Warsaw | 5 | Stopwatch Beta","name_short":"waw-5","host":"waw-1.pl.uncletopia.com","port":27055,"enabled":true,"region":"eu","cc":"pl","latitude":52.2297,"longitude":21.017532,"reserved":0,"last_update":"0001-01-01T00:00:00Z","name_a2s":"Uncletopia | Warsaw | 5 | Stopwatch Beta","protocol":17,"map":"pl_swiftwater_final1","folder":"tf","game":"Team Fortress","app_id":440,"player_count":0,"max_players":24,"Bots":0,"server_type":"Dedicated","server_os":"Linux","password":true,"vac":true,"version":"7742253","steam_id":85568392925397854,"keywords":["nocrits","nodmgspread","payload","uncletopia"],"game_id":440,"stv_port":27056,"stv_name":"Uncletopia | Warsaw | 5 | Stopwatch Beta | STV","players":null},{"server_id":54,"name":"Uncletopia | Warsaw | 6 | Community","name_short":"waw-6","host":"waw-1.pl.uncletopia.com","port":27065,"enabled":true,"region":"eu","cc":"pl","latitude":52.2297,"longitude":21.017532,"reserved":0,"last_update":"0001-01-01T00:00:00Z","name_a2s":"Uncletopia | Warsaw | 6 | Community","protocol":17,"map":"koth_highpass","folder":"tf","game":"Team Fortress","app_id":440,"player_count":0,"max_players":24,"Bots":0,"server_type":"Dedicated","server_os":"Linux","password":true,"vac":true,"version":"7742253","steam_id":85568392925397856,"keywords":["cp","nocrits","nodmgspread","uncletopia"],"game_id":440,"stv_port":27066,"stv_name":"Uncletopia | Warsaw | 6 | Community | STV","players":null}]}