{"status":true,"message":"","result":[{"server_id":9,"name":"Uncletopia | Atlanta | 1 | All Maps","name_short":"atl-1","host":"atl-1.us.uncletopia.com","port":27015,"enabled":true,"region":"us-east","cc":"us","latitude":33.753746,"longitude":-84.38633,"reserved":0,"last_update":"0001-01-01T00:00:00Z","name_a2s":"Uncletopia | Atlanta | 1 | All Maps","protocol":17,"map":"pl_upward","folder":"tf","game":"Team Fortress","app_id":440,"player_count":0,"max_players":24,"Bots":0,"server_type":"Dedicated","server_os":"Linux","password":true,"vac":true,"version":"7932396","steam_id":85568392924469982,"keywords":["nocrits","nodmgspread","payload","uncletopia"],"game_id":440,"stv_port":27016,"stv_name":"Uncletopia | Atlanta | 1 | All Maps | STV","players":null},{"server_id":104,"name":"Uncletopia | Atlanta | 2 | All Maps","name_short":"atl-2","host":"atl-1.us.uncletopia.com","port":27025,"enabled":true,"region":"us-east","cc":"us","latitude":33.753746,"longitude":-84.38633,"reserved":0,"last_update":"0001-01-01T00:00:00Z","name_a2s":"Uncletopia | Atlanta | 2 | All Maps","protocol":17,"map":"cp_process_final","folder":"tf","game":"Team Fortress","app_id":440,"player_count":0,"max_players":24,"Bots":0,"server_type":"Dedicated","server_os":"Linux","password":true,"vac":true,"version":"7932396","steam_id":85568392924469983,"keywords":["cp","nocrits","nodmgspread","uncletopia"],"game_id":440,"stv_port":27026,"stv_name":"Uncletopia | Atlanta | 2 | All Maps | STV","players":null},{"server_id":400,"name":"Uncletopia | Atlanta | 3 | Community","name_short":"atl-3","host":"atl-1.us.uncletopia.com","port":27035,"enabled":true,"region":"us-east","cc":"us","latitude":33.753746,"longitude":-84.38633,"reserved":0,"last_update":"0001-01-01T00:00:00Z","name_a2s":"Uncletopia | Atlanta | 3 | Community","protocol":17,"map":"pl_borneo","folder":"tf","game":"Team Fortress","app_id":440,"player_count":0,"max_players":24,"Bots":0,"server_type":"Dedicated","server_os":"Linux","password":true,"vac":true,"version":"7932396","steam_id":85568392924515187,"keywords":["nocrits","nodmgspread","payload","uncletopia"],"game_id":440,"stv_port":27036,"stv_name":"Uncletopia | Atlanta | 3 | Community | STV","players":null},{"server_id":401,"name":"Uncletopia | Atlanta | 4 | No Payload","name_short":"atl-4","host":"atl-1.us.uncletopia.com","port":27045,"enabled":true,"region":"us-east","cc":"us","latitude":33.753746,"longitude":-84.38633,"reserved":0,"last_update":"0001-01-01T00:00:00Z","name_a2s":"","protocol":0,"map":"","folder":"","game":"","app_id":0,"player_count":0,"max_players":0,"Bots":0,"server_type":"","server_os":"","password":false,"vac":false,"version":"","steam_id":0,"keywords":null,"game_id":0,"stv_port":0,"stv_name":"","players":null},{"server_id":2,"name":"Uncletopia | Chicago | 1 | All Maps","name_short":"chi-1","host":"chi-1.us.uncletopia.com","port":27015,"enabled":true,"region":"us-central","cc":"us","latitude":41.881832,"longitude":-87.62318,"reserved":0,"last_update":"0001-01-01T00:00:00Z","name_a2s":"Uncletopia | Chicago | 1 | All Maps","protocol":17,"map":"pl_badwater","folder":"tf","game":"Team Fortress","app_id":440,"player_count":22,"max_players":24,"Bots":0,"server_type":"Dedicated","server_os":"Linux","password":true,"vac":true,"version":"7932396","steam_id":85568392924469984,"keywords":["nocrits","nodmgspread","payload","uncletopia"],"game_id":440,"stv_port":27016,"stv_name":"Uncletopia | Chicago | 1 | All Maps | STV","players":[{"user_id":158,"name":"Doubting Dave","steam_id":76561198066410749,"connected_time":506000000000,"state":"active","ping":74},{"user_id":157,"name":"weed wizard","steam_id":76561198121427519,"connected_time":659000000000,"state":"active","ping":105},{"user_id":130,"name":"(254)-879-2479","steam_id":76561198035161555,"connected_time":2133000000000,"state":"active","ping":60},{"user_id":123,"name":"Totally not CIA","steam_id":76561198237827742,"connected_time":2303000000000,"state":"active","ping":60},{"user_id":143,"name":"jooby","steam_id":76561198131065492,"connected_time":1802000000000,"state":"active","ping":69},{"user_id":152,"name":"Dunkin' Ponuts","steam_id":76561198082382465,"connected_time":801000000000,"state":"active","ping":73},{"user_id":105,"name":"anna","steam_id":76561199100831175,"connected_time":3614000000000,"state":"active","ping":63},{"user_id":109,"name":"Zorlovo","steam_id":76561198006443283,"connected_time":3376000000000,"state":"active","ping":97},{"user_id":124,"name":"Rodgedan","steam_id":76561198226236524,"connected_time":2238000000000,"state":"active","ping":78},{"user_id":163,"name":"tempo","steam_id":76561198081692814,"connected_time":81000000000,"state":"active","ping":135},{"user_id":155,"name":"weed lesbian","steam_id":76561198042263805,"connected_time":687000000000,"state":"active","ping":85},{"user_id":160,"name":"Five","steam_id":76561198026640473,"connected_time":442000000000,"state":"active","ping":60},{"user_id":128,"name":"HellaCopter","steam_id":76561198062313698,"connected_time":2215000000000,"state":"active","ping":97},{"user_id":90,"name":"Drapph","steam_id":76561199384213314,"connected_time":5559000000000,"state":"active","ping":60},{"user_id":85,"name":"Chiaki Nanami","steam_id":76561198164782653,"connected_time":6145000000000,"state":"active","ping":62},{"user_id":148,"name":"Stan","steam_id":76561199057962816,"connected_time":1501000000000,"state":"active","ping":60},{"user_id":156,"name":"soupy","steam_id":76561197974283797,"connected_time":686000000000,"state":"active","ping":46},{"user_id":132,"name":"xombi","steam_id":76561198043896691,"connected_time":2116000000000,"state":"active","ping":47},{"user_id":150,"name":"Stranger in a Strange Land","steam_id":76561198049843671,"connected_time":1205000000000,"state":"active","ping":59},{"user_id":161,"name":"Puppeteer","steam_id":76561198159928108,"connected_time":412000000000,"state":"active","ping":97},{"user_id":134,"name":"dana white","steam_id":76561198117492220,"connected_time":2094000000000,"state":"active","ping":74},{"user_id":151,"name":"orgasmo","steam_id":76561198047355245,"connected_time":1022000000000,"state":"active","ping":60}]},{"server_id":106,"name":"Uncletopia | Chicago | 2 | All Maps","name_short":"chi-2","host":"chi-1.us.uncletopia.com","port":27025,"enabled":true,"region":"us-central","cc":"us","latitude":41.881832,"longitude":-87.62318,"reserved":0,"last_update":"0001-01-01T00:00:00Z","name_a2s":"Uncletopia | Chicago | 2 | All Maps","protocol":17,"map":"pl_upward","folder":"tf","game":"Team Fortress","app_id":440,"player_count":0,"max_players":24,"Bots":0,"server_type":"Dedicated","server_os":"Linux","password":true,"vac":true,"version":"7932396","steam_id":85568392924469985,"keywords":["nocrits","nodmgspread","payload","uncletopia"],"game_id":440,"stv_port":27026,"stv_name":"Uncletopia | Chicago | 2 | All Maps | STV","players":null},{"server_id":402,"name":"Uncletopia | Chicago | 3 | All Maps","name_short":"chi-3","host":"chi-1.us.uncletopia.com","port":27035,"enabled":true,"region":"us-central","cc":"us","latitude":41.881832,"longitude":-87.62318,"reserved":0,"last_update":"0001-01-01T00:00:00Z","name_a2s":"Uncletopia | Chicago | 3 | All Maps","protocol":17,"map":"pl_swiftwater_final1","folder":"tf","game":"Team Fortress","app_id":440,"player_count":0,"max_players":24,"Bots":0,"server_type":"Dedicated","server_os":"Linux","password":true,"vac":true,"version":"7932396","steam_id":85568392924515191,"keywords":["nocrits","nodmgspread","payload","uncletopia"],"game_id":440,"stv_port":27036,"stv_name":"Uncletopia | Chicago | 3 | All Maps | STV","players":null},{"server_id":403,"name":"Uncletopia | Chicago | 4 | All Maps","name_short":"chi-4","host":"chi-1.us.uncletopia.com","port":27045,"enabled":true,"region":"us-central","cc":"us","latitude":41.881832,"longitude":-87.62318,"reserved":0,"last_update":"0001-01-01T00:00:00Z","name_a2s":"Uncletopia | Chicago | 4 | All Maps","protocol":17,"map":"koth_lakeside_final","folder":"tf","game":"Team Fortress","app_id":440,"player_count":23,"max_players":24,"Bots":0,"server_type":"Dedicated","server_os":"Linux","password":true,"vac":true,"version":"7932396","steam_id":85568392924515193,"keywords":["cp","nocrits","nodmgspread","uncletopia"],"game_id":440,"stv_port":27046,"stv_name":"Uncletopia | Chicago | 4 | All Maps | STV","players":[{"user_id":3,"name":"Grassman (Cc)","steam_id":76561198026488532,"connected_time":10579000000000,"state":"active","ping":90},{"user_id":141,"name":"NlmbKai","steam_id":76561198294720075,"connected_time":576000000000,"state":"active","ping":108},{"user_id":114,"name":"Mario (season finale arc)","steam_id":76561198123454475,"connected_time":2108000000000,"state":"active","ping":75},{"user_id":123,"name":"mashallah","steam_id":76561198075111427,"connected_time":1819000000000,"state":"active","ping":70},{"user_id":7,"name":"postgres","steam_id":76561198011204750,"connected_time":10569000000000,"state":"active","ping":79},{"user_id":124,"name":"Aireoh","steam_id":76561198097178603,"connected_time":1818000000000,"state":"active","ping":60},{"user_id":110,"name":"Vivi The VVitch","steam_id":76561198199110998,"connected_time":2712000000000,"state":"active","ping":155},{"user_id":140,"name":"Cosmic sR","steam_id":76561198081738675,"connected_time":653000000000,"state":"active","ping":85},{"user_id":46,"name":"Doctor Bad Dragon","steam_id":76561198058773212,"connected_time":8546000000000,"state":"active","ping":93},{"user_id":101,"name":"wicc","steam_id":76561198893915644,"connected_time":3734000000000,"state":"active","ping":158},{"user_id":143,"name":"Jive Soul Bro","steam_id":76561198036488006,"connected_time":140000000000,"state":"active","ping":59},{"user_id":118,"name":"Bearingtonn","steam_id":76561198338949704,"connected_time":2052000000000,"state":"active","ping":71},{"user_id":102,"name":"gabi","steam_id":76561198145652139,"connected_time":3713000000000,"state":"active","ping":167},{"user_id":119,"name":"Mr.Deer","steam_id":76561198967106276,"connected_time":2029000000000,"state":"active","ping":105},{"user_id":130,"name":"Boo! Boo I Say!","steam_id":76561198272427405,"connected_time":1336000000000,"state":"active","ping":81},{"user_id":129,"name":"Lumi","steam_id":76561198089978036,"connected_time":1442000000000,"state":"active","ping":69},{"user_id":96,"name":"ZBaldTop","steam_id":76561199396318132,"connected_time":4148000000000,"state":"active","ping":67},{"user_id":131,"name":"Stupid Monkey =3","steam_id":76561198024580166,"connected_time":1299000000000,"state":"active","ping":104},{"user_id":142,"name":"Sychke","steam_id":76561198067144055,"connected_time":512000000000,"state":"active","ping":45},{"user_id":133,"name":"Tired-Out Tibet-Trout","steam_id":76561198118082897,"connected_time":1253000000000,"state":"active","ping":90},{"user_id":136,"name":"YOUNG UPGRADE","steam_id":76561198035474725,"connected_time":1050000000000,"state":"active","ping":74},{"user_id":137,"name":"slashproc","steam_id":76561198035307579,"connected_time":896000000000,"state":"active","ping":64},{"user_id":138,"name":"Coolblue","steam_id":76561198016642724,"connected_time":883000000000,"state":"active","ping":97}]},{"server_id":36,"name":"Uncletopia | Chicago | 5 | All Maps","name_short":"chi-5","host":"chi-2.us.uncletopia.com","port":27015,"enabled":true,"region":"us-central","cc":"us","latitude":41.881832,"longitude":-87.62318,"reserved":0,"last_update":"0001-01-01T00:00:00Z","name_a2s":"Uncletopia | Chicago | 5 | All Maps","protocol":17,"map":"pl_badwater","folder":"tf","game":"Team Fortress","app_id":440,"player_count":12,"max_players":24,"Bots":0,"server_type":"Dedicated","server_os":"Linux","password":true,"vac":true,"version":"7932396","steam_id":85568392924866362,"keywords":["nocrits","nodmgspread","payload","uncletopia"],"game_id":440,"stv_port":27016,"stv_name":"Uncletopia | Chicago | 5 | All Maps | STV","players":[{"user_id":127,"name":"4 for $4 Meal Deal","steam_id":76561198044362988,"connected_time":392000000000,"state":"active","ping":45},{"user_id":120,"name":"Toastee","steam_id":76561198085410969,"connected_time":994000000000,"state":"active","ping":49},{"user_id":81,"name":"Yoshimelon","steam_id":76561198253054325,"connected_time":4903000000000,"state":"active","ping":60},{"user_id":129,"name":"creepycrawler","steam_id":76561198352016831,"connected_time":180000000000,"state":"active","ping":60},{"user_id":113,"name":"Okesska","steam_id":76561198065656022,"connected_time":1718000000000,"state":"active","ping":63},{"user_id":126,"name":"reii","steam_id":76561198134442912,"connected_time":536000000000,"state":"active","ping":73},{"user_id":118,"name":"i need cock goku","steam_id":76561198154449875,"connected_time":1070000000000,"state":"active","ping":116},{"user_id":125,"name":"Cyrus","steam_id":76561197972319580,"connected_time":629000000000,"state":"active","ping":86},{"user_id":95,"name":"yeah right","steam_id":76561198301127098,"connected_time":3861000000000,"state":"active","ping":112},{"user_id":119,"name":"Sinovenator","steam_id":76561198079119486,"connected_time":1043000000000,"state":"active","ping":124},{"user_id":68,"name":"Evillou","steam_id":76561198010395648,"connected_time":6097000000000,"state":"active","ping":69},{"user_id":99,"name":"Elliot","steam_id":76561198052843856,"connected_time":3614000000000,"state":"active","ping":65}]},{"server_id":37,"name":"Uncletopia | Chicago | 6 | All Maps","name_short":"chi-6","host":"chi-2.us.uncletopia.com","port":27025,"enabled":true,"region":"us-central","cc":"us","latitude":41.881832,"longitude":-87.62318,"reserved":0,"last_update":"0001-01-01T00:00:00Z","name_a2s":"Uncletopia | Chicago | 6 | All Maps","protocol":17,"map":"koth_viaduct","folder":"tf","game":"Team Fortress","app_id":440,"player_count":0,"max_players":24,"Bots":0,"server_type":"Dedicated","server_os":"Linux","password":true,"vac":true,"version":"7932396","steam_id":85568392924866363,"keywords":["cp","nocrits","nodmgspread","uncletopia"],"game_id":440,"stv_port":27026,"stv_name":"Uncletopia | Chicago | 6 | All Maps | STV","players":null},{"server_id":38,"name":"Uncletopia | Chicago | 7 | Stopwatch Beta","name_short":"chi-7","host":"chi-2.us.uncletopia.com","port":27035,"enabled":true,"region":"us-central","cc":"us","latitude":41.881832,"longitude":-87.62318,"reserved":0,"last_update":"0001-01-01T00:00:00Z","name_a2s":"Uncletopia | Chicago | 7 | Stopwatch Beta","protocol":17,"map":"pl_borneo","folder":"tf","game":"Team Fortress","app_id":440,"player_count":0,"max_players":24,"Bots":0,"server_type":"Dedicated","server_os":"Linux","password":true,"vac":true,"version":"7932396","steam_id":85568392924866364,"keywords":["nocrits","nodmgspread","payload","uncletopia"],"game_id":440,"stv_port":27036,"stv_name":"Uncletopia | Chicago | 7 | Stopwatch Beta | STV","players":null},{"server_id":39,"name":"Uncletopia | Chicago | 8 | Community","name_short":"chi-8","host":"chi-2.us.uncletopia.com","port":27045,"enabled":true,"region":"us-central","cc":"us","latitude":41.881832,"longitude":-87.62318,"reserved":0,"last_update":"0001-01-01T00:00:00Z","name_a2s":"Uncletopia | Chicago | 8 | Community","protocol":17,"map":"koth_viaduct","folder":"tf","game":"Team Fortress","app_id":440,"player_count":0,"max_players":24,"Bots":0,"server_type":"Dedicated","server_os":"Linux","password":true,"vac":true,"version":"7932396","steam_id":85568392924866365,"keywords":["cp","nocrits","nodmgspread","uncletopia"],"game_id":440,"stv_port":27046,"stv_name":"Uncletopia | Chicago | 8 | Community | STV","players":null},{"server_id":8,"name":"Uncletopia | Dallas | 1 | All Maps","name_short":"dal-1","host":"dal-1.us.uncletopia.com","port":27015,"enabled":true,"region":"us-central","cc":"us","latitude":32.779167,"longitude":-96.80889,"reserved":0,"last_update":"0001-01-01T00:00:00Z","name_a2s":"Uncletopia | Dallas | 1 | All Maps","protocol":17,"map":"cp_steel","folder":"tf","game":"Team Fortress","app_id":440,"player_count":21,"max_players":24,"Bots":0,"server_type":"Dedicated","server_os":"Linux","password":true,"vac":true,"version":"7932396","steam_id":85568392924469986,"keywords":["cp","nocrits","nodmgspread","uncletopia"],"game_id":440,"stv_port":27016,"stv_name":"Uncletopia | Dallas | 1 | All Maps | STV","players":[{"user_id":136,"name":"Mokaaaa","steam_id":76561198043659301,"connected_time":357000000000,"state":"active","ping":55},{"user_id":130,"name":"basilberry","steam_id":76561198145275937,"connected_time":760000000000,"state":"active","ping":63},{"user_id":104,"name":"*‧˚kitsu ʚ♥ɞ","steam_id":76561198091741658,"connected_time":4054000000000,"state":"active","ping":60},{"user_id":141,"name":"JimPlatinum","steam_id":76561198950714198,"connected_time":167000000000,"state":"active","ping":71},{"user_id":134,"name":"Dr. Blair Chao","steam_id":76561198146027518,"connected_time":444000000000,"state":"active","ping":86},{"user_id":131,"name":"-[FF]- EnglishB0t2.9","steam_id":76561199013600280,"connected_time":646000000000,"state":"active","ping":175},{"user_id":137,"name":"Primrose","steam_id":76561198031708819,"connected_time":321000000000,"state":"active","ping":30},{"user_id":132,"name":"modmakerman23_NEO","steam_id":76561198373597160,"connected_time":632000000000,"state":"active","ping":45},{"user_id":133,"name":"aphip","steam_id":76561198084621244,"connected_time":506000000000,"state":"active","ping":78},{"user_id":138,"name":"Elixir","steam_id":76561198154415647,"connected_time":319000000000,"state":"active","ping":93},{"user_id":109,"name":"Sithayo","steam_id":76561198027950572,"connected_time":3679000000000,"state":"active","ping":84},{"user_id":76,"name":"Pancakes","steam_id":76561198097983190,"connected_time":5747000000000,"state":"active","ping":50},{"user_id":111,"name":"who ate the cheese","steam_id":76561198275408467,"connected_time":3320000000000,"state":"active","ping":51},{"user_id":112,"name":"ＣＨＡＭＰＩＯＮ","steam_id":76561198883157736,"connected_time":3230000000000,"state":"active","ping":105},{"user_id":116,"name":"8th Ward","steam_id":76561198405839882,"connected_time":3181000000000,"state":"active","ping":59},{"user_id":117,"name":"0x01FE","steam_id":76561198838881917,"connected_time":2894000000000,"state":"active","ping":62},{"user_id":140,"name":"iggybones (girl with balls)","steam_id":76561198101610291,"connected_time":204000000000,"state":"active","ping":86},{"user_id":122,"name":"MyTeamIsAzz","steam_id":76561198241921220,"connected_time":2580000000000,"state":"active","ping":89},{"user_id":24,"name":"line","steam_id":76561198086222096,"connected_time":10393000000000,"state":"active","ping":51},{"user_id":142,"name":"cypherzero","steam_id":76561199182960322,"connected_time":166000000000,"state":"active","ping":52},{"user_id":124,"name":"Femboy","steam_id":76561198199217834,"connected_time":2460000000000,"state":"active","ping":90}]},{"server_id":108,"name":"Uncletopia | Dallas | 2 | All Maps","name_short":"dal-2","host":"dal-1.us.uncletopia.com","port":27025,"enabled":true,"region":"us-central","cc":"us","latitude":32.779167,"longitude":-96.80889,"reserved":0,"last_update":"0001-01-01T00:00:00Z","name_a2s":"Uncletopia | Dallas | 2 | All Maps","protocol":17,"map":"pl_badwater","folder":"tf","game":"Team Fortress","app_id":440,"player_count":0,"max_players":24,"Bots":0,"server_type":"Dedicated","server_os":"Linux","password":true,"vac":true,"version":"7932396","steam_id":85568392924469988,"keywords":["nocrits","nodmgspread","payload","uncletopia"],"game_id":440,"stv_port":27026,"stv_name":"Uncletopia | Dallas | 2 | All Maps | STV","players":null},{"server_id":5,"name":"Uncletopia | Frankfurt | 1 | All Maps","name_short":"frk-1","host":"frk-1.de.uncletopia.com","port":27015,"enabled":true,"region":"eu","cc":"de","latitude":50.110924,"longitude":8.682127,"reserved":0,"last_update":"0001-01-01T00:00:00Z","name_a2s":"Uncletopia | Frankfurt | 1 | All Maps","protocol":17,"map":"pl_pier","folder":"tf","game":"Team Fortress","app_id":440,"player_count":20,"max_players":24,"Bots":0,"server_type":"Dedicated","server_os":"Linux","password":true,"vac":true,"version":"7932396","steam_id":85568392924469989,"keywords":["nocrits","nodmgspread","payload","uncletopia"],"game_id":440,"stv_port":27016,"stv_name":"Uncletopia | Frankfurt | 1 | All Maps | STV","players":[{"user_id":8,"name":"Nyhde","steam_id":76561198012771416,"connected_time":3839000000000,"state":"active","ping":101},{"user_id":25,"name":"Radegast the Brown","steam_id":76561198075489505,"connected_time":2976000000000,"state":"active","ping":62},{"user_id":55,"name":"red texan","steam_id":76561199193957264,"connected_time":968000000000,"state":"active","ping":65},{"user_id":56,"name":"scout red","steam_id":76561199375267377,"connected_time":954000000000,"state":"active","ping":132},{"user_id":63,"name":"Josip Broz Tito","steam_id":76561199445527020,"connected_time":76000000000,"state":"active","ping":74},{"user_id":23,"name":"Rubik Mind","steam_id":76561198295991607,"connected_time":3086000000000,"state":"active","ping":62},{"user_id":57,"name":"YOU EAT BABIES!","steam_id":76561198160830606,"connected_time":916000000000,"state":"active","ping":71},{"user_id":59,"name":"ZerCroix","steam_id":76561198199523226,"connected_time":681000000000,"state":"active","ping":54},{"user_id":58,"name":"fernandobmwm355555","steam_id":76561198086609447,"connected_time":912000000000,"state":"active","ping":58},{"user_id":36,"name":"sexbomba3131","steam_id":76561199106669309,"connected_time":1922000000000,"state":"active","ping":117},{"user_id":22,"name":"сирёжа #SaveTF2","steam_id":76561198986219460,"connected_time":3142000000000,"state":"active","ping":107},{"user_id":24,"name":"Paladin","steam_id":76561198042593027,"connected_time":3024000000000,"state":"active","ping":83},{"user_id":31,"name":"󠀡󠀡","steam_id":76561198399390201,"connected_time":2514000000000,"state":"active","ping":84},{"user_id":61,"name":"Vlada//BTS#Bolotorust","steam_id":76561199145536132,"connected_time":329000000000,"state":"active","ping":116},{"user_id":39,"name":"GuSkand","steam_id":76561198043775605,"connected_time":1771000000000,"state":"active","ping":72},{"user_id":40,"name":"yikes","steam_id":76561198078780040,"connected_time":1648000000000,"state":"active","ping":60},{"user_id":41,"name":"Fakecheems","steam_id":76561199090128542,"connected_time":1622000000000,"state":"active","ping":112},{"user_id":43,"name":"The F2P dude","steam_id":76561199405996990,"connected_time":1582000000000,"state":"active","ping":109},{"user_id":49,"name":"favela_fan","steam_id":76561198086464040,"connected_time":1324000000000,"state":"active","ping":58},{"user_id":51,"name":"hunte","steam_id":76561198063483484,"connected_time":1298000000000,"state":"active","ping":68}]},{"server_id":110,"name":"Uncletopia | Frankfurt | 2 | All Maps","name_short":"frk-2","host":"frk-1.de.uncletopia.com","port":27025,"enabled":true,"region":"eu","cc":"de","latitude":50.110924,"longitude":8.682127,"reserved":0,"last_update":"0001-01-01T00:00:00Z","name_a2s":"Uncletopia | Frankfurt | 2 | All Maps","protocol":17,"map":"pl_borneo","folder":"tf","game":"Team Fortress","app_id":440,"player_count":0,"max_players":24,"Bots":0,"server_type":"Dedicated","server_os":"Linux","password":true,"vac":true,"version":"7932396","steam_id":85568392924469990,"keywords":["nocrits","nodmgspread","payload","uncletopia"],"game_id":440,"stv_port":27026,"stv_name":"Uncletopia | Frankfurt | 2 | All Maps | STV","players":null},{"server_id":308,"name":"Uncletopia | Frankfurt | 3 | All Maps","name_short":"frk-3","host":"frk-1.de.uncletopia.com","port":27035,"enabled":true,"region":"eu","cc":"de","latitude":50.110924,"longitude":8.682127,"reserved":0,"last_update":"0001-01-01T00:00:00Z","name_a2s":"Uncletopia | Frankfurt | 3 | All Maps","protocol":17,"map":"pl_badwater","folder":"tf","game":"Team Fortress","app_id":440,"player_count":0,"max_players":24,"Bots":0,"server_type":"Dedicated","server_os":"Linux","password":true,"vac":true,"version":"7932396","steam_id":85568392924504274,"keywords":["nocrits","nodmgspread","payload","uncletopia"],"game_id":440,"stv_port":27036,"stv_name":"Uncletopia | Frankfurt | 3 | All Maps | STV","players":null},{"server_id":309,"name":"Uncletopia | Frankfurt | 4 | All Maps","name_short":"frk-4","host":"frk-1.de.uncletopia.com","port":27045,"enabled":true,"region":"eu","cc":"de","latitude":50.110924,"longitude":8.682127,"reserved":0,"last_update":"0001-01-01T00:00:00Z","name_a2s":"Uncletopia | Frankfurt | 4 | All Maps","protocol":17,"map":"cp_altitude","folder":"tf","game":"Team Fortress","app_id":440,"player_count":0,"max_players":24,"Bots":0,"server_type":"Dedicated","server_os":"Linux","password":true,"vac":true,"version":"7932396","steam_id":85568392924504275,"keywords":["cp","nocrits","nodmgspread","uncletopia"],"game_id":440,"stv_port":27046,"stv_name":"Uncletopia | Frankfurt | 4 | All Maps | STV","players":null},{"server_id":310,"name":"Uncletopia | Frankfurt | 5 | All Maps","name_short":"frk-5","host":"frk-1.de.uncletopia.com","port":27055,"enabled":true,"region":"eu","cc":"de","latitude":50.110924,"longitude":8.682127,"reserved":0,"last_update":"0001-01-01T00:00:00Z","name_a2s":"Uncletopia | Frankfurt | 5 | All Maps","protocol":17,"map":"pl_borneo","folder":"tf","game":"Team Fortress","app_id":440,"player_count":0,"max_players":24,"Bots":0,"server_type":"Dedicated","server_os":"Linux","password":true,"vac":true,"version":"7932396","steam_id":85568392924504277,"keywords":["nocrits","nodmgspread","payload","uncletopia"],"game_id":440,"stv_port":27056,"stv_name":"Uncletopia | Frankfurt | 5 | All Maps | STV","players":null},{"server_id":311,"name":"Uncletopia | Frankfurt | 6 | All Maps","name_short":"frk-6","host":"frk-1.de.uncletopia.com","port":27065,"enabled":true,"region":"eu","cc":"de","latitude":50.110924,"longitude":8.682127,"reserved":0,"last_update":"0001-01-01T00:00:00Z","name_a2s":"Uncletopia | Frankfurt | 6 | All Maps","protocol":17,"map":"koth_viaduct","folder":"tf","game":"Team Fortress","app_id":440,"player_count":0,"max_players":24,"Bots":0,"server_type":"Dedicated","server_os":"Linux","password":true,"vac":true,"version":"7932396","steam_id":85568392924504278,"keywords":["cp","nocrits","nodmgspread","uncletopia"],"game_id":440,"stv_port":27066,"stv_name":"Uncletopia | Frankfurt | 6 | All Maps | STV","players":null},{"server_id":23,"name":"Uncletopia | Frankfurt | 7 | Stopwatch Beta","name_short":"frk-7","host":"frk-1.de.uncletopia.com","port":27075,"enabled":true,"region":"eu","cc":"de","latitude":50.110924,"longitude":8.682127,"reserved":0,"last_update":"0001-01-01T00:00:00Z","name_a2s":"Uncletopia | Frankfurt | 7 | Stopwatch Beta","protocol":17,"map":"pl_snowycoast","folder":"tf","game":"Team Fortress","app_id":440,"player_count":0,"max_players":24,"Bots":0,"server_type":"Dedicated","server_os":"Linux","password":true,"vac":true,"version":"7932396","steam_id":85568392924742827,"keywords":["nocrits","nodmgspread","payload","uncletopia"],"game_id":440,"stv_port":27076,"stv_name":"Uncletopia | Frankfurt | 7 | Stopwatch Beta | STV","players":null},{"server_id":24,"name":"Uncletopia | Frankfurt | 8 | Community","name_short":"frk-8","host":"frk-1.de.uncletopia.com","port":27085,"enabled":true,"region":"eu","cc":"de","latitude":50.110924,"longitude":8.682127,"reserved":0,"last_update":"0001-01-01T00:00:00Z","name_a2s":"Uncletopia | Frankfurt | 8 | Community","protocol":17,"map":"pl_barnblitz","folder":"tf","game":"Team Fortress","app_id":440,"player_count":0,"max_players":24,"Bots":0,"server_type":"Dedicated","server_os":"Linux","password":true,"vac":true,"version":"7932396","steam_id":85568392924742828,"keywords":["nocrits","nodmgspread","payload","uncletopia"],"game_id":440,"stv_port":27086,"stv_name":"Uncletopia | Frankfurt | 8 | Community | STV","players":null},{"server_id":202,"name":"Uncletopia | Hong Kong | 1 | All Maps","name_short":"hgk-1","host":"hgk-1.hk.uncletopia.com","port":27015,"enabled":true,"region":"asia","cc":"hk","latitude":22.302711,"longitude":114.177216,"reserved":0,"last_update":"0001-01-01T00:00:00Z","name_a2s":"Uncletopia | Hong Kong | 1 | All Maps","protocol":17,"map":"koth_highpass","folder":"tf","game":"Team Fortress","app_id":440,"player_count":1,"max_players":24,"Bots":0,"server_type":"Dedicated","server_os":"Linux","password":true,"vac":true,"version":"7932396","steam_id":85568392924494504,"keywords":["cp","nocrits","nodmgspread","uncletopia"],"game_id":440,"stv_port":27016,"stv_name":"Uncletopia | Hong Kong | 1 | All Maps | STV","players":[{"user_id":16,"name":"screaming sniper","steam_id":76561199085568674,"connected_time":1657000000000,"state":"active","ping":66}]},{"server_id":1,"name":"Uncletopia | Los Angeles | 1 | All Maps","name_short":"lax-1","host":"lax-1.us.uncletopia.com","port":27015,"enabled":true,"region":"us-west","cc":"us","latitude":33.94279,"longitude":-118.41004,"reserved":0,"last_update":"0001-01-01T00:00:00Z","name_a2s":"Uncletopia | Los Angeles | 1 | All Maps","protocol":17,"map":"cp_dustbowl","folder":"tf","game":"Team Fortress","app_id":440,"player_count":0,"max_players":24,"Bots":0,"server_type":"Dedicated","server_os":"Linux","password":true,"vac":true,"version":"7932396","steam_id":85568392924469991,"keywords":["cp","nocrits","nodmgspread","uncletopia"],"game_id":440,"stv_port":27016,"stv_name":"Uncletopia | Los Angeles | 1 | All Maps | STV","players":null},{"server_id":112,"name":"Uncletopia | Los Angeles | 2 | All Maps","name_short":"lax-2","host":"lax-1.us.uncletopia.com","port":27025,"enabled":true,"region":"us-west","cc":"us","latitude":33.94279,"longitude":-118.41004,"reserved":0,"last_update":"0001-01-01T00:00:00Z","name_a2s":"Uncletopia | Los Angeles | 2 | All Maps","protocol":17,"map":"cp_mountainlab","folder":"tf","game":"Team Fortress","app_id":440,"player_count":0,"max_players":24,"Bots":0,"server_type":"Dedicated","server_os":"Linux","password":true,"vac":true,"version":"7932396","steam_id":85568392924469992,"keywords":["cp","nocrits","nodmgspread","uncletopia"],"game_id":440,"stv_port":27026,"stv_name":"Uncletopia | Los Angeles | 2 | All Maps | STV","players":null},{"server_id":324,"name":"Uncletopia | Los Angeles | 3 | All Maps","name_short":"lax-3","host":"lax-1.us.uncletopia.com","port":27035,"enabled":true,"region":"us-west","cc":"us","latitude":33.94279,"longitude":-118.41004,"reserved":0,"last_update":"0001-01-01T00:00:00Z","name_a2s":"Uncletopia | Los Angeles | 3 | All Maps","protocol":17,"map":"koth_highpass","folder":"tf","game":"Team Fortress","app_id":440,"player_count":0,"max_players":24,"Bots":0,"server_type":"Dedicated","server_os":"Linux","password":true,"vac":true,"version":"7932396","steam_id":85568392924510198,"keywords":["cp","nocrits","nodmgspread","uncletopia"],"game_id":440,"stv_port":27036,"stv_name":"Uncletopia | Los Angeles | 3 | All Maps | STV","players":null},{"server_id":25,"name":"Uncletopia | Los Angeles | 4 | Stopwatch Beta","name_short":"lax-4","host":"lax-1.us.uncletopia.com","port":27045,"enabled":true,"region":"us-west","cc":"us","latitude":33.94279,"longitude":-118.41004,"reserved":0,"last_update":"0001-01-01T00:00:00Z","name_a2s":"Uncletopia | Los Angeles | 4 | Stopwatch Beta","protocol":17,"map":"koth_highpass","folder":"tf","game":"Team Fortress","app_id":440,"player_count":0,"max_players":24,"Bots":0,"server_type":"Dedicated","server_os":"Linux","password":true,"vac":true,"version":"7932396","steam_id":85568392924510199,"keywords":["cp","nocrits","nodmgspread","uncletopia"],"game_id":440,"stv_port":27046,"stv_name":"Uncletopia | Los Angeles | 4 | Stopwatch Beta | STV","players":null},{"server_id":11,"name":"Uncletopia | London | 1 | All Maps","name_short":"lon-1","host":"lon-1.uk.uncletopia.com","port":27015,"enabled":true,"region":"eu","cc":"gb","latitude":51.509865,"longitude":-0.118092,"reserved":0,"last_update":"0001-01-01T00:00:00Z","name_a2s":"Uncletopia | London | 1 | All Maps","protocol":17,"map":"koth_viaduct","folder":"tf","game":"Team Fortress","app_id":440,"player_count":14,"max_players":24,"Bots":0,"server_type":"Dedicated","server_os":"Linux","password":true,"vac":true,"version":"7932396","steam_id":85568392924367362,"keywords":["cp","nocrits","nodmgspread","uncletopia"],"game_id":440,"stv_port":27016,"stv_name":"Uncletopia | London | 1 | All Maps | STV","players":[{"user_id":107,"name":"dakotztda","steam_id":76561198044189114,"connected_time":1915000000000,"state":"active","ping":61},{"user_id":119,"name":"Vezage","steam_id":76561198064916164,"connected_time":975000000000,"state":"active","ping":67},{"user_id":117,"name":"Borat","steam_id":76561198122226417,"connected_time":1145000000000,"state":"active","ping":41},{"user_id":98,"name":"assistance bitte","steam_id":76561198180361759,"connected_time":2295000000000,"state":"active","ping":45},{"user_id":124,"name":"RedFog","steam_id":76561198284713081,"connected_time":146000000000,"state":"active","ping":46},{"user_id":121,"name":"SunZi","steam_id":76561198139243535,"connected_time":840000000000,"state":"active","ping":74},{"user_id":92,"name":"Edling","steam_id":76561199111565357,"connected_time":3006000000000,"state":"active","ping":91},{"user_id":109,"name":"Filin_Fill","steam_id":76561198044037139,"connected_time":1636000000000,"state":"active","ping":93},{"user_id":120,"name":"Monsieur Patate","steam_id":76561198073950004,"connected_time":968000000000,"state":"active","ping":42},{"user_id":125,"name":"dmEngineer_tf2 #SaveTF2","steam_id":76561199388956338,"connected_time":59000000000,"state":"active","ping":96},{"user_id":113,"name":"Flying skyhigh","steam_id":76561198372971096,"connected_time":1523000000000,"state":"active","ping":83},{"user_id":90,"name":"goosu","steam_id":76561198116986693,"connected_time":3118000000000,"state":"active","ping":91},{"user_id":114,"name":"Diogenes of Swagus","steam_id":76561198006293325,"connected_time":1520000000000,"state":"active","ping":99},{"user_id":105,"name":"r06u3","steam_id":76561198254099253,"connected_time":2012000000000,"state":"active","ping":180}]},{"server_id":114,"name":"Uncletopia | London | 2 | All Maps","name_short":"lon-2","host":"lon-1.uk.uncletopia.com","port":27025,"enabled":true,"region":"eu","cc":"gb","latitude":51.509865,"longitude":-0.118092,"reserved":0,"last_update":"0001-01-01T00:00:00Z","name_a2s":"Uncletopia | London | 2 | All Maps","protocol":17,"map":"koth_highpass","folder":"tf","game":"Team Fortress","app_id":440,"player_count":0,"max_players":24,"Bots":0,"server_type":"Dedicated","server_os":"Linux","password":true,"vac":true,"version":"7932396","steam_id":85568392924470941,"keywords":["cp","nocrits","nodmgspread","uncletopia"],"game_id":440,"stv_port":27026,"stv_name":"Uncletopia | London | 2 | All Maps | STV","players":null},{"server_id":320,"name":"Uncletopia | London | 3 | All Maps","name_short":"lon-3","host":"lon-1.uk.uncletopia.com","port":27035,"enabled":true,"region":"eu","cc":"gb","latitude":51.509865,"longitude":-0.118092,"reserved":0,"last_update":"0001-01-01T00:00:00Z","name_a2s":"Uncletopia | London | 3 | All Maps","protocol":17,"map":"cp_altitude","folder":"tf","game":"Team Fortress","app_id":440,"player_count":0,"max_players":24,"Bots":0,"server_type":"Dedicated","server_os":"Linux","password":true,"vac":true,"version":"7932396","steam_id":85568392924510192,"keywords":["cp","nocrits","nodmgspread","uncletopia"],"game_id":440,"stv_port":27036,"stv_name":"Uncletopia | London | 3 | All Maps | STV","players":null},{"server_id":321,"name":"Uncletopia | London | 4 | All Maps","name_short":"lon-4","host":"lon-1.uk.uncletopia.com","port":27045,"enabled":true,"region":"eu","cc":"gb","latitude":51.509865,"longitude":-0.118092,"reserved":0,"last_update":"0001-01-01T00:00:00Z","name_a2s":"Uncletopia | London | 4 | All Maps","protocol":17,"map":"cp_snakewater_final1","folder":"tf","game":"Team Fortress","app_id":440,"player_count":0,"max_players":24,"Bots":0,"server_type":"Dedicated","server_os":"Linux","password":true,"vac":true,"version":"7932396","steam_id":85568392924510193,"keywords":["cp","nocrits","nodmgspread","uncletopia"],"game_id":440,"stv_port":27046,"stv_name":"Uncletopia | London | 4 | All Maps | STV","players":null},{"server_id":21,"name":"Uncletopia | London | 5 | All Maps","name_short":"lon-5","host":"lon-1.uk.uncletopia.com","port":27055,"enabled":true,"region":"eu","cc":"gb","latitude":51.509865,"longitude":-0.118092,"reserved":0,"last_update":"0001-01-01T00:00:00Z","name_a2s":"Uncletopia | London | 5 | All Maps","protocol":17,"map":"pl_borneo","folder":"tf","game":"Team Fortress","app_id":440,"player_count":0,"max_players":24,"Bots":0,"server_type":"Dedicated","server_os":"Linux","password":true,"vac":true,"version":"7932396","steam_id":85568392924742829,"keywords":["nocrits","nodmgspread","payload","uncletopia"],"game_id":440,"stv_port":27056,"stv_name":"Uncletopia | London | 5 | All Maps | STV","players":null},{"server_id":22,"name":"Uncletopia | London | 6 | All Maps","name_short":"lon-6","host":"lon-1.uk.uncletopia.com","port":27065,"enabled":true,"region":"eu","cc":"gb","latitude":51.509865,"longitude":-0.118092,"reserved":0,"last_update":"0001-01-01T00:00:00Z","name_a2s":"Uncletopia | London | 6 | All Maps","protocol":17,"map":"cp_mountainlab","folder":"tf","game":"Team Fortress","app_id":440,"player_count":0,"max_players":24,"Bots":0,"server_type":"Dedicated","server_os":"Linux","password":true,"vac":true,"version":"7932396","steam_id":85568392924742830,"keywords":["cp","nocrits","nodmgspread","uncletopia"],"game_id":440,"stv_port":27066,"stv_name":"Uncletopia | London | 6 | All Maps | STV","players":null},{"server_id":40,"name":"Uncletopia | London | 7 | No Payload","name_short":"lon-7","host":"lon-1.uk.uncletopia.com","port":27075,"enabled":true,"region":"eu","cc":"gb","latitude":51.509865,"longitude":-0.118092,"reserved":0,"last_update":"0001-01-01T00:00:00Z","name_a2s":"Uncletopia | London | 7 | No Payload","protocol":17,"map":"pl_snowycoast","folder":"tf","game":"Team Fortress","app_id":440,"player_count":0,"max_players":24,"Bots":0,"server_type":"Dedicated","server_os":"Linux","password":true,"vac":true,"version":"7932396","steam_id":85568392924964314,"keywords":["nocrits","nodmgspread","payload","uncletopia"],"game_id":440,"stv_port":27076,"stv_name":"Uncletopia | London | 7 | No Payload | STV","players":null},{"server_id":41,"name":"Uncletopia | London | 8 | Community","name_short":"lon-8","host":"lon-1.uk.uncletopia.com","port":27085,"enabled":true,"region":"eu","cc":"gb","latitude":51.509865,"longitude":-0.118092,"reserved":0,"last_update":"0001-01-01T00:00:00Z","name_a2s":"Uncletopia | London | 8 | Community","protocol":17,"map":"pl_barnblitz","folder":"tf","game":"Team Fortress","app_id":440,"player_count":0,"max_players":24,"Bots":0,"server_type":"Dedicated","server_os":"Linux","password":true,"vac":true,"version":"7932396","steam_id":85568392924964315,"keywords":["nocrits","nodmgspread","payload","uncletopia"],"game_id":440,"stv_port":27086,"stv_name":"Uncletopia | London | 8 | Community | STV","players":null},{"server_id":300,"name":"Uncletopia | Montréal | 1 | All Maps","name_short":"mtl-1","host":"mtl-1.ca.uncletopia.com","port":27015,"enabled":true,"region":"us-east","cc":"ca","latitude":45.50889,"longitude":-73.56167,"reserved":0,"last_update":"0001-01-01T00:00:00Z","name_a2s":"Uncletopia | Montréal | 1 | All Maps","protocol":17,"map":"cp_altitude","folder":"tf","game":"Team Fortress","app_id":440,"player_count":0,"max_players":24,"Bots":0,"server_type":"Dedicated","server_os":"Linux","password":true,"vac":true,"version":"7932396","steam_id":85568392924500087,"keywords":["cp","nocrits","nodmgspread","uncletopia"],"game_id":440,"stv_port":27016,"stv_name":"Uncletopia | Montréal | 1 | All Maps | STV","players":null},{"server_id":301,"name":"Uncletopia | Montréal | 2 | All Maps","name_short":"mtl-2","host":"mtl-1.ca.uncletopia.com","port":27025,"enabled":true,"region":"us-east","cc":"ca","latitude":45.50889,"longitude":-73.56167,"reserved":0,"last_update":"0001-01-01T00:00:00Z","name_a2s":"Uncletopia | Montréal | 2 | All Maps","protocol":17,"map":"koth_lakeside_final","folder":"tf","game":"Team Fortress","app_id":440,"player_count":0,"max_players":24,"Bots":0,"server_type":"Dedicated","server_os":"Linux","password":true,"vac":true,"version":"7932396","steam_id":85568392924500088,"keywords":["cp","nocrits","nodmgspread","uncletopia"],"game_id":440,"stv_port":27026,"stv_name":"Uncletopia | Montréal | 2 | All Maps | STV","players":null},{"server_id":302,"name":"Uncletopia | Montréal | 3 | All Maps","name_short":"mtl-3","host":"mtl-1.ca.uncletopia.com","port":27035,"enabled":true,"region":"us-east","cc":"ca","latitude":45.50889,"longitude":-73.56167,"reserved":0,"last_update":"0001-01-01T00:00:00Z","name_a2s":"Uncletopia | Montréal | 3 | All Maps","protocol":17,"map":"cp_process_final","folder":"tf","game":"Team Fortress","app_id":440,"player_count":0,"max_players":24,"Bots":0,"server_type":"Dedicated","server_os":"Linux","password":true,"vac":true,"version":"7932396","steam_id":85568392924500089,"keywords":["cp","nocrits","nodmgspread","uncletopia"],"game_id":440,"stv_port":27036,"stv_name":"Uncletopia | Montréal | 3 | All Maps | STV","players":null},{"server_id":303,"name":"Uncletopia | Montréal | 4 | No Payload","name_short":"mtl-4","host":"mtl-1.ca.uncletopia.com","port":27045,"enabled":true,"region":"us-east","cc":"ca","latitude":45.50889,"longitude":-73.56167,"reserved":0,"last_update":"0001-01-01T00:00:00Z","name_a2s":"Uncletopia | Montréal | 4 | No Payload","protocol":17,"map":"cp_snakewater_final1","folder":"tf","game":"Team Fortress","app_id":440,"player_count":0,"max_players":24,"Bots":0,"server_type":"Dedicated","server_os":"Linux","password":true,"vac":true,"version":"7932396","steam_id":85568392924500090,"keywords":["cp","nocrits","nodmgspread","uncletopia"],"game_id":440,"stv_port":27046,"stv_name":"Uncletopia | Montréal | 4 | No Payload | STV","players":null},{"server_id":13,"name":"Uncletopia | New York City | 1 | All Maps","name_short":"nyc-1","host":"nyc-1.us.uncletopia.com","port":27015,"enabled":true,"region":"us-east","cc":"us","latitude":40.73061,"longitude":-73.93524,"reserved":0,"last_update":"0001-01-01T00:00:00Z","name_a2s":"Uncletopia | New York City | 1 | All Maps","protocol":17,"map":"cp_dustbowl","folder":"tf","game":"Team Fortress","app_id":440,"player_count":0,"max_players":24,"Bots":0,"server_type":"Dedicated","server_os":"Linux","password":true,"vac":true,"version":"7932396","steam_id":85568392924469993,"keywords":["cp","nocrits","nodmgspread","uncletopia"],"game_id":440,"stv_port":27016,"stv_name":"Uncletopia | New York City | 1 | All Maps | STV","players":null},{"server_id":14,"name":"Uncletopia | New York City | 2 | All Maps","name_short":"nyc-2","host":"nyc-1.us.uncletopia.com","port":27025,"enabled":true,"region":"us-east","cc":"us","latitude":40.73061,"longitude":-73.93524,"reserved":0,"last_update":"0001-01-01T00:00:00Z","name_a2s":"Uncletopia | New York City | 2 | All Maps","protocol":17,"map":"koth_viaduct","folder":"tf","game":"Team Fortress","app_id":440,"player_count":0,"max_players":24,"Bots":0,"server_type":"Dedicated","server_os":"Linux","password":true,"vac":true,"version":"7932396","steam_id":85568392924469994,"keywords":["cp","nocrits","nodmgspread","uncletopia"],"game_id":440,"stv_port":27026,"stv_name":"Uncletopia | New York City | 2 | All Maps | STV","players":null},{"server_id":15,"name":"Uncletopia | New York City | 3 | Stopwatch Beta","name_short":"nyc-3","host":"nyc-1.us.uncletopia.com","port":27035,"enabled":true,"region":"us-east","cc":"us","latitude":40.73061,"longitude":-73.93524,"reserved":0,"last_update":"0001-01-01T00:00:00Z","name_a2s":"Uncletopia | New York City | 3 | Stopwatch Beta","protocol":17,"map":"cp_sunshine","folder":"tf","game":"Team Fortress","app_id":440,"player_count":0,"max_players":24,"Bots":0,"server_type":"Dedicated","server_os":"Linux","password":true,"vac":true,"version":"7932396","steam_id":85568392924742820,"keywords":["cp","nocrits","nodmgspread","uncletopia"],"game_id":440,"stv_port":27036,"stv_name":"Uncletopia | New York City | 3 | Stopwatch Beta | STV","players":null},{"server_id":16,"name":"Uncletopia | New York City | 4 | Community","name_short":"nyc-4","host":"nyc-1.us.uncletopia.com","port":27045,"enabled":true,"region":"us-east","cc":"us","latitude":40.73061,"longitude":-73.93524,"reserved":0,"last_update":"0001-01-01T00:00:00Z","name_a2s":"Uncletopia | New York City | 4 | Community","protocol":17,"map":"workshop/cp_snowbase_b18.ugc2081770490","folder":"tf","game":"Team Fortress","app_id":440,"player_count":0,"max_players":24,"Bots":0,"server_type":"Dedicated","server_os":"Linux","password":true,"vac":true,"version":"7932396","steam_id":85568392924742821,"keywords":["cp","nocrits","nodmgspread","uncletopia"],"game_id":440,"stv_port":27046,"stv_name":"Uncletopia | New York City | 4 | Community | STV","players":null},{"server_id":142,"name":"Uncletopia | São Paulo | 1 | All Maps","name_short":"sao-1","host":"sao-1.br.uncletopia.com","port":27015,"enabled":true,"region":"sa","cc":"br","latitude":-23.533773,"longitude":-46.62529,"reserved":0,"last_update":"0001-01-01T00:00:00Z","name_a2s":"Uncletopia | São Paulo | 1 | All Maps","protocol":17,"map":"cp_mountainlab","folder":"tf","game":"Team Fortress","app_id":440,"player_count":0,"max_players":24,"Bots":0,"server_type":"Dedicated","server_os":"Linux","password":true,"vac":true,"version":"7932396","steam_id":85568392924469996,"keywords":["cp","nocrits","nodmgspread","uncletopia"],"game_id":440,"stv_port":27016,"stv_name":"Uncletopia | São Paulo | 1 | All Maps | STV","players":null},{"server_id":143,"name":"Uncletopia | São Paulo | 2 | All Maps","name_short":"sao-2","host":"sao-2.br.uncletopia.com","port":27015,"enabled":true,"region":"sa","cc":"br","latitude":-23.533773,"longitude":-46.62529,"reserved":0,"last_update":"0001-01-01T00:00:00Z","name_a2s":"Uncletopia | São Paulo | 2 | All Maps","protocol":17,"map":"pl_swiftwater_final1","folder":"tf","game":"Team Fortress","app_id":440,"player_count":0,"max_players":24,"Bots":0,"server_type":"Dedicated","server_os":"Linux","password":true,"vac":true,"version":"7932396","steam_id":85568392924485349,"keywords":["nocrits","nodmgspread","payload","uncletopia"],"game_id":440,"stv_port":27016,"stv_name":"Uncletopia | São Paulo | 2 | All Maps | STV","players":null},{"server_id":7,"name":"Uncletopia | Seattle | 1 | All Maps","name_short":"sea-1","host":"sea-1.us.uncletopia.com","port":27015,"enabled":true,"region":"us-west","cc":"us","latitude":47.608013,"longitude":-122.33517,"reserved":0,"last_update":"0001-01-01T00:00:00Z","name_a2s":"Uncletopia | Seattle | 1 | All Maps","protocol":17,"map":"koth_king","folder":"tf","game":"Team Fortress","app_id":440,"player_count":24,"max_players":24,"Bots":0,"server_type":"Dedicated","server_os":"Linux","password":true,"vac":true,"version":"7932396","steam_id":85568392924469997,"keywords":["cp","nocrits","nodmgspread","uncletopia"],"game_id":440,"stv_port":27016,"stv_name":"Uncletopia | Seattle | 1 | All Maps | STV","players":[{"user_id":3,"name":"rat gets the cheese","steam_id":76561198031234032,"connected_time":10576000000000,"state":"active","ping":91},{"user_id":4,"name":"goldhed","steam_id":76561198051751133,"connected_time":10576000000000,"state":"active","ping":55},{"user_id":111,"name":"Sniff","steam_id":76561198010270922,"connected_time":3565000000000,"state":"active","ping":40},{"user_id":94,"name":":Closed.","steam_id":76561198212598967,"connected_time":5961000000000,"state":"active","ping":70},{"user_id":112,"name":"hart","steam_id":76561198046073848,"connected_time":3368000000000,"state":"active","ping":47},{"user_id":129,"name":"Enderlord99","steam_id":76561198158152954,"connected_time":1377000000000,"state":"active","ping":58},{"user_id":127,"name":"SCUD missile up your ass","steam_id":76561198066452726,"connected_time":1828000000000,"state":"active","ping":75},{"user_id":117,"name":"oil","steam_id":76561198099980149,"connected_time":2602000000000,"state":"active","ping":71},{"user_id":121,"name":"M4 Sherman","steam_id":76561198126990820,"connected_time":2298000000000,"state":"active","ping":97},{"user_id":126,"name":"prettyrico","steam_id":76561198056046104,"connected_time":1863000000000,"state":"active","ping":70},{"user_id":130,"name":"Saphie (no sandvich)","steam_id":76561198045740818,"connected_time":725000000000,"state":"active","ping":45},{"user_id":51,"name":"Doctor™","steam_id":76561198134309750,"connected_time":8816000000000,"state":"active","ping":102},{"user_id":131,"name":"如願","steam_id":76561198038486613,"connected_time":475000000000,"state":"active","ping":117},{"user_id":16,"name":"delight","steam_id":76561197980280272,"connected_time":10565000000000,"state":"active","ping":44},{"user_id":132,"name":"Envoy","steam_id":76561198170253694,"connected_time":453000000000,"state":"active","ping":60},{"user_id":135,"name":"MEGA NEGBERT","steam_id":76561198325613425,"connected_time":394000000000,"state":"active","ping":106},{"user_id":124,"name":"Ariscorech","steam_id":76561198117206414,"connected_time":2088000000000,"state":"active","ping":105},{"user_id":115,"name":"Back Scratcher Gaming","steam_id":76561198389802335,"connected_time":2690000000000,"state":"active","ping":45},{"user_id":133,"name":"CatThulhu","steam_id":76561198211620004,"connected_time":451000000000,"state":"active","ping":78},{"user_id":106,"name":"♥ President Shitfart ♥","steam_id":76561198141819053,"connected_time":4541000000000,"state":"active","ping":57},{"user_id":104,"name":"NEBULA","steam_id":76561198086878595,"connected_time":4643000000000,"state":"active","ping":75},{"user_id":134,"name":"Democracy Hamburger","steam_id":76561199019675078,"connected_time":448000000000,"state":"active","ping":99},{"user_id":128,"name":"moneymobile","steam_id":76561198066730780,"connected_time":1448000000000,"state":"active","ping":85},{"user_id":107,"name":"roryisn'tfullyhere","steam_id":76561198065825165,"connected_time":4324000000000,"state":"active","ping":109}]},{"server_id":119,"name":"Uncletopia | Seattle | 2 | All Maps","name_short":"sea-2","host":"sea-1.us.uncletopia.com","port":27025,"enabled":true,"region":"us-west","cc":"us","latitude":47.608013,"longitude":-122.33517,"reserved":0,"last_update":"0001-01-01T00:00:00Z","name_a2s":"Uncletopia | Seattle | 2 | All Maps","protocol":17,"map":"pl_pier","folder":"tf","game":"Team Fortress","app_id":440,"player_count":3,"max_players":24,"Bots":0,"server_type":"Dedicated","server_os":"Linux","password":true,"vac":true,"version":"7932396","steam_id":85568392924469998,"keywords":["nocrits","nodmgspread","payload","uncletopia"],"game_id":440,"stv_port":27026,"stv_name":"Uncletopia | Seattle | 2 | All Maps | STV","players":[{"user_id":145,"name":"BluNight","steam_id":76561198037116567,"connected_time":208000000000,"state":"active","ping":90},{"user_id":95,"name":"Ermine","steam_id":76561198072831312,"connected_time":5362000000000,"state":"active","ping":105},{"user_id":48,"name":"Cheesed Burger","steam_id":76561198066425198,"connected_time":9177000000000,"state":"active","ping":74}]},{"server_id":406,"name":"Uncletopia | Seattle | 3 | Stopwatch Beta","name_short":"sea-3","host":"sea-1.us.uncletopia.com","port":27035,"enabled":true,"region":"us-west","cc":"us","latitude":47.608013,"longitude":-122.33517,"reserved":0,"last_update":"0001-01-01T00:00:00Z","name_a2s":"Uncletopia | Seattle | 3 | Stopwatch Beta","protocol":17,"map":"cp_mountainlab","folder":"tf","game":"Team Fortress","app_id":440,"player_count":0,"max_players":24,"Bots":0,"server_type":"Dedicated","server_os":"Linux","password":true,"vac":true,"version":"7932396","steam_id":85568392924515217,"keywords":["cp","nocrits","nodmgspread","uncletopia"],"game_id":440,"stv_port":27036,"stv_name":"Uncletopia | Seattle | 3 | Stopwatch Beta | STV","players":null},{"server_id":17,"name":"Uncletopia | San Francisco | 1 | All Maps","name_short":"sfo-1","host":"sfo-1.us.uncletopia.com","port":27015,"enabled":true,"region":"us-west","cc":"us","latitude":37.77397,"longitude":-122.4313,"reserved":0,"last_update":"0001-01-01T00:00:00Z","name_a2s":"Uncletopia | San Francisco | 1 | All Maps","protocol":17,"map":"koth_viaduct","folder":"tf","game":"Team Fortress","app_id":440,"player_count":23,"max_players":24,"Bots":0,"server_type":"Dedicated","server_os":"Linux","password":true,"vac":true,"version":"7932396","steam_id":85568392924469999,"keywords":["cp","nocrits","nodmgspread","uncletopia"],"game_id":440,"stv_port":27016,"stv_name":"Uncletopia | San Francisco | 1 | All Maps | STV","players":[{"user_id":15,"name":"Big Oz","steam_id":76561198970897660,"connected_time":9666000000000,"state":"active","ping":84},{"user_id":103,"name":"p0llux","steam_id":76561198109885142,"connected_time":2219000000000,"state":"active","ping":63},{"user_id":105,"name":"chocky","steam_id":76561198057491296,"connected_time":2156000000000,"state":"active","ping":63},{"user_id":125,"name":"Quack Kills","steam_id":76561197999237890,"connected_time":403000000000,"state":"active","ping":104},{"user_id":97,"name":"Thermo","steam_id":76561198978967412,"connected_time":2963000000000,"state":"active","ping":59},{"user_id":129,"name":"20 year osld :)","steam_id":76561198276310307,"connected_time":194000000000,"state":"active","ping":97},{"user_id":130,"name":"Frank Accardi","steam_id":76561198017275707,"connected_time":118000000000,"state":"active","ping":70},{"user_id":126,"name":"Born_In_Xixax","steam_id":76561197960464479,"connected_time":400000000000,"state":"active","ping":84},{"user_id":127,"name":"the rat","steam_id":76561198442468979,"connected_time":398000000000,"state":"active","ping":55},{"user_id":106,"name":"porksoda","steam_id":76561198021451377,"connected_time":2116000000000,"state":"active","ping":71},{"user_id":128,"name":"Naoto Shirogane","steam_id":76561199486955940,"connected_time":373000000000,"state":"active","ping":99},{"user_id":114,"name":"FaceLaces","steam_id":76561198194417725,"connected_time":1397000000000,"state":"active","ping":56},{"user_id":108,"name":"a","steam_id":76561198058079708,"connected_time":2004000000000,"state":"active","ping":110},{"user_id":80,"name":"..flop","steam_id":76561197989058876,"connected_time":4696000000000,"state":"active","ping":70},{"user_id":115,"name":"Zesty Italian","steam_id":76561198117835053,"connected_time":1300000000000,"state":"active","ping":75},{"user_id":117,"name":"sillyjack","steam_id":76561198844273999,"connected_time":754000000000,"state":"active","ping":66},{"user_id":131,"name":"toodles","steam_id":76561198127639913,"connected_time":107000000000,"state":"active","ping":59},{"user_id":119,"name":"DWSkilltonTTV","steam_id":76561197967027880,"connected_time":606000000000,"state":"active","ping":73},{"user_id":120,"name":"Thin Slice","steam_id":76561198947317095,"connected_time":600000000000,"state":"active","ping":78},{"user_id":121,"name":"AthicWraith","steam_id":76561198255018292,"connected_time":594000000000,"state":"active","ping":105},{"user_id":132,"name":"S O U N D W A V E","steam_id":76561198093417449,"connected_time":50000000000,"state":"active","ping":52},{"user_id":133,"name":"dAiLyGrInD","steam_id":76561198163531915,"connected_time":26000000000,"state":"active","ping":334},{"user_id":96,"name":"JuliaDragon","steam_id":76561198175727790,"connected_time":3023000000000,"state":"active","ping":87}]},{"server_id":18,"name":"Uncletopia | San Francisco | 2 | All Maps","name_short":"sfo-2","host":"sfo-1.us.uncletopia.com","port":27025,"enabled":true,"region":"us-west","cc":"us","latitude":37.77397,"longitude":-122.4313,"reserved":0,"last_update":"0001-01-01T00:00:00Z","name_a2s":"Uncletopia | San Francisco | 2 | All Maps","protocol":17,"map":"pl_frontier_final","folder":"tf","game":"Team Fortress","app_id":440,"player_count":10,"max_players":24,"Bots":0,"server_type":"Dedicated","server_os":"Linux","password":true,"vac":true,"version":"7932396","steam_id":85568392924470000,"keywords":["nocrits","nodmgspread","payload","uncletopia"],"game_id":440,"stv_port":27026,"stv_name":"Uncletopia | San Francisco | 2 | All Maps | STV","players":[{"user_id":135,"name":"dwarfranger17","steam_id":76561199070039363,"connected_time":1299000000000,"state":"active","ping":69},{"user_id":149,"name":"wimbles","steam_id":76561198202846495,"connected_time":149000000000,"state":"active","ping":99},{"user_id":148,"name":"Λlex","steam_id":76561198024967421,"connected_time":239000000000,"state":"active","ping":40},{"user_id":139,"name":"krazybenco (#savetf2)","steam_id":76561199251118761,"connected_time":1214000000000,"state":"active","ping":196},{"user_id":140,"name":"nic","steam_id":76561198030654668,"connected_time":1121000000000,"state":"active","ping":71},{"user_id":112,"name":"Resh Bomb!","steam_id":76561198066619792,"connected_time":3184000000000,"state":"active","ping":67},{"user_id":144,"name":"Mozz","steam_id":76561198132892873,"connected_time":452000000000,"state":"active","ping":125},{"user_id":130,"name":"nom","steam_id":76561198105374054,"connected_time":2135000000000,"state":"active","ping":65},{"user_id":146,"name":"albert jones","steam_id":76561198404271005,"connected_time":379000000000,"state":"active","ping":62},{"user_id":62,"name":"Tech Deck","steam_id":76561199070437675,"connected_time":7130000000000,"state":"active","ping":67}]},{"server_id":19,"name":"Uncletopia | San Francisco | 3 | Stopwatch Beta","name_short":"sfo-3","host":"sfo-1.us.uncletopia.com","port":27035,"enabled":true,"region":"us-west","cc":"us","latitude":37.77397,"longitude":-122.4313,"reserved":0,"last_update":"0001-01-01T00:00:00Z","name_a2s":"Uncletopia | San Francisco | 3 | Stopwatch Beta","protocol":17,"map":"koth_lakeside_final","folder":"tf","game":"Team Fortress","app_id":440,"player_count":0,"max_players":24,"Bots":0,"server_type":"Dedicated","server_os":"Linux","password":true,"vac":true,"version":"7932396","steam_id":85568392924742824,"keywords":["cp","nocrits","nodmgspread","uncletopia"],"game_id":440,"stv_port":27036,"stv_name":"Uncletopia | San Francisco | 3 | Stopwatch Beta | STV","players":null},{"server_id":20,"name":"Uncletopia | San Francisco | 4 | Community","name_short":"sfo-4","host":"sfo-1.us.uncletopia.com","port":27045,"enabled":true,"region":"us-west","cc":"us","latitude":37.77397,"longitude":-122.4313,"reserved":0,"last_update":"0001-01-01T00:00:00Z","name_a2s":"Uncletopia | San Francisco | 4 | Community","protocol":17,"map":"pl_borneo","folder":"tf","game":"Team Fortress","app_id":440,"player_count":0,"max_players":24,"Bots":0,"server_type":"Dedicated","server_os":"Linux","password":true,"vac":true,"version":"7932396","steam_id":85568392924742826,"keywords":["nocrits","nodmgspread","payload","uncletopia"],"game_id":440,"stv_port":27046,"stv_name":"Uncletopia | San Francisco | 4 | Community | STV","players":null},{"server_id":141,"name":"Uncletopia | Sydney | 1 | All Maps","name_short":"syd-1","host":"syd-1.au.uncletopia.com","port":27015,"enabled":true,"region":"au","cc":"au","latitude":-33.865143,"longitude":151.2099,"reserved":0,"last_update":"0001-01-01T00:00:00Z","name_a2s":"Uncletopia | Sydney | 1 | All Maps","protocol":17,"map":"pl_borneo","folder":"tf","game":"Team Fortress","app_id":440,"player_count":12,"max_players":24,"Bots":0,"server_type":"Dedicated","server_os":"Linux","password":true,"vac":true,"version":"7932396","steam_id":85568392924470001,"keywords":["nocrits","nodmgspread","payload","uncletopia"],"game_id":440,"stv_port":27016,"stv_name":"Uncletopia | Sydney | 1 | All Maps | STV","players":[{"user_id":175,"name":"ivan.kesina77","steam_id":76561199468002999,"connected_time":25000000000,"state":"active","ping":68},{"user_id":172,"name":"perturb (feed/seed)","steam_id":76561198085124297,"connected_time":140000000000,"state":"active","ping":59},{"user_id":153,"name":"Cozza","steam_id":76561198090069548,"connected_time":1469000000000,"state":"active","ping":71},{"user_id":159,"name":"Your Local Karen Hunter","steam_id":76561199469410668,"connected_time":1018000000000,"state":"active","ping":100},{"user_id":157,"name":"what_happy","steam_id":76561198971334734,"connected_time":1125000000000,"state":"active","ping":69},{"user_id":161,"name":"Chocolate Lightning","steam_id":76561198213958971,"connected_time":900000000000,"state":"active","ping":125},{"user_id":165,"name":"Sniper from tf2","steam_id":76561198954331625,"connected_time":591000000000,"state":"active","ping":74},{"user_id":173,"name":"HollowNaught","steam_id":76561198197382111,"connected_time":115000000000,"state":"active","ping":46},{"user_id":169,"name":"Pile of Sneed","steam_id":76561198143537391,"connected_time":307000000000,"state":"active","ping":55},{"user_id":170,"name":"BigLadBoyga","steam_id":76561198985263763,"connected_time":275000000000,"state":"active","ping":73},{"user_id":171,"name":"アリス","steam_id":76561198041318894,"connected_time":250000000000,"state":"active","ping":43},{"user_id":116,"name":"juusha","steam_id":76561198911542330,"connected_time":3821000000000,"state":"active","ping":81}]},{"server_id":123,"name":"Uncletopia | Sydney | 2 | All Maps","name_short":"syd-2","host":"syd-1.au.uncletopia.com","port":27025,"enabled":true,"region":"au","cc":"au","latitude":-33.865143,"longitude":151.2099,"reserved":0,"last_update":"0001-01-01T00:00:00Z","name_a2s":"Uncletopia | Sydney | 2 | All Maps","protocol":17,"map":"koth_lakeside_final","folder":"tf","game":"Team Fortress","app_id":440,"player_count":0,"max_players":24,"Bots":0,"server_type":"Dedicated","server_os":"Linux","password":true,"vac":true,"version":"7932396","steam_id":85568392924470002,"keywords":["cp","nocrits","nodmgspread","uncletopia"],"game_id":440,"stv_port":27026,"stv_name":"Uncletopia | Sydney | 2 | All Maps | STV","players":null},{"server_id":395,"name":"Uncletopia | Sydney | 3 | All Maps","name_short":"syd-3","host":"syd-1.au.uncletopia.com","port":27035,"enabled":true,"region":"au","cc":"au","latitude":-33.865143,"longitude":151.2099,"reserved":0,"last_update":"0001-01-01T00:00:00Z","name_a2s":"Uncletopia | Sydney | 3 | All Maps","protocol":17,"map":"pl_badwater","folder":"tf","game":"Team Fortress","app_id":440,"player_count":24,"max_players":24,"Bots":0,"server_type":"Dedicated","server_os":"Linux","password":true,"vac":true,"version":"7932396","steam_id":85568392925194467,"keywords":["nocrits","nodmgspread","payload","uncletopia"],"game_id":440,"stv_port":27036,"stv_name":"Uncletopia | Sydney | 3 | All Maps | STV","players":[{"user_id":174,"name":"Sinister80s","steam_id":76561198343540472,"connected_time":174000000000,"state":"active","ping":66},{"user_id":162,"name":"spy main (not toxic)","steam_id":76561199457260036,"connected_time":910000000000,"state":"active","ping":172},{"user_id":160,"name":"FrOStY","steam_id":76561198088155805,"connected_time":971000000000,"state":"active","ping":75},{"user_id":99,"name":"Tees","steam_id":76561199174602317,"connected_time":2891000000000,"state":"active","ping":54},{"user_id":158,"name":"Tofu","steam_id":76561198025637573,"connected_time":1118000000000,"state":"active","ping":34},{"user_id":142,"name":"Crispy","steam_id":76561198081760160,"connected_time":1574000000000,"state":"active","ping":68},{"user_id":121,"name":"six","steam_id":76561198864136685,"connected_time":2095000000000,"state":"active","ping":52},{"user_id":130,"name":"aoam","steam_id":76561198087803935,"connected_time":1814000000000,"state":"active","ping":47},{"user_id":172,"name":"hhhh","steam_id":76561198019740135,"connected_time":519000000000,"state":"active","ping":54},{"user_id":161,"name":"Juniper","steam_id":76561198814417716,"connected_time":938000000000,"state":"active","ping":92},{"user_id":170,"name":"\"(kinda)\" sketchy","steam_id":76561198040844401,"connected_time":689000000000,"state":"active","ping":50},{"user_id":163,"name":"Hawk","steam_id":76561198135164277,"connected_time":894000000000,"state":"active","ping":55},{"user_id":50,"name":"miyamoto is daddy","steam_id":76561199483818230,"connected_time":5702000000000,"state":"active","ping":77},{"user_id":150,"name":"Agent 13","steam_id":76561198334134955,"connected_time":1356000000000,"state":"active","ping":85},{"user_id":171,"name":"fatmod","steam_id":76561198128889890,"connected_time":636000000000,"state":"active","ping":94},{"user_id":31,"name":"Lumalee ❤","steam_id":76561198157613299,"connected_time":6419000000000,"state":"active","ping":66},{"user_id":111,"name":"callum.jones2008","steam_id":76561198050053720,"connected_time":2259000000000,"state":"active","ping":73},{"user_id":149,"name":"Fyre Rose","steam_id":76561198000527551,"connected_time":1409000000000,"state":"active","ping":78},{"user_id":117,"name":"alex","steam_id":76561198053382248,"connected_time":2222000000000,"state":"active","ping":43},{"user_id":165,"name":"Vanessa","steam_id":76561198077728992,"connected_time":867000000000,"state":"active","ping":65},{"user_id":154,"name":"Tiger_Tan","steam_id":76561198221733844,"connected_time":1174000000000,"state":"active","ping":70},{"user_id":157,"name":"Owlenstein™","steam_id":76561198093983826,"connected_time":1126000000000,"state":"active","ping":116},{"user_id":173,"name":"whiteshaq","steam_id":76561198131988811,"connected_time":400000000000,"state":"active","ping":55},{"user_id":153,"name":"Monkey Mæn","steam_id":76561198122470022,"connected_time":1266000000000,"state":"active","ping":70}]},{"server_id":396,"name":"Uncletopia | Sydney | 4 | All Maps","name_short":"syd-4","host":"syd-1.au.uncletopia.com","port":27045,"enabled":true,"region":"au","cc":"au","latitude":-33.865143,"longitude":151.2099,"reserved":0,"last_update":"0001-01-01T00:00:00Z","name_a2s":"Uncletopia | Sydney | 4 | All Maps","protocol":17,"map":"pl_pier","folder":"tf","game":"Team Fortress","app_id":440,"player_count":0,"max_players":24,"Bots":0,"server_type":"Dedicated","server_os":"Linux","password":true,"vac":true,"version":"7932396","steam_id":85568392925397958,"keywords":["nocrits","nodmgspread","payload","uncletopia"],"game_id":440,"stv_port":27046,"stv_name":"Uncletopia | Sydney | 4 | All Maps | STV","players":null},{"server_id":58,"name":"Uncletopia | Sydney | 5 | Stopwatch Beta","name_short":"syd-5","host":"syd-1.au.uncletopia.com","port":27055,"enabled":true,"region":"au","cc":"au","latitude":-33.865143,"longitude":151.2099,"reserved":0,"last_update":"0001-01-01T00:00:00Z","name_a2s":"Uncletopia | Sydney | 5 | Stopwatch Beta","protocol":17,"map":"pl_borneo","folder":"tf","game":"Team Fortress","app_id":440,"player_count":0,"max_players":24,"Bots":0,"server_type":"Dedicated","server_os":"Linux","password":true,"vac":true,"version":"7932396","steam_id":85568392925397959,"keywords":["nocrits","nodmgspread","payload","uncletopia"],"game_id":440,"stv_port":27056,"stv_name":"Uncletopia | Sydney | 5 | Stopwatch Beta | STV","players":null},{"server_id":59,"name":"Uncletopia | Sydney | 6 | Community","name_short":"syd-6","host":"syd-1.au.uncletopia.com","port":27065,"enabled":true,"region":"au","cc":"au","latitude":-33.865143,"longitude":151.2099,"reserved":0,"last_update":"0001-01-01T00:00:00Z","name_a2s":"Uncletopia | Sydney | 6 | Community","protocol":17,"map":"pl_badwater","folder":"tf","game":"Team Fortress","app_id":440,"player_count":0,"max_players":24,"Bots":0,"server_type":"Dedicated","server_os":"Linux","password":true,"vac":true,"version":"7932396","steam_id":85568392925397960,"keywords":["nocrits","nodmgspread","payload","uncletopia"],"game_id":440,"stv_port":27066,"stv_name":"Uncletopia | Sydney | 6 | Community | STV","players":null},{"server_id":49,"name":"Uncletopia | Warsaw | 1 | All Maps","name_short":"waw-1","host":"waw-1.pl.uncletopia.com","port":27015,"enabled":true,"region":"eu","cc":"pl","latitude":52.2297,"longitude":21.017532,"reserved":0,"last_update":"0001-01-01T00:00:00Z","name_a2s":"","protocol":0,"map":"","folder":"","game":"","app_id":0,"player_count":0,"max_players":0,"Bots":0,"server_type":"","server_os":"","password":false,"vac":false,"version":"","steam_id":0,"keywords":null,"game_id":0,"stv_port":0,"stv_name":"","players":null},{"server_id":50,"name":"Uncletopia | Warsaw | 2 | All Maps","name_short":"waw-2","host":"waw-1.pl.uncletopia.com","port":27025,"enabled":true,"region":"eu","cc":"pl","latitude":52.2297,"longitude":21.017532,"reserved":0,"last_update":"0001-01-01T00:00:00Z","name_a2s":"Uncletopia | Warsaw | 2 | All Maps","protocol":17,"map":"cp_altitude","folder":"tf","game":"Team Fortress","app_id":440,"player_count":0,"max_players":24,"Bots":0,"server_type":"Dedicated","server_os":"Linux","password":true,"vac":true,"version":"7932396","steam_id":85568392925397851,"keywords":["cp","nocrits","nodmgspread","uncletopia"],"game_id":440,"stv_port":27026,"stv_name":"Uncletopia | Warsaw | 2 | All Maps | STV","players":null},{"server_id":51,"name":"Uncletopia | Warsaw | 3 | All Maps","name_short":"waw-3","host":"waw-1.pl.uncletopia.com","port":27035,"enabled":true,"region":"eu","cc":"pl","latitude":52.2297,"longitude":21.017532,"reserved":0,"last_update":"0001-01-01T00:00:00Z","name_a2s":"Uncletopia | Warsaw | 3 | All Maps","protocol":17,"map":"koth_lakeside_final","folder":"tf","game":"Team Fortress","app_id":440,"player_count":0,"max_players":24,"Bots":0,"server_type":"Dedicated","server_os":"Linux","password":true,"vac":true,"version":"7932396","steam_id":85568392925397852,"keywords":["cp","nocrits","nodmgspread","uncletopia"],"game_id":440,"stv_port":27036,"stv_name":"Uncletopia | Warsaw | 3 | All Maps | STV","players":null},{"server_id":52,"name":"Uncletopia | Warsaw | 4 | All Maps","name_short":"waw-4","host":"waw-1.pl.uncletopia.com","port":27045,"enabled":true,"region":"eu","cc":"pl","latitude":52.2297,"longitude":21.017532,"reserved":0,"last_update":"0001-01-01T00:00:00Z","name_a2s":"Uncletopia | Warsaw | 4 | All Maps","protocol":17,"map":"pl_swiftwater_final1","folder":"tf","game":"Team Fortress","app_id":440,"player_count":0,"max_players":24,"Bots":0,"server_type":"Dedicated","server_os":"Linux","password":true,"vac":true,"version":"7932396","steam_id":85568392925397853,"keywords":["nocrits","nodmgspread","payload","uncletopia"],"game_id":440,"stv_port":27046,"stv_name":"Uncletopia | Warsaw | 4 | All Maps | STV","players":null},{"server_id":53,"name":"Uncletopia | Warsaw | 5 | Stopwatch Beta","name_short":"waw-5","host":"waw-1.pl.uncletopia.com","port":27055,"enabled":true,"region":"eu","cc":"pl","latitude":52.2297,"longitude":21.017532,"reserved":0,"last_update":"0001-01-01T00:00:00Z","name_a2s":"Uncletopia | Warsaw | 5 | Stopwatch Beta","protocol":17,"map":"koth_highpass","folder":"tf","game":"Team Fortress","app_id":440,"player_count":0,"max_players":24,"Bots":0,"server_type":"Dedicated","server_os":"Linux","password":true,"vac":true,"version":"7932396","steam_id":85568392925397854,"keywords":["cp","nocrits","nodmgspread","uncletopia"],"game_id":440,"stv_port":27056,"stv_name":"Uncletopia | Warsaw | 5 | Stopwatch Beta | STV","players":null},{"server_id":54,"name":"Uncletopia | Warsaw | 6 | Community","name_short":"waw-6","host":"waw-1.pl.uncletopia.com","port":27065,"enabled":true,"region":"eu","cc":"pl","latitude":52.2297,"longitude":21.017532,"reserved":0,"last_update":"0001-01-01T00:00:00Z","name_a2s":"Uncletopia | Warsaw | 6 | Community","protocol":17,"map":"pl_upward","folder":"tf","game":"Team Fortress","app_id":440,"player_count":0,"max_players":24,"Bots":0,"server_type":"Dedicated","server_os":"Linux","password":true,"vac":true,"version":"7932396","steam_id":85568392925397856,"keywords":["nocrits","nodmgspread","payload","uncletopia"],"game_id":440,"stv_port":27066,"stv_name":"Uncletopia | Warsaw | 6 | Community | STV","players":null}]}