{"status":true,"message":"","result":[{"server_id":9,"name":"Uncletopia | Atlanta | 1 | All Maps","name_short":"atl-1","host":"atl-1.us.uncletopia.com","port":27015,"enabled":true,"region":"us-east","cc":"us","latitude":33.753746,"longitude":-84.38633,"reserved":0,"last_update":"0001-01-01T00:00:00Z","name_a2s":"Uncletopia | Atlanta | 1 | All Maps","protocol":17,"map":"koth_lakeside_final","folder":"tf","game":"Team Fortress","app_id":440,"player_count":0,"max_players":24,"Bots":0,"server_type":"Dedicated","server_os":"Linux","password":true,"vac":true,"version":"7961495","steam_id":85568392924469982,"keywords":["cp","nocrits","nodmgspread","uncletopia"],"game_id":440,"stv_port":27016,"stv_name":"Uncletopia | Atlanta | 1 | All Maps | STV","players":null},{"server_id":104,"name":"Uncletopia | Atlanta | 2 | All Maps","name_short":"atl-2","host":"atl-1.us.uncletopia.com","port":27025,"enabled":true,"region":"us-east","cc":"us","latitude":33.753746,"longitude":-84.38633,"reserved":0,"last_update":"0001-01-01T00:00:00Z","name_a2s":"Uncletopia | Atlanta | 2 | All Maps","protocol":17,"map":"pl_upward","folder":"tf","game":"Team Fortress","app_id":440,"player_count":0,"max_players":24,"Bots":0,"server_type":"Dedicated","server_os":"Linux","password":true,"vac":true,"version":"7961495","steam_id":85568392924469983,"keywords":["nocrits","nodmgspread","payload","uncletopia"],"game_id":440,"stv_port":27026,"stv_name":"Uncletopia | Atlanta | 2 | All Maps | STV","players":null},{"server_id":400,"name":"Uncletopia | Atlanta | 3 | Stopwatch","name_short":"atl-3","host":"atl-1.us.uncletopia.com","port":27035,"enabled":true,"region":"us-east","cc":"us","latitude":33.753746,"longitude":-84.38633,"reserved":0,"last_update":"0001-01-01T00:00:00Z","name_a2s":"Uncletopia | Atlanta | 3 | Stopwatch","protocol":17,"map":"workshop/koth_product_final.ugc454272353","folder":"tf","game":"Team Fortress","app_id":440,"player_count":0,"max_players":24,"Bots":0,"server_type":"Dedicated","server_os":"Linux","password":true,"vac":true,"version":"7961495","steam_id":85568392924515187,"keywords":["cp","nocrits","nodmgspread","uncletopia"],"game_id":440,"stv_port":27036,"stv_name":"Uncletopia | Atlanta | 3 | Stopwatch | STV","players":null},{"server_id":401,"name":"Uncletopia | Atlanta | 4 | Community","name_short":"atl-4","host":"atl-1.us.uncletopia.com","port":27045,"enabled":true,"region":"us-east","cc":"us","latitude":33.753746,"longitude":-84.38633,"reserved":0,"last_update":"0001-01-01T00:00:00Z","name_a2s":"Uncletopia | Atlanta | 4 | Community","protocol":17,"map":"workshop/koth_bagel_rc6.ugc2514036946","folder":"tf","game":"Team Fortress","app_id":440,"player_count":0,"max_players":24,"Bots":0,"server_type":"Dedicated","server_os":"Linux","password":true,"vac":true,"version":"7961495","steam_id":85568392924515188,"keywords":["cp","nocrits","nodmgspread","uncletopia"],"game_id":440,"stv_port":27046,"stv_name":"Uncletopia | Atlanta | 4 | Community | STV","players":null},{"server_id":2,"name":"Uncletopia | Chicago | 1 | All Maps","name_short":"chi-1","host":"chi-1.us.uncletopia.com","port":27015,"enabled":true,"region":"us-central","cc":"us","latitude":41.881832,"longitude":-87.62318,"reserved":0,"last_update":"0001-01-01T00:00:00Z","name_a2s":"Uncletopia | Chicago | 1 | All Maps","protocol":17,"map":"pl_frontier_final","folder":"tf","game":"Team Fortress","app_id":440,"player_count":0,"max_players":24,"Bots":0,"server_type":"Dedicated","server_os":"Linux","password":true,"vac":true,"version":"7961495","steam_id":85568392924469984,"keywords":["nocrits","nodmgspread","payload","uncletopia"],"game_id":440,"stv_port":27016,"stv_name":"Uncletopia | Chicago | 1 | All Maps | STV","players":null},{"server_id":106,"name":"Uncletopia | Chicago | 2 | All Maps","name_short":"chi-2","host":"chi-1.us.uncletopia.com","port":27025,"enabled":true,"region":"us-central","cc":"us","latitude":41.881832,"longitude":-87.62318,"reserved":0,"last_update":"0001-01-01T00:00:00Z","name_a2s":"Uncletopia | Chicago | 2 | All Maps","protocol":17,"map":"pl_barnblitz","folder":"tf","game":"Team Fortress","app_id":440,"player_count":24,"max_players":24,"Bots":0,"server_type":"Dedicated","server_os":"Linux","password":true,"vac":true,"version":"7961495","steam_id":85568392924469985,"keywords":["nocrits","nodmgspread","payload","uncletopia"],"game_id":440,"stv_port":27026,"stv_name":"Uncletopia | Chicago | 2 | All Maps | STV","players":[{"user_id":723,"name":"Drapph","steam_id":76561199384213314,"connected_time":31000000000,"state":"active","ping":62},{"user_id":708,"name":"Temujin","steam_id":76561198030936583,"connected_time":2369000000000,"state":"active","ping":48},{"user_id":666,"name":"K","steam_id":76561198171446177,"connected_time":5487000000000,"state":"active","ping":91},{"user_id":679,"name":"Wique","steam_id":76561198071217597,"connected_time":4538000000000,"state":"active","ping":89},{"user_id":705,"name":"gallowsCalibrator","steam_id":76561198404707578,"connected_time":2476000000000,"state":"active","ping":64},{"user_id":704,"name":"Xylemon","steam_id":76561197965297420,"connected_time":3156000000000,"state":"active","ping":129},{"user_id":709,"name":"Loagurt","steam_id":76561198076171759,"connected_time":2291000000000,"state":"active","ping":65},{"user_id":717,"name":"Poppet","steam_id":76561198012301951,"connected_time":1369000000000,"state":"active","ping":61},{"user_id":718,"name":"Pongallow","steam_id":76561198146876078,"connected_time":1147000000000,"state":"active","ping":45},{"user_id":720,"name":"Rya☺","steam_id":76561198370128860,"connected_time":667000000000,"state":"active","ping":83},{"user_id":711,"name":"The_Stomach_Stone_Surgeon","steam_id":76561198044643725,"connected_time":2281000000000,"state":"active","ping":52},{"user_id":695,"name":"Missing Minus","steam_id":76561198120822928,"connected_time":4134000000000,"state":"active","ping":62},{"user_id":693,"name":"Recluse","steam_id":76561198155011568,"connected_time":4202000000000,"state":"active","ping":67},{"user_id":714,"name":"werecat","steam_id":76561198005091213,"connected_time":1529000000000,"state":"active","ping":60},{"user_id":698,"name":"Urist McDwarf","steam_id":76561198164004939,"connected_time":4006000000000,"state":"active","ping":121},{"user_id":701,"name":"Lemon Soda","steam_id":76561198140208761,"connected_time":3741000000000,"state":"active","ping":76},{"user_id":722,"name":"∞ 8 ∞","steam_id":76561197973248859,"connected_time":214000000000,"state":"active","ping":93},{"user_id":719,"name":"Gargathor the Entity Catcher","steam_id":76561198189429665,"connected_time":869000000000,"state":"active","ping":75},{"user_id":706,"name":"Zymiren","steam_id":76561198054985471,"connected_time":2465000000000,"state":"active","ping":101},{"user_id":687,"name":"Rambly Dambly","steam_id":76561198844496567,"connected_time":4423000000000,"state":"active","ping":59},{"user_id":694,"name":"Maestro","steam_id":76561198157325020,"connected_time":4201000000000,"state":"active","ping":77},{"user_id":703,"name":"wendigo","steam_id":76561197994528974,"connected_time":3402000000000,"state":"active","ping":89},{"user_id":707,"name":"Theuaredead`","steam_id":76561197997923705,"connected_time":2461000000000,"state":"active","ping":52},{"user_id":716,"name":"Fyr","steam_id":76561198048507556,"connected_time":1449000000000,"state":"active","ping":79}]},{"server_id":402,"name":"Uncletopia | Chicago | 3 | All Maps","name_short":"chi-3","host":"chi-1.us.uncletopia.com","port":27035,"enabled":true,"region":"us-central","cc":"us","latitude":41.881832,"longitude":-87.62318,"reserved":0,"last_update":"0001-01-01T00:00:00Z","name_a2s":"Uncletopia | Chicago | 3 | All Maps","protocol":17,"map":"koth_viaduct","folder":"tf","game":"Team Fortress","app_id":440,"player_count":0,"max_players":24,"Bots":0,"server_type":"Dedicated","server_os":"Linux","password":true,"vac":true,"version":"7961495","steam_id":85568392924515191,"keywords":["cp","nocrits","nodmgspread","uncletopia"],"game_id":440,"stv_port":27036,"stv_name":"Uncletopia | Chicago | 3 | All Maps | STV","players":null},{"server_id":403,"name":"Uncletopia | Chicago | 4 | All Maps","name_short":"chi-4","host":"chi-1.us.uncletopia.com","port":27045,"enabled":true,"region":"us-central","cc":"us","latitude":41.881832,"longitude":-87.62318,"reserved":0,"last_update":"0001-01-01T00:00:00Z","name_a2s":"Uncletopia | Chicago | 4 | All Maps","protocol":17,"map":"koth_lakeside_final","folder":"tf","game":"Team Fortress","app_id":440,"player_count":0,"max_players":24,"Bots":0,"server_type":"Dedicated","server_os":"Linux","password":true,"vac":true,"version":"7961495","steam_id":85568392924515193,"keywords":["cp","nocrits","nodmgspread","uncletopia"],"game_id":440,"stv_port":27046,"stv_name":"Uncletopia | Chicago | 4 | All Maps | STV","players":null},{"server_id":36,"name":"Uncletopia | Chicago | 5 | All Maps","name_short":"chi-5","host":"chi-2.us.uncletopia.com","port":27015,"enabled":true,"region":"us-central","cc":"us","latitude":41.881832,"longitude":-87.62318,"reserved":0,"last_update":"0001-01-01T00:00:00Z","name_a2s":"Uncletopia | Chicago | 5 | All Maps","protocol":17,"map":"cp_snakewater_final1","folder":"tf","game":"Team Fortress","app_id":440,"player_count":0,"max_players":24,"Bots":0,"server_type":"Dedicated","server_os":"Linux","password":true,"vac":true,"version":"7961495","steam_id":85568392924866362,"keywords":["cp","nocrits","nodmgspread","uncletopia"],"game_id":440,"stv_port":27016,"stv_name":"Uncletopia | Chicago | 5 | All Maps | STV","players":null},{"server_id":37,"name":"Uncletopia | Chicago | 6 | All Maps","name_short":"chi-6","host":"chi-2.us.uncletopia.com","port":27025,"enabled":true,"region":"us-central","cc":"us","latitude":41.881832,"longitude":-87.62318,"reserved":0,"last_update":"0001-01-01T00:00:00Z","name_a2s":"Uncletopia | Chicago | 6 | All Maps","protocol":17,"map":"pl_snowycoast","folder":"tf","game":"Team Fortress","app_id":440,"player_count":0,"max_players":24,"Bots":0,"server_type":"Dedicated","server_os":"Linux","password":true,"vac":true,"version":"7961495","steam_id":85568392924866363,"keywords":["nocrits","nodmgspread","payload","uncletopia"],"game_id":440,"stv_port":27026,"stv_name":"Uncletopia | Chicago | 6 | All Maps | STV","players":null},{"server_id":38,"name":"Uncletopia | Chicago | 7 | Stopwatch","name_short":"chi-7","host":"chi-2.us.uncletopia.com","port":27035,"enabled":true,"region":"us-central","cc":"us","latitude":41.881832,"longitude":-87.62318,"reserved":0,"last_update":"0001-01-01T00:00:00Z","name_a2s":"Uncletopia | Chicago | 7 | Stopwatch","protocol":17,"map":"koth_highpass","folder":"tf","game":"Team Fortress","app_id":440,"player_count":0,"max_players":24,"Bots":0,"server_type":"Dedicated","server_os":"Linux","password":true,"vac":true,"version":"7961495","steam_id":85568392924866364,"keywords":["cp","nocrits","nodmgspread","uncletopia"],"game_id":440,"stv_port":27036,"stv_name":"Uncletopia | Chicago | 7 | Stopwatch | STV","players":null},{"server_id":39,"name":"Uncletopia | Chicago | 8 | Community","name_short":"chi-8","host":"chi-2.us.uncletopia.com","port":27045,"enabled":true,"region":"us-central","cc":"us","latitude":41.881832,"longitude":-87.62318,"reserved":0,"last_update":"0001-01-01T00:00:00Z","name_a2s":"Uncletopia | Chicago | 8 | Community","protocol":17,"map":"workshop/koth_synthetic_rc6a.ugc1549817316","folder":"tf","game":"Team Fortress","app_id":440,"player_count":0,"max_players":24,"Bots":0,"server_type":"Dedicated","server_os":"Linux","password":true,"vac":true,"version":"7961495","steam_id":85568392924866365,"keywords":["cp","nocrits","nodmgspread","uncletopia"],"game_id":440,"stv_port":27046,"stv_name":"Uncletopia | Chicago | 8 | Community | STV","players":null},{"server_id":8,"name":"Uncletopia | Dallas | 1 | All Maps","name_short":"dal-1","host":"dal-1.us.uncletopia.com","port":27015,"enabled":true,"region":"us-central","cc":"us","latitude":32.779167,"longitude":-96.80889,"reserved":0,"last_update":"0001-01-01T00:00:00Z","name_a2s":"Uncletopia | Dallas | 1 | All Maps","protocol":17,"map":"pl_badwater","folder":"tf","game":"Team Fortress","app_id":440,"player_count":24,"max_players":24,"Bots":0,"server_type":"Dedicated","server_os":"Linux","password":true,"vac":true,"version":"7961495","steam_id":85568392924469986,"keywords":["nocrits","nodmgspread","payload","uncletopia"],"game_id":440,"stv_port":27016,"stv_name":"Uncletopia | Dallas | 1 | All Maps | STV","players":[{"user_id":289,"name":"Nice One #SAVETF2","steam_id":76561197967904760,"connected_time":211000000000,"state":"active","ping":180},{"user_id":280,"name":"Chuck Finley","steam_id":76561198027411284,"connected_time":611000000000,"state":"active","ping":68},{"user_id":253,"name":"kris736","steam_id":76561198038208255,"connected_time":1960000000000,"state":"active","ping":88},{"user_id":264,"name":"Not Muscle Man","steam_id":76561198010460535,"connected_time":1442000000000,"state":"active","ping":100},{"user_id":265,"name":"Lane","steam_id":76561197965828506,"connected_time":1412000000000,"state":"active","ping":59},{"user_id":267,"name":"sevvy \u003c3","steam_id":76561198219129496,"connected_time":1229000000000,"state":"active","ping":88},{"user_id":244,"name":"CheeseCake488","steam_id":76561199407617942,"connected_time":3124000000000,"state":"active","ping":106},{"user_id":279,"name":"Burny Sanders","steam_id":76561197961879048,"connected_time":839000000000,"state":"active","ping":42},{"user_id":282,"name":"FMT_Player","steam_id":76561198346810180,"connected_time":477000000000,"state":"active","ping":128},{"user_id":290,"name":"ocky","steam_id":76561198313049944,"connected_time":187000000000,"state":"active","ping":98},{"user_id":285,"name":"LoyalFGC","steam_id":76561198364004871,"connected_time":373000000000,"state":"active","ping":56},{"user_id":240,"name":"Philo","steam_id":76561198061873341,"connected_time":3298000000000,"state":"active","ping":91},{"user_id":231,"name":"Richard","steam_id":76561198044115685,"connected_time":4286000000000,"state":"active","ping":75},{"user_id":284,"name":"Harufloofer","steam_id":76561199084506827,"connected_time":389000000000,"state":"active","ping":48},{"user_id":270,"name":"frankie calories","steam_id":76561198071525893,"connected_time":1103000000000,"state":"active","ping":98},{"user_id":257,"name":"ryann","steam_id":76561198042996639,"connected_time":1854000000000,"state":"active","ping":91},{"user_id":277,"name":"Raizen","steam_id":76561199092445367,"connected_time":946000000000,"state":"active","ping":70},{"user_id":263,"name":"goodypiggy","steam_id":76561198434705310,"connected_time":1505000000000,"state":"active","ping":89},{"user_id":286,"name":"calube","steam_id":76561198029350858,"connected_time":371000000000,"state":"active","ping":77},{"user_id":291,"name":"Drewey","steam_id":76561198369218784,"connected_time":164000000000,"state":"active","ping":74},{"user_id":288,"name":"ali oop","steam_id":76561198057516213,"connected_time":313000000000,"state":"active","ping":93},{"user_id":278,"name":"cyborgor","steam_id":76561198040782513,"connected_time":941000000000,"state":"active","ping":87},{"user_id":292,"name":"Cat","steam_id":76561198132362099,"connected_time":145000000000,"state":"active","ping":139},{"user_id":293,"name":"Western_dragon","steam_id":76561198130456105,"connected_time":64000000000,"state":"active","ping":81}]},{"server_id":108,"name":"Uncletopia | Dallas | 2 | All Maps","name_short":"dal-2","host":"dal-1.us.uncletopia.com","port":27025,"enabled":true,"region":"us-central","cc":"us","latitude":32.779167,"longitude":-96.80889,"reserved":0,"last_update":"0001-01-01T00:00:00Z","name_a2s":"Uncletopia | Dallas | 2 | All Maps","protocol":17,"map":"ctf_2fort","folder":"tf","game":"Team Fortress","app_id":440,"player_count":16,"max_players":24,"Bots":0,"server_type":"Dedicated","server_os":"Linux","password":true,"vac":true,"version":"7961495","steam_id":85568392924469988,"keywords":["ctf","nocrits","nodmgspread","uncletopia"],"game_id":440,"stv_port":27026,"stv_name":"Uncletopia | Dallas | 2 | All Maps | STV","players":[{"user_id":879,"name":"Sus us Amogus","steam_id":76561199207425066,"connected_time":1426000000000,"state":"active","ping":90},{"user_id":835,"name":"Gummy","steam_id":76561199200969139,"connected_time":5160000000000,"state":"active","ping":99},{"user_id":902,"name":"Nyah","steam_id":76561199192601345,"connected_time":225000000000,"state":"active","ping":69},{"user_id":882,"name":"BREAD GOD","steam_id":76561198090935745,"connected_time":1387000000000,"state":"active","ping":171},{"user_id":905,"name":"ShadowWasUhOh","steam_id":76561198400361935,"connected_time":144000000000,"state":"active","ping":75},{"user_id":782,"name":"BADWOLF42","steam_id":76561198055447523,"connected_time":11462000000000,"state":"active","ping":54},{"user_id":837,"name":"the pizza","steam_id":76561198221331476,"connected_time":5098000000000,"state":"active","ping":73},{"user_id":892,"name":"stubbystubby","steam_id":76561198066034868,"connected_time":1099000000000,"state":"active","ping":75},{"user_id":903,"name":"Fella","steam_id":76561198001983764,"connected_time":216000000000,"state":"active","ping":84},{"user_id":906,"name":"askuwd","steam_id":76561198087637901,"connected_time":85000000000,"state":"active","ping":46},{"user_id":907,"name":"Kronk","steam_id":76561198063092125,"connected_time":52000000000,"state":"active","ping":90},{"user_id":887,"name":"Your average dumbass","steam_id":76561198311873272,"connected_time":1331000000000,"state":"active","ping":51},{"user_id":846,"name":"King","steam_id":76561198039763676,"connected_time":4335000000000,"state":"active","ping":63},{"user_id":864,"name":"The power of the Xbox 360","steam_id":76561198835517383,"connected_time":2418000000000,"state":"active","ping":72},{"user_id":898,"name":"Kapreesi","steam_id":76561198163361200,"connected_time":773000000000,"state":"active","ping":60},{"user_id":876,"name":"Fred Ott","steam_id":76561198099088693,"connected_time":1642000000000,"state":"active","ping":76}]},{"server_id":404,"name":"Uncletopia | Dallas | 3 | All Maps","name_short":"dal-3","host":"dal-1.us.uncletopia.com","port":27035,"enabled":true,"region":"us-central","cc":"us","latitude":32.779167,"longitude":-96.80889,"reserved":0,"last_update":"0001-01-01T00:00:00Z","name_a2s":"Uncletopia | Dallas | 3 | All Maps","protocol":17,"map":"pl_barnblitz","folder":"tf","game":"Team Fortress","app_id":440,"player_count":0,"max_players":24,"Bots":0,"server_type":"Dedicated","server_os":"Linux","password":true,"vac":true,"version":"7961495","steam_id":85568392924515219,"keywords":["nocrits","nodmgspread","payload","uncletopia"],"game_id":440,"stv_port":27036,"stv_name":"Uncletopia | Dallas | 3 | All Maps | STV","players":null},{"server_id":405,"name":"Uncletopia | Dallas | 4 | Community","name_short":"dal-4","host":"dal-1.us.uncletopia.com","port":27045,"enabled":true,"region":"us-central","cc":"us","latitude":32.779167,"longitude":-96.80889,"reserved":0,"last_update":"0001-01-01T00:00:00Z","name_a2s":"Uncletopia | Dallas | 4 | Community","protocol":17,"map":"workshop/cp_mannbase_rc2a.ugc1900737467","folder":"tf","game":"Team Fortress","app_id":440,"player_count":0,"max_players":24,"Bots":0,"server_type":"Dedicated","server_os":"Linux","password":true,"vac":true,"version":"7961495","steam_id":85568392924515220,"keywords":["cp","nocrits","nodmgspread","uncletopia"],"game_id":440,"stv_port":27046,"stv_name":"Uncletopia | Dallas | 4 | Community | STV","players":null},{"server_id":5,"name":"Uncletopia | Frankfurt | 1 | All Maps","name_short":"frk-1","host":"frk-1.de.uncletopia.com","port":27015,"enabled":true,"region":"eu","cc":"de","latitude":50.110924,"longitude":8.682127,"reserved":0,"last_update":"0001-01-01T00:00:00Z","name_a2s":"Uncletopia | Frankfurt | 1 | All Maps","protocol":17,"map":"koth_highpass","folder":"tf","game":"Team Fortress","app_id":440,"player_count":2,"max_players":24,"Bots":0,"server_type":"Dedicated","server_os":"Linux","password":true,"vac":true,"version":"7961495","steam_id":85568392924469989,"keywords":["cp","nocrits","nodmgspread","uncletopia"],"game_id":440,"stv_port":27016,"stv_name":"Uncletopia | Frankfurt | 1 | All Maps | STV","players":[{"user_id":5,"name":"trolley","steam_id":76561199089765404,"connected_time":332000000000,"state":"active","ping":57},{"user_id":7,"name":"guns","steam_id":76561198911819978,"connected_time":76000000000,"state":"active","ping":70}]},{"server_id":110,"name":"Uncletopia | Frankfurt | 2 | All Maps","name_short":"frk-2","host":"frk-1.de.uncletopia.com","port":27025,"enabled":true,"region":"eu","cc":"de","latitude":50.110924,"longitude":8.682127,"reserved":0,"last_update":"0001-01-01T00:00:00Z","name_a2s":"Uncletopia | Frankfurt | 2 | All Maps","protocol":17,"map":"koth_viaduct","folder":"tf","game":"Team Fortress","app_id":440,"player_count":0,"max_players":24,"Bots":0,"server_type":"Dedicated","server_os":"Linux","password":true,"vac":true,"version":"7961495","steam_id":85568392924469990,"keywords":["cp","nocrits","nodmgspread","uncletopia"],"game_id":440,"stv_port":27026,"stv_name":"Uncletopia | Frankfurt | 2 | All Maps | STV","players":null},{"server_id":308,"name":"Uncletopia | Frankfurt | 3 | All Maps","name_short":"frk-3","host":"frk-1.de.uncletopia.com","port":27035,"enabled":true,"region":"eu","cc":"de","latitude":50.110924,"longitude":8.682127,"reserved":0,"last_update":"0001-01-01T00:00:00Z","name_a2s":"Uncletopia | Frankfurt | 3 | All Maps","protocol":17,"map":"pl_snowycoast","folder":"tf","game":"Team Fortress","app_id":440,"player_count":0,"max_players":24,"Bots":0,"server_type":"Dedicated","server_os":"Linux","password":true,"vac":true,"version":"7961495","steam_id":85568392924504274,"keywords":["nocrits","nodmgspread","payload","uncletopia"],"game_id":440,"stv_port":27036,"stv_name":"Uncletopia | Frankfurt | 3 | All Maps | STV","players":null},{"server_id":309,"name":"Uncletopia | Frankfurt | 4 | All Maps","name_short":"frk-4","host":"frk-1.de.uncletopia.com","port":27045,"enabled":true,"region":"eu","cc":"de","latitude":50.110924,"longitude":8.682127,"reserved":0,"last_update":"0001-01-01T00:00:00Z","name_a2s":"Uncletopia | Frankfurt | 4 | All Maps","protocol":17,"map":"koth_highpass","folder":"tf","game":"Team Fortress","app_id":440,"player_count":0,"max_players":24,"Bots":0,"server_type":"Dedicated","server_os":"Linux","password":true,"vac":true,"version":"7961495","steam_id":85568392924504275,"keywords":["cp","nocrits","nodmgspread","uncletopia"],"game_id":440,"stv_port":27046,"stv_name":"Uncletopia | Frankfurt | 4 | All Maps | STV","players":null},{"server_id":310,"name":"Uncletopia | Frankfurt | 5 | All Maps","name_short":"frk-5","host":"frk-1.de.uncletopia.com","port":27055,"enabled":true,"region":"eu","cc":"de","latitude":50.110924,"longitude":8.682127,"reserved":0,"last_update":"0001-01-01T00:00:00Z","name_a2s":"Uncletopia | Frankfurt | 5 | All Maps","protocol":17,"map":"pl_frontier_final","folder":"tf","game":"Team Fortress","app_id":440,"player_count":23,"max_players":24,"Bots":0,"server_type":"Dedicated","server_os":"Linux","password":true,"vac":true,"version":"7961495","steam_id":85568392924504277,"keywords":["nocrits","nodmgspread","payload","uncletopia"],"game_id":440,"stv_port":27056,"stv_name":"Uncletopia | Frankfurt | 5 | All Maps | STV","players":[{"user_id":21,"name":"Haha I'm in danger","steam_id":76561199379469020,"connected_time":1843000000000,"state":"active","ping":83},{"user_id":55,"name":"Ondřej ✌","steam_id":76561198115905637,"connected_time":11000000000,"state":"spawning","ping":84},{"user_id":23,"name":"Excadrill (GOAT)","steam_id":76561199012566222,"connected_time":1646000000000,"state":"active","ping":57},{"user_id":13,"name":"Hyperwizard of Space Conquest","steam_id":76561198953210459,"connected_time":2462000000000,"state":"active","ping":89},{"user_id":14,"name":"ZA SOUL","steam_id":76561198211277765,"connected_time":2360000000000,"state":"active","ping":77},{"user_id":15,"name":"Rocket Queen's consort","steam_id":76561198092995429,"connected_time":2331000000000,"state":"active","ping":138},{"user_id":47,"name":"PENGUN","steam_id":76561199015156956,"connected_time":586000000000,"state":"active","ping":97},{"user_id":49,"name":"Intruder","steam_id":76561198156128173,"connected_time":527000000000,"state":"active","ping":70},{"user_id":42,"name":"Magos","steam_id":76561198885792320,"connected_time":814000000000,"state":"active","ping":68},{"user_id":27,"name":"Musicano","steam_id":76561198114541088,"connected_time":1484000000000,"state":"active","ping":84},{"user_id":29,"name":"gus","steam_id":76561198876303958,"connected_time":1438000000000,"state":"active","ping":107},{"user_id":53,"name":"top G","steam_id":76561198379555950,"connected_time":202000000000,"state":"active","ping":72},{"user_id":44,"name":"=OKB= P4NTH3R","steam_id":76561197999204603,"connected_time":771000000000,"state":"active","ping":65},{"user_id":50,"name":"xva","steam_id":76561198969286813,"connected_time":516000000000,"state":"active","ping":65},{"user_id":34,"name":"Hóňa","steam_id":76561198096006081,"connected_time":1078000000000,"state":"active","ping":61},{"user_id":35,"name":"Skarp","steam_id":76561198034398376,"connected_time":1055000000000,"state":"active","ping":47},{"user_id":51,"name":"[T]aKer","steam_id":76561198001778013,"connected_time":494000000000,"state":"active","ping":48},{"user_id":37,"name":"Jarppa!","steam_id":76561197995834786,"connected_time":950000000000,"state":"active","ping":72},{"user_id":46,"name":"halfawaydead","steam_id":76561199165565585,"connected_time":752000000000,"state":"active","ping":75},{"user_id":40,"name":"Borko(Birthday man)","steam_id":76561199097266352,"connected_time":889000000000,"state":"active","ping":76},{"user_id":41,"name":"La Résistance","steam_id":76561198891046692,"connected_time":874000000000,"state":"active","ping":75},{"user_id":54,"name":"Deeber","steam_id":76561198043957106,"connected_time":202000000000,"state":"active","ping":59},{"user_id":45,"name":"henoadam","steam_id":76561198151350377,"connected_time":770000000000,"state":"active","ping":60}]},{"server_id":311,"name":"Uncletopia | Frankfurt | 6 | All Maps","name_short":"frk-6","host":"frk-1.de.uncletopia.com","port":27065,"enabled":true,"region":"eu","cc":"de","latitude":50.110924,"longitude":8.682127,"reserved":0,"last_update":"0001-01-01T00:00:00Z","name_a2s":"Uncletopia | Frankfurt | 6 | All Maps","protocol":17,"map":"pl_barnblitz","folder":"tf","game":"Team Fortress","app_id":440,"player_count":24,"max_players":24,"Bots":0,"server_type":"Dedicated","server_os":"Linux","password":true,"vac":true,"version":"7961495","steam_id":85568392924504278,"keywords":["nocrits","nodmgspread","payload","uncletopia"],"game_id":440,"stv_port":27066,"stv_name":"Uncletopia | Frankfurt | 6 | All Maps | STV","players":[{"user_id":90,"name":"lulu","steam_id":76561199147764133,"connected_time":2843000000000,"state":"active","ping":62},{"user_id":97,"name":"murderwow","steam_id":76561198024566944,"connected_time":1986000000000,"state":"active","ping":91},{"user_id":118,"name":"Ｍａｃｉｎｔｏｓｈ","steam_id":76561198074294565,"connected_time":552000000000,"state":"active","ping":75},{"user_id":6,"name":"tyroksi :D","steam_id":76561198103875245,"connected_time":6168000000000,"state":"active","ping":105},{"user_id":81,"name":"MeDiciN","steam_id":76561199112280586,"connected_time":3424000000000,"state":"active","ping":151},{"user_id":20,"name":"Gaming Gamer","steam_id":76561199098088708,"connected_time":5396000000000,"state":"active","ping":52},{"user_id":78,"name":"Catsanddogs123","steam_id":76561198030868386,"connected_time":3931000000000,"state":"active","ping":105},{"user_id":117,"name":"Ismael Ahmad Kanabawi","steam_id":76561198066295629,"connected_time":564000000000,"state":"active","ping":62},{"user_id":109,"name":"Dealmaker","steam_id":76561199067663362,"connected_time":1204000000000,"state":"active","ping":256},{"user_id":120,"name":"YuraGreek","steam_id":76561198050182252,"connected_time":459000000000,"state":"active","ping":79},{"user_id":62,"name":"Lyell","steam_id":76561198350329389,"connected_time":4247000000000,"state":"active","ping":78},{"user_id":86,"name":"Cjeff","steam_id":76561198078099059,"connected_time":3205000000000,"state":"active","ping":46},{"user_id":113,"name":"JohnTraveltime","steam_id":76561199244281754,"connected_time":984000000000,"state":"active","ping":65},{"user_id":101,"name":"tensh1","steam_id":76561198282471866,"connected_time":1803000000000,"state":"active","ping":102},{"user_id":23,"name":"Carrot (real)","steam_id":76561198139404261,"connected_time":5283000000000,"state":"active","ping":52},{"user_id":119,"name":"crimson","steam_id":76561198208349835,"connected_time":488000000000,"state":"active","ping":71},{"user_id":85,"name":"fuo","steam_id":76561197995536944,"connected_time":3219000000000,"state":"active","ping":48},{"user_id":46,"name":"LOBZIK","steam_id":76561198114830120,"connected_time":4549000000000,"state":"active","ping":78},{"user_id":104,"name":".::[SerafeTTiN]::.","steam_id":76561198009471724,"connected_time":1704000000000,"state":"active","ping":89},{"user_id":88,"name":"Chinpo to bōru no gōmon","steam_id":76561199214163032,"connected_time":3087000000000,"state":"active","ping":77},{"user_id":116,"name":"DirtyFred","steam_id":76561198031814950,"connected_time":617000000000,"state":"active","ping":85},{"user_id":121,"name":"ZID","steam_id":76561198214099068,"connected_time":327000000000,"state":"active","ping":96},{"user_id":100,"name":"Furno","steam_id":76561197999723047,"connected_time":1881000000000,"state":"active","ping":58},{"user_id":122,"name":"Matteo Il Biondo","steam_id":76561198315389475,"connected_time":306000000000,"state":"active","ping":74}]},{"server_id":23,"name":"Uncletopia | Frankfurt | 7 | Stopwatch","name_short":"frk-7","host":"frk-1.de.uncletopia.com","port":27075,"enabled":true,"region":"eu","cc":"de","latitude":50.110924,"longitude":8.682127,"reserved":0,"last_update":"0001-01-01T00:00:00Z","name_a2s":"Uncletopia | Frankfurt | 7 | Stopwatch","protocol":17,"map":"workshop/koth_bagel_rc6.ugc2514036946","folder":"tf","game":"Team Fortress","app_id":440,"player_count":0,"max_players":24,"Bots":0,"server_type":"Dedicated","server_os":"Linux","password":true,"vac":true,"version":"7961495","steam_id":85568392924742827,"keywords":["cp","nocrits","nodmgspread","uncletopia"],"game_id":440,"stv_port":27076,"stv_name":"Uncletopia | Frankfurt | 7 | Stopwatch | STV","players":null},{"server_id":24,"name":"Uncletopia | Frankfurt | 8 | Community","name_short":"frk-8","host":"frk-1.de.uncletopia.com","port":27085,"enabled":true,"region":"eu","cc":"de","latitude":50.110924,"longitude":8.682127,"reserved":0,"last_update":"0001-01-01T00:00:00Z","name_a2s":"Uncletopia | Frankfurt | 8 | Community","protocol":17,"map":"cp_mountainlab","folder":"tf","game":"Team Fortress","app_id":440,"player_count":0,"max_players":24,"Bots":0,"server_type":"Dedicated","server_os":"Linux","password":true,"vac":true,"version":"7961495","steam_id":85568392924742828,"keywords":["cp","nocrits","nodmgspread","uncletopia"],"game_id":440,"stv_port":27086,"stv_name":"Uncletopia | Frankfurt | 8 | Community | STV","players":null},{"server_id":202,"name":"Uncletopia | Hong Kong | 1 | All Maps","name_short":"hgk-1","host":"hgk-1.hk.uncletopia.com","port":27015,"enabled":true,"region":"asia","cc":"hk","latitude":22.302711,"longitude":114.177216,"reserved":0,"last_update":"0001-01-01T00:00:00Z","name_a2s":"Uncletopia | Hong Kong | 1 | All Maps","protocol":17,"map":"pl_badwater","folder":"tf","game":"Team Fortress","app_id":440,"player_count":24,"max_players":24,"Bots":0,"server_type":"Dedicated","server_os":"Linux","password":true,"vac":true,"version":"7961495","steam_id":85568392924494504,"keywords":["nocrits","nodmgspread","payload","uncletopia"],"game_id":440,"stv_port":27016,"stv_name":"Uncletopia | Hong Kong | 1 | All Maps | STV","players":[{"user_id":202,"name":"sierra","steam_id":76561197969873415,"connected_time":742000000000,"state":"active","ping":131},{"user_id":177,"name":"Beef Wellington","steam_id":76561197995635241,"connected_time":2768000000000,"state":"active","ping":107},{"user_id":187,"name":"JDSFE","steam_id":76561198975490851,"connected_time":2273000000000,"state":"active","ping":84},{"user_id":167,"name":"Momoxhien","steam_id":76561198414997429,"connected_time":5219000000000,"state":"active","ping":62},{"user_id":140,"name":"Samoyed","steam_id":76561198299150410,"connected_time":8365000000000,"state":"active","ping":74},{"user_id":203,"name":"corpse_cadaver","steam_id":76561199225360457,"connected_time":716000000000,"state":"active","ping":72},{"user_id":148,"name":"Lelouch","steam_id":76561198828840546,"connected_time":7819000000000,"state":"active","ping":76},{"user_id":147,"name":"vintage","steam_id":76561198230213828,"connected_time":7852000000000,"state":"active","ping":61},{"user_id":192,"name":"beaver the domestic terrorist","steam_id":76561199219484527,"connected_time":1496000000000,"state":"active","ping":118},{"user_id":206,"name":"TomProPlayer","steam_id":76561199223292521,"connected_time":234000000000,"state":"active","ping":70},{"user_id":168,"name":"StewBحِيْمツ","steam_id":76561198131423270,"connected_time":4577000000000,"state":"active","ping":94},{"user_id":196,"name":"Kyo","steam_id":76561198088550274,"connected_time":1330000000000,"state":"active","ping":42},{"user_id":199,"name":"churropan","steam_id":76561199258385450,"connected_time":1052000000000,"state":"active","ping":94},{"user_id":151,"name":"SICSIN","steam_id":76561198083923462,"connected_time":7690000000000,"state":"active","ping":76},{"user_id":189,"name":"bitch tits","steam_id":76561198055553140,"connected_time":2273000000000,"state":"active","ping":80},{"user_id":191,"name":"2746","steam_id":76561199390507975,"connected_time":1655000000000,"state":"active","ping":57},{"user_id":194,"name":"mikee","steam_id":76561198195207601,"connected_time":1403000000000,"state":"active","ping":152},{"user_id":207,"name":"Diavolo Diablo","steam_id":76561198166295333,"connected_time":6000000000,"state":"spawning","ping":77},{"user_id":193,"name":"Dell Conagher","steam_id":76561198853001370,"connected_time":1495000000000,"state":"active","ping":56},{"user_id":169,"name":"the NYN mass producer","steam_id":76561198214192048,"connected_time":4561000000000,"state":"active","ping":87},{"user_id":70,"name":"im_0ff","steam_id":76561198339346695,"connected_time":16020000000000,"state":"active","ping":127},{"user_id":197,"name":"Creaserg","steam_id":76561198827951097,"connected_time":1330000000000,"state":"active","ping":88},{"user_id":176,"name":"mogi","steam_id":76561198252950371,"connected_time":3580000000000,"state":"active","ping":83},{"user_id":183,"name":"noob pyro of all time","steam_id":76561198074339034,"connected_time":2465000000000,"state":"active","ping":77}]},{"server_id":1,"name":"Uncletopia | Los Angeles | 1 | All Maps","name_short":"lax-1","host":"lax-1.us.uncletopia.com","port":27015,"enabled":true,"region":"us-west","cc":"us","latitude":33.94279,"longitude":-118.41004,"reserved":0,"last_update":"0001-01-01T00:00:00Z","name_a2s":"Uncletopia | Los Angeles | 1 | All Maps","protocol":17,"map":"ctf_turbine","folder":"tf","game":"Team Fortress","app_id":440,"player_count":20,"max_players":24,"Bots":0,"server_type":"Dedicated","server_os":"Linux","password":true,"vac":true,"version":"7961495","steam_id":85568392924469991,"keywords":["ctf","nocrits","nodmgspread","uncletopia"],"game_id":440,"stv_port":27016,"stv_name":"Uncletopia | Los Angeles | 1 | All Maps | STV","players":[{"user_id":676,"name":"Katie_Fox","steam_id":76561198285289776,"connected_time":1271000000000,"state":"active","ping":118},{"user_id":657,"name":"Cypress [ +/- ] ✔","steam_id":76561198067164431,"connected_time":2606000000000,"state":"active","ping":34},{"user_id":680,"name":"Obrodai","steam_id":76561199465783209,"connected_time":297000000000,"state":"active","ping":42},{"user_id":536,"name":"HAT-WEARING™ Maggot Gamer Cat","steam_id":76561197973992705,"connected_time":14974000000000,"state":"active","ping":65},{"user_id":649,"name":"Juicy","steam_id":76561198049220780,"connected_time":3067000000000,"state":"active","ping":47},{"user_id":687,"name":"not a gamer girl","steam_id":76561198046948758,"connected_time":215000000000,"state":"active","ping":104},{"user_id":686,"name":"Stock Dog","steam_id":76561198070469034,"connected_time":221000000000,"state":"active","ping":103},{"user_id":646,"name":"Evan_braddock","steam_id":76561199033707012,"connected_time":3476000000000,"state":"active","ping":71},{"user_id":628,"name":"canadian birds","steam_id":76561198059466588,"connected_time":5008000000000,"state":"active","ping":105},{"user_id":664,"name":"A Parliament of Owls","steam_id":76561197996200417,"connected_time":2154000000000,"state":"active","ping":51},{"user_id":633,"name":"suck it easy","steam_id":76561198327633561,"connected_time":4541000000000,"state":"active","ping":55},{"user_id":641,"name":"Zer0","steam_id":76561198043019708,"connected_time":3966000000000,"state":"active","ping":119},{"user_id":672,"name":"dumbeeon","steam_id":76561198059351874,"connected_time":1735000000000,"state":"active","ping":46},{"user_id":631,"name":"DaWayOfRockets","steam_id":76561199228437541,"connected_time":4675000000000,"state":"active","ping":168},{"user_id":662,"name":"Callie","steam_id":76561198131833567,"connected_time":2344000000000,"state":"active","ping":80},{"user_id":665,"name":"Just Another Eevee","steam_id":76561198262852705,"connected_time":2138000000000,"state":"active","ping":89},{"user_id":679,"name":"Faux Booz","steam_id":76561198083755379,"connected_time":658000000000,"state":"active","ping":56},{"user_id":689,"name":"this is the end","steam_id":76561198088954220,"connected_time":199000000000,"state":"active","ping":60},{"user_id":677,"name":"vuldrin","steam_id":76561198383695069,"connected_time":1150000000000,"state":"active","ping":56},{"user_id":598,"name":"MerkyWaters","steam_id":76561197998853063,"connected_time":8100000000000,"state":"active","ping":56}]},{"server_id":112,"name":"Uncletopia | Los Angeles | 2 | All Maps","name_short":"lax-2","host":"lax-1.us.uncletopia.com","port":27025,"enabled":true,"region":"us-west","cc":"us","latitude":33.94279,"longitude":-118.41004,"reserved":0,"last_update":"0001-01-01T00:00:00Z","name_a2s":"Uncletopia | Los Angeles | 2 | All Maps","protocol":17,"map":"koth_highpass","folder":"tf","game":"Team Fortress","app_id":440,"player_count":0,"max_players":24,"Bots":0,"server_type":"Dedicated","server_os":"Linux","password":true,"vac":true,"version":"7961495","steam_id":85568392924469992,"keywords":["cp","nocrits","nodmgspread","uncletopia"],"game_id":440,"stv_port":27026,"stv_name":"Uncletopia | Los Angeles | 2 | All Maps | STV","players":null},{"server_id":324,"name":"Uncletopia | Los Angeles | 3 | All Maps","name_short":"lax-3","host":"lax-1.us.uncletopia.com","port":27035,"enabled":true,"region":"us-west","cc":"us","latitude":33.94279,"longitude":-118.41004,"reserved":0,"last_update":"0001-01-01T00:00:00Z","name_a2s":"Uncletopia | Los Angeles | 3 | All Maps","protocol":17,"map":"pl_pier","folder":"tf","game":"Team Fortress","app_id":440,"player_count":2,"max_players":24,"Bots":0,"server_type":"Dedicated","server_os":"Linux","password":true,"vac":true,"version":"7961495","steam_id":85568392924510198,"keywords":["nocrits","nodmgspread","payload","uncletopia"],"game_id":440,"stv_port":27036,"stv_name":"Uncletopia | Los Angeles | 3 | All Maps | STV","players":[{"user_id":28,"name":"Drewski","steam_id":76561198334969647,"connected_time":1923000000000,"state":"active","ping":63},{"user_id":29,"name":"herbletea","steam_id":76561199079523149,"connected_time":1858000000000,"state":"active","ping":40}]},{"server_id":25,"name":"Uncletopia | Los Angeles | 4 | Stopwatch","name_short":"lax-4","host":"lax-1.us.uncletopia.com","port":27045,"enabled":true,"region":"us-west","cc":"us","latitude":33.94279,"longitude":-118.41004,"reserved":0,"last_update":"0001-01-01T00:00:00Z","name_a2s":"Uncletopia | Los Angeles | 4 | Stopwatch","protocol":17,"map":"pl_swiftwater_final1","folder":"tf","game":"Team Fortress","app_id":440,"player_count":0,"max_players":24,"Bots":0,"server_type":"Dedicated","server_os":"Linux","password":true,"vac":true,"version":"7961495","steam_id":85568392924510199,"keywords":["nocrits","nodmgspread","payload","uncletopia"],"game_id":440,"stv_port":27046,"stv_name":"Uncletopia | Los Angeles | 4 | Stopwatch | STV","players":null},{"server_id":11,"name":"Uncletopia | London | 1 | All Maps","name_short":"lon-1","host":"lon-1.uk.uncletopia.com","port":27015,"enabled":true,"region":"eu","cc":"gb","latitude":51.509865,"longitude":-0.118092,"reserved":0,"last_update":"0001-01-01T00:00:00Z","name_a2s":"Uncletopia | London | 1 | All Maps","protocol":17,"map":"pl_badwater","folder":"tf","game":"Team Fortress","app_id":440,"player_count":24,"max_players":24,"Bots":0,"server_type":"Dedicated","server_os":"Linux","password":true,"vac":true,"version":"7961495","steam_id":85568392924367362,"keywords":["nocrits","nodmgspread","payload","uncletopia"],"game_id":440,"stv_port":27016,"stv_name":"Uncletopia | London | 1 | All Maps | STV","players":[{"user_id":173,"name":"You slumber","steam_id":76561198344639692,"connected_time":2716000000000,"state":"active","ping":84},{"user_id":160,"name":"Master coitus","steam_id":76561198050416948,"connected_time":3684000000000,"state":"active","ping":59},{"user_id":181,"name":"legalize glue","steam_id":76561198191369066,"connected_time":1146000000000,"state":"active","ping":122},{"user_id":188,"name":"Egor Pomidor","steam_id":76561199175688390,"connected_time":395000000000,"state":"active","ping":78},{"user_id":197,"name":"﷽","steam_id":76561198365973345,"connected_time":172000000000,"state":"active","ping":68},{"user_id":152,"name":"Syke Jr","steam_id":76561198038479641,"connected_time":4327000000000,"state":"active","ping":57},{"user_id":128,"name":"Jacob Glenderson [LIVE]","steam_id":76561198076219289,"connected_time":7029000000000,"state":"active","ping":50},{"user_id":192,"name":"WEEP","steam_id":76561199499933159,"connected_time":329000000000,"state":"active","ping":63},{"user_id":189,"name":"SYLOK","steam_id":76561198117257427,"connected_time":388000000000,"state":"active","ping":91},{"user_id":117,"name":"TheGamingArtichoke (LIVE)","steam_id":76561198046873337,"connected_time":7617000000000,"state":"active","ping":59},{"user_id":155,"name":"ALARM","steam_id":76561198120686521,"connected_time":3931000000000,"state":"active","ping":62},{"user_id":190,"name":"Trendyboy","steam_id":76561197994908436,"connected_time":366000000000,"state":"active","ping":77},{"user_id":191,"name":"Frosty","steam_id":76561199055987798,"connected_time":356000000000,"state":"active","ping":62},{"user_id":198,"name":"ᴀꜱᴋᴜʟᴀᴘ","steam_id":76561197992018795,"connected_time":110000000000,"state":"active","ping":85},{"user_id":122,"name":"night.s","steam_id":76561198326287823,"connected_time":7228000000000,"state":"active","ping":74},{"user_id":199,"name":"Fatmagic Mukbang ASMR","steam_id":76561198063492110,"connected_time":57000000000,"state":"active","ping":72},{"user_id":176,"name":"Richard nixon roleplayer","steam_id":76561198236015392,"connected_time":1791000000000,"state":"active","ping":122},{"user_id":170,"name":"peters.garrett0","steam_id":76561199212526145,"connected_time":2892000000000,"state":"active","ping":133},{"user_id":167,"name":"marvi444","steam_id":76561198431534139,"connected_time":3301000000000,"state":"active","ping":59},{"user_id":195,"name":"Sus Fring","steam_id":76561198821542489,"connected_time":240000000000,"state":"active","ping":97},{"user_id":163,"name":"mr.BOOOOOM!(yours truly)","steam_id":76561198010662796,"connected_time":3401000000000,"state":"active","ping":46},{"user_id":174,"name":"TotallyRealRunarTvålfager™","steam_id":76561198018228013,"connected_time":2433000000000,"state":"active","ping":70},{"user_id":179,"name":"frequeNt_","steam_id":76561198087457220,"connected_time":1657000000000,"state":"active","ping":80},{"user_id":183,"name":"eon","steam_id":76561197971360276,"connected_time":1143000000000,"state":"active","ping":68}]},{"server_id":114,"name":"Uncletopia | London | 2 | All Maps","name_short":"lon-2","host":"lon-1.uk.uncletopia.com","port":27025,"enabled":true,"region":"eu","cc":"gb","latitude":51.509865,"longitude":-0.118092,"reserved":0,"last_update":"0001-01-01T00:00:00Z","name_a2s":"Uncletopia | London | 2 | All Maps","protocol":17,"map":"koth_lakeside_final","folder":"tf","game":"Team Fortress","app_id":440,"player_count":0,"max_players":24,"Bots":0,"server_type":"Dedicated","server_os":"Linux","password":true,"vac":true,"version":"7961495","steam_id":85568392924470941,"keywords":["cp","nocrits","nodmgspread","uncletopia"],"game_id":440,"stv_port":27026,"stv_name":"Uncletopia | London | 2 | All Maps | STV","players":null},{"server_id":320,"name":"Uncletopia | London | 3 | All Maps","name_short":"lon-3","host":"lon-1.uk.uncletopia.com","port":27035,"enabled":true,"region":"eu","cc":"gb","latitude":51.509865,"longitude":-0.118092,"reserved":0,"last_update":"0001-01-01T00:00:00Z","name_a2s":"Uncletopia | London | 3 | All Maps","protocol":17,"map":"cp_process_final","folder":"tf","game":"Team Fortress","app_id":440,"player_count":0,"max_players":24,"Bots":0,"server_type":"Dedicated","server_os":"Linux","password":true,"vac":true,"version":"7961495","steam_id":85568392924510192,"keywords":["cp","nocrits","nodmgspread","uncletopia"],"game_id":440,"stv_port":27036,"stv_name":"Uncletopia | London | 3 | All Maps | STV","players":null},{"server_id":321,"name":"Uncletopia | London | 4 | All Maps","name_short":"lon-4","host":"lon-1.uk.uncletopia.com","port":27045,"enabled":true,"region":"eu","cc":"gb","latitude":51.509865,"longitude":-0.118092,"reserved":0,"last_update":"0001-01-01T00:00:00Z","name_a2s":"Uncletopia | London | 4 | All Maps","protocol":17,"map":"pl_barnblitz","folder":"tf","game":"Team Fortress","app_id":440,"player_count":23,"max_players":24,"Bots":0,"server_type":"Dedicated","server_os":"Linux","password":true,"vac":true,"version":"7961495","steam_id":85568392924510193,"keywords":["nocrits","nodmgspread","payload","uncletopia"],"game_id":440,"stv_port":27046,"stv_name":"Uncletopia | London | 4 | All Maps | STV","players":[{"user_id":123,"name":"Na'vi Misato (by popular demand","steam_id":76561198130860698,"connected_time":851000000000,"state":"active","ping":61},{"user_id":104,"name":"Blax","steam_id":76561198377155387,"connected_time":1817000000000,"state":"active","ping":57},{"user_id":122,"name":"sad bitch kiki","steam_id":76561198838277022,"connected_time":863000000000,"state":"active","ping":76},{"user_id":84,"name":"gentoo stage 1 tarball","steam_id":76561199077022985,"connected_time":4212000000000,"state":"active","ping":48},{"user_id":81,"name":"Armored","steam_id":76561198267449130,"connected_time":4300000000000,"state":"active","ping":82},{"user_id":98,"name":"ExtraFlames","steam_id":76561199136146246,"connected_time":2594000000000,"state":"active","ping":61},{"user_id":134,"name":"åke","steam_id":76561198214848887,"connected_time":44000000000,"state":"active","ping":61},{"user_id":124,"name":"Elix","steam_id":76561199072306920,"connected_time":796000000000,"state":"active","ping":99},{"user_id":133,"name":"korea","steam_id":76561198120520111,"connected_time":187000000000,"state":"active","ping":63},{"user_id":113,"name":"tube sock","steam_id":76561198073576350,"connected_time":1449000000000,"state":"active","ping":80},{"user_id":88,"name":"★Lily","steam_id":76561198014774371,"connected_time":3841000000000,"state":"active","ping":34},{"user_id":115,"name":"KAZAM | Tervez","steam_id":76561198045459068,"connected_time":1370000000000,"state":"active","ping":88},{"user_id":74,"name":"Xtis","steam_id":76561198043837480,"connected_time":4442000000000,"state":"active","ping":74},{"user_id":116,"name":"Darfsterman #rustclash","steam_id":76561199004139305,"connected_time":1293000000000,"state":"active","ping":62},{"user_id":120,"name":"Aphrodite","steam_id":76561199085162623,"connected_time":1090000000000,"state":"active","ping":79},{"user_id":129,"name":"pavyonspor","steam_id":76561198116530769,"connected_time":549000000000,"state":"active","ping":96},{"user_id":132,"name":"big bug buttz","steam_id":76561198115106008,"connected_time":258000000000,"state":"active","ping":52},{"user_id":109,"name":"b0gman","steam_id":76561198051124946,"connected_time":1714000000000,"state":"active","ping":49},{"user_id":110,"name":"Amiriki","steam_id":76561198005050734,"connected_time":1645000000000,"state":"active","ping":47},{"user_id":64,"name":"Waltcha","steam_id":76561198007691468,"connected_time":5359000000000,"state":"active","ping":65},{"user_id":82,"name":"Jakk","steam_id":76561198041537908,"connected_time":4293000000000,"state":"active","ping":66},{"user_id":114,"name":"Double Helix","steam_id":76561198085155381,"connected_time":1404000000000,"state":"active","ping":76},{"user_id":97,"name":"The CEO of Sex Inc.","steam_id":76561198385989487,"connected_time":2604000000000,"state":"active","ping":98}]},{"server_id":21,"name":"Uncletopia | London | 5 | All Maps","name_short":"lon-5","host":"lon-1.uk.uncletopia.com","port":27055,"enabled":true,"region":"eu","cc":"gb","latitude":51.509865,"longitude":-0.118092,"reserved":0,"last_update":"0001-01-01T00:00:00Z","name_a2s":"Uncletopia | London | 5 | All Maps","protocol":17,"map":"koth_lakeside_final","folder":"tf","game":"Team Fortress","app_id":440,"player_count":0,"max_players":24,"Bots":0,"server_type":"Dedicated","server_os":"Linux","password":true,"vac":true,"version":"7961495","steam_id":85568392924742829,"keywords":["cp","nocrits","nodmgspread","uncletopia"],"game_id":440,"stv_port":27056,"stv_name":"Uncletopia | London | 5 | All Maps | STV","players":null},{"server_id":22,"name":"Uncletopia | London | 6 | All Maps","name_short":"lon-6","host":"lon-1.uk.uncletopia.com","port":27065,"enabled":true,"region":"eu","cc":"gb","latitude":51.509865,"longitude":-0.118092,"reserved":0,"last_update":"0001-01-01T00:00:00Z","name_a2s":"Uncletopia | London | 6 | All Maps","protocol":17,"map":"pl_pier","folder":"tf","game":"Team Fortress","app_id":440,"player_count":0,"max_players":24,"Bots":0,"server_type":"Dedicated","server_os":"Linux","password":true,"vac":true,"version":"7961495","steam_id":85568392924742830,"keywords":["nocrits","nodmgspread","payload","uncletopia"],"game_id":440,"stv_port":27066,"stv_name":"Uncletopia | London | 6 | All Maps | STV","players":null},{"server_id":40,"name":"Uncletopia | London | 7 | Stopwatch","name_short":"lon-7","host":"lon-1.uk.uncletopia.com","port":27075,"enabled":true,"region":"eu","cc":"gb","latitude":51.509865,"longitude":-0.118092,"reserved":0,"last_update":"0001-01-01T00:00:00Z","name_a2s":"Uncletopia | London | 7 | Stopwatch","protocol":17,"map":"koth_lakeside_final","folder":"tf","game":"Team Fortress","app_id":440,"player_count":0,"max_players":24,"Bots":0,"server_type":"Dedicated","server_os":"Linux","password":true,"vac":true,"version":"7961495","steam_id":85568392924964314,"keywords":["cp","nocrits","nodmgspread","uncletopia"],"game_id":440,"stv_port":27076,"stv_name":"Uncletopia | London | 7 | Stopwatch | STV","players":null},{"server_id":41,"name":"Uncletopia | London | 8 | Community","name_short":"lon-8","host":"lon-1.uk.uncletopia.com","port":27085,"enabled":true,"region":"eu","cc":"gb","latitude":51.509865,"longitude":-0.118092,"reserved":0,"last_update":"0001-01-01T00:00:00Z","name_a2s":"Uncletopia | London | 8 | Community","protocol":17,"map":"workshop/pl_cactuscanyon_redux_final2.ugc2579644293","folder":"tf","game":"Team Fortress","app_id":440,"player_count":0,"max_players":24,"Bots":0,"server_type":"Dedicated","server_os":"Linux","password":true,"vac":true,"version":"7961495","steam_id":85568392924964315,"keywords":["nocrits","nodmgspread","payload","uncletopia"],"game_id":440,"stv_port":27086,"stv_name":"Uncletopia | London | 8 | Community | STV","players":null},{"server_id":300,"name":"Uncletopia | Montréal | 1 | One Thousand Uncles","name_short":"mtl-1","host":"mtl-1.ca.uncletopia.com","port":27015,"enabled":true,"region":"us-east","cc":"ca","latitude":45.50889,"longitude":-73.56167,"reserved":0,"last_update":"0001-01-01T00:00:00Z","name_a2s":"","protocol":0,"map":"","folder":"","game":"","app_id":0,"player_count":0,"max_players":0,"Bots":0,"server_type":"","server_os":"","password":false,"vac":false,"version":"","steam_id":0,"keywords":null,"game_id":0,"stv_port":0,"stv_name":"","players":null},{"server_id":301,"name":"Uncletopia | Montréal | 2 | One Thousand Uncles","name_short":"mtl-2","host":"mtl-1.ca.uncletopia.com","port":27025,"enabled":true,"region":"us-east","cc":"ca","latitude":45.50889,"longitude":-73.56167,"reserved":0,"last_update":"0001-01-01T00:00:00Z","name_a2s":"","protocol":0,"map":"","folder":"","game":"","app_id":0,"player_count":0,"max_players":0,"Bots":0,"server_type":"","server_os":"","password":false,"vac":false,"version":"","steam_id":0,"keywords":null,"game_id":0,"stv_port":0,"stv_name":"","players":null},{"server_id":302,"name":"Uncletopia | Montréal | 3 | One Thousand Uncles","name_short":"mtl-3","host":"mtl-1.ca.uncletopia.com","port":27035,"enabled":true,"region":"us-east","cc":"ca","latitude":45.50889,"longitude":-73.56167,"reserved":0,"last_update":"0001-01-01T00:00:00Z","name_a2s":"","protocol":0,"map":"","folder":"","game":"","app_id":0,"player_count":0,"max_players":0,"Bots":0,"server_type":"","server_os":"","password":false,"vac":false,"version":"","steam_id":0,"keywords":null,"game_id":0,"stv_port":0,"stv_name":"","players":null},{"server_id":13,"name":"Uncletopia | New York City | 1 | All Maps","name_short":"nyc-1","host":"nyc-1.us.uncletopia.com","port":27015,"enabled":true,"region":"us-east","cc":"us","latitude":40.73061,"longitude":-73.93524,"reserved":0,"last_update":"0001-01-01T00:00:00Z","name_a2s":"Uncletopia | New York City | 1 | All Maps","protocol":17,"map":"cp_snakewater_final1","folder":"tf","game":"Team Fortress","app_id":440,"player_count":0,"max_players":24,"Bots":0,"server_type":"Dedicated","server_os":"Linux","password":true,"vac":true,"version":"7961495","steam_id":85568392924469993,"keywords":["cp","nocrits","nodmgspread","uncletopia"],"game_id":440,"stv_port":27016,"stv_name":"Uncletopia | New York City | 1 | All Maps | STV","players":null},{"server_id":14,"name":"Uncletopia | New York City | 2 | All Maps","name_short":"nyc-2","host":"nyc-1.us.uncletopia.com","port":27025,"enabled":true,"region":"us-east","cc":"us","latitude":40.73061,"longitude":-73.93524,"reserved":0,"last_update":"0001-01-01T00:00:00Z","name_a2s":"Uncletopia | New York City | 2 | All Maps","protocol":17,"map":"koth_highpass","folder":"tf","game":"Team Fortress","app_id":440,"player_count":0,"max_players":24,"Bots":0,"server_type":"Dedicated","server_os":"Linux","password":true,"vac":true,"version":"7961495","steam_id":85568392924469994,"keywords":["cp","nocrits","nodmgspread","uncletopia"],"game_id":440,"stv_port":27026,"stv_name":"Uncletopia | New York City | 2 | All Maps | STV","players":null},{"server_id":15,"name":"Uncletopia | New York City | 3 | Stopwatch","name_short":"nyc-3","host":"nyc-1.us.uncletopia.com","port":27035,"enabled":true,"region":"us-east","cc":"us","latitude":40.73061,"longitude":-73.93524,"reserved":0,"last_update":"0001-01-01T00:00:00Z","name_a2s":"Uncletopia | New York City | 3 | Stopwatch","protocol":17,"map":"pl_swiftwater_final1","folder":"tf","game":"Team Fortress","app_id":440,"player_count":0,"max_players":24,"Bots":0,"server_type":"Dedicated","server_os":"Linux","password":true,"vac":true,"version":"7961495","steam_id":85568392924742820,"keywords":["nocrits","nodmgspread","payload","uncletopia"],"game_id":440,"stv_port":27036,"stv_name":"Uncletopia | New York City | 3 | Stopwatch | STV","players":null},{"server_id":16,"name":"Uncletopia | New York City | 4 | Community","name_short":"nyc-4","host":"nyc-1.us.uncletopia.com","port":27045,"enabled":true,"region":"us-east","cc":"us","latitude":40.73061,"longitude":-73.93524,"reserved":0,"last_update":"0001-01-01T00:00:00Z","name_a2s":"Uncletopia | New York City | 4 | Community","protocol":17,"map":"workshop/cp_fulgur_rc2a.ugc2068252300","folder":"tf","game":"Team Fortress","app_id":440,"player_count":0,"max_players":24,"Bots":0,"server_type":"Dedicated","server_os":"Linux","password":true,"vac":true,"version":"7961495","steam_id":85568392924742821,"keywords":["cp","nocrits","nodmgspread","uncletopia"],"game_id":440,"stv_port":27046,"stv_name":"Uncletopia | New York City | 4 | Community | STV","players":null},{"server_id":142,"name":"Uncletopia | São Paulo | 1 | All Maps","name_short":"sao-1","host":"sao-1.br.uncletopia.com","port":27015,"enabled":true,"region":"sa","cc":"br","latitude":-23.533773,"longitude":-46.62529,"reserved":0,"last_update":"0001-01-01T00:00:00Z","name_a2s":"Uncletopia | São Paulo | 1 | All Maps","protocol":17,"map":"cp_mountainlab","folder":"tf","game":"Team Fortress","app_id":440,"player_count":0,"max_players":24,"Bots":0,"server_type":"Dedicated","server_os":"Linux","password":true,"vac":true,"version":"7961495","steam_id":85568392924469996,"keywords":["cp","nocrits","nodmgspread","uncletopia"],"game_id":440,"stv_port":27016,"stv_name":"Uncletopia | São Paulo | 1 | All Maps | STV","players":null},{"server_id":143,"name":"Uncletopia | São Paulo | 2 | Community","name_short":"sao-2","host":"sao-2.br.uncletopia.com","port":27015,"enabled":true,"region":"sa","cc":"br","latitude":-23.533773,"longitude":-46.62529,"reserved":0,"last_update":"0001-01-01T00:00:00Z","name_a2s":"Uncletopia | São Paulo | 2 | Community","protocol":17,"map":"pl_badwater","folder":"tf","game":"Team Fortress","app_id":440,"player_count":0,"max_players":24,"Bots":0,"server_type":"Dedicated","server_os":"Linux","password":true,"vac":true,"version":"7961495","steam_id":85568392924485349,"keywords":["nocrits","nodmgspread","payload","uncletopia"],"game_id":440,"stv_port":27016,"stv_name":"Uncletopia | São Paulo | 2 | Community | STV","players":null},{"server_id":7,"name":"Uncletopia | Seattle | 1 | All Maps","name_short":"sea-1","host":"sea-1.us.uncletopia.com","port":27015,"enabled":true,"region":"us-west","cc":"us","latitude":47.608013,"longitude":-122.33517,"reserved":0,"last_update":"0001-01-01T00:00:00Z","name_a2s":"Uncletopia | Seattle | 1 | All Maps","protocol":17,"map":"pl_pier","folder":"tf","game":"Team Fortress","app_id":440,"player_count":24,"max_players":24,"Bots":0,"server_type":"Dedicated","server_os":"Linux","password":true,"vac":true,"version":"7961495","steam_id":85568392924469997,"keywords":["nocrits","nodmgspread","payload","uncletopia"],"game_id":440,"stv_port":27016,"stv_name":"Uncletopia | Seattle | 1 | All Maps | STV","players":[{"user_id":778,"name":"nolove","steam_id":76561198274550638,"connected_time":3532000000000,"state":"active","ping":105},{"user_id":779,"name":"lshleo","steam_id":76561198366975960,"connected_time":3529000000000,"state":"active","ping":158},{"user_id":777,"name":"gyat","steam_id":76561198043684960,"connected_time":3636000000000,"state":"active","ping":130},{"user_id":801,"name":"Dia Shakez","steam_id":76561198099617734,"connected_time":2194000000000,"state":"active","ping":45},{"user_id":813,"name":"self sufficient kitten","steam_id":76561197960592612,"connected_time":822000000000,"state":"active","ping":45},{"user_id":809,"name":"Cinical","steam_id":76561198353955322,"connected_time":982000000000,"state":"active","ping":81},{"user_id":805,"name":"KrylonHeretic","steam_id":76561198139811459,"connected_time":1453000000000,"state":"active","ping":83},{"user_id":807,"name":"kenZino","steam_id":76561197967971192,"connected_time":1060000000000,"state":"active","ping":51},{"user_id":787,"name":"Keamy","steam_id":76561199471434875,"connected_time":3363000000000,"state":"active","ping":44},{"user_id":814,"name":"\u003c3","steam_id":76561198196829267,"connected_time":769000000000,"state":"active","ping":74},{"user_id":811,"name":"mafia is mafia","steam_id":76561198042574722,"connected_time":923000000000,"state":"active","ping":48},{"user_id":784,"name":"Archie","steam_id":76561198137112917,"connected_time":3437000000000,"state":"active","ping":66},{"user_id":707,"name":"tapdancing spy","steam_id":76561198065662025,"connected_time":9469000000000,"state":"active","ping":70},{"user_id":746,"name":"A Pizza Already","steam_id":76561198064918401,"connected_time":6400000000000,"state":"active","ping":66},{"user_id":763,"name":"bark","steam_id":76561197992287250,"connected_time":4997000000000,"state":"active","ping":84},{"user_id":761,"name":"Nom Skirrett","steam_id":76561198014600788,"connected_time":5290000000000,"state":"active","ping":55},{"user_id":785,"name":"rock gaming","steam_id":76561199402868311,"connected_time":3423000000000,"state":"active","ping":75},{"user_id":788,"name":"Spare(8)Ball","steam_id":76561197982432995,"connected_time":3182000000000,"state":"active","ping":73},{"user_id":815,"name":"Wormy of bad luck","steam_id":76561198054539200,"connected_time":501000000000,"state":"active","ping":53},{"user_id":812,"name":"Arcane Flame","steam_id":76561198360024422,"connected_time":867000000000,"state":"active","ping":76},{"user_id":793,"name":"FidelGuevara","steam_id":76561198368296171,"connected_time":2813000000000,"state":"active","ping":92},{"user_id":795,"name":"Fred","steam_id":76561197983870604,"connected_time":2701000000000,"state":"active","ping":86},{"user_id":796,"name":"waggyaggy (it/she)","steam_id":76561197998241407,"connected_time":2612000000000,"state":"active","ping":79},{"user_id":792,"name":"CometDrg0n_(he/him)","steam_id":76561198175713051,"connected_time":2980000000000,"state":"active","ping":42}]},{"server_id":119,"name":"Uncletopia | Seattle | 2 | All Maps","name_short":"sea-2","host":"sea-1.us.uncletopia.com","port":27025,"enabled":true,"region":"us-west","cc":"us","latitude":47.608013,"longitude":-122.33517,"reserved":0,"last_update":"0001-01-01T00:00:00Z","name_a2s":"Uncletopia | Seattle | 2 | All Maps","protocol":17,"map":"pl_pier","folder":"tf","game":"Team Fortress","app_id":440,"player_count":22,"max_players":24,"Bots":0,"server_type":"Dedicated","server_os":"Linux","password":true,"vac":true,"version":"7961495","steam_id":85568392924469998,"keywords":["nocrits","nodmgspread","payload","uncletopia"],"game_id":440,"stv_port":27026,"stv_name":"Uncletopia | Seattle | 2 | All Maps | STV","players":[{"user_id":352,"name":"resh","steam_id":76561198239598834,"connected_time":5785000000000,"state":"active","ping":124},{"user_id":338,"name":"The Population of Sweden","steam_id":76561198202201644,"connected_time":7353000000000,"state":"active","ping":40},{"user_id":368,"name":"kill me","steam_id":76561198032625036,"connected_time":2464000000000,"state":"active","ping":53},{"user_id":380,"name":"lol","steam_id":76561198062284950,"connected_time":1050000000000,"state":"active","ping":81},{"user_id":378,"name":"Doctor™","steam_id":76561198134309750,"connected_time":1404000000000,"state":"active","ping":96},{"user_id":333,"name":"NEBULA","steam_id":76561198086878595,"connected_time":7643000000000,"state":"active","ping":74},{"user_id":381,"name":"Giant Rat Ashes +7","steam_id":76561198045235251,"connected_time":1047000000000,"state":"active","ping":41},{"user_id":335,"name":"smeasly","steam_id":76561198028718812,"connected_time":7375000000000,"state":"active","ping":37},{"user_id":382,"name":"jorts","steam_id":76561199041179985,"connected_time":921000000000,"state":"active","ping":56},{"user_id":372,"name":"Polar","steam_id":76561198055781237,"connected_time":2138000000000,"state":"active","ping":40},{"user_id":366,"name":"crime scene princess","steam_id":76561198049258493,"connected_time":2856000000000,"state":"active","ping":53},{"user_id":311,"name":"delight","steam_id":76561197980280272,"connected_time":9515000000000,"state":"active","ping":44},{"user_id":340,"name":"Wafflemuscle","steam_id":76561198868628982,"connected_time":7299000000000,"state":"active","ping":41},{"user_id":348,"name":"peachy","steam_id":76561198028721790,"connected_time":6326000000000,"state":"active","ping":63},{"user_id":379,"name":"Sweets","steam_id":76561198998446307,"connected_time":1324000000000,"state":"active","ping":65},{"user_id":385,"name":"real","steam_id":76561198156053300,"connected_time":645000000000,"state":"active","ping":78},{"user_id":386,"name":"{907}DarkestFury","steam_id":76561198103662458,"connected_time":603000000000,"state":"active","ping":78},{"user_id":329,"name":"Grand","steam_id":76561198290143399,"connected_time":8233000000000,"state":"active","ping":79},{"user_id":362,"name":"HotHead","steam_id":76561198138468982,"connected_time":3340000000000,"state":"active","ping":34},{"user_id":371,"name":"Amazing476","steam_id":76561198103937489,"connected_time":2354000000000,"state":"active","ping":79},{"user_id":316,"name":"rushy :))","steam_id":76561198065825165,"connected_time":8890000000000,"state":"active","ping":100},{"user_id":377,"name":"ed","steam_id":76561198080475712,"connected_time":1645000000000,"state":"active","ping":68}]},{"server_id":406,"name":"Uncletopia | Seattle | 3 | Stopwatch","name_short":"sea-3","host":"sea-1.us.uncletopia.com","port":27035,"enabled":true,"region":"us-west","cc":"us","latitude":47.608013,"longitude":-122.33517,"reserved":0,"last_update":"0001-01-01T00:00:00Z","name_a2s":"Uncletopia | Seattle | 3 | Stopwatch","protocol":17,"map":"cp_metalworks","folder":"tf","game":"Team Fortress","app_id":440,"player_count":0,"max_players":24,"Bots":0,"server_type":"Dedicated","server_os":"Linux","password":true,"vac":true,"version":"7961495","steam_id":85568392924515217,"keywords":["cp","nocrits","nodmgspread","uncletopia"],"game_id":440,"stv_port":27036,"stv_name":"Uncletopia | Seattle | 3 | Stopwatch | STV","players":null},{"server_id":17,"name":"Uncletopia | San Francisco | 1 | All Maps","name_short":"sfo-1","host":"sfo-1.us.uncletopia.com","port":27015,"enabled":true,"region":"us-west","cc":"us","latitude":37.77397,"longitude":-122.4313,"reserved":0,"last_update":"0001-01-01T00:00:00Z","name_a2s":"Uncletopia | San Francisco | 1 | All Maps","protocol":17,"map":"koth_highpass","folder":"tf","game":"Team Fortress","app_id":440,"player_count":0,"max_players":24,"Bots":0,"server_type":"Dedicated","server_os":"Linux","password":true,"vac":true,"version":"7961495","steam_id":85568392924469999,"keywords":["cp","nocrits","nodmgspread","uncletopia"],"game_id":440,"stv_port":27016,"stv_name":"Uncletopia | San Francisco | 1 | All Maps | STV","players":null},{"server_id":18,"name":"Uncletopia | San Francisco | 2 | All Maps","name_short":"sfo-2","host":"sfo-1.us.uncletopia.com","port":27025,"enabled":true,"region":"us-west","cc":"us","latitude":37.77397,"longitude":-122.4313,"reserved":0,"last_update":"0001-01-01T00:00:00Z","name_a2s":"Uncletopia | San Francisco | 2 | All Maps","protocol":17,"map":"cp_sunshine","folder":"tf","game":"Team Fortress","app_id":440,"player_count":0,"max_players":24,"Bots":0,"server_type":"Dedicated","server_os":"Linux","password":true,"vac":true,"version":"7961495","steam_id":85568392924470000,"keywords":["cp","nocrits","nodmgspread","uncletopia"],"game_id":440,"stv_port":27026,"stv_name":"Uncletopia | San Francisco | 2 | All Maps | STV","players":null},{"server_id":19,"name":"Uncletopia | San Francisco | 3 | Stopwatch","name_short":"sfo-3","host":"sfo-1.us.uncletopia.com","port":27035,"enabled":true,"region":"us-west","cc":"us","latitude":37.77397,"longitude":-122.4313,"reserved":0,"last_update":"0001-01-01T00:00:00Z","name_a2s":"Uncletopia | San Francisco | 3 | Stopwatch","protocol":17,"map":"workshop/koth_bagel_rc6.ugc2514036946","folder":"tf","game":"Team Fortress","app_id":440,"player_count":0,"max_players":24,"Bots":0,"server_type":"Dedicated","server_os":"Linux","password":true,"vac":true,"version":"7961495","steam_id":85568392924742824,"keywords":["cp","nocrits","nodmgspread","uncletopia"],"game_id":440,"stv_port":27036,"stv_name":"Uncletopia | San Francisco | 3 | Stopwatch | STV","players":null},{"server_id":20,"name":"Uncletopia | San Francisco | 4 | Community","name_short":"sfo-4","host":"sfo-1.us.uncletopia.com","port":27045,"enabled":true,"region":"us-west","cc":"us","latitude":37.77397,"longitude":-122.4313,"reserved":0,"last_update":"0001-01-01T00:00:00Z","name_a2s":"Uncletopia | San Francisco | 4 | Community","protocol":17,"map":"workshop/koth_bagel_rc6.ugc2514036946","folder":"tf","game":"Team Fortress","app_id":440,"player_count":0,"max_players":24,"Bots":0,"server_type":"Dedicated","server_os":"Linux","password":true,"vac":true,"version":"7961495","steam_id":85568392924742826,"keywords":["cp","nocrits","nodmgspread","uncletopia"],"game_id":440,"stv_port":27046,"stv_name":"Uncletopia | San Francisco | 4 | Community | STV","players":null},{"server_id":141,"name":"Uncletopia | Sydney | 1 | All Maps","name_short":"syd-1","host":"syd-1.au.uncletopia.com","port":27015,"enabled":true,"region":"au","cc":"au","latitude":-33.865143,"longitude":151.2099,"reserved":0,"last_update":"0001-01-01T00:00:00Z","name_a2s":"Uncletopia | Sydney | 1 | All Maps","protocol":17,"map":"pl_pier","folder":"tf","game":"Team Fortress","app_id":440,"player_count":24,"max_players":24,"Bots":0,"server_type":"Dedicated","server_os":"Linux","password":true,"vac":true,"version":"7961495","steam_id":85568392924470001,"keywords":["nocrits","nodmgspread","payload","uncletopia"],"game_id":440,"stv_port":27016,"stv_name":"Uncletopia | Sydney | 1 | All Maps | STV","players":[{"user_id":165,"name":"Not A Bean","steam_id":76561198301333750,"connected_time":1874000000000,"state":"active","ping":91},{"user_id":125,"name":"Titan","steam_id":76561198343953317,"connected_time":5603000000000,"state":"active","ping":76},{"user_id":178,"name":"durcy","steam_id":76561198049037327,"connected_time":776000000000,"state":"active","ping":114},{"user_id":191,"name":"vermilion","steam_id":76561198962623543,"connected_time":136000000000,"state":"active","ping":49},{"user_id":188,"name":"JunkKnight","steam_id":76561198050917553,"connected_time":285000000000,"state":"active","ping":59},{"user_id":104,"name":"VISHNU","steam_id":76561197993221889,"connected_time":7736000000000,"state":"active","ping":61},{"user_id":173,"name":"lavanderpumpernickle","steam_id":76561199093611800,"connected_time":1344000000000,"state":"active","ping":101},{"user_id":153,"name":"Wiseify!!!","steam_id":76561198265508918,"connected_time":2930000000000,"state":"active","ping":76},{"user_id":184,"name":"A Burnt Cheeseburger","steam_id":76561198044178223,"connected_time":525000000000,"state":"active","ping":60},{"user_id":51,"name":"Nyda","steam_id":76561198152311904,"connected_time":12284000000000,"state":"active","ping":68},{"user_id":181,"name":"Squishy","steam_id":76561198985769205,"connected_time":641000000000,"state":"active","ping":54},{"user_id":190,"name":"alex","steam_id":76561198199008741,"connected_time":208000000000,"state":"active","ping":65},{"user_id":185,"name":"the normoaner","steam_id":76561198082423230,"connected_time":482000000000,"state":"active","ping":105},{"user_id":180,"name":"skrunkly","steam_id":76561198316515443,"connected_time":706000000000,"state":"active","ping":76},{"user_id":182,"name":"seiran","steam_id":76561198880907232,"connected_time":624000000000,"state":"active","ping":101},{"user_id":192,"name":"Arn0tt","steam_id":76561198027007279,"connected_time":23000000000,"state":"active","ping":123},{"user_id":183,"name":"ForgottenPizzaUncle","steam_id":76561198064337953,"connected_time":609000000000,"state":"active","ping":129},{"user_id":177,"name":"Jesus","steam_id":76561198390745697,"connected_time":913000000000,"state":"active","ping":62},{"user_id":189,"name":"FascismSalad","steam_id":76561198262410973,"connected_time":254000000000,"state":"active","ping":55},{"user_id":106,"name":"rio","steam_id":76561198008646807,"connected_time":7694000000000,"state":"active","ping":90},{"user_id":168,"name":"Eduardo","steam_id":76561198110238382,"connected_time":1507000000000,"state":"active","ping":54},{"user_id":158,"name":"Cool Bananas","steam_id":76561197979118548,"connected_time":2741000000000,"state":"active","ping":111},{"user_id":147,"name":"P. Ness (Length/Girth)","steam_id":76561198037664265,"connected_time":3424000000000,"state":"active","ping":59},{"user_id":171,"name":"BILL!!!","steam_id":76561198066726621,"connected_time":1460000000000,"state":"active","ping":45}]},{"server_id":123,"name":"Uncletopia | Sydney | 2 | All Maps","name_short":"syd-2","host":"syd-1.au.uncletopia.com","port":27025,"enabled":true,"region":"au","cc":"au","latitude":-33.865143,"longitude":151.2099,"reserved":0,"last_update":"0001-01-01T00:00:00Z","name_a2s":"Uncletopia | Sydney | 2 | All Maps","protocol":17,"map":"pl_frontier_final","folder":"tf","game":"Team Fortress","app_id":440,"player_count":22,"max_players":24,"Bots":0,"server_type":"Dedicated","server_os":"Linux","password":true,"vac":true,"version":"7961495","steam_id":85568392924470002,"keywords":["nocrits","nodmgspread","payload","uncletopia"],"game_id":440,"stv_port":27026,"stv_name":"Uncletopia | Sydney | 2 | All Maps | STV","players":[{"user_id":426,"name":"Ultra","steam_id":76561198061828206,"connected_time":415000000000,"state":"active","ping":59},{"user_id":416,"name":"Zoey","steam_id":76561198126153554,"connected_time":995000000000,"state":"active","ping":73},{"user_id":398,"name":"no teles 4 u","steam_id":76561198018478297,"connected_time":1890000000000,"state":"active","ping":73},{"user_id":387,"name":"Ganome Chilled","steam_id":76561198064898965,"connected_time":2381000000000,"state":"active","ping":87},{"user_id":388,"name":"Zalternative X-treme","steam_id":76561198340730741,"connected_time":2366000000000,"state":"active","ping":61},{"user_id":420,"name":"Delusion","steam_id":76561198277804048,"connected_time":786000000000,"state":"active","ping":99},{"user_id":427,"name":"table","steam_id":76561199218095319,"connected_time":361000000000,"state":"active","ping":49},{"user_id":417,"name":"BISHOPISM","steam_id":76561198836003115,"connected_time":923000000000,"state":"active","ping":60},{"user_id":367,"name":"SamK #ShaveTF2","steam_id":76561198149051619,"connected_time":3660000000000,"state":"active","ping":66},{"user_id":422,"name":"C3ratops","steam_id":76561198847054264,"connected_time":706000000000,"state":"active","ping":56},{"user_id":402,"name":"𝓢𝓪𝓶𝓹𝓵𝓮 𝓣\ufffd\ufffd","steam_id":76561198114666650,"connected_time":1661000000000,"state":"active","ping":71},{"user_id":401,"name":"Vivi","steam_id":76561198113409292,"connected_time":1779000000000,"state":"active","ping":68},{"user_id":414,"name":"Attling","steam_id":76561198087595494,"connected_time":1076000000000,"state":"active","ping":45},{"user_id":405,"name":"Blueberry Rat","steam_id":76561198149219455,"connected_time":1575000000000,"state":"active","ping":50},{"user_id":365,"name":"CypressFluff (she/her)","steam_id":76561198174667818,"connected_time":3795000000000,"state":"active","ping":53},{"user_id":425,"name":"little raw meat boy","steam_id":76561199248254676,"connected_time":560000000000,"state":"active","ping":61},{"user_id":413,"name":"Waifu Hunter","steam_id":76561198212046735,"connected_time":1298000000000,"state":"active","ping":72},{"user_id":370,"name":"beef","steam_id":76561198405899260,"connected_time":3380000000000,"state":"active","ping":60},{"user_id":391,"name":"Second Lieutenant Pisser","steam_id":76561198866538028,"connected_time":2278000000000,"state":"active","ping":74},{"user_id":338,"name":"Azure","steam_id":76561198108179408,"connected_time":6036000000000,"state":"active","ping":92},{"user_id":424,"name":"monkey (with spoon)","steam_id":76561198301254663,"connected_time":677000000000,"state":"active","ping":68},{"user_id":355,"name":"Carpark (not deodorenting)","steam_id":76561198137128594,"connected_time":4648000000000,"state":"active","ping":57}]},{"server_id":395,"name":"Uncletopia | Sydney | 3 | All Maps","name_short":"syd-3","host":"syd-1.au.uncletopia.com","port":27035,"enabled":true,"region":"au","cc":"au","latitude":-33.865143,"longitude":151.2099,"reserved":0,"last_update":"0001-01-01T00:00:00Z","name_a2s":"Uncletopia | Sydney | 3 | All Maps","protocol":17,"map":"cp_dustbowl","folder":"tf","game":"Team Fortress","app_id":440,"player_count":11,"max_players":24,"Bots":0,"server_type":"Dedicated","server_os":"Linux","password":true,"vac":true,"version":"7961495","steam_id":85568392925194467,"keywords":["cp","nocrits","nodmgspread","uncletopia"],"game_id":440,"stv_port":27036,"stv_name":"Uncletopia | Sydney | 3 | All Maps | STV","players":[{"user_id":34,"name":"Nuhbean","steam_id":76561199497438701,"connected_time":3918000000000,"state":"active","ping":133},{"user_id":43,"name":"jlbear156","steam_id":76561199410494872,"connected_time":872000000000,"state":"active","ping":143},{"user_id":35,"name":"{holy-miss}","steam_id":76561199444995996,"connected_time":3561000000000,"state":"active","ping":63},{"user_id":42,"name":"Origaki","steam_id":76561198422688665,"connected_time":1234000000000,"state":"active","ping":140},{"user_id":45,"name":"Gul'dan","steam_id":76561198240466940,"connected_time":171000000000,"state":"active","ping":302},{"user_id":44,"name":"The Flash","steam_id":76561198018296992,"connected_time":804000000000,"state":"active","ping":60},{"user_id":40,"name":"Jr.Burger","steam_id":76561198231292784,"connected_time":1556000000000,"state":"active","ping":72},{"user_id":46,"name":"Ᵽ𐌄Ť𐌄Ұ (cock/balls)","steam_id":76561199140764838,"connected_time":125000000000,"state":"active","ping":54},{"user_id":47,"name":"StEv0","steam_id":76561198443991442,"connected_time":50000000000,"state":"active","ping":73},{"user_id":48,"name":"Wolffe≫","steam_id":76561198065289231,"connected_time":18000000000,"state":"active","ping":73},{"user_id":50,"name":"palladaxx","steam_id":76561199222949435,"connected_time":2000000000,"state":"spawning","ping":52}]},{"server_id":396,"name":"Uncletopia | Sydney | 4 | All Maps","name_short":"syd-4","host":"syd-1.au.uncletopia.com","port":27045,"enabled":true,"region":"au","cc":"au","latitude":-33.865143,"longitude":151.2099,"reserved":0,"last_update":"0001-01-01T00:00:00Z","name_a2s":"Uncletopia | Sydney | 4 | All Maps","protocol":17,"map":"pl_snowycoast","folder":"tf","game":"Team Fortress","app_id":440,"player_count":0,"max_players":24,"Bots":0,"server_type":"Dedicated","server_os":"Linux","password":true,"vac":true,"version":"7961495","steam_id":85568392925397958,"keywords":["nocrits","nodmgspread","payload","uncletopia"],"game_id":440,"stv_port":27046,"stv_name":"Uncletopia | Sydney | 4 | All Maps | STV","players":null},{"server_id":58,"name":"Uncletopia | Sydney | 5 | Stopwatch","name_short":"syd-5","host":"syd-1.au.uncletopia.com","port":27055,"enabled":true,"region":"au","cc":"au","latitude":-33.865143,"longitude":151.2099,"reserved":0,"last_update":"0001-01-01T00:00:00Z","name_a2s":"Uncletopia | Sydney | 5 | Stopwatch","protocol":17,"map":"pl_frontier_final","folder":"tf","game":"Team Fortress","app_id":440,"player_count":0,"max_players":24,"Bots":0,"server_type":"Dedicated","server_os":"Linux","password":true,"vac":true,"version":"7961495","steam_id":85568392925397959,"keywords":["nocrits","nodmgspread","payload","uncletopia"],"game_id":440,"stv_port":27056,"stv_name":"Uncletopia | Sydney | 5 | Stopwatch | STV","players":null},{"server_id":59,"name":"Uncletopia | Sydney | 6 | Community","name_short":"syd-6","host":"syd-1.au.uncletopia.com","port":27065,"enabled":true,"region":"au","cc":"au","latitude":-33.865143,"longitude":151.2099,"reserved":0,"last_update":"0001-01-01T00:00:00Z","name_a2s":"Uncletopia | Sydney | 6 | Community","protocol":17,"map":"workshop/cp_glassworks_rc7a.ugc454118349","folder":"tf","game":"Team Fortress","app_id":440,"player_count":0,"max_players":24,"Bots":0,"server_type":"Dedicated","server_os":"Linux","password":true,"vac":true,"version":"7961495","steam_id":85568392925397960,"keywords":["cp","nocrits","nodmgspread","uncletopia"],"game_id":440,"stv_port":27066,"stv_name":"Uncletopia | Sydney | 6 | Community | STV","players":null},{"server_id":49,"name":"Uncletopia | Warsaw | 1 | One Thousand Uncles","name_short":"waw-1","host":"waw-1.pl.uncletopia.com","port":27015,"enabled":true,"region":"eu","cc":"pl","latitude":52.2297,"longitude":21.017532,"reserved":0,"last_update":"0001-01-01T00:00:00Z","name_a2s":"Uncletopia | Warsaw | 1 | One Thousand Uncles","protocol":17,"map":"cp_mercenarypark","folder":"tf","game":"Team Fortress","app_id":440,"player_count":26,"max_players":32,"Bots":16,"server_type":"Dedicated","server_os":"Linux","password":true,"vac":true,"version":"7961495","steam_id":85568392925397850,"keywords":["alltalk","bots","cp","danepve","increased_maxplayers","nocrits","norespawntime","uncletopia"],"game_id":440,"stv_port":0,"stv_name":"","players":[{"user_id":145,"name":"{ST} Oxythemoron","steam_id":76561198060089965,"connected_time":1624000000000,"state":"active","ping":166},{"user_id":151,"name":"T_Crow","steam_id":76561198052999669,"connected_time":892000000000,"state":"active","ping":48},{"user_id":147,"name":"THIS","steam_id":76561198103269397,"connected_time":1576000000000,"state":"active","ping":69},{"user_id":148,"name":"BUCKET:\\soldier\\Desktop\\","steam_id":76561199047240319,"connected_time":1547000000000,"state":"active","ping":106},{"user_id":112,"name":"ssobesednik13","steam_id":76561198320740750,"connected_time":3682000000000,"state":"active","ping":88},{"user_id":113,"name":"Moron","steam_id":76561198200720886,"connected_time":3671000000000,"state":"active","ping":73},{"user_id":114,"name":"timmy12613","steam_id":76561199504483600,"connected_time":3665000000000,"state":"active","ping":91},{"user_id":153,"name":"d u k k i","steam_id":76561198071807437,"connected_time":830000000000,"state":"active","ping":60},{"user_id":154,"name":"doggo","steam_id":76561199016724832,"connected_time":812000000000,"state":"active","ping":71},{"user_id":143,"name":"not a horny femboy","steam_id":76561199135246694,"connected_time":2508000000000,"state":"active","ping":45}]},{"server_id":50,"name":"Uncletopia | Warsaw | 2 | One Thousand Uncles","name_short":"waw-2","host":"waw-1.pl.uncletopia.com","port":27025,"enabled":true,"region":"eu","cc":"pl","latitude":52.2297,"longitude":21.017532,"reserved":0,"last_update":"0001-01-01T00:00:00Z","name_a2s":"Uncletopia | Warsaw | 2 | One Thousand Uncles","protocol":17,"map":"cp_mercenarypark","folder":"tf","game":"Team Fortress","app_id":440,"player_count":20,"max_players":32,"Bots":16,"server_type":"Dedicated","server_os":"Linux","password":true,"vac":true,"version":"7961495","steam_id":85568392925397851,"keywords":["alltalk","bots","cp","danepve","increased_maxplayers","nocrits","norespawntime","uncletopia"],"game_id":440,"stv_port":0,"stv_name":"","players":[{"user_id":119,"name":"Caserbero","steam_id":76561199234963535,"connected_time":1562000000000,"state":"active","ping":118},{"user_id":95,"name":"r06u3","steam_id":76561198254099253,"connected_time":4255000000000,"state":"active","ping":187},{"user_id":123,"name":"fat129","steam_id":76561199503871524,"connected_time":157000000000,"state":"active","ping":48},{"user_id":124,"name":"Rez","steam_id":76561198410598772,"connected_time":145000000000,"state":"active","ping":53}]},{"server_id":51,"name":"Uncletopia | Warsaw | 3 | All Maps","name_short":"waw-3","host":"waw-1.pl.uncletopia.com","port":27035,"enabled":true,"region":"eu","cc":"pl","latitude":52.2297,"longitude":21.017532,"reserved":0,"last_update":"0001-01-01T00:00:00Z","name_a2s":"Uncletopia | Warsaw | 3 | All Maps","protocol":17,"map":"plr_pipeline","folder":"tf","game":"Team Fortress","app_id":440,"player_count":0,"max_players":24,"Bots":0,"server_type":"Dedicated","server_os":"Linux","password":true,"vac":true,"version":"7961495","steam_id":85568392925397852,"keywords":["nocrits","nodmgspread","payload","uncletopia"],"game_id":440,"stv_port":27036,"stv_name":"Uncletopia | Warsaw | 3 | All Maps | STV","players":null},{"server_id":52,"name":"Uncletopia | Warsaw | 4 | All Maps","name_short":"waw-4","host":"waw-1.pl.uncletopia.com","port":27045,"enabled":true,"region":"eu","cc":"pl","latitude":52.2297,"longitude":21.017532,"reserved":0,"last_update":"0001-01-01T00:00:00Z","name_a2s":"Uncletopia | Warsaw | 4 | All Maps","protocol":17,"map":"cp_coldfront","folder":"tf","game":"Team Fortress","app_id":440,"player_count":0,"max_players":24,"Bots":0,"server_type":"Dedicated","server_os":"Linux","password":true,"vac":true,"version":"7961495","steam_id":85568392925397853,"keywords":["cp","nocrits","nodmgspread","uncletopia"],"game_id":440,"stv_port":27046,"stv_name":"Uncletopia | Warsaw | 4 | All Maps | STV","players":null},{"server_id":53,"name":"Uncletopia | Warsaw | 5 | Stopwatch","name_short":"waw-5","host":"waw-1.pl.uncletopia.com","port":27055,"enabled":true,"region":"eu","cc":"pl","latitude":52.2297,"longitude":21.017532,"reserved":0,"last_update":"0001-01-01T00:00:00Z","name_a2s":"Uncletopia | Warsaw | 5 | Stopwatch","protocol":17,"map":"koth_lakeside_final","folder":"tf","game":"Team Fortress","app_id":440,"player_count":0,"max_players":24,"Bots":0,"server_type":"Dedicated","server_os":"Linux","password":true,"vac":true,"version":"7961495","steam_id":85568392925397854,"keywords":["cp","nocrits","nodmgspread","uncletopia"],"game_id":440,"stv_port":27056,"stv_name":"Uncletopia | Warsaw | 5 | Stopwatch | STV","players":null},{"server_id":54,"name":"Uncletopia | Warsaw | 6 | Community","name_short":"waw-6","host":"waw-1.pl.uncletopia.com","port":27065,"enabled":true,"region":"eu","cc":"pl","latitude":52.2297,"longitude":21.017532,"reserved":0,"last_update":"0001-01-01T00:00:00Z","name_a2s":"Uncletopia | Warsaw | 6 | Community","protocol":17,"map":"workshop/pl_badwater_pro_v12.ugc2142942074","folder":"tf","game":"Team Fortress","app_id":440,"player_count":0,"max_players":24,"Bots":0,"server_type":"Dedicated","server_os":"Linux","password":true,"vac":true,"version":"7961495","steam_id":85568392925397856,"keywords":["nocrits","nodmgspread","payload","uncletopia"],"game_id":440,"stv_port":27066,"stv_name":"Uncletopia | Warsaw | 6 | Community | STV","players":null}]}