{"status":true,"message":"","result":[{"server_id":9,"name":"Uncletopia | Atlanta | 1 | All Maps","name_short":"atl-1","host":"atl-1.us.uncletopia.com","port":27015,"enabled":true,"region":"us-east","cc":"us","latitude":33.753746,"longitude":-84.38633,"reserved":0,"last_update":"0001-01-01T00:00:00Z","name_a2s":"Uncletopia | Atlanta | 1 | All Maps","protocol":17,"map":"cp_dustbowl","folder":"tf","game":"Team Fortress","app_id":440,"player_count":22,"max_players":24,"Bots":0,"server_type":"Dedicated","server_os":"Linux","password":true,"vac":true,"version":"7757534","steam_id":85568392924469982,"keywords":["cp","nocrits","nodmgspread","uncletopia"],"game_id":440,"stv_port":27016,"stv_name":"Uncletopia | Atlanta | 1 | All Maps | STV","players":[{"user_id":466,"name":"PerpetuaForever","steam_id":76561198347444353,"connected_time":1484000000000,"state":"active","ping":70},{"user_id":389,"name":"MyamE","steam_id":76561198133278462,"connected_time":6223000000000,"state":"active","ping":70},{"user_id":403,"name":"mayhem","steam_id":76561199246637881,"connected_time":4100000000000,"state":"active","ping":57},{"user_id":475,"name":"Restricted_Files","steam_id":76561199448121007,"connected_time":1235000000000,"state":"active","ping":128},{"user_id":442,"name":"ATL1 | Lancer Fan Club","steam_id":76561198355495948,"connected_time":1788000000000,"state":"active","ping":66},{"user_id":483,"name":"Caoticaos","steam_id":76561198114800227,"connected_time":15000000000,"state":"spawning","ping":121},{"user_id":346,"name":"DFR Le4n!!!","steam_id":76561198045522596,"connected_time":11358000000000,"state":"active","ping":64},{"user_id":357,"name":"Flint","steam_id":76561198066547582,"connected_time":9517000000000,"state":"active","ping":111},{"user_id":407,"name":"chexo4","steam_id":76561198150532531,"connected_time":3627000000000,"state":"active","ping":51},{"user_id":347,"name":"ATL1 | cola","steam_id":76561198374390458,"connected_time":11355000000000,"state":"active","ping":46},{"user_id":368,"name":"Dr.Zarann","steam_id":76561198163952958,"connected_time":8481000000000,"state":"active","ping":55},{"user_id":449,"name":"lil hog","steam_id":76561199230929836,"connected_time":1750000000000,"state":"active","ping":98},{"user_id":482,"name":"ุ","steam_id":76561198084134025,"connected_time":132000000000,"state":"active","ping":120},{"user_id":450,"name":"ATL1 | p4ka","steam_id":76561198315291317,"connected_time":1749000000000,"state":"active","ping":74},{"user_id":358,"name":"Shame","steam_id":76561198100490994,"connected_time":9517000000000,"state":"active","ping":61},{"user_id":359,"name":"ATL1 | Vee (very cool)","steam_id":76561198330432889,"connected_time":9504000000000,"state":"active","ping":70},{"user_id":477,"name":"twinArmageddons","steam_id":76561198297961039,"connected_time":1212000000000,"state":"active","ping":153},{"user_id":455,"name":"ATL1 | ma0re","steam_id":76561199231971506,"connected_time":1682000000000,"state":"active","ping":64},{"user_id":416,"name":"Lord Dragon","steam_id":76561198310300373,"connected_time":2872000000000,"state":"active","ping":86},{"user_id":480,"name":"messy_","steam_id":76561199095580664,"connected_time":598000000000,"state":"active","ping":121},{"user_id":472,"name":"Decolour","steam_id":76561199045608372,"connected_time":1312000000000,"state":"active","ping":73},{"user_id":412,"name":"eish","steam_id":76561198089463603,"connected_time":2954000000000,"state":"active","ping":129}]},{"server_id":104,"name":"Uncletopia | Atlanta | 2 | All Maps","name_short":"atl-2","host":"atl-1.us.uncletopia.com","port":27025,"enabled":true,"region":"us-east","cc":"us","latitude":33.753746,"longitude":-84.38633,"reserved":0,"last_update":"0001-01-01T00:00:00Z","name_a2s":"Uncletopia | Atlanta | 2 | All Maps","protocol":17,"map":"pl_swiftwater_final1","folder":"tf","game":"Team Fortress","app_id":440,"player_count":24,"max_players":24,"Bots":0,"server_type":"Dedicated","server_os":"Linux","password":true,"vac":true,"version":"7757534","steam_id":85568392924469983,"keywords":["nocrits","nodmgspread","payload","uncletopia"],"game_id":440,"stv_port":27026,"stv_name":"Uncletopia | Atlanta | 2 | All Maps | STV","players":[{"user_id":421,"name":"hummus in my tummus","steam_id":76561199438698036,"connected_time":1123000000000,"state":"active","ping":80},{"user_id":419,"name":"Rudy","steam_id":76561198013456828,"connected_time":1668000000000,"state":"active","ping":60},{"user_id":429,"name":"mu","steam_id":76561198249206656,"connected_time":663000000000,"state":"active","ping":78},{"user_id":400,"name":"xtal","steam_id":76561198354473513,"connected_time":2727000000000,"state":"active","ping":73},{"user_id":433,"name":"Epifiny","steam_id":76561198027958086,"connected_time":270000000000,"state":"active","ping":92},{"user_id":381,"name":"Lucy","steam_id":76561198032590343,"connected_time":4568000000000,"state":"active","ping":98},{"user_id":395,"name":"Icaras","steam_id":76561198416724843,"connected_time":3148000000000,"state":"active","ping":132},{"user_id":435,"name":"qwq","steam_id":76561198088103572,"connected_time":163000000000,"state":"active","ping":115},{"user_id":434,"name":"Admiral Catradora","steam_id":76561198017271944,"connected_time":245000000000,"state":"active","ping":94},{"user_id":430,"name":"the doo doo man","steam_id":76561198057076267,"connected_time":642000000000,"state":"active","ping":73},{"user_id":290,"name":"THE MONARCH","steam_id":76561198144158938,"connected_time":11360000000000,"state":"active","ping":51},{"user_id":393,"name":"Darkdrake","steam_id":76561198107200600,"connected_time":3274000000000,"state":"active","ping":61},{"user_id":417,"name":"malopy","steam_id":76561198354990729,"connected_time":1951000000000,"state":"active","ping":80},{"user_id":428,"name":"mio","steam_id":76561198239286750,"connected_time":704000000000,"state":"active","ping":74},{"user_id":396,"name":"Mr_Frosty","steam_id":76561199380389079,"connected_time":2980000000000,"state":"active","ping":87},{"user_id":364,"name":"creeeeeee","steam_id":76561198392539722,"connected_time":6156000000000,"state":"active","ping":81},{"user_id":413,"name":"Cats","steam_id":76561197965022076,"connected_time":2041000000000,"state":"active","ping":86},{"user_id":384,"name":"Architect","steam_id":76561198015242016,"connected_time":4546000000000,"state":"active","ping":68},{"user_id":418,"name":"lolgg.clay","steam_id":76561197994297935,"connected_time":1938000000000,"state":"active","ping":87},{"user_id":415,"name":"Intestinal Straw","steam_id":76561198082095303,"connected_time":2011000000000,"state":"active","ping":75},{"user_id":432,"name":"Mightythor","steam_id":76561199162355715,"connected_time":628000000000,"state":"active","ping":67},{"user_id":436,"name":"=(eGO)= G-Funk","steam_id":76561198089248055,"connected_time":101000000000,"state":"active","ping":89},{"user_id":416,"name":"Bheem","steam_id":76561198170453459,"connected_time":2008000000000,"state":"active","ping":114},{"user_id":397,"name":"jayb1rd","steam_id":76561198057185312,"connected_time":2909000000000,"state":"active","ping":50}]},{"server_id":400,"name":"Uncletopia | Atlanta | 3 | Community","name_short":"atl-3","host":"atl-1.us.uncletopia.com","port":27035,"enabled":true,"region":"us-east","cc":"us","latitude":33.753746,"longitude":-84.38633,"reserved":0,"last_update":"0001-01-01T00:00:00Z","name_a2s":"Uncletopia | Atlanta | 3 | Community","protocol":17,"map":"workshop/koth_bagel_rc6.ugc2514036946","folder":"tf","game":"Team Fortress","app_id":440,"player_count":24,"max_players":24,"Bots":0,"server_type":"Dedicated","server_os":"Linux","password":true,"vac":true,"version":"7757534","steam_id":85568392924515187,"keywords":["cp","nocrits","nodmgspread","uncletopia"],"game_id":440,"stv_port":27036,"stv_name":"Uncletopia | Atlanta | 3 | Community | STV","players":[{"user_id":410,"name":"garit","steam_id":76561198000564263,"connected_time":3764000000000,"state":"active","ping":51},{"user_id":461,"name":"Ritzy","steam_id":76561198381955342,"connected_time":694000000000,"state":"active","ping":139},{"user_id":429,"name":"Mengle","steam_id":76561198001953684,"connected_time":2755000000000,"state":"active","ping":77},{"user_id":411,"name":"proud owner of a large tongue","steam_id":76561198106690989,"connected_time":3754000000000,"state":"active","ping":75},{"user_id":454,"name":"Poinie's Poin on PlayStation 2","steam_id":76561198030291655,"connected_time":1470000000000,"state":"active","ping":60},{"user_id":474,"name":"Scottish Cyclops","steam_id":76561199058812159,"connected_time":180000000000,"state":"active","ping":72},{"user_id":466,"name":"fnewland","steam_id":76561197986051713,"connected_time":429000000000,"state":"active","ping":84},{"user_id":467,"name":"java","steam_id":76561198030276792,"connected_time":392000000000,"state":"active","ping":55},{"user_id":462,"name":"89","steam_id":76561198106308056,"connected_time":536000000000,"state":"active","ping":104},{"user_id":468,"name":"paetho YT","steam_id":76561198152690003,"connected_time":350000000000,"state":"active","ping":47},{"user_id":441,"name":"{FITH}™ SmittyWun {FM}","steam_id":76561198079531938,"connected_time":2090000000000,"state":"active","ping":60},{"user_id":458,"name":"boombox","steam_id":76561198237013798,"connected_time":1015000000000,"state":"active","ping":81},{"user_id":469,"name":"Jankyo","steam_id":76561198083339492,"connected_time":346000000000,"state":"active","ping":77},{"user_id":413,"name":"Cheese","steam_id":76561199207081299,"connected_time":3644000000000,"state":"active","ping":95},{"user_id":416,"name":"Aeonspassed","steam_id":76561198014016451,"connected_time":3337000000000,"state":"active","ping":84},{"user_id":475,"name":"Jabawakai","steam_id":76561198088881254,"connected_time":171000000000,"state":"active","ping":72},{"user_id":470,"name":"cumbia stud gaming","steam_id":76561198963282079,"connected_time":322000000000,"state":"active","ping":107},{"user_id":455,"name":"kazoo2","steam_id":76561198260473504,"connected_time":1169000000000,"state":"active","ping":72},{"user_id":476,"name":"Yoyo","steam_id":76561199122577289,"connected_time":171000000000,"state":"active","ping":64},{"user_id":478,"name":"BMoney","steam_id":76561198799389030,"connected_time":96000000000,"state":"active","ping":102},{"user_id":434,"name":"BrendenMad","steam_id":76561198031250581,"connected_time":2632000000000,"state":"active","ping":83},{"user_id":472,"name":"the bron jame","steam_id":76561198371235518,"connected_time":290000000000,"state":"active","ping":152},{"user_id":477,"name":"UNKEY BLUSTY DA SENTY MISTA","steam_id":76561198838054669,"connected_time":154000000000,"state":"active","ping":75},{"user_id":453,"name":"Sprinklze","steam_id":76561198163562681,"connected_time":1596000000000,"state":"active","ping":52}]},{"server_id":401,"name":"Uncletopia | Atlanta | 4 | No Payload","name_short":"atl-4","host":"atl-1.us.uncletopia.com","port":27045,"enabled":true,"region":"us-east","cc":"us","latitude":33.753746,"longitude":-84.38633,"reserved":0,"last_update":"0001-01-01T00:00:00Z","name_a2s":"","protocol":0,"map":"","folder":"","game":"","app_id":0,"player_count":0,"max_players":0,"Bots":0,"server_type":"","server_os":"","password":false,"vac":false,"version":"","steam_id":0,"keywords":null,"game_id":0,"stv_port":0,"stv_name":"","players":null},{"server_id":2,"name":"Uncletopia | Chicago | 1 | All Maps","name_short":"chi-1","host":"chi-1.us.uncletopia.com","port":27015,"enabled":true,"region":"us-central","cc":"us","latitude":41.881832,"longitude":-87.62318,"reserved":0,"last_update":"0001-01-01T00:00:00Z","name_a2s":"Uncletopia | Chicago | 1 | All Maps","protocol":17,"map":"pl_frontier_final","folder":"tf","game":"Team Fortress","app_id":440,"player_count":24,"max_players":24,"Bots":0,"server_type":"Dedicated","server_os":"Linux","password":true,"vac":true,"version":"7757534","steam_id":85568392924469984,"keywords":["nocrits","nodmgspread","payload","uncletopia"],"game_id":440,"stv_port":27016,"stv_name":"Uncletopia | Chicago | 1 | All Maps | STV","players":[{"user_id":798,"name":"Ranger Plague","steam_id":76561198174647666,"connected_time":1999000000000,"state":"active","ping":83},{"user_id":815,"name":"[يهودي] Bill Clinton [אל","steam_id":76561198163291190,"connected_time":1492000000000,"state":"active","ping":86},{"user_id":834,"name":"4Lukaska","steam_id":76561198083515060,"connected_time":281000000000,"state":"active","ping":73},{"user_id":837,"name":"points at cock \u0026 laughts","steam_id":76561198073269122,"connected_time":109000000000,"state":"active","ping":73},{"user_id":803,"name":"EvilMrPotoo ｡◕‿◕｡","steam_id":76561198012566870,"connected_time":1736000000000,"state":"active","ping":58},{"user_id":838,"name":"psy","steam_id":76561198013195018,"connected_time":57000000000,"state":"active","ping":74},{"user_id":805,"name":"bobby peanstalk","steam_id":76561198040495463,"connected_time":1717000000000,"state":"active","ping":60},{"user_id":796,"name":"BusterScruggs","steam_id":76561198891626233,"connected_time":2166000000000,"state":"active","ping":64},{"user_id":828,"name":"Grand Wizard King","steam_id":76561198099802660,"connected_time":565000000000,"state":"active","ping":72},{"user_id":822,"name":"spooky kabuki","steam_id":76561198030361635,"connected_time":1107000000000,"state":"active","ping":47},{"user_id":823,"name":"p i n e ↟ ↟","steam_id":76561198058199952,"connected_time":932000000000,"state":"active","ping":65},{"user_id":808,"name":"Ka Xin Yu","steam_id":76561198057116531,"connected_time":1708000000000,"state":"active","ping":56},{"user_id":826,"name":"ParkerTheCuber","steam_id":76561199207264629,"connected_time":783000000000,"state":"active","ping":59},{"user_id":832,"name":"kz","steam_id":76561198041814337,"connected_time":403000000000,"state":"active","ping":47},{"user_id":833,"name":"dirty30","steam_id":76561198021226566,"connected_time":337000000000,"state":"active","ping":95},{"user_id":839,"name":"bingus","steam_id":76561199198633203,"connected_time":50000000000,"state":"active","ping":87},{"user_id":840,"name":"Queen Ishtar","steam_id":76561198035614233,"connected_time":45000000000,"state":"active","ping":102},{"user_id":836,"name":"Playeritos","steam_id":76561198196548246,"connected_time":207000000000,"state":"active","ping":71},{"user_id":829,"name":"Zeqna","steam_id":76561199054770509,"connected_time":542000000000,"state":"active","ping":92},{"user_id":841,"name":"sweaterfan","steam_id":76561199389567214,"connected_time":35000000000,"state":"active","ping":67},{"user_id":819,"name":"Pennis the Menace","steam_id":76561198254878037,"connected_time":1442000000000,"state":"active","ping":70},{"user_id":814,"name":"vareh","steam_id":76561197993190926,"connected_time":1603000000000,"state":"active","ping":107},{"user_id":821,"name":"Dr. Dick","steam_id":76561198138011922,"connected_time":1352000000000,"state":"active","ping":85},{"user_id":831,"name":"Gian","steam_id":76561198041434512,"connected_time":493000000000,"state":"active","ping":118}]},{"server_id":106,"name":"Uncletopia | Chicago | 2 | All Maps","name_short":"chi-2","host":"chi-1.us.uncletopia.com","port":27025,"enabled":true,"region":"us-central","cc":"us","latitude":41.881832,"longitude":-87.62318,"reserved":0,"last_update":"0001-01-01T00:00:00Z","name_a2s":"Uncletopia | Chicago | 2 | All Maps","protocol":17,"map":"pl_badwater","folder":"tf","game":"Team Fortress","app_id":440,"player_count":24,"max_players":24,"Bots":0,"server_type":"Dedicated","server_os":"Linux","password":true,"vac":true,"version":"7757534","steam_id":85568392924469985,"keywords":["nocrits","nodmgspread","payload","uncletopia"],"game_id":440,"stv_port":27026,"stv_name":"Uncletopia | Chicago | 2 | All Maps | STV","players":[{"user_id":577,"name":"Christmas Ham","steam_id":76561198119601623,"connected_time":1644000000000,"state":"active","ping":142},{"user_id":594,"name":"Goober","steam_id":76561198988863807,"connected_time":354000000000,"state":"active","ping":75},{"user_id":579,"name":"Recursive Gamer","steam_id":76561198042102952,"connected_time":1606000000000,"state":"active","ping":69},{"user_id":523,"name":"Bokogi","steam_id":76561198063884580,"connected_time":5080000000000,"state":"active","ping":81},{"user_id":589,"name":"lemon","steam_id":76561198086406706,"connected_time":1175000000000,"state":"active","ping":43},{"user_id":596,"name":"Squidz","steam_id":76561198803144914,"connected_time":345000000000,"state":"active","ping":80},{"user_id":587,"name":"Nexus","steam_id":76561198187929865,"connected_time":1319000000000,"state":"active","ping":44},{"user_id":597,"name":"Asphalt","steam_id":76561198014827224,"connected_time":329000000000,"state":"active","ping":50},{"user_id":585,"name":"Lia_Rein","steam_id":76561198151569597,"connected_time":1479000000000,"state":"active","ping":141},{"user_id":608,"name":"mops","steam_id":76561198058213741,"connected_time":205000000000,"state":"active","ping":65},{"user_id":599,"name":"Engipeer","steam_id":76561198306923207,"connected_time":311000000000,"state":"active","ping":87},{"user_id":564,"name":"recycle","steam_id":76561198819562111,"connected_time":2527000000000,"state":"active","ping":74},{"user_id":609,"name":"vv","steam_id":76561198134813102,"connected_time":78000000000,"state":"active","ping":58},{"user_id":592,"name":"lightning","steam_id":76561198432444690,"connected_time":894000000000,"state":"active","ping":84},{"user_id":567,"name":"loser","steam_id":76561198171507451,"connected_time":2503000000000,"state":"active","ping":89},{"user_id":601,"name":"Sergeant Joker #savetf2","steam_id":76561198854616604,"connected_time":302000000000,"state":"active","ping":60},{"user_id":490,"name":"France Main","steam_id":76561198271442469,"connected_time":7056000000000,"state":"active","ping":90},{"user_id":602,"name":"motoki","steam_id":76561199191311388,"connected_time":299000000000,"state":"active","ping":106},{"user_id":571,"name":"Ceiling Man","steam_id":76561198003959902,"connected_time":2411000000000,"state":"active","ping":62},{"user_id":603,"name":"Zorojuro","steam_id":76561198221619936,"connected_time":297000000000,"state":"active","ping":112},{"user_id":604,"name":"Nexusthenormie","steam_id":76561198880184146,"connected_time":279000000000,"state":"active","ping":66},{"user_id":586,"name":"Viking Seagull","steam_id":76561198806994127,"connected_time":1405000000000,"state":"active","ping":84},{"user_id":605,"name":"Elflocky","steam_id":76561199096852639,"connected_time":273000000000,"state":"active","ping":90},{"user_id":606,"name":"KEG","steam_id":76561198060014171,"connected_time":263000000000,"state":"active","ping":95}]},{"server_id":402,"name":"Uncletopia | Chicago | 3 | All Maps","name_short":"chi-3","host":"chi-1.us.uncletopia.com","port":27035,"enabled":true,"region":"us-central","cc":"us","latitude":41.881832,"longitude":-87.62318,"reserved":0,"last_update":"0001-01-01T00:00:00Z","name_a2s":"Uncletopia | Chicago | 3 | All Maps","protocol":17,"map":"pl_borneo","folder":"tf","game":"Team Fortress","app_id":440,"player_count":24,"max_players":24,"Bots":0,"server_type":"Dedicated","server_os":"Linux","password":true,"vac":true,"version":"7757534","steam_id":85568392924515191,"keywords":["nocrits","nodmgspread","payload","uncletopia"],"game_id":440,"stv_port":27036,"stv_name":"Uncletopia | Chicago | 3 | All Maps | STV","players":[{"user_id":509,"name":"N0SNitro","steam_id":76561198026157327,"connected_time":398000000000,"state":"active","ping":64},{"user_id":471,"name":"Nefy","steam_id":76561198030017316,"connected_time":2750000000000,"state":"active","ping":85},{"user_id":489,"name":"Xtra","steam_id":76561198355594088,"connected_time":1734000000000,"state":"active","ping":55},{"user_id":490,"name":"_Lusty_ | #savetf2","steam_id":76561198876948142,"connected_time":1729000000000,"state":"active","ping":70},{"user_id":510,"name":"Sammich","steam_id":76561198010543087,"connected_time":376000000000,"state":"active","ping":64},{"user_id":501,"name":"LG_Fridge_User","steam_id":76561198977815014,"connected_time":1209000000000,"state":"active","ping":63},{"user_id":496,"name":"empty food bowl","steam_id":76561198395577807,"connected_time":1466000000000,"state":"active","ping":48},{"user_id":503,"name":"lampin","steam_id":76561197964367078,"connected_time":931000000000,"state":"active","ping":46},{"user_id":513,"name":"Osteo-Oligarch","steam_id":76561198164731896,"connected_time":325000000000,"state":"active","ping":70},{"user_id":419,"name":"Zigadox","steam_id":76561198079813479,"connected_time":5170000000000,"state":"active","ping":90},{"user_id":505,"name":"Quansen","steam_id":76561198151594550,"connected_time":695000000000,"state":"active","ping":50},{"user_id":481,"name":"Smoopy","steam_id":76561198068485493,"connected_time":2529000000000,"state":"active","ping":71},{"user_id":482,"name":"Easd","steam_id":76561198169142631,"connected_time":2454000000000,"state":"active","ping":104},{"user_id":508,"name":"ṽ⧉  hank","steam_id":76561197977182378,"connected_time":667000000000,"state":"active","ping":55},{"user_id":512,"name":"Kip","steam_id":76561197998180212,"connected_time":359000000000,"state":"active","ping":61},{"user_id":514,"name":"Julia","steam_id":76561198175727790,"connected_time":320000000000,"state":"active","ping":99},{"user_id":442,"name":"igotmail","steam_id":76561198070631899,"connected_time":4340000000000,"state":"active","ping":67},{"user_id":517,"name":"ewor","steam_id":76561198235027808,"connected_time":171000000000,"state":"active","ping":67},{"user_id":518,"name":"Satan-2","steam_id":76561199231742764,"connected_time":169000000000,"state":"active","ping":69},{"user_id":515,"name":"ApertureB","steam_id":76561198019141379,"connected_time":317000000000,"state":"active","ping":52},{"user_id":479,"name":"Yurex","steam_id":76561198251341374,"connected_time":2677000000000,"state":"active","ping":69},{"user_id":464,"name":"RokkitFrog","steam_id":76561198046465850,"connected_time":3213000000000,"state":"active","ping":73},{"user_id":516,"name":"Pulse Astra","steam_id":76561198199809253,"connected_time":299000000000,"state":"active","ping":63},{"user_id":469,"name":"Discourse","steam_id":76561198984286678,"connected_time":3107000000000,"state":"active","ping":62}]},{"server_id":403,"name":"Uncletopia | Chicago | 4 | All Maps","name_short":"chi-4","host":"chi-1.us.uncletopia.com","port":27045,"enabled":true,"region":"us-central","cc":"us","latitude":41.881832,"longitude":-87.62318,"reserved":0,"last_update":"0001-01-01T00:00:00Z","name_a2s":"Uncletopia | Chicago | 4 | All Maps","protocol":17,"map":"pl_upward","folder":"tf","game":"Team Fortress","app_id":440,"player_count":24,"max_players":24,"Bots":0,"server_type":"Dedicated","server_os":"Linux","password":true,"vac":true,"version":"7757534","steam_id":85568392924515193,"keywords":["nocrits","nodmgspread","payload","uncletopia"],"game_id":440,"stv_port":27046,"stv_name":"Uncletopia | Chicago | 4 | All Maps | STV","players":[{"user_id":914,"name":"Worst Scenario","steam_id":76561199052130229,"connected_time":1236000000000,"state":"active","ping":57},{"user_id":911,"name":"Ragveida","steam_id":76561199156968587,"connected_time":1338000000000,"state":"active","ping":52},{"user_id":857,"name":"BoopBerry","steam_id":76561198871571711,"connected_time":5697000000000,"state":"active","ping":59},{"user_id":766,"name":"Nuwrox1","steam_id":76561198406951007,"connected_time":9927000000000,"state":"active","ping":63},{"user_id":912,"name":"Skullypoo","steam_id":76561198067912022,"connected_time":1330000000000,"state":"active","ping":61},{"user_id":923,"name":"volta","steam_id":76561199214283884,"connected_time":144000000000,"state":"active","ping":111},{"user_id":921,"name":"golem","steam_id":76561198355040593,"connected_time":337000000000,"state":"active","ping":73},{"user_id":925,"name":"-W3E- grim10465","steam_id":76561198045698581,"connected_time":80000000000,"state":"active","ping":46},{"user_id":920,"name":"somied","steam_id":76561198148357768,"connected_time":618000000000,"state":"active","ping":70},{"user_id":903,"name":"Moe Lester","steam_id":76561198375575841,"connected_time":2027000000000,"state":"active","ping":55},{"user_id":926,"name":"beavercarp","steam_id":76561198839603617,"connected_time":73000000000,"state":"spawning","ping":941},{"user_id":927,"name":"Bad Namesman","steam_id":76561198027205470,"connected_time":35000000000,"state":"spawning","ping":90},{"user_id":892,"name":"Billosky Time Lord","steam_id":76561199159626560,"connected_time":3118000000000,"state":"active","ping":162},{"user_id":858,"name":"Shrakn3l","steam_id":76561198131675625,"connected_time":5608000000000,"state":"active","ping":67},{"user_id":910,"name":"Medkit Junkie","steam_id":76561198146239453,"connected_time":1386000000000,"state":"active","ping":87},{"user_id":913,"name":"ImGonnaBeatUUp","steam_id":76561199005430454,"connected_time":1326000000000,"state":"active","ping":125},{"user_id":868,"name":"Dr Smeggman","steam_id":76561197966614845,"connected_time":5261000000000,"state":"active","ping":132},{"user_id":928,"name":"OldRavensFan","steam_id":76561198043919562,"connected_time":28000000000,"state":"active","ping":169},{"user_id":907,"name":"LOGiC","steam_id":76561198811289899,"connected_time":1918000000000,"state":"active","ping":55},{"user_id":895,"name":"very dazzling","steam_id":76561198072179483,"connected_time":3094000000000,"state":"active","ping":88},{"user_id":873,"name":"leeeeeeeeeeeeeeeeeeeeeeeeeee","steam_id":76561199083322731,"connected_time":4870000000000,"state":"active","ping":92},{"user_id":922,"name":"AOTFB | Eminem Fortnite","steam_id":76561198064631314,"connected_time":246000000000,"state":"active","ping":66},{"user_id":900,"name":"Mr. Dry Lips","steam_id":76561198028157625,"connected_time":2343000000000,"state":"active","ping":94},{"user_id":878,"name":"Deathninja952","steam_id":76561199066489355,"connected_time":4492000000000,"state":"active","ping":86}]},{"server_id":36,"name":"Uncletopia | Chicago | 5 | All Maps","name_short":"chi-5","host":"chi-2.us.uncletopia.com","port":27015,"enabled":true,"region":"us-central","cc":"us","latitude":41.881832,"longitude":-87.62318,"reserved":0,"last_update":"0001-01-01T00:00:00Z","name_a2s":"Uncletopia | Chicago | 5 | All Maps","protocol":17,"map":"pl_pier","folder":"tf","game":"Team Fortress","app_id":440,"player_count":23,"max_players":24,"Bots":0,"server_type":"Dedicated","server_os":"Linux","password":true,"vac":true,"version":"7757534","steam_id":85568392924866362,"keywords":["nocrits","nodmgspread","payload","uncletopia"],"game_id":440,"stv_port":27016,"stv_name":"Uncletopia | Chicago | 5 | All Maps | STV","players":[{"user_id":358,"name":"magickxanadu","steam_id":76561199117360103,"connected_time":4718000000000,"state":"active","ping":89},{"user_id":371,"name":"Walkiing","steam_id":76561198074473413,"connected_time":4100000000000,"state":"active","ping":45},{"user_id":432,"name":"The Bone Zone","steam_id":76561199110815433,"connected_time":216000000000,"state":"active","ping":128},{"user_id":410,"name":"cornshot","steam_id":76561198043496387,"connected_time":2473000000000,"state":"active","ping":109},{"user_id":411,"name":"i are steve","steam_id":76561198867457465,"connected_time":2441000000000,"state":"active","ping":70},{"user_id":416,"name":"Blender","steam_id":76561198001650701,"connected_time":1939000000000,"state":"active","ping":63},{"user_id":423,"name":"Carson","steam_id":76561198076771071,"connected_time":865000000000,"state":"active","ping":46},{"user_id":425,"name":"bumblin grumblin crumblin","steam_id":76561198048483295,"connected_time":850000000000,"state":"active","ping":81},{"user_id":372,"name":"Robin","steam_id":76561198121165149,"connected_time":4098000000000,"state":"active","ping":43},{"user_id":393,"name":"Dieu-Sama","steam_id":76561198002075862,"connected_time":3055000000000,"state":"active","ping":85},{"user_id":374,"name":"L0b5terlick","steam_id":76561198134990930,"connected_time":4093000000000,"state":"active","ping":66},{"user_id":389,"name":"SG21","steam_id":76561199381171306,"connected_time":3554000000000,"state":"active","ping":111},{"user_id":424,"name":"deez ratz","steam_id":76561198864572366,"connected_time":864000000000,"state":"active","ping":90},{"user_id":418,"name":"Nebe0","steam_id":76561199133770186,"connected_time":1340000000000,"state":"active","ping":91},{"user_id":394,"name":"bought this cart for 15 dollars","steam_id":76561198253731826,"connected_time":3053000000000,"state":"active","ping":52},{"user_id":378,"name":"EJ 2 u","steam_id":76561198242738174,"connected_time":4035000000000,"state":"active","ping":49},{"user_id":422,"name":"Cat in Your Backyard","steam_id":76561197979078330,"connected_time":881000000000,"state":"active","ping":65},{"user_id":388,"name":"lili of the valley","steam_id":76561198253172399,"connected_time":3726000000000,"state":"active","ping":75},{"user_id":426,"name":"zoning out rn brb","steam_id":76561198102681457,"connected_time":824000000000,"state":"active","ping":73},{"user_id":384,"name":"Spinch","steam_id":76561198296224166,"connected_time":3921000000000,"state":"active","ping":99},{"user_id":431,"name":"Uhonlapjontetkiza","steam_id":76561199431280503,"connected_time":219000000000,"state":"active","ping":73},{"user_id":386,"name":"Publo","steam_id":76561198161777140,"connected_time":3912000000000,"state":"active","ping":78},{"user_id":430,"name":"Bot Karma","steam_id":76561198422386331,"connected_time":330000000000,"state":"active","ping":145}]},{"server_id":37,"name":"Uncletopia | Chicago | 6 | All Maps","name_short":"chi-6","host":"chi-2.us.uncletopia.com","port":27025,"enabled":true,"region":"us-central","cc":"us","latitude":41.881832,"longitude":-87.62318,"reserved":0,"last_update":"0001-01-01T00:00:00Z","name_a2s":"Uncletopia | Chicago | 6 | All Maps","protocol":17,"map":"pl_pier","folder":"tf","game":"Team Fortress","app_id":440,"player_count":24,"max_players":24,"Bots":0,"server_type":"Dedicated","server_os":"Linux","password":true,"vac":true,"version":"7757534","steam_id":85568392924866363,"keywords":["nocrits","nodmgspread","payload","uncletopia"],"game_id":440,"stv_port":27026,"stv_name":"Uncletopia | Chicago | 6 | All Maps | STV","players":[{"user_id":518,"name":"Rein","steam_id":76561198300340427,"connected_time":1786000000000,"state":"active","ping":60},{"user_id":538,"name":"*****setget","steam_id":76561198118824188,"connected_time":1107000000000,"state":"active","ping":115},{"user_id":541,"name":"gaming elliptical","steam_id":76561198013456569,"connected_time":1000000000000,"state":"active","ping":48},{"user_id":527,"name":"ඞ","steam_id":76561198340539972,"connected_time":1501000000000,"state":"active","ping":88},{"user_id":548,"name":"windows 11 maid","steam_id":76561198075216115,"connected_time":245000000000,"state":"active","ping":140},{"user_id":425,"name":"ribbonborn","steam_id":76561198001195423,"connected_time":6715000000000,"state":"active","ping":104},{"user_id":450,"name":"Whip_the_Rabbit","steam_id":76561198049896057,"connected_time":5345000000000,"state":"active","ping":109},{"user_id":520,"name":"2EggsScrambled","steam_id":76561198052364159,"connected_time":1655000000000,"state":"active","ping":78},{"user_id":549,"name":"Zeeze","steam_id":76561197998153057,"connected_time":232000000000,"state":"active","ping":58},{"user_id":426,"name":"Voon","steam_id":76561198166843533,"connected_time":6705000000000,"state":"active","ping":81},{"user_id":468,"name":"Bearegard","steam_id":76561198061926542,"connected_time":4232000000000,"state":"active","ping":59},{"user_id":550,"name":"Lionel Messi","steam_id":76561198226207032,"connected_time":119000000000,"state":"active","ping":57},{"user_id":525,"name":"Barlon","steam_id":76561198023717515,"connected_time":1619000000000,"state":"active","ping":76},{"user_id":523,"name":"Pintinkio","steam_id":76561198061714136,"connected_time":1632000000000,"state":"active","ping":65},{"user_id":526,"name":"ms. capgras","steam_id":76561199080209996,"connected_time":1570000000000,"state":"active","ping":53},{"user_id":480,"name":"ap","steam_id":76561198202273263,"connected_time":2900000000000,"state":"active","ping":45},{"user_id":547,"name":"el muchacho","steam_id":76561198282632562,"connected_time":324000000000,"state":"active","ping":99},{"user_id":552,"name":"meth monkey","steam_id":76561198924502457,"connected_time":67000000000,"state":"active","ping":83},{"user_id":545,"name":"AuzzieJZ","steam_id":76561198134430439,"connected_time":579000000000,"state":"active","ping":67},{"user_id":536,"name":"Sir Galahad","steam_id":76561198195999859,"connected_time":1162000000000,"state":"active","ping":98},{"user_id":494,"name":"Mug Moment Gaming","steam_id":76561198233098136,"connected_time":2411000000000,"state":"active","ping":59},{"user_id":495,"name":"ShidFard|RayWilliamJohnsonGamin","steam_id":76561198207800784,"connected_time":2360000000000,"state":"active","ping":103},{"user_id":537,"name":"flamingcookies","steam_id":76561198280864779,"connected_time":1162000000000,"state":"active","ping":77},{"user_id":487,"name":"Flameknight93969","steam_id":76561199107810392,"connected_time":2728000000000,"state":"active","ping":131}]},{"server_id":38,"name":"Uncletopia | Chicago | 7 | Stopwatch Beta","name_short":"chi-7","host":"chi-2.us.uncletopia.com","port":27035,"enabled":true,"region":"us-central","cc":"us","latitude":41.881832,"longitude":-87.62318,"reserved":0,"last_update":"0001-01-01T00:00:00Z","name_a2s":"Uncletopia | Chicago | 7 | Stopwatch Beta","protocol":17,"map":"workshop/pl_barnblitz_pro7.ugc582280235","folder":"tf","game":"Team Fortress","app_id":440,"player_count":0,"max_players":24,"Bots":0,"server_type":"Dedicated","server_os":"Linux","password":true,"vac":true,"version":"7757534","steam_id":85568392924866364,"keywords":["nocrits","nodmgspread","payload","uncletopia"],"game_id":440,"stv_port":27036,"stv_name":"Uncletopia | Chicago | 7 | Stopwatch Beta | STV","players":null},{"server_id":39,"name":"Uncletopia | Chicago | 8 | Community","name_short":"chi-8","host":"chi-2.us.uncletopia.com","port":27045,"enabled":true,"region":"us-central","cc":"us","latitude":41.881832,"longitude":-87.62318,"reserved":0,"last_update":"0001-01-01T00:00:00Z","name_a2s":"Uncletopia | Chicago | 8 | Community","protocol":17,"map":"workshop/pl_cashworks_final1.ugc2904065412","folder":"tf","game":"Team Fortress","app_id":440,"player_count":24,"max_players":24,"Bots":0,"server_type":"Dedicated","server_os":"Linux","password":true,"vac":true,"version":"7757534","steam_id":85568392924866365,"keywords":["nocrits","nodmgspread","payload","uncletopia"],"game_id":440,"stv_port":27046,"stv_name":"Uncletopia | Chicago | 8 | Community | STV","players":[{"user_id":86,"name":"Lone Rider","steam_id":76561198091978968,"connected_time":2832000000000,"state":"active","ping":95},{"user_id":87,"name":"Crotonga","steam_id":76561198077178900,"connected_time":2821000000000,"state":"active","ping":57},{"user_id":88,"name":"Trini","steam_id":76561198100683863,"connected_time":2814000000000,"state":"active","ping":73},{"user_id":89,"name":"Solid","steam_id":76561198163495478,"connected_time":2809000000000,"state":"active","ping":70},{"user_id":90,"name":"dl.harris64","steam_id":76561198374977954,"connected_time":2549000000000,"state":"active","ping":60},{"user_id":102,"name":"Bigcountry","steam_id":76561198028995433,"connected_time":1751000000000,"state":"active","ping":100},{"user_id":114,"name":"dwnkins","steam_id":76561198856016840,"connected_time":1259000000000,"state":"active","ping":80},{"user_id":138,"name":"Cyan","steam_id":76561198090433914,"connected_time":127000000000,"state":"active","ping":103},{"user_id":116,"name":"Poptart From Mars","steam_id":76561197979930960,"connected_time":1189000000000,"state":"active","ping":95},{"user_id":98,"name":"Sprit ♥","steam_id":76561198268780781,"connected_time":1916000000000,"state":"active","ping":46},{"user_id":99,"name":"Goldensliv","steam_id":76561198161673891,"connected_time":1906000000000,"state":"active","ping":92},{"user_id":115,"name":"Pinder","steam_id":76561198176708643,"connected_time":1193000000000,"state":"active","ping":104},{"user_id":101,"name":"Kunai","steam_id":76561198091165171,"connected_time":1848000000000,"state":"active","ping":63},{"user_id":120,"name":"Scum!","steam_id":76561198051805219,"connected_time":1016000000000,"state":"active","ping":54},{"user_id":104,"name":"Sora Halomon","steam_id":76561198081873916,"connected_time":1716000000000,"state":"active","ping":91},{"user_id":136,"name":"Paul Blart","steam_id":76561198068110623,"connected_time":430000000000,"state":"active","ping":97},{"user_id":108,"name":"Lord Scrubling","steam_id":76561198263744445,"connected_time":1474000000000,"state":"active","ping":75},{"user_id":117,"name":"Sup m8","steam_id":76561198081659121,"connected_time":1093000000000,"state":"active","ping":61},{"user_id":118,"name":"Goat","steam_id":76561198068447650,"connected_time":1065000000000,"state":"active","ping":65},{"user_id":119,"name":"9Bendy9","steam_id":76561198164023601,"connected_time":1039000000000,"state":"active","ping":115},{"user_id":133,"name":"Saul Goodman","steam_id":76561198958881101,"connected_time":636000000000,"state":"active","ping":85},{"user_id":125,"name":"Professor Shaggy","steam_id":76561198276926724,"connected_time":928000000000,"state":"active","ping":53},{"user_id":134,"name":"Bendu","steam_id":76561198827777147,"connected_time":613000000000,"state":"active","ping":92},{"user_id":135,"name":"BasicPeaches","steam_id":76561198190890150,"connected_time":603000000000,"state":"active","ping":84}]},{"server_id":8,"name":"Uncletopia | Dallas | 1 | All Maps","name_short":"dal-1","host":"dal-1.us.uncletopia.com","port":27015,"enabled":true,"region":"us-central","cc":"us","latitude":32.779167,"longitude":-96.80889,"reserved":0,"last_update":"0001-01-01T00:00:00Z","name_a2s":"Uncletopia | Dallas | 1 | All Maps","protocol":17,"map":"cp_dustbowl","folder":"tf","game":"Team Fortress","app_id":440,"player_count":24,"max_players":24,"Bots":0,"server_type":"Dedicated","server_os":"Linux","password":true,"vac":true,"version":"7757534","steam_id":85568392924469986,"keywords":["cp","nocrits","nodmgspread","uncletopia"],"game_id":440,"stv_port":27016,"stv_name":"Uncletopia | Dallas | 1 | All Maps | STV","players":[{"user_id":645,"name":"Nen","steam_id":76561198893347370,"connected_time":1165000000000,"state":"active","ping":101},{"user_id":653,"name":"Japheth","steam_id":76561198012902961,"connected_time":765000000000,"state":"active","ping":69},{"user_id":598,"name":"Thermalpwn","steam_id":76561198027552989,"connected_time":5639000000000,"state":"active","ping":97},{"user_id":641,"name":"Megabulldog","steam_id":76561198069116057,"connected_time":1777000000000,"state":"active","ping":85},{"user_id":659,"name":"MantisToboggan","steam_id":76561197969447887,"connected_time":67000000000,"state":"active","ping":158},{"user_id":596,"name":"Propaniac Gaming ☑","steam_id":76561198133963270,"connected_time":5703000000000,"state":"active","ping":58},{"user_id":566,"name":"bolainassr0","steam_id":76561199079078845,"connected_time":9302000000000,"state":"active","ping":108},{"user_id":656,"name":"austintacious","steam_id":76561198054118061,"connected_time":435000000000,"state":"active","ping":76},{"user_id":618,"name":"gamerlegend47","steam_id":76561198122776598,"connected_time":3551000000000,"state":"active","ping":83},{"user_id":613,"name":"Simply Mystic","steam_id":76561198055495647,"connected_time":4852000000000,"state":"active","ping":85},{"user_id":634,"name":"ChottoAMinute","steam_id":76561198873157775,"connected_time":2716000000000,"state":"active","ping":48},{"user_id":646,"name":"Bucket","steam_id":76561198403405126,"connected_time":1164000000000,"state":"active","ping":89},{"user_id":644,"name":"NOT Susie Deltarune (not real)","steam_id":76561199007365488,"connected_time":1539000000000,"state":"active","ping":61},{"user_id":622,"name":"Hot Milk + Sweet Delight","steam_id":76561197988989149,"connected_time":3355000000000,"state":"active","ping":86},{"user_id":660,"name":"SausageLynx","steam_id":76561198126786167,"connected_time":65000000000,"state":"active","ping":76},{"user_id":643,"name":"patam :)","steam_id":76561199139871691,"connected_time":1543000000000,"state":"active","ping":90},{"user_id":619,"name":"spy","steam_id":76561198937717599,"connected_time":3551000000000,"state":"active","ping":45},{"user_id":657,"name":"Danger McHazard","steam_id":76561198059451274,"connected_time":354000000000,"state":"active","ping":75},{"user_id":650,"name":"Cookies The Fox","steam_id":76561198200960402,"connected_time":950000000000,"state":"active","ping":98},{"user_id":654,"name":"Jack Celliers","steam_id":76561198060983357,"connected_time":719000000000,"state":"active","ping":58},{"user_id":624,"name":"Sagertooth","steam_id":76561198060863894,"connected_time":3263000000000,"state":"active","ping":60},{"user_id":655,"name":"_cza","steam_id":76561198079793576,"connected_time":670000000000,"state":"active","ping":104},{"user_id":592,"name":"Blue Protogen - 001198","steam_id":76561198145791867,"connected_time":6507000000000,"state":"active","ping":87},{"user_id":563,"name":"Mr. Metro","steam_id":76561198351521199,"connected_time":9491000000000,"state":"active","ping":108}]},{"server_id":108,"name":"Uncletopia | Dallas | 2 | All Maps","name_short":"dal-2","host":"dal-1.us.uncletopia.com","port":27025,"enabled":true,"region":"us-central","cc":"us","latitude":32.779167,"longitude":-96.80889,"reserved":0,"last_update":"0001-01-01T00:00:00Z","name_a2s":"Uncletopia | Dallas | 2 | All Maps","protocol":17,"map":"pl_barnblitz","folder":"tf","game":"Team Fortress","app_id":440,"player_count":24,"max_players":24,"Bots":0,"server_type":"Dedicated","server_os":"Linux","password":true,"vac":true,"version":"7757534","steam_id":85568392924469988,"keywords":["nocrits","nodmgspread","payload","uncletopia"],"game_id":440,"stv_port":27026,"stv_name":"Uncletopia | Dallas | 2 | All Maps | STV","players":[{"user_id":483,"name":"HighJingo","steam_id":76561198846814390,"connected_time":3818000000000,"state":"connecting","ping":47},{"user_id":507,"name":"꙰","steam_id":76561199125004376,"connected_time":2287000000000,"state":"connecting","ping":176},{"user_id":521,"name":"Joe Swanson","steam_id":76561199089907740,"connected_time":1917000000000,"state":"connecting","ping":59},{"user_id":479,"name":"DargaribdusPersonOfLordlyCalibe","steam_id":76561198020876416,"connected_time":4103000000000,"state":"connecting","ping":70},{"user_id":505,"name":"Some dude on tf2","steam_id":76561198894586082,"connected_time":2697000000000,"state":"connecting","ping":95},{"user_id":401,"name":"Ghaeril","steam_id":76561198047880019,"connected_time":10006000000000,"state":"connecting","ping":66},{"user_id":532,"name":"dulce tentacion","steam_id":76561198328618417,"connected_time":22000000000,"state":"connecting","ping":99},{"user_id":529,"name":"Atom","steam_id":76561198093453524,"connected_time":535000000000,"state":"connecting","ping":79},{"user_id":528,"name":"iluvtoust","steam_id":76561198869269207,"connected_time":771000000000,"state":"connecting","ping":61},{"user_id":522,"name":"Archiax","steam_id":76561198194156903,"connected_time":1848000000000,"state":"connecting","ping":73},{"user_id":462,"name":"s___ on the grass","steam_id":76561198008453104,"connected_time":5568000000000,"state":"connecting","ping":104},{"user_id":486,"name":"Bunchie","steam_id":76561198011549808,"connected_time":3776000000000,"state":"connecting","ping":45},{"user_id":478,"name":"Snivy64","steam_id":76561198423445376,"connected_time":4239000000000,"state":"connecting","ping":96},{"user_id":455,"name":"Luminaro","steam_id":76561198237301228,"connected_time":5843000000000,"state":"connecting","ping":76},{"user_id":489,"name":"rumes","steam_id":76561198349219467,"connected_time":3743000000000,"state":"connecting","ping":83},{"user_id":533,"name":"Niykin","steam_id":76561198044779043,"connected_time":15000000000,"state":"connecting","ping":82},{"user_id":516,"name":"Saikyo","steam_id":76561198212461467,"connected_time":2090000000000,"state":"connecting","ping":65},{"user_id":523,"name":"errant","steam_id":76561197961758410,"connected_time":1820000000000,"state":"connecting","ping":54},{"user_id":527,"name":"Jack from Jack in The Box","steam_id":76561199083594971,"connected_time":933000000000,"state":"connecting","ping":79},{"user_id":491,"name":"Hoofuyu","steam_id":76561199022142345,"connected_time":3666000000000,"state":"connecting","ping":96},{"user_id":531,"name":"RandyGaming3484","steam_id":76561198101971132,"connected_time":28000000000,"state":"connecting","ping":217},{"user_id":530,"name":"TheDieeg","steam_id":76561199443116996,"connected_time":261000000000,"state":"connecting","ping":91}]},{"server_id":5,"name":"Uncletopia | Frankfurt | 1 | All Maps","name_short":"frk-1","host":"frk-1.de.uncletopia.com","port":27015,"enabled":true,"region":"eu","cc":"de","latitude":50.110924,"longitude":8.682127,"reserved":0,"last_update":"0001-01-01T00:00:00Z","name_a2s":"Uncletopia | Frankfurt | 1 | All Maps","protocol":17,"map":"koth_viaduct","folder":"tf","game":"Team Fortress","app_id":440,"player_count":0,"max_players":24,"Bots":0,"server_type":"Dedicated","server_os":"Linux","password":true,"vac":true,"version":"7757534","steam_id":85568392924469989,"keywords":["cp","nocrits","nodmgspread","uncletopia"],"game_id":440,"stv_port":27016,"stv_name":"Uncletopia | Frankfurt | 1 | All Maps | STV","players":null},{"server_id":110,"name":"Uncletopia | Frankfurt | 2 | All Maps","name_short":"frk-2","host":"frk-1.de.uncletopia.com","port":27025,"enabled":true,"region":"eu","cc":"de","latitude":50.110924,"longitude":8.682127,"reserved":0,"last_update":"0001-01-01T00:00:00Z","name_a2s":"Uncletopia | Frankfurt | 2 | All Maps","protocol":17,"map":"koth_cascade","folder":"tf","game":"Team Fortress","app_id":440,"player_count":0,"max_players":24,"Bots":0,"server_type":"Dedicated","server_os":"Linux","password":true,"vac":true,"version":"7757534","steam_id":85568392924469990,"keywords":["cp","nocrits","nodmgspread","uncletopia"],"game_id":440,"stv_port":27026,"stv_name":"Uncletopia | Frankfurt | 2 | All Maps | STV","players":null},{"server_id":308,"name":"Uncletopia | Frankfurt | 3 | All Maps","name_short":"frk-3","host":"frk-1.de.uncletopia.com","port":27035,"enabled":true,"region":"eu","cc":"de","latitude":50.110924,"longitude":8.682127,"reserved":0,"last_update":"0001-01-01T00:00:00Z","name_a2s":"Uncletopia | Frankfurt | 3 | All Maps","protocol":17,"map":"cp_mountainlab","folder":"tf","game":"Team Fortress","app_id":440,"player_count":0,"max_players":24,"Bots":0,"server_type":"Dedicated","server_os":"Linux","password":true,"vac":true,"version":"7757534","steam_id":85568392924504274,"keywords":["cp","nocrits","nodmgspread","uncletopia"],"game_id":440,"stv_port":27036,"stv_name":"Uncletopia | Frankfurt | 3 | All Maps | STV","players":null},{"server_id":309,"name":"Uncletopia | Frankfurt | 4 | All Maps","name_short":"frk-4","host":"frk-1.de.uncletopia.com","port":27045,"enabled":true,"region":"eu","cc":"de","latitude":50.110924,"longitude":8.682127,"reserved":0,"last_update":"0001-01-01T00:00:00Z","name_a2s":"Uncletopia | Frankfurt | 4 | All Maps","protocol":17,"map":"cp_sunshine","folder":"tf","game":"Team Fortress","app_id":440,"player_count":0,"max_players":24,"Bots":0,"server_type":"Dedicated","server_os":"Linux","password":true,"vac":true,"version":"7757534","steam_id":85568392924504275,"keywords":["cp","nocrits","nodmgspread","uncletopia"],"game_id":440,"stv_port":27046,"stv_name":"Uncletopia | Frankfurt | 4 | All Maps | STV","players":null},{"server_id":310,"name":"Uncletopia | Frankfurt | 5 | All Maps","name_short":"frk-5","host":"frk-1.de.uncletopia.com","port":27055,"enabled":true,"region":"eu","cc":"de","latitude":50.110924,"longitude":8.682127,"reserved":0,"last_update":"0001-01-01T00:00:00Z","name_a2s":"Uncletopia | Frankfurt | 5 | All Maps","protocol":17,"map":"pl_swiftwater_final1","folder":"tf","game":"Team Fortress","app_id":440,"player_count":0,"max_players":24,"Bots":0,"server_type":"Dedicated","server_os":"Linux","password":true,"vac":true,"version":"7757534","steam_id":85568392924504277,"keywords":["nocrits","nodmgspread","payload","uncletopia"],"game_id":440,"stv_port":27056,"stv_name":"Uncletopia | Frankfurt | 5 | All Maps | STV","players":null},{"server_id":311,"name":"Uncletopia | Frankfurt | 6 | All Maps","name_short":"frk-6","host":"frk-1.de.uncletopia.com","port":27065,"enabled":true,"region":"eu","cc":"de","latitude":50.110924,"longitude":8.682127,"reserved":0,"last_update":"0001-01-01T00:00:00Z","name_a2s":"Uncletopia | Frankfurt | 6 | All Maps","protocol":17,"map":"pl_badwater","folder":"tf","game":"Team Fortress","app_id":440,"player_count":0,"max_players":24,"Bots":0,"server_type":"Dedicated","server_os":"Linux","password":true,"vac":true,"version":"7757534","steam_id":85568392924504278,"keywords":["nocrits","nodmgspread","payload","uncletopia"],"game_id":440,"stv_port":27066,"stv_name":"Uncletopia | Frankfurt | 6 | All Maps | STV","players":null},{"server_id":23,"name":"Uncletopia | Frankfurt | 7 | Stopwatch Beta","name_short":"frk-7","host":"frk-1.de.uncletopia.com","port":27075,"enabled":true,"region":"eu","cc":"de","latitude":50.110924,"longitude":8.682127,"reserved":0,"last_update":"0001-01-01T00:00:00Z","name_a2s":"Uncletopia | Frankfurt | 7 | Stopwatch Beta","protocol":17,"map":"koth_highpass","folder":"tf","game":"Team Fortress","app_id":440,"player_count":0,"max_players":24,"Bots":0,"server_type":"Dedicated","server_os":"Linux","password":true,"vac":true,"version":"7757534","steam_id":85568392924742827,"keywords":["cp","nocrits","nodmgspread","uncletopia"],"game_id":440,"stv_port":27076,"stv_name":"Uncletopia | Frankfurt | 7 | Stopwatch Beta | STV","players":null},{"server_id":24,"name":"Uncletopia | Frankfurt | 8 | Community","name_short":"frk-8","host":"frk-1.de.uncletopia.com","port":27085,"enabled":true,"region":"eu","cc":"de","latitude":50.110924,"longitude":8.682127,"reserved":0,"last_update":"0001-01-01T00:00:00Z","name_a2s":"Uncletopia | Frankfurt | 8 | Community","protocol":17,"map":"workshop/koth_bagel_rc6.ugc2514036946","folder":"tf","game":"Team Fortress","app_id":440,"player_count":0,"max_players":24,"Bots":0,"server_type":"Dedicated","server_os":"Linux","password":true,"vac":true,"version":"7757534","steam_id":85568392924742828,"keywords":["cp","nocrits","nodmgspread","uncletopia"],"game_id":440,"stv_port":27086,"stv_name":"Uncletopia | Frankfurt | 8 | Community | STV","players":null},{"server_id":202,"name":"Uncletopia | Hong Kong | 1 | All Maps","name_short":"hgk-1","host":"hgk-1.hk.uncletopia.com","port":27015,"enabled":true,"region":"asia","cc":"hk","latitude":22.302711,"longitude":114.177216,"reserved":0,"last_update":"0001-01-01T00:00:00Z","name_a2s":"Uncletopia | Hong Kong | 1 | All Maps","protocol":17,"map":"koth_lakeside_final","folder":"tf","game":"Team Fortress","app_id":440,"player_count":0,"max_players":24,"Bots":0,"server_type":"Dedicated","server_os":"Linux","password":true,"vac":true,"version":"7757534","steam_id":85568392924494504,"keywords":["cp","nocrits","nodmgspread","uncletopia"],"game_id":440,"stv_port":27016,"stv_name":"Uncletopia | Hong Kong | 1 | All Maps | STV","players":null},{"server_id":1,"name":"Uncletopia | Los Angeles | 1 | All Maps","name_short":"lax-1","host":"lax-1.us.uncletopia.com","port":27015,"enabled":true,"region":"us-west","cc":"us","latitude":33.94279,"longitude":-118.41004,"reserved":0,"last_update":"0001-01-01T00:00:00Z","name_a2s":"Uncletopia | Los Angeles | 1 | All Maps","protocol":17,"map":"pl_upward","folder":"tf","game":"Team Fortress","app_id":440,"player_count":24,"max_players":24,"Bots":0,"server_type":"Dedicated","server_os":"Linux","password":true,"vac":true,"version":"7757534","steam_id":85568392924469991,"keywords":["nocrits","nodmgspread","payload","uncletopia"],"game_id":440,"stv_port":27016,"stv_name":"Uncletopia | Los Angeles | 1 | All Maps | STV","players":[{"user_id":115,"name":"ShredMaan","steam_id":76561198429982138,"connected_time":3261000000000,"state":"active","ping":53},{"user_id":46,"name":"Zipfinator","steam_id":76561197979769557,"connected_time":8497000000000,"state":"active","ping":55},{"user_id":111,"name":"Ballista","steam_id":76561197983182562,"connected_time":4020000000000,"state":"active","ping":74},{"user_id":149,"name":"self sufficient kitten","steam_id":76561197960592612,"connected_time":1094000000000,"state":"active","ping":75},{"user_id":146,"name":"Dongus","steam_id":76561197979056451,"connected_time":1254000000000,"state":"active","ping":73},{"user_id":155,"name":"★Unknown★","steam_id":76561198963074953,"connected_time":366000000000,"state":"active","ping":55},{"user_id":143,"name":"philio2010","steam_id":76561199086384636,"connected_time":1331000000000,"state":"active","ping":58},{"user_id":139,"name":"APersonYouMetOnline","steam_id":76561198386025861,"connected_time":1522000000000,"state":"active","ping":74},{"user_id":152,"name":"❤ Ashley ❤","steam_id":76561198056428303,"connected_time":772000000000,"state":"active","ping":47},{"user_id":130,"name":"harmless_nerd","steam_id":76561199470510373,"connected_time":2381000000000,"state":"active","ping":115},{"user_id":157,"name":"Steve Harvey","steam_id":76561198129988457,"connected_time":109000000000,"state":"active","ping":97},{"user_id":158,"name":"JohnnyBoi","steam_id":76561199082599937,"connected_time":94000000000,"state":"active","ping":57},{"user_id":159,"name":"norhtn sorabiba","steam_id":76561199193020423,"connected_time":85000000000,"state":"active","ping":65},{"user_id":94,"name":"ＳＬＶＴＣＨＡＭＰ","steam_id":76561198883157736,"connected_time":5005000000000,"state":"active","ping":105},{"user_id":145,"name":"Jolly","steam_id":76561198116357972,"connected_time":1273000000000,"state":"active","ping":47},{"user_id":142,"name":"Optimore","steam_id":76561198047662990,"connected_time":1368000000000,"state":"active","ping":45},{"user_id":154,"name":"Dentivent","steam_id":76561197971953043,"connected_time":473000000000,"state":"active","ping":62},{"user_id":148,"name":"LO","steam_id":76561198068672882,"connected_time":1169000000000,"state":"active","ping":60},{"user_id":136,"name":"Triple Lizard","steam_id":76561198188459654,"connected_time":2057000000000,"state":"active","ping":115},{"user_id":133,"name":"Dov-Ah-Bob","steam_id":76561198147798338,"connected_time":2220000000000,"state":"active","ping":50},{"user_id":147,"name":"BigGreenBeast","steam_id":76561199052862674,"connected_time":1253000000000,"state":"active","ping":120},{"user_id":151,"name":"wait no stop dont do that","steam_id":76561199117157198,"connected_time":1005000000000,"state":"active","ping":94},{"user_id":127,"name":"futanari","steam_id":76561198066268854,"connected_time":2574000000000,"state":"active","ping":92},{"user_id":153,"name":"LogicalFurret","steam_id":76561198350604657,"connected_time":554000000000,"state":"active","ping":44}]},{"server_id":112,"name":"Uncletopia | Los Angeles | 2 | All Maps","name_short":"lax-2","host":"lax-1.us.uncletopia.com","port":27025,"enabled":true,"region":"us-west","cc":"us","latitude":33.94279,"longitude":-118.41004,"reserved":0,"last_update":"0001-01-01T00:00:00Z","name_a2s":"Uncletopia | Los Angeles | 2 | All Maps","protocol":17,"map":"cp_dustbowl","folder":"tf","game":"Team Fortress","app_id":440,"player_count":0,"max_players":24,"Bots":0,"server_type":"Dedicated","server_os":"Linux","password":true,"vac":true,"version":"7757534","steam_id":85568392924469992,"keywords":["cp","nocrits","nodmgspread","uncletopia"],"game_id":440,"stv_port":27026,"stv_name":"Uncletopia | Los Angeles | 2 | All Maps | STV","players":null},{"server_id":324,"name":"Uncletopia | Los Angeles | 3 | All Maps","name_short":"lax-3","host":"lax-1.us.uncletopia.com","port":27035,"enabled":true,"region":"us-west","cc":"us","latitude":33.94279,"longitude":-118.41004,"reserved":0,"last_update":"0001-01-01T00:00:00Z","name_a2s":"Uncletopia | Los Angeles | 3 | All Maps","protocol":17,"map":"pl_barnblitz","folder":"tf","game":"Team Fortress","app_id":440,"player_count":24,"max_players":24,"Bots":0,"server_type":"Dedicated","server_os":"Linux","password":true,"vac":true,"version":"7757534","steam_id":85568392924510198,"keywords":["nocrits","nodmgspread","payload","uncletopia"],"game_id":440,"stv_port":27036,"stv_name":"Uncletopia | Los Angeles | 3 | All Maps | STV","players":[{"user_id":83,"name":"Sgt. Eclair","steam_id":76561198156384194,"connected_time":1958000000000,"state":"active","ping":58},{"user_id":116,"name":"gherkin","steam_id":76561198083688737,"connected_time":266000000000,"state":"active","ping":69},{"user_id":117,"name":"Kattyee_katcat","steam_id":76561198843913227,"connected_time":144000000000,"state":"active","ping":70},{"user_id":78,"name":"Seth The Echidna","steam_id":76561199204502165,"connected_time":2473000000000,"state":"active","ping":128},{"user_id":121,"name":"SHADOW (he/him)","steam_id":76561198207768148,"connected_time":112000000000,"state":"active","ping":69},{"user_id":104,"name":"Interrobang","steam_id":76561198385044529,"connected_time":871000000000,"state":"active","ping":95},{"user_id":105,"name":"(TPT) Ghost","steam_id":76561198123262873,"connected_time":861000000000,"state":"active","ping":62},{"user_id":113,"name":"barbara","steam_id":76561198072417792,"connected_time":579000000000,"state":"active","ping":93},{"user_id":55,"name":"-={o.W.n}=- Kai","steam_id":76561199222915944,"connected_time":4064000000000,"state":"active","ping":53},{"user_id":118,"name":"Microsoft Excel","steam_id":76561198036504161,"connected_time":133000000000,"state":"active","ping":150},{"user_id":122,"name":"Sexy Julian","steam_id":76561198024596083,"connected_time":93000000000,"state":"active","ping":84},{"user_id":82,"name":"ScoutBox","steam_id":76561198111539895,"connected_time":2185000000000,"state":"active","ping":46},{"user_id":101,"name":"chunkysquare","steam_id":76561199076468383,"connected_time":1212000000000,"state":"active","ping":37},{"user_id":63,"name":"darktheif54","steam_id":76561198043650119,"connected_time":3780000000000,"state":"active","ping":60},{"user_id":115,"name":"Mighty Morphin Flower Arrangers","steam_id":76561198133158032,"connected_time":354000000000,"state":"active","ping":52},{"user_id":109,"name":"TheTrashMann","steam_id":76561199174242639,"connected_time":761000000000,"state":"active","ping":112},{"user_id":114,"name":"DatFluffyPancake","steam_id":76561198271958697,"connected_time":566000000000,"state":"active","ping":104},{"user_id":50,"name":"Walmus","steam_id":76561198111416393,"connected_time":4673000000000,"state":"active","ping":59},{"user_id":102,"name":"[ᵇᵘᵍᵍᶦ] Gambet81","steam_id":76561198985810752,"connected_time":983000000000,"state":"active","ping":122},{"user_id":110,"name":"PunishedCrab","steam_id":76561198079650017,"connected_time":753000000000,"state":"active","ping":63},{"user_id":87,"name":"Dietrich","steam_id":76561198028163840,"connected_time":1828000000000,"state":"active","ping":58},{"user_id":100,"name":"ohton","steam_id":76561199033233448,"connected_time":1289000000000,"state":"active","ping":47},{"user_id":111,"name":"ketsu","steam_id":76561197966171554,"connected_time":727000000000,"state":"active","ping":163},{"user_id":120,"name":"AxonAndroidCM","steam_id":76561198086269391,"connected_time":124000000000,"state":"active","ping":122}]},{"server_id":25,"name":"Uncletopia | Los Angeles | 4 | Stopwatch Beta","name_short":"lax-4","host":"lax-1.us.uncletopia.com","port":27045,"enabled":true,"region":"us-west","cc":"us","latitude":33.94279,"longitude":-118.41004,"reserved":0,"last_update":"0001-01-01T00:00:00Z","name_a2s":"Uncletopia | Los Angeles | 4 | Stopwatch Beta","protocol":17,"map":"pl_swiftwater_final1","folder":"tf","game":"Team Fortress","app_id":440,"player_count":0,"max_players":24,"Bots":0,"server_type":"Dedicated","server_os":"Linux","password":true,"vac":true,"version":"7757534","steam_id":85568392924510199,"keywords":["nocrits","nodmgspread","payload","uncletopia"],"game_id":440,"stv_port":27046,"stv_name":"Uncletopia | Los Angeles | 4 | Stopwatch Beta | STV","players":null},{"server_id":11,"name":"Uncletopia | London | 1 | All Maps","name_short":"lon-1","host":"lon-1.uk.uncletopia.com","port":27015,"enabled":true,"region":"eu","cc":"gb","latitude":51.509865,"longitude":-0.118092,"reserved":0,"last_update":"0001-01-01T00:00:00Z","name_a2s":"Uncletopia | London | 1 | All Maps","protocol":17,"map":"pl_swiftwater_final1","folder":"tf","game":"Team Fortress","app_id":440,"player_count":0,"max_players":24,"Bots":0,"server_type":"Dedicated","server_os":"Linux","password":true,"vac":true,"version":"7757534","steam_id":85568392924367362,"keywords":["nocrits","nodmgspread","payload","uncletopia"],"game_id":440,"stv_port":27016,"stv_name":"Uncletopia | London | 1 | All Maps | STV","players":null},{"server_id":114,"name":"Uncletopia | London | 2 | All Maps","name_short":"lon-2","host":"lon-1.uk.uncletopia.com","port":27025,"enabled":true,"region":"eu","cc":"gb","latitude":51.509865,"longitude":-0.118092,"reserved":0,"last_update":"0001-01-01T00:00:00Z","name_a2s":"Uncletopia | London | 2 | All Maps","protocol":17,"map":"pl_frontier_final","folder":"tf","game":"Team Fortress","app_id":440,"player_count":22,"max_players":24,"Bots":0,"server_type":"Dedicated","server_os":"Linux","password":true,"vac":true,"version":"7757534","steam_id":85568392924470941,"keywords":["nocrits","nodmgspread","payload","uncletopia"],"game_id":440,"stv_port":27026,"stv_name":"Uncletopia | London | 2 | All Maps | STV","players":[{"user_id":771,"name":"brainrot","steam_id":76561199414716848,"connected_time":151000000000,"state":"active","ping":72},{"user_id":758,"name":"mmm delicious bullets","steam_id":76561198254664484,"connected_time":1604000000000,"state":"active","ping":57},{"user_id":735,"name":"pfizer","steam_id":76561198846784757,"connected_time":3192000000000,"state":"active","ping":55},{"user_id":742,"name":"CumbustiblePunda","steam_id":76561197974274677,"connected_time":2893000000000,"state":"active","ping":59},{"user_id":676,"name":"mommy🖤x_x","steam_id":76561199204257697,"connected_time":11034000000000,"state":"active","ping":45},{"user_id":765,"name":"Fallen_Scholar","steam_id":76561198055468709,"connected_time":595000000000,"state":"active","ping":57},{"user_id":739,"name":"Denton","steam_id":76561198367991717,"connected_time":3085000000000,"state":"active","ping":81},{"user_id":741,"name":"SuperBob103","steam_id":76561199175360012,"connected_time":2944000000000,"state":"active","ping":52},{"user_id":728,"name":"Zerfesh","steam_id":76561198117534358,"connected_time":4539000000000,"state":"active","ping":98},{"user_id":766,"name":"scott steiners strongest warrio","steam_id":76561198148888622,"connected_time":417000000000,"state":"active","ping":56},{"user_id":761,"name":"Joe","steam_id":76561198061717026,"connected_time":1202000000000,"state":"active","ping":45},{"user_id":717,"name":"Edgebug Earl","steam_id":76561197970114051,"connected_time":5021000000000,"state":"active","ping":44},{"user_id":762,"name":"peacefrog:)","steam_id":76561198027033926,"connected_time":1198000000000,"state":"active","ping":50},{"user_id":757,"name":"puck","steam_id":76561198121260981,"connected_time":1959000000000,"state":"active","ping":41},{"user_id":744,"name":"ciliorkun18","steam_id":76561198228942500,"connected_time":2856000000000,"state":"active","ping":90},{"user_id":769,"name":"Reast","steam_id":76561198022796927,"connected_time":285000000000,"state":"active","ping":88},{"user_id":726,"name":"don cheadle","steam_id":76561198032841675,"connected_time":4569000000000,"state":"active","ping":60},{"user_id":750,"name":"Tsuruko","steam_id":76561198063618114,"connected_time":2783000000000,"state":"active","ping":75},{"user_id":759,"name":"minn","steam_id":76561198099101232,"connected_time":1600000000000,"state":"active","ping":56},{"user_id":753,"name":"Q","steam_id":76561198276440993,"connected_time":2676000000000,"state":"active","ping":44},{"user_id":727,"name":"Sabesaroo","steam_id":76561198098751074,"connected_time":4562000000000,"state":"active","ping":47},{"user_id":770,"name":"rag","steam_id":76561198083505031,"connected_time":251000000000,"state":"active","ping":38}]},{"server_id":320,"name":"Uncletopia | London | 3 | All Maps","name_short":"lon-3","host":"lon-1.uk.uncletopia.com","port":27035,"enabled":true,"region":"eu","cc":"gb","latitude":51.509865,"longitude":-0.118092,"reserved":0,"last_update":"0001-01-01T00:00:00Z","name_a2s":"Uncletopia | London | 3 | All Maps","protocol":17,"map":"cp_mountainlab","folder":"tf","game":"Team Fortress","app_id":440,"player_count":20,"max_players":24,"Bots":0,"server_type":"Dedicated","server_os":"Linux","password":true,"vac":true,"version":"7757534","steam_id":85568392924510192,"keywords":["cp","nocrits","nodmgspread","uncletopia"],"game_id":440,"stv_port":27036,"stv_name":"Uncletopia | London | 3 | All Maps | STV","players":[{"user_id":901,"name":"Pan Pan","steam_id":76561199074670515,"connected_time":2506000000000,"state":"active","ping":85},{"user_id":896,"name":"[T]aKer","steam_id":76561198001778013,"connected_time":2843000000000,"state":"active","ping":45},{"user_id":920,"name":"*Monkey Noises*","steam_id":76561198136529691,"connected_time":928000000000,"state":"active","ping":32},{"user_id":897,"name":"CubiD","steam_id":76561198433904816,"connected_time":2793000000000,"state":"active","ping":76},{"user_id":922,"name":"fsh","steam_id":76561197998868953,"connected_time":772000000000,"state":"active","ping":175},{"user_id":809,"name":"ุ","steam_id":76561198045466919,"connected_time":7739000000000,"state":"active","ping":74},{"user_id":854,"name":"Bod Dog","steam_id":76561198080631634,"connected_time":5182000000000,"state":"active","ping":54},{"user_id":823,"name":"jar","steam_id":76561198156384007,"connected_time":6803000000000,"state":"active","ping":46},{"user_id":903,"name":"Dr.090","steam_id":76561198201215334,"connected_time":2175000000000,"state":"active","ping":90},{"user_id":893,"name":"Труп Володя","steam_id":76561198035718457,"connected_time":3006000000000,"state":"active","ping":90},{"user_id":925,"name":"Gramma!","steam_id":76561198340989175,"connected_time":15000000000,"state":"active","ping":164},{"user_id":864,"name":"4nalpr0d","steam_id":76561198052092018,"connected_time":4450000000000,"state":"active","ping":41},{"user_id":905,"name":"Nokah","steam_id":76561198973184361,"connected_time":2065000000000,"state":"active","ping":75},{"user_id":916,"name":"LionKing","steam_id":76561198023399545,"connected_time":1341000000000,"state":"active","ping":56},{"user_id":907,"name":"Zzz","steam_id":76561198080168182,"connected_time":2050000000000,"state":"active","ping":92},{"user_id":919,"name":"proph","steam_id":76561197998803950,"connected_time":949000000000,"state":"active","ping":61},{"user_id":909,"name":"cp_frankfurt","steam_id":76561198126008470,"connected_time":1969000000000,"state":"active","ping":35},{"user_id":882,"name":"Turtle Fuckers 2","steam_id":76561198071938027,"connected_time":3388000000000,"state":"active","ping":35},{"user_id":911,"name":"Uzi","steam_id":76561198026037217,"connected_time":1720000000000,"state":"active","ping":82},{"user_id":913,"name":"Glaze!","steam_id":76561199063223088,"connected_time":1639000000000,"state":"active","ping":150}]},{"server_id":321,"name":"Uncletopia | London | 4 | All Maps","name_short":"lon-4","host":"lon-1.uk.uncletopia.com","port":27045,"enabled":true,"region":"eu","cc":"gb","latitude":51.509865,"longitude":-0.118092,"reserved":0,"last_update":"0001-01-01T00:00:00Z","name_a2s":"Uncletopia | London | 4 | All Maps","protocol":17,"map":"koth_lakeside_final","folder":"tf","game":"Team Fortress","app_id":440,"player_count":0,"max_players":24,"Bots":0,"server_type":"Dedicated","server_os":"Linux","password":true,"vac":true,"version":"7757534","steam_id":85568392924510193,"keywords":["cp","nocrits","nodmgspread","uncletopia"],"game_id":440,"stv_port":27046,"stv_name":"Uncletopia | London | 4 | All Maps | STV","players":null},{"server_id":21,"name":"Uncletopia | London | 5 | All Maps","name_short":"lon-5","host":"lon-1.uk.uncletopia.com","port":27055,"enabled":true,"region":"eu","cc":"gb","latitude":51.509865,"longitude":-0.118092,"reserved":0,"last_update":"0001-01-01T00:00:00Z","name_a2s":"Uncletopia | London | 5 | All Maps","protocol":17,"map":"koth_viaduct","folder":"tf","game":"Team Fortress","app_id":440,"player_count":0,"max_players":24,"Bots":0,"server_type":"Dedicated","server_os":"Linux","password":true,"vac":true,"version":"7757534","steam_id":85568392924742829,"keywords":["cp","nocrits","nodmgspread","uncletopia"],"game_id":440,"stv_port":27056,"stv_name":"Uncletopia | London | 5 | All Maps | STV","players":null},{"server_id":22,"name":"Uncletopia | London | 6 | All Maps","name_short":"lon-6","host":"lon-1.uk.uncletopia.com","port":27065,"enabled":true,"region":"eu","cc":"gb","latitude":51.509865,"longitude":-0.118092,"reserved":0,"last_update":"0001-01-01T00:00:00Z","name_a2s":"Uncletopia | London | 6 | All Maps","protocol":17,"map":"koth_highpass","folder":"tf","game":"Team Fortress","app_id":440,"player_count":0,"max_players":24,"Bots":0,"server_type":"Dedicated","server_os":"Linux","password":true,"vac":true,"version":"7757534","steam_id":85568392924742830,"keywords":["cp","nocrits","nodmgspread","uncletopia"],"game_id":440,"stv_port":27066,"stv_name":"Uncletopia | London | 6 | All Maps | STV","players":null},{"server_id":40,"name":"Uncletopia | London | 7 | No Payload","name_short":"lon-7","host":"lon-1.uk.uncletopia.com","port":27075,"enabled":true,"region":"eu","cc":"gb","latitude":51.509865,"longitude":-0.118092,"reserved":0,"last_update":"0001-01-01T00:00:00Z","name_a2s":"Uncletopia | London | 7 | No Payload","protocol":17,"map":"plr_nightfall_final","folder":"tf","game":"Team Fortress","app_id":440,"player_count":0,"max_players":24,"Bots":0,"server_type":"Dedicated","server_os":"Linux","password":true,"vac":true,"version":"7757534","steam_id":85568392924964314,"keywords":["nocrits","nodmgspread","payload","uncletopia"],"game_id":440,"stv_port":27076,"stv_name":"Uncletopia | London | 7 | No Payload | STV","players":null},{"server_id":41,"name":"Uncletopia | London | 8 | Community","name_short":"lon-8","host":"lon-1.uk.uncletopia.com","port":27085,"enabled":true,"region":"eu","cc":"gb","latitude":51.509865,"longitude":-0.118092,"reserved":0,"last_update":"0001-01-01T00:00:00Z","name_a2s":"Uncletopia | London | 8 | Community","protocol":17,"map":"workshop/koth_ramjam_rc1.ugc459778887","folder":"tf","game":"Team Fortress","app_id":440,"player_count":0,"max_players":24,"Bots":0,"server_type":"Dedicated","server_os":"Linux","password":true,"vac":true,"version":"7757534","steam_id":85568392924964315,"keywords":["cp","nocrits","nodmgspread","uncletopia"],"game_id":440,"stv_port":27086,"stv_name":"Uncletopia | London | 8 | Community | STV","players":null},{"server_id":300,"name":"Uncletopia | Montréal | 1 | All Maps","name_short":"mtl-1","host":"mtl-1.ca.uncletopia.com","port":27015,"enabled":true,"region":"us-east","cc":"ca","latitude":45.50889,"longitude":-73.56167,"reserved":0,"last_update":"0001-01-01T00:00:00Z","name_a2s":"Uncletopia | Montréal | 1 | All Maps","protocol":17,"map":"cp_altitude","folder":"tf","game":"Team Fortress","app_id":440,"player_count":0,"max_players":24,"Bots":0,"server_type":"Dedicated","server_os":"Linux","password":true,"vac":true,"version":"7757534","steam_id":85568392924500087,"keywords":["cp","nocrits","nodmgspread","uncletopia"],"game_id":440,"stv_port":27016,"stv_name":"Uncletopia | Montréal | 1 | All Maps | STV","players":null},{"server_id":301,"name":"Uncletopia | Montréal | 2 | All Maps","name_short":"mtl-2","host":"mtl-1.ca.uncletopia.com","port":27025,"enabled":true,"region":"us-east","cc":"ca","latitude":45.50889,"longitude":-73.56167,"reserved":0,"last_update":"0001-01-01T00:00:00Z","name_a2s":"Uncletopia | Montréal | 2 | All Maps","protocol":17,"map":"pl_upward","folder":"tf","game":"Team Fortress","app_id":440,"player_count":0,"max_players":24,"Bots":0,"server_type":"Dedicated","server_os":"Linux","password":true,"vac":true,"version":"7757534","steam_id":85568392924500088,"keywords":["nocrits","nodmgspread","payload","uncletopia"],"game_id":440,"stv_port":27026,"stv_name":"Uncletopia | Montréal | 2 | All Maps | STV","players":null},{"server_id":302,"name":"Uncletopia | Montréal | 3 | All Maps","name_short":"mtl-3","host":"mtl-1.ca.uncletopia.com","port":27035,"enabled":true,"region":"us-east","cc":"ca","latitude":45.50889,"longitude":-73.56167,"reserved":0,"last_update":"0001-01-01T00:00:00Z","name_a2s":"Uncletopia | Montréal | 3 | All Maps","protocol":17,"map":"pl_swiftwater_final1","folder":"tf","game":"Team Fortress","app_id":440,"player_count":0,"max_players":24,"Bots":0,"server_type":"Dedicated","server_os":"Linux","password":true,"vac":true,"version":"7757534","steam_id":85568392924500089,"keywords":["nocrits","nodmgspread","payload","uncletopia"],"game_id":440,"stv_port":27036,"stv_name":"Uncletopia | Montréal | 3 | All Maps | STV","players":null},{"server_id":303,"name":"Uncletopia | Montréal | 4 | No Payload","name_short":"mtl-4","host":"mtl-1.ca.uncletopia.com","port":27045,"enabled":true,"region":"us-east","cc":"ca","latitude":45.50889,"longitude":-73.56167,"reserved":0,"last_update":"0001-01-01T00:00:00Z","name_a2s":"Uncletopia | Montréal | 4 | No Payload","protocol":17,"map":"plr_hightower","folder":"tf","game":"Team Fortress","app_id":440,"player_count":0,"max_players":24,"Bots":0,"server_type":"Dedicated","server_os":"Linux","password":true,"vac":true,"version":"7757534","steam_id":85568392924500090,"keywords":["nocrits","nodmgspread","payload","uncletopia"],"game_id":440,"stv_port":27046,"stv_name":"Uncletopia | Montréal | 4 | No Payload | STV","players":null},{"server_id":13,"name":"Uncletopia | New York City | 1 | All Maps","name_short":"nyc-1","host":"nyc-1.us.uncletopia.com","port":27015,"enabled":true,"region":"us-east","cc":"us","latitude":40.73061,"longitude":-73.93524,"reserved":0,"last_update":"0001-01-01T00:00:00Z","name_a2s":"Uncletopia | New York City | 1 | All Maps","protocol":17,"map":"koth_highpass","folder":"tf","game":"Team Fortress","app_id":440,"player_count":25,"max_players":24,"Bots":0,"server_type":"Dedicated","server_os":"Linux","password":true,"vac":true,"version":"7757534","steam_id":85568392924469993,"keywords":["cp","nocrits","nodmgspread","uncletopia"],"game_id":440,"stv_port":27016,"stv_name":"Uncletopia | New York City | 1 | All Maps | STV","players":[{"user_id":548,"name":"Phil Collins","steam_id":76561198068868644,"connected_time":4663000000000,"state":"active","ping":116},{"user_id":531,"name":"Dr. Prostate","steam_id":76561198171085627,"connected_time":7146000000000,"state":"active","ping":56},{"user_id":534,"name":"Jessie Pinkman","steam_id":76561198067417196,"connected_time":6995000000000,"state":"active","ping":52},{"user_id":607,"name":"roingus moment number 7","steam_id":76561198133234284,"connected_time":428000000000,"state":"active","ping":76},{"user_id":536,"name":"HadesTheKing","steam_id":76561198071731749,"connected_time":6911000000000,"state":"active","ping":53},{"user_id":593,"name":"Dom","steam_id":76561198043992490,"connected_time":1372000000000,"state":"active","ping":105},{"user_id":550,"name":"alpharuby","steam_id":76561198051638462,"connected_time":4460000000000,"state":"active","ping":115},{"user_id":617,"name":"pockets aint empty cuz","steam_id":76561198001415763,"connected_time":200000000000,"state":"active","ping":89},{"user_id":613,"name":"the shift key","steam_id":76561198027925966,"connected_time":274000000000,"state":"connecting","ping":0},{"user_id":614,"name":"Joseph Bidomeus","steam_id":76561198389177376,"connected_time":241000000000,"state":"active","ping":71},{"user_id":594,"name":"Space Cops","steam_id":76561198032414253,"connected_time":1331000000000,"state":"active","ping":45},{"user_id":606,"name":"oopsboom24","steam_id":76561199105248648,"connected_time":483000000000,"state":"active","ping":91},{"user_id":580,"name":"ℋℇἂṼഴ","steam_id":76561199062259389,"connected_time":2717000000000,"state":"active","ping":54},{"user_id":608,"name":"Lute Goblin","steam_id":76561198132942054,"connected_time":400000000000,"state":"active","ping":95},{"user_id":597,"name":"Dino Aids","steam_id":76561199204984924,"connected_time":775000000000,"state":"active","ping":65},{"user_id":618,"name":"Bane","steam_id":76561199229178323,"connected_time":164000000000,"state":"active","ping":101},{"user_id":610,"name":"cool ranch super bowl","steam_id":76561198001781616,"connected_time":364000000000,"state":"active","ping":46},{"user_id":585,"name":"Defiant Statement.","steam_id":76561199101373436,"connected_time":2562000000000,"state":"active","ping":89},{"user_id":611,"name":"Chase McCain","steam_id":76561198314538469,"connected_time":358000000000,"state":"active","ping":60},{"user_id":603,"name":"boop","steam_id":76561198043787598,"connected_time":515000000000,"state":"active","ping":47},{"user_id":604,"name":"Ping","steam_id":76561199206514106,"connected_time":513000000000,"state":"active","ping":73},{"user_id":578,"name":"Fudgely","steam_id":76561198039425862,"connected_time":3323000000000,"state":"active","ping":62},{"user_id":619,"name":"Flantastic","steam_id":76561198024916075,"connected_time":136000000000,"state":"active","ping":131},{"user_id":596,"name":"Centipede on a Game Boy","steam_id":76561199016285746,"connected_time":1250000000000,"state":"active","ping":97},{"user_id":615,"name":"bash -lc ./asshat.sh","steam_id":76561198004584315,"connected_time":240000000000,"state":"active","ping":90}]},{"server_id":14,"name":"Uncletopia | New York City | 2 | All Maps","name_short":"nyc-2","host":"nyc-1.us.uncletopia.com","port":27025,"enabled":true,"region":"us-east","cc":"us","latitude":40.73061,"longitude":-73.93524,"reserved":0,"last_update":"0001-01-01T00:00:00Z","name_a2s":"Uncletopia | New York City | 2 | All Maps","protocol":17,"map":"cp_dustbowl","folder":"tf","game":"Team Fortress","app_id":440,"player_count":24,"max_players":24,"Bots":0,"server_type":"Dedicated","server_os":"Linux","password":true,"vac":true,"version":"7757534","steam_id":85568392924469994,"keywords":["cp","nocrits","nodmgspread","uncletopia"],"game_id":440,"stv_port":27026,"stv_name":"Uncletopia | New York City | 2 | All Maps | STV","players":[{"user_id":697,"name":"quint","steam_id":76561198046797995,"connected_time":10000000000,"state":"active","ping":115},{"user_id":663,"name":"emacs","steam_id":76561198048785843,"connected_time":3153000000000,"state":"active","ping":57},{"user_id":688,"name":"Sabaman55","steam_id":76561198212267979,"connected_time":1045000000000,"state":"active","ping":66},{"user_id":659,"name":"Underachiever Mako","steam_id":76561198207943169,"connected_time":3700000000000,"state":"active","ping":56},{"user_id":693,"name":"Spazzid","steam_id":76561199445100850,"connected_time":62000000000,"state":"active","ping":60},{"user_id":686,"name":"Narwhal","steam_id":76561198132448838,"connected_time":1205000000000,"state":"active","ping":52},{"user_id":694,"name":"liamdunn2008","steam_id":76561199017906046,"connected_time":50000000000,"state":"active","ping":63},{"user_id":670,"name":"Cola","steam_id":76561198171893399,"connected_time":2399000000000,"state":"active","ping":49},{"user_id":671,"name":"Agent Hugh Jass","steam_id":76561199097744991,"connected_time":2391000000000,"state":"active","ping":67},{"user_id":672,"name":"xen","steam_id":76561198048568188,"connected_time":2314000000000,"state":"active","ping":45},{"user_id":695,"name":"WaywardFinn","steam_id":76561198040391296,"connected_time":33000000000,"state":"active","ping":71},{"user_id":677,"name":"Sabakaii","steam_id":76561198149191879,"connected_time":2177000000000,"state":"active","ping":64},{"user_id":696,"name":"Sheep","steam_id":76561198122705864,"connected_time":31000000000,"state":"active","ping":103},{"user_id":666,"name":"hashmap","steam_id":76561198043794014,"connected_time":3134000000000,"state":"active","ping":61},{"user_id":687,"name":"Daddys Home","steam_id":76561198034702011,"connected_time":1096000000000,"state":"active","ping":62},{"user_id":683,"name":"Spiral Mountain","steam_id":76561198058683715,"connected_time":1725000000000,"state":"active","ping":68},{"user_id":674,"name":"lofile :]","steam_id":76561198083798918,"connected_time":2286000000000,"state":"active","ping":53},{"user_id":650,"name":"Pettifogging Milksop","steam_id":76561198074560331,"connected_time":3986000000000,"state":"active","ping":73},{"user_id":667,"name":"will uber light classes","steam_id":76561198117033273,"connected_time":3122000000000,"state":"active","ping":121},{"user_id":644,"name":"Gandalf Gaming","steam_id":76561198368151490,"connected_time":5007000000000,"state":"active","ping":45},{"user_id":645,"name":"B0otstrut beel","steam_id":76561198202457221,"connected_time":4789000000000,"state":"active","ping":57},{"user_id":692,"name":"angeloculmone5","steam_id":76561199219952677,"connected_time":218000000000,"state":"active","ping":88},{"user_id":689,"name":"Nickorea","steam_id":76561198025784788,"connected_time":896000000000,"state":"active","ping":42},{"user_id":676,"name":"sasharudzik","steam_id":76561199126617781,"connected_time":2232000000000,"state":"active","ping":78}]},{"server_id":15,"name":"Uncletopia | New York City | 3 | Stopwatch Beta","name_short":"nyc-3","host":"nyc-1.us.uncletopia.com","port":27035,"enabled":true,"region":"us-east","cc":"us","latitude":40.73061,"longitude":-73.93524,"reserved":0,"last_update":"0001-01-01T00:00:00Z","name_a2s":"Uncletopia | New York City | 3 | Stopwatch Beta","protocol":17,"map":"workshop/pl_summercoast_rc8e.ugc1761528829","folder":"tf","game":"Team Fortress","app_id":440,"player_count":0,"max_players":24,"Bots":0,"server_type":"Dedicated","server_os":"Linux","password":true,"vac":true,"version":"7757534","steam_id":85568392924742820,"keywords":["nocrits","nodmgspread","payload","uncletopia"],"game_id":440,"stv_port":27036,"stv_name":"Uncletopia | New York City | 3 | Stopwatch Beta | STV","players":null},{"server_id":16,"name":"Uncletopia | New York City | 4 | Community","name_short":"nyc-4","host":"nyc-1.us.uncletopia.com","port":27045,"enabled":true,"region":"us-east","cc":"us","latitude":40.73061,"longitude":-73.93524,"reserved":0,"last_update":"0001-01-01T00:00:00Z","name_a2s":"Uncletopia | New York City | 4 | Community","protocol":17,"map":"workshop/koth_trenchfoot_b1a.ugc731436616","folder":"tf","game":"Team Fortress","app_id":440,"player_count":23,"max_players":24,"Bots":0,"server_type":"Dedicated","server_os":"Linux","password":true,"vac":true,"version":"7757534","steam_id":85568392924742821,"keywords":["cp","nocrits","nodmgspread","uncletopia"],"game_id":440,"stv_port":27046,"stv_name":"Uncletopia | New York City | 4 | Community | STV","players":[{"user_id":352,"name":"ZaChelbom","steam_id":76561198089343809,"connected_time":2387000000000,"state":"active","ping":63},{"user_id":325,"name":"dodge1214","steam_id":76561198020431237,"connected_time":5379000000000,"state":"active","ping":49},{"user_id":353,"name":"Kaboob","steam_id":76561199121870665,"connected_time":2349000000000,"state":"active","ping":62},{"user_id":371,"name":"bobdragon27","steam_id":76561198065833387,"connected_time":857000000000,"state":"active","ping":43},{"user_id":382,"name":"Zeflow","steam_id":76561197965029587,"connected_time":328000000000,"state":"active","ping":74},{"user_id":376,"name":"PeachFlavoredBleach","steam_id":76561198116226449,"connected_time":663000000000,"state":"active","ping":44},{"user_id":335,"name":"Cy-Knight_118","steam_id":76561198054611026,"connected_time":4011000000000,"state":"active","ping":61},{"user_id":375,"name":"Vzlæd","steam_id":76561198044192839,"connected_time":741000000000,"state":"active","ping":34},{"user_id":356,"name":"jalapeno handjob","steam_id":76561198123298824,"connected_time":2181000000000,"state":"active","ping":86},{"user_id":366,"name":"SnatchyGoblin69","steam_id":76561199276295259,"connected_time":1827000000000,"state":"active","ping":85},{"user_id":380,"name":"Se_Rious","steam_id":76561198040671133,"connected_time":473000000000,"state":"active","ping":45},{"user_id":369,"name":"Aki Hayakawa","steam_id":76561198063842962,"connected_time":1265000000000,"state":"active","ping":73},{"user_id":378,"name":"pipebombrater","steam_id":76561199029030831,"connected_time":638000000000,"state":"active","ping":67},{"user_id":302,"name":"Vegerot","steam_id":76561197997843710,"connected_time":7182000000000,"state":"active","ping":45},{"user_id":381,"name":"Merlo98765","steam_id":76561198030321713,"connected_time":427000000000,"state":"active","ping":144},{"user_id":379,"name":"NyquilDriver","steam_id":76561198093617964,"connected_time":565000000000,"state":"active","ping":44},{"user_id":232,"name":"Le0901","steam_id":76561198372891244,"connected_time":11531000000000,"state":"active","ping":74},{"user_id":305,"name":"gallowsCalibrator","steam_id":76561198076388445,"connected_time":7041000000000,"state":"active","ping":73},{"user_id":364,"name":"Genn","steam_id":76561198070450699,"connected_time":1863000000000,"state":"active","ping":44},{"user_id":377,"name":"gentuu","steam_id":76561199063550279,"connected_time":661000000000,"state":"active","ping":73},{"user_id":293,"name":"𝙴 𝚡 𝚌 𝚎 𝚕 𝚕 \ufffd","steam_id":76561198011887958,"connected_time":7585000000000,"state":"active","ping":56},{"user_id":367,"name":"Good Seed","steam_id":76561198013443319,"connected_time":1811000000000,"state":"active","ping":60}]},{"server_id":142,"name":"Uncletopia | São Paulo | 1 | All Maps","name_short":"sao-1","host":"sao-1.br.uncletopia.com","port":27015,"enabled":true,"region":"sa","cc":"br","latitude":-23.533773,"longitude":-46.62529,"reserved":0,"last_update":"0001-01-01T00:00:00Z","name_a2s":"Uncletopia | São Paulo | 1 | All Maps","protocol":17,"map":"koth_viaduct","folder":"tf","game":"Team Fortress","app_id":440,"player_count":0,"max_players":24,"Bots":0,"server_type":"Dedicated","server_os":"Linux","password":true,"vac":true,"version":"7757534","steam_id":85568392924469996,"keywords":["cp","nocrits","nodmgspread","uncletopia"],"game_id":440,"stv_port":27016,"stv_name":"Uncletopia | São Paulo | 1 | All Maps | STV","players":null},{"server_id":143,"name":"Uncletopia | São Paulo | 2 | All Maps","name_short":"sao-2","host":"sao-2.br.uncletopia.com","port":27015,"enabled":true,"region":"sa","cc":"br","latitude":-23.533773,"longitude":-46.62529,"reserved":0,"last_update":"0001-01-01T00:00:00Z","name_a2s":"Uncletopia | São Paulo | 2 | All Maps","protocol":17,"map":"pl_barnblitz","folder":"tf","game":"Team Fortress","app_id":440,"player_count":10,"max_players":24,"Bots":0,"server_type":"Dedicated","server_os":"Linux","password":true,"vac":true,"version":"7757534","steam_id":85568392924485349,"keywords":["nocrits","nodmgspread","payload","uncletopia"],"game_id":440,"stv_port":27016,"stv_name":"Uncletopia | São Paulo | 2 | All Maps | STV","players":[{"user_id":410,"name":"High_Yields2","steam_id":76561199221585265,"connected_time":3307000000000,"state":"active","ping":186},{"user_id":426,"name":"SpwalProject","steam_id":76561198353178182,"connected_time":1462000000000,"state":"active","ping":45},{"user_id":421,"name":"Lunland","steam_id":76561198985313755,"connected_time":2308000000000,"state":"active","ping":97},{"user_id":412,"name":"no username yet","steam_id":76561199018250158,"connected_time":3209000000000,"state":"active","ping":235},{"user_id":370,"name":"Smokes","steam_id":76561198449475955,"connected_time":6245000000000,"state":"active","ping":80},{"user_id":423,"name":"LucasMurk","steam_id":76561198168918343,"connected_time":2181000000000,"state":"active","ping":36},{"user_id":418,"name":"francoquinterosfr","steam_id":76561199385497278,"connected_time":2461000000000,"state":"active","ping":183},{"user_id":420,"name":"kkpro9","steam_id":76561198837922606,"connected_time":2389000000000,"state":"active","ping":79},{"user_id":403,"name":"Vlad","steam_id":76561198089311495,"connected_time":3654000000000,"state":"active","ping":60},{"user_id":380,"name":"Parreto","steam_id":76561198173414155,"connected_time":5778000000000,"state":"active","ping":37}]},{"server_id":7,"name":"Uncletopia | Seattle | 1 | All Maps","name_short":"sea-1","host":"sea-1.us.uncletopia.com","port":27015,"enabled":true,"region":"us-west","cc":"us","latitude":47.608013,"longitude":-122.33517,"reserved":0,"last_update":"0001-01-01T00:00:00Z","name_a2s":"Uncletopia | Seattle | 1 | All Maps","protocol":17,"map":"pl_borneo","folder":"tf","game":"Team Fortress","app_id":440,"player_count":24,"max_players":24,"Bots":0,"server_type":"Dedicated","server_os":"Linux","password":true,"vac":true,"version":"7757534","steam_id":85568392924469997,"keywords":["nocrits","nodmgspread","payload","uncletopia"],"game_id":440,"stv_port":27016,"stv_name":"Uncletopia | Seattle | 1 | All Maps | STV","players":[{"user_id":613,"name":"jole","steam_id":76561198037292232,"connected_time":3738000000000,"state":"active","ping":131},{"user_id":628,"name":"Pre Pissed Pants","steam_id":76561198042143837,"connected_time":3142000000000,"state":"active","ping":66},{"user_id":635,"name":"Anomet","steam_id":76561198060246255,"connected_time":2498000000000,"state":"active","ping":87},{"user_id":622,"name":"MonteJT","steam_id":76561198055409360,"connected_time":3400000000000,"state":"active","ping":40},{"user_id":642,"name":"The Poot","steam_id":76561198093889730,"connected_time":1725000000000,"state":"active","ping":101},{"user_id":632,"name":"Gr8butnotreally","steam_id":76561198133924450,"connected_time":3005000000000,"state":"active","ping":93},{"user_id":647,"name":"Solifuga","steam_id":76561198119569902,"connected_time":1361000000000,"state":"active","ping":47},{"user_id":643,"name":"They/Them Rattussy","steam_id":76561198238186628,"connected_time":1501000000000,"state":"active","ping":90},{"user_id":648,"name":"HDI","steam_id":76561199062715724,"connected_time":1319000000000,"state":"active","ping":61},{"user_id":658,"name":"Sussy Impostor","steam_id":76561198334977151,"connected_time":72000000000,"state":"active","ping":69},{"user_id":646,"name":"Hornet","steam_id":76561198130369526,"connected_time":1455000000000,"state":"active","ping":75},{"user_id":649,"name":"wubber","steam_id":76561198286627157,"connected_time":1292000000000,"state":"active","ping":77},{"user_id":650,"name":"D.E.O","steam_id":76561198096992957,"connected_time":1289000000000,"state":"active","ping":168},{"user_id":657,"name":"Yoshi","steam_id":76561198130690686,"connected_time":81000000000,"state":"active","ping":61},{"user_id":654,"name":"S Q U I S H E  T H A T  C A T","steam_id":76561198293865429,"connected_time":204000000000,"state":"active","ping":36},{"user_id":636,"name":"Kelkith","steam_id":76561197985450422,"connected_time":2461000000000,"state":"active","ping":132},{"user_id":637,"name":"The Champagne of Mayonnaise","steam_id":76561197961107982,"connected_time":2459000000000,"state":"active","ping":101},{"user_id":653,"name":"AmiableNebula","steam_id":76561198094306627,"connected_time":744000000000,"state":"active","ping":76},{"user_id":656,"name":"chill","steam_id":76561199082397538,"connected_time":108000000000,"state":"active","ping":48},{"user_id":629,"name":"Soda","steam_id":76561198219209367,"connected_time":3104000000000,"state":"active","ping":47},{"user_id":659,"name":"emeraldd gear","steam_id":76561199046192875,"connected_time":20000000000,"state":"active","ping":148},{"user_id":652,"name":"Themasterman75","steam_id":76561199385573293,"connected_time":768000000000,"state":"active","ping":73},{"user_id":604,"name":"Username","steam_id":76561198855586261,"connected_time":4298000000000,"state":"active","ping":63},{"user_id":641,"name":"Player Zero","steam_id":76561198208312849,"connected_time":1849000000000,"state":"active","ping":46}]},{"server_id":119,"name":"Uncletopia | Seattle | 2 | All Maps","name_short":"sea-2","host":"sea-1.us.uncletopia.com","port":27025,"enabled":true,"region":"us-west","cc":"us","latitude":47.608013,"longitude":-122.33517,"reserved":0,"last_update":"0001-01-01T00:00:00Z","name_a2s":"Uncletopia | Seattle | 2 | All Maps","protocol":17,"map":"koth_highpass","folder":"tf","game":"Team Fortress","app_id":440,"player_count":22,"max_players":24,"Bots":0,"server_type":"Dedicated","server_os":"Linux","password":true,"vac":true,"version":"7757534","steam_id":85568392924469998,"keywords":["cp","nocrits","nodmgspread","uncletopia"],"game_id":440,"stv_port":27026,"stv_name":"Uncletopia | Seattle | 2 | All Maps | STV","players":[{"user_id":462,"name":"DoctorHa","steam_id":76561198044026008,"connected_time":4043000000000,"state":"active","ping":94},{"user_id":303,"name":"liftin'","steam_id":76561199089515791,"connected_time":17335000000000,"state":"spawning","ping":79},{"user_id":546,"name":"3","steam_id":76561199276894516,"connected_time":173000000000,"state":"active","ping":58},{"user_id":480,"name":"RapidXenophage","steam_id":76561198175149973,"connected_time":2367000000000,"state":"active","ping":74},{"user_id":489,"name":"Agent86","steam_id":76561198046794593,"connected_time":1573000000000,"state":"active","ping":112},{"user_id":550,"name":"R5-D4","steam_id":76561198025196439,"connected_time":96000000000,"state":"active","ping":60},{"user_id":554,"name":"Reisen","steam_id":76561199174579733,"connected_time":13000000000,"state":"spawning","ping":133},{"user_id":476,"name":"the cock forger","steam_id":76561199226737503,"connected_time":2797000000000,"state":"active","ping":112},{"user_id":519,"name":"Felipe Ramirez 2013","steam_id":76561198150497397,"connected_time":761000000000,"state":"spawning","ping":77},{"user_id":525,"name":"[DATS➡] Sugar Meowth","steam_id":76561197995251793,"connected_time":553000000000,"state":"active","ping":43},{"user_id":420,"name":"adult termination service","steam_id":76561198844273999,"connected_time":6673000000000,"state":"active","ping":94},{"user_id":486,"name":"dingleflongle","steam_id":76561198183529802,"connected_time":1808000000000,"state":"active","ping":78},{"user_id":520,"name":"The Horselords and Animal Gods","steam_id":76561197975094050,"connected_time":759000000000,"state":"active","ping":84},{"user_id":468,"name":"Lambchop","steam_id":76561198043900363,"connected_time":3576000000000,"state":"active","ping":73},{"user_id":483,"name":"CPTforever","steam_id":76561198237767198,"connected_time":1854000000000,"state":"active","ping":55},{"user_id":473,"name":"CHEEKY EUNUCH","steam_id":76561198990825232,"connected_time":2945000000000,"state":"active","ping":118},{"user_id":521,"name":"Shadow Wizard Money Gang","steam_id":76561198106552198,"connected_time":688000000000,"state":"spawning","ping":155},{"user_id":522,"name":"comfycaffeine","steam_id":76561198058690096,"connected_time":683000000000,"state":"active","ping":48},{"user_id":552,"name":"Seico Bass","steam_id":76561198123498500,"connected_time":41000000000,"state":"spawning","ping":66},{"user_id":457,"name":"Cryonics","steam_id":76561198314197911,"connected_time":4565000000000,"state":"spawning","ping":127},{"user_id":553,"name":"bob1444","steam_id":76561198110258432,"connected_time":41000000000,"state":"active","ping":83},{"user_id":419,"name":"★ βαdαιΜ ♪","steam_id":76561198411130578,"connected_time":6851000000000,"state":"spawning","ping":51}]},{"server_id":406,"name":"Uncletopia | Seattle | 3 | Stopwatch Beta","name_short":"sea-3","host":"sea-1.us.uncletopia.com","port":27035,"enabled":true,"region":"us-west","cc":"us","latitude":47.608013,"longitude":-122.33517,"reserved":0,"last_update":"0001-01-01T00:00:00Z","name_a2s":"Uncletopia | Seattle | 3 | Stopwatch Beta","protocol":17,"map":"workshop/pl_vigil_rc9.ugc1266210012","folder":"tf","game":"Team Fortress","app_id":440,"player_count":0,"max_players":24,"Bots":0,"server_type":"Dedicated","server_os":"Linux","password":true,"vac":true,"version":"7757534","steam_id":85568392924515217,"keywords":["nocrits","nodmgspread","payload","uncletopia"],"game_id":440,"stv_port":27036,"stv_name":"Uncletopia | Seattle | 3 | Stopwatch Beta | STV","players":null},{"server_id":17,"name":"Uncletopia | San Francisco | 1 | All Maps","name_short":"sfo-1","host":"sfo-1.us.uncletopia.com","port":27015,"enabled":true,"region":"us-west","cc":"us","latitude":37.77397,"longitude":-122.4313,"reserved":0,"last_update":"0001-01-01T00:00:00Z","name_a2s":"Uncletopia | San Francisco | 1 | All Maps","protocol":17,"map":"cp_dustbowl","folder":"tf","game":"Team Fortress","app_id":440,"player_count":24,"max_players":24,"Bots":0,"server_type":"Dedicated","server_os":"Linux","password":true,"vac":true,"version":"7757534","steam_id":85568392924469999,"keywords":["cp","nocrits","nodmgspread","uncletopia"],"game_id":440,"stv_port":27016,"stv_name":"Uncletopia | San Francisco | 1 | All Maps | STV","players":[{"user_id":629,"name":"TimTam","steam_id":76561198080434949,"connected_time":1849000000000,"state":"active","ping":114},{"user_id":608,"name":"AmBoxReally","steam_id":76561198200640118,"connected_time":3536000000000,"state":"active","ping":82},{"user_id":658,"name":"david201314","steam_id":76561199304644842,"connected_time":242000000000,"state":"active","ping":113},{"user_id":635,"name":"Ferry gary","steam_id":76561198184698262,"connected_time":1565000000000,"state":"active","ping":64},{"user_id":636,"name":"glue","steam_id":76561198382076026,"connected_time":1542000000000,"state":"active","ping":47},{"user_id":624,"name":"gNarNar","steam_id":76561197994505205,"connected_time":2279000000000,"state":"active","ping":99},{"user_id":637,"name":"nav","steam_id":76561198872608266,"connected_time":1498000000000,"state":"active","ping":145},{"user_id":627,"name":"PL0T0","steam_id":76561198157481171,"connected_time":1959000000000,"state":"active","ping":61},{"user_id":491,"name":"Highground","steam_id":76561199197544789,"connected_time":13654000000000,"state":"active","ping":174},{"user_id":644,"name":"Shoehorn Jim","steam_id":76561198310004779,"connected_time":1068000000000,"state":"active","ping":124},{"user_id":641,"name":"Gengarfield","steam_id":76561198052506289,"connected_time":1172000000000,"state":"active","ping":53},{"user_id":642,"name":"Perfume Department","steam_id":76561198128299594,"connected_time":1135000000000,"state":"active","ping":56},{"user_id":654,"name":"maximusbabaximus","steam_id":76561198419378913,"connected_time":743000000000,"state":"active","ping":64},{"user_id":643,"name":"Mom","steam_id":76561198207936000,"connected_time":1135000000000,"state":"active","ping":45},{"user_id":645,"name":"X-800","steam_id":76561199077437718,"connected_time":1053000000000,"state":"active","ping":78},{"user_id":648,"name":"mrhazman","steam_id":76561198040467069,"connected_time":982000000000,"state":"active","ping":68},{"user_id":647,"name":"Coolshroomish","steam_id":76561199109440924,"connected_time":998000000000,"state":"active","ping":76},{"user_id":649,"name":"H4V0C","steam_id":76561199129350925,"connected_time":971000000000,"state":"active","ping":74},{"user_id":650,"name":"Jam Jams","steam_id":76561198128811267,"connected_time":966000000000,"state":"active","ping":89},{"user_id":631,"name":"Dr. Snowdrake","steam_id":76561198024952624,"connected_time":1825000000000,"state":"active","ping":76},{"user_id":655,"name":"SpringIvan","steam_id":76561199133179509,"connected_time":726000000000,"state":"active","ping":42},{"user_id":652,"name":"Dr. PP","steam_id":76561199018184096,"connected_time":930000000000,"state":"active","ping":74},{"user_id":484,"name":"Vintage TV","steam_id":76561198800334545,"connected_time":14310000000000,"state":"active","ping":55},{"user_id":657,"name":"Hqmmie","steam_id":76561199071213094,"connected_time":657000000000,"state":"active","ping":81}]},{"server_id":18,"name":"Uncletopia | San Francisco | 2 | All Maps","name_short":"sfo-2","host":"sfo-1.us.uncletopia.com","port":27025,"enabled":true,"region":"us-west","cc":"us","latitude":37.77397,"longitude":-122.4313,"reserved":0,"last_update":"0001-01-01T00:00:00Z","name_a2s":"Uncletopia | San Francisco | 2 | All Maps","protocol":17,"map":"pl_upward","folder":"tf","game":"Team Fortress","app_id":440,"player_count":24,"max_players":24,"Bots":0,"server_type":"Dedicated","server_os":"Linux","password":true,"vac":true,"version":"7757534","steam_id":85568392924470000,"keywords":["nocrits","nodmgspread","payload","uncletopia"],"game_id":440,"stv_port":27026,"stv_name":"Uncletopia | San Francisco | 2 | All Maps | STV","players":[{"user_id":345,"name":"Monty","steam_id":76561197993567253,"connected_time":553000000000,"state":"active","ping":53},{"user_id":282,"name":"Tom Foolery","steam_id":76561198142772896,"connected_time":4049000000000,"state":"active","ping":120},{"user_id":194,"name":"ScoutSecoTF2","steam_id":76561198366212156,"connected_time":8773000000000,"state":"active","ping":156},{"user_id":198,"name":"DemoLiberTF2","steam_id":76561198095378689,"connected_time":8212000000000,"state":"active","ping":90},{"user_id":283,"name":"H","steam_id":76561199034215138,"connected_time":4037000000000,"state":"active","ping":70},{"user_id":346,"name":"Digital Menace","steam_id":76561198131332027,"connected_time":553000000000,"state":"active","ping":121},{"user_id":333,"name":"chrome 2008 (she/they)","steam_id":76561198321277216,"connected_time":1719000000000,"state":"active","ping":50},{"user_id":351,"name":"Toastedtoast222","steam_id":76561198120756409,"connected_time":167000000000,"state":"active","ping":116},{"user_id":347,"name":"jumbi","steam_id":76561198353456379,"connected_time":542000000000,"state":"active","ping":76},{"user_id":323,"name":"Livin' Like Larry","steam_id":76561198313360974,"connected_time":2259000000000,"state":"active","ping":43},{"user_id":350,"name":"Shamrock Shake Oct.10.2020 @8pm","steam_id":76561198833313201,"connected_time":355000000000,"state":"active","ping":63},{"user_id":310,"name":"Jax O'Gaytor","steam_id":76561198288922168,"connected_time":2743000000000,"state":"active","ping":73},{"user_id":307,"name":"megaroboleg","steam_id":76561198844644993,"connected_time":2898000000000,"state":"active","ping":64},{"user_id":318,"name":"Overmeme","steam_id":76561199455124144,"connected_time":2376000000000,"state":"active","ping":84},{"user_id":341,"name":"Wyndfall","steam_id":76561198257962816,"connected_time":1178000000000,"state":"active","ping":77},{"user_id":260,"name":"nori_420","steam_id":76561199117134203,"connected_time":5384000000000,"state":"active","ping":65},{"user_id":344,"name":"I Like Bugs (In A Bad Way)","steam_id":76561198980062131,"connected_time":592000000000,"state":"active","ping":112},{"user_id":352,"name":"laughs at crits","steam_id":76561198288706094,"connected_time":44000000000,"state":"active","ping":74},{"user_id":325,"name":"Thilo","steam_id":76561197987278784,"connected_time":2117000000000,"state":"active","ping":114},{"user_id":343,"name":"Battery Acid Addict","steam_id":76561198439793697,"connected_time":633000000000,"state":"active","ping":122},{"user_id":349,"name":"pathulhu","steam_id":76561198323941614,"connected_time":443000000000,"state":"active","ping":89},{"user_id":313,"name":"A Can of Arizona Green Tea","steam_id":76561198062481133,"connected_time":2664000000000,"state":"active","ping":90},{"user_id":332,"name":"CR3EP","steam_id":76561198071554862,"connected_time":1741000000000,"state":"active","ping":55},{"user_id":338,"name":"Kaluka","steam_id":76561198036861445,"connected_time":1489000000000,"state":"active","ping":117}]},{"server_id":19,"name":"Uncletopia | San Francisco | 3 | Stopwatch Beta","name_short":"sfo-3","host":"sfo-1.us.uncletopia.com","port":27035,"enabled":true,"region":"us-west","cc":"us","latitude":37.77397,"longitude":-122.4313,"reserved":0,"last_update":"0001-01-01T00:00:00Z","name_a2s":"Uncletopia | San Francisco | 3 | Stopwatch Beta","protocol":17,"map":"workshop/pl_summercoast_rc8e.ugc1761528829","folder":"tf","game":"Team Fortress","app_id":440,"player_count":0,"max_players":24,"Bots":0,"server_type":"Dedicated","server_os":"Linux","password":true,"vac":true,"version":"7757534","steam_id":85568392924742824,"keywords":["nocrits","nodmgspread","payload","uncletopia"],"game_id":440,"stv_port":27036,"stv_name":"Uncletopia | San Francisco | 3 | Stopwatch Beta | STV","players":null},{"server_id":20,"name":"Uncletopia | San Francisco | 4 | Community","name_short":"sfo-4","host":"sfo-1.us.uncletopia.com","port":27045,"enabled":true,"region":"us-west","cc":"us","latitude":37.77397,"longitude":-122.4313,"reserved":0,"last_update":"0001-01-01T00:00:00Z","name_a2s":"Uncletopia | San Francisco | 4 | Community","protocol":17,"map":"workshop/koth_slaughter_rc1.ugc1712845210","folder":"tf","game":"Team Fortress","app_id":440,"player_count":0,"max_players":24,"Bots":0,"server_type":"Dedicated","server_os":"Linux","password":true,"vac":true,"version":"7757534","steam_id":85568392924742826,"keywords":["cp","nocrits","nodmgspread","uncletopia"],"game_id":440,"stv_port":27046,"stv_name":"Uncletopia | San Francisco | 4 | Community | STV","players":null},{"server_id":141,"name":"Uncletopia | Sydney | 1 | All Maps","name_short":"syd-1","host":"syd-1.au.uncletopia.com","port":27015,"enabled":true,"region":"au","cc":"au","latitude":-33.865143,"longitude":151.2099,"reserved":0,"last_update":"0001-01-01T00:00:00Z","name_a2s":"Uncletopia | Sydney | 1 | All Maps","protocol":17,"map":"pl_barnblitz","folder":"tf","game":"Team Fortress","app_id":440,"player_count":18,"max_players":24,"Bots":0,"server_type":"Dedicated","server_os":"Linux","password":true,"vac":true,"version":"7757534","steam_id":85568392924470001,"keywords":["nocrits","nodmgspread","payload","uncletopia"],"game_id":440,"stv_port":27016,"stv_name":"Uncletopia | Sydney | 1 | All Maps | STV","players":[{"user_id":104,"name":"Cup","steam_id":76561198038485845,"connected_time":3079000000000,"state":"active","ping":31},{"user_id":134,"name":"chaquitabananaobama","steam_id":76561198011034463,"connected_time":1818000000000,"state":"active","ping":56},{"user_id":146,"name":"cocaine bear","steam_id":76561198129112901,"connected_time":1283000000000,"state":"active","ping":59},{"user_id":131,"name":"Gnat","steam_id":76561198109747863,"connected_time":1979000000000,"state":"active","ping":102},{"user_id":176,"name":"ttv/ca7x3","steam_id":76561198181194862,"connected_time":31000000000,"state":"active","ping":61},{"user_id":111,"name":"Pug","steam_id":76561198136794372,"connected_time":2717000000000,"state":"active","ping":38},{"user_id":151,"name":"scuba cat... my beloved","steam_id":76561198203917953,"connected_time":1038000000000,"state":"active","ping":70},{"user_id":170,"name":"Owlenstein™","steam_id":76561198093983826,"connected_time":322000000000,"state":"active","ping":110},{"user_id":161,"name":"krandlez` (Any/All)","steam_id":76561198044839726,"connected_time":682000000000,"state":"active","ping":34},{"user_id":175,"name":"down","steam_id":76561198084977572,"connected_time":61000000000,"state":"active","ping":50},{"user_id":106,"name":"PoorCat","steam_id":76561198002600639,"connected_time":2932000000000,"state":"active","ping":53},{"user_id":135,"name":"Soggy_Snail","steam_id":76561199229505096,"connected_time":1668000000000,"state":"active","ping":78},{"user_id":142,"name":"ADUCK","steam_id":76561198249887912,"connected_time":1353000000000,"state":"active","ping":68},{"user_id":136,"name":"HeadFoot","steam_id":76561198090024582,"connected_time":1548000000000,"state":"active","ping":54},{"user_id":102,"name":"whiteshaq","steam_id":76561198131988811,"connected_time":3101000000000,"state":"active","ping":81},{"user_id":141,"name":"thrax","steam_id":76561197992385270,"connected_time":1399000000000,"state":"active","ping":55},{"user_id":174,"name":"MadmannsHat","steam_id":76561199063185304,"connected_time":164000000000,"state":"active","ping":76},{"user_id":150,"name":"look like a fly or sumn","steam_id":76561198836003115,"connected_time":1120000000000,"state":"active","ping":62}]},{"server_id":123,"name":"Uncletopia | Sydney | 2 | All Maps","name_short":"syd-2","host":"syd-1.au.uncletopia.com","port":27025,"enabled":true,"region":"au","cc":"au","latitude":-33.865143,"longitude":151.2099,"reserved":0,"last_update":"0001-01-01T00:00:00Z","name_a2s":"Uncletopia | Sydney | 2 | All Maps","protocol":17,"map":"koth_lakeside_final","folder":"tf","game":"Team Fortress","app_id":440,"player_count":0,"max_players":24,"Bots":0,"server_type":"Dedicated","server_os":"Linux","password":true,"vac":true,"version":"7757534","steam_id":85568392924470002,"keywords":["cp","nocrits","nodmgspread","uncletopia"],"game_id":440,"stv_port":27026,"stv_name":"Uncletopia | Sydney | 2 | All Maps | STV","players":null},{"server_id":395,"name":"Uncletopia | Sydney | 3 | All Maps","name_short":"syd-3","host":"syd-1.au.uncletopia.com","port":27035,"enabled":true,"region":"au","cc":"au","latitude":-33.865143,"longitude":151.2099,"reserved":0,"last_update":"0001-01-01T00:00:00Z","name_a2s":"Uncletopia | Sydney | 3 | All Maps","protocol":17,"map":"pl_swiftwater_final1","folder":"tf","game":"Team Fortress","app_id":440,"player_count":0,"max_players":24,"Bots":0,"server_type":"Dedicated","server_os":"Linux","password":true,"vac":true,"version":"7757534","steam_id":85568392925194467,"keywords":["nocrits","nodmgspread","payload","uncletopia"],"game_id":440,"stv_port":27036,"stv_name":"Uncletopia | Sydney | 3 | All Maps | STV","players":null},{"server_id":396,"name":"Uncletopia | Sydney | 4 | All Maps","name_short":"syd-4","host":"syd-1.au.uncletopia.com","port":27045,"enabled":true,"region":"au","cc":"au","latitude":-33.865143,"longitude":151.2099,"reserved":0,"last_update":"0001-01-01T00:00:00Z","name_a2s":"Uncletopia | Sydney | 4 | All Maps","protocol":17,"map":"koth_highpass","folder":"tf","game":"Team Fortress","app_id":440,"player_count":0,"max_players":24,"Bots":0,"server_type":"Dedicated","server_os":"Linux","password":true,"vac":true,"version":"7757534","steam_id":85568392925397958,"keywords":["cp","nocrits","nodmgspread","uncletopia"],"game_id":440,"stv_port":27046,"stv_name":"Uncletopia | Sydney | 4 | All Maps | STV","players":null},{"server_id":58,"name":"Uncletopia | Sydney | 5 | Stopwatch Beta","name_short":"syd-5","host":"syd-1.au.uncletopia.com","port":27055,"enabled":true,"region":"au","cc":"au","latitude":-33.865143,"longitude":151.2099,"reserved":0,"last_update":"0001-01-01T00:00:00Z","name_a2s":"Uncletopia | Sydney | 5 | Stopwatch Beta","protocol":17,"map":"koth_cascade","folder":"tf","game":"Team Fortress","app_id":440,"player_count":0,"max_players":24,"Bots":0,"server_type":"Dedicated","server_os":"Linux","password":true,"vac":true,"version":"7757534","steam_id":85568392925397959,"keywords":["cp","nocrits","nodmgspread","uncletopia"],"game_id":440,"stv_port":27056,"stv_name":"Uncletopia | Sydney | 5 | Stopwatch Beta | STV","players":null},{"server_id":59,"name":"Uncletopia | Sydney | 6 | Community","name_short":"syd-6","host":"syd-1.au.uncletopia.com","port":27065,"enabled":true,"region":"au","cc":"au","latitude":-33.865143,"longitude":151.2099,"reserved":0,"last_update":"0001-01-01T00:00:00Z","name_a2s":"Uncletopia | Sydney | 6 | Community","protocol":17,"map":"cp_snakewater_final1","folder":"tf","game":"Team Fortress","app_id":440,"player_count":0,"max_players":24,"Bots":0,"server_type":"Dedicated","server_os":"Linux","password":true,"vac":true,"version":"7757534","steam_id":85568392925397960,"keywords":["cp","nocrits","nodmgspread","uncletopia"],"game_id":440,"stv_port":27066,"stv_name":"Uncletopia | Sydney | 6 | Community | STV","players":null},{"server_id":49,"name":"Uncletopia | Warsaw | 1 | All Maps","name_short":"waw-1","host":"waw-1.pl.uncletopia.com","port":27015,"enabled":true,"region":"eu","cc":"pl","latitude":52.2297,"longitude":21.017532,"reserved":0,"last_update":"0001-01-01T00:00:00Z","name_a2s":"","protocol":0,"map":"","folder":"","game":"","app_id":0,"player_count":0,"max_players":0,"Bots":0,"server_type":"","server_os":"","password":false,"vac":false,"version":"","steam_id":0,"keywords":null,"game_id":0,"stv_port":0,"stv_name":"","players":null},{"server_id":50,"name":"Uncletopia | Warsaw | 2 | All Maps","name_short":"waw-2","host":"waw-1.pl.uncletopia.com","port":27025,"enabled":true,"region":"eu","cc":"pl","latitude":52.2297,"longitude":21.017532,"reserved":0,"last_update":"0001-01-01T00:00:00Z","name_a2s":"Uncletopia | Warsaw | 2 | All Maps","protocol":17,"map":"koth_lakeside_final","folder":"tf","game":"Team Fortress","app_id":440,"player_count":0,"max_players":24,"Bots":0,"server_type":"Dedicated","server_os":"Linux","password":true,"vac":true,"version":"7757534","steam_id":85568392925397851,"keywords":["cp","nocrits","nodmgspread","uncletopia"],"game_id":440,"stv_port":27026,"stv_name":"Uncletopia | Warsaw | 2 | All Maps | STV","players":null},{"server_id":51,"name":"Uncletopia | Warsaw | 3 | All Maps","name_short":"waw-3","host":"waw-1.pl.uncletopia.com","port":27035,"enabled":true,"region":"eu","cc":"pl","latitude":52.2297,"longitude":21.017532,"reserved":0,"last_update":"0001-01-01T00:00:00Z","name_a2s":"Uncletopia | Warsaw | 3 | All Maps","protocol":17,"map":"pl_barnblitz","folder":"tf","game":"Team Fortress","app_id":440,"player_count":0,"max_players":24,"Bots":0,"server_type":"Dedicated","server_os":"Linux","password":true,"vac":true,"version":"7757534","steam_id":85568392925397852,"keywords":["nocrits","nodmgspread","payload","uncletopia"],"game_id":440,"stv_port":27036,"stv_name":"Uncletopia | Warsaw | 3 | All Maps | STV","players":null},{"server_id":52,"name":"Uncletopia | Warsaw | 4 | All Maps","name_short":"waw-4","host":"waw-1.pl.uncletopia.com","port":27045,"enabled":true,"region":"eu","cc":"pl","latitude":52.2297,"longitude":21.017532,"reserved":0,"last_update":"0001-01-01T00:00:00Z","name_a2s":"Uncletopia | Warsaw | 4 | All Maps","protocol":17,"map":"koth_lakeside_final","folder":"tf","game":"Team Fortress","app_id":440,"player_count":0,"max_players":24,"Bots":0,"server_type":"Dedicated","server_os":"Linux","password":true,"vac":true,"version":"7757534","steam_id":85568392925397853,"keywords":["cp","nocrits","nodmgspread","uncletopia"],"game_id":440,"stv_port":27046,"stv_name":"Uncletopia | Warsaw | 4 | All Maps | STV","players":null},{"server_id":53,"name":"Uncletopia | Warsaw | 5 | Stopwatch Beta","name_short":"waw-5","host":"waw-1.pl.uncletopia.com","port":27055,"enabled":true,"region":"eu","cc":"pl","latitude":52.2297,"longitude":21.017532,"reserved":0,"last_update":"0001-01-01T00:00:00Z","name_a2s":"Uncletopia | Warsaw | 5 | Stopwatch Beta","protocol":17,"map":"workshop/koth_bagel_rc6.ugc2514036946","folder":"tf","game":"Team Fortress","app_id":440,"player_count":0,"max_players":24,"Bots":0,"server_type":"Dedicated","server_os":"Linux","password":true,"vac":true,"version":"7757534","steam_id":85568392925397854,"keywords":["cp","nocrits","nodmgspread","uncletopia"],"game_id":440,"stv_port":27056,"stv_name":"Uncletopia | Warsaw | 5 | Stopwatch Beta | STV","players":null},{"server_id":54,"name":"Uncletopia | Warsaw | 6 | Community","name_short":"waw-6","host":"waw-1.pl.uncletopia.com","port":27065,"enabled":true,"region":"eu","cc":"pl","latitude":52.2297,"longitude":21.017532,"reserved":0,"last_update":"0001-01-01T00:00:00Z","name_a2s":"Uncletopia | Warsaw | 6 | Community","protocol":17,"map":"workshop/koth_kemptown_rc1.ugc767410655","folder":"tf","game":"Team Fortress","app_id":440,"player_count":0,"max_players":24,"Bots":0,"server_type":"Dedicated","server_os":"Linux","password":true,"vac":true,"version":"7757534","steam_id":85568392925397856,"keywords":["cp","nocrits","nodmgspread","uncletopia"],"game_id":440,"stv_port":27066,"stv_name":"Uncletopia | Warsaw | 6 | Community | STV","players":null}]}