{"status":true,"message":"","result":[{"server_id":9,"name":"Uncletopia | Atlanta | 1 | All Maps","name_short":"atl-1","host":"atl-1.us.uncletopia.com","port":27015,"enabled":true,"region":"us-east","cc":"us","latitude":33.753746,"longitude":-84.38633,"reserved":0,"last_update":"0001-01-01T00:00:00Z","name_a2s":"Uncletopia | Atlanta | 1 | All Maps","protocol":17,"map":"cp_dustbowl","folder":"tf","game":"Team Fortress","app_id":440,"player_count":21,"max_players":24,"Bots":0,"server_type":"Dedicated","server_os":"Linux","password":true,"vac":true,"version":"7757534","steam_id":85568392924469982,"keywords":["cp","nocrits","nodmgspread","uncletopia"],"game_id":440,"stv_port":27016,"stv_name":"Uncletopia | Atlanta | 1 | All Maps | STV","players":[{"user_id":20,"name":"box","steam_id":76561198985635309,"connected_time":3618000000000,"state":"active","ping":83},{"user_id":38,"name":"TF2 need a sex update","steam_id":76561199103964705,"connected_time":2888000000000,"state":"active","ping":103},{"user_id":92,"name":"MinusSoup918","steam_id":76561198060902773,"connected_time":7000000000,"state":"spawning","ping":110},{"user_id":86,"name":"Brass beast heavy","steam_id":76561198274197623,"connected_time":342000000000,"state":"active","ping":151},{"user_id":87,"name":"Z4lTte","steam_id":76561198283258068,"connected_time":84000000000,"state":"active","ping":57},{"user_id":21,"name":"\u003c blank \u003e","steam_id":76561198012566503,"connected_time":3609000000000,"state":"active","ping":79},{"user_id":85,"name":"Goobins McMichael","steam_id":76561198142772896,"connected_time":491000000000,"state":"active","ping":150},{"user_id":62,"name":"Huge","steam_id":76561199030987614,"connected_time":1597000000000,"state":"active","ping":107},{"user_id":88,"name":"MEATBALL","steam_id":76561198028499312,"connected_time":52000000000,"state":"active","ping":56},{"user_id":82,"name":"potty trained","steam_id":76561198141557766,"connected_time":732000000000,"state":"active","ping":62},{"user_id":89,"name":"Phat_nibba29","steam_id":76561198165661855,"connected_time":46000000000,"state":"active","ping":85},{"user_id":29,"name":"Disambiguation","steam_id":76561198133963270,"connected_time":3333000000000,"state":"active","ping":57},{"user_id":34,"name":"mepng","steam_id":76561199018758598,"connected_time":3071000000000,"state":"active","ping":90},{"user_id":90,"name":"The Potato Romancer","steam_id":76561198204197648,"connected_time":34000000000,"state":"active","ping":91},{"user_id":74,"name":"Gato","steam_id":76561198063521721,"connected_time":1318000000000,"state":"active","ping":73},{"user_id":91,"name":"OldFishPool","steam_id":76561198126632005,"connected_time":32000000000,"state":"active","ping":67},{"user_id":71,"name":"wire-guided","steam_id":76561198055407168,"connected_time":1376000000000,"state":"active","ping":54},{"user_id":57,"name":"Cruisin'","steam_id":76561199245457119,"connected_time":1839000000000,"state":"active","ping":75},{"user_id":80,"name":"The Bear Jew","steam_id":76561198025971558,"connected_time":942000000000,"state":"active","ping":69},{"user_id":64,"name":"shephield","steam_id":76561197965111567,"connected_time":1592000000000,"state":"active","ping":46},{"user_id":59,"name":"[DEEP] Fitts1099","steam_id":76561198044986906,"connected_time":1668000000000,"state":"active","ping":67}]},{"server_id":400,"name":"Uncletopia | Atlanta | 3 | Community","name_short":"atl-3","host":"atl-1.us.uncletopia.com","port":27035,"enabled":true,"region":"us-east","cc":"us","latitude":33.753746,"longitude":-84.38633,"reserved":0,"last_update":"0001-01-01T00:00:00Z","name_a2s":"Uncletopia | Atlanta | 3 | Community","protocol":17,"map":"workshop/pl_cashworks_final1.ugc2904065412","folder":"tf","game":"Team Fortress","app_id":440,"player_count":24,"max_players":32,"Bots":0,"server_type":"Dedicated","server_os":"Linux","password":true,"vac":true,"version":"7757534","steam_id":85568392924515187,"keywords":["increased_maxplayers","nocrits","nodmgspread","payload","uncletopia"],"game_id":440,"stv_port":27036,"stv_name":"Uncletopia | Atlanta | 3 | Community | STV","players":[{"user_id":150,"name":"CABOOSE","steam_id":76561199230115616,"connected_time":1542000000000,"state":"active","ping":78},{"user_id":127,"name":"Needs McTherapy","steam_id":76561198168876878,"connected_time":2876000000000,"state":"active","ping":76},{"user_id":159,"name":"Grouch","steam_id":76561198080790944,"connected_time":1104000000000,"state":"active","ping":57},{"user_id":180,"name":"Cool","steam_id":76561198399000339,"connected_time":478000000000,"state":"active","ping":125},{"user_id":181,"name":"Gotta get my ammo fix","steam_id":76561198039763676,"connected_time":467000000000,"state":"active","ping":59},{"user_id":192,"name":"ComputerFritz","steam_id":76561198368730970,"connected_time":61000000000,"state":"active","ping":107},{"user_id":26,"name":"Banaba Breab","steam_id":76561198250789086,"connected_time":5544000000000,"state":"active","ping":125},{"user_id":163,"name":"kametro4","steam_id":76561198835430429,"connected_time":1003000000000,"state":"active","ping":105},{"user_id":170,"name":"old birb man","steam_id":76561199410269097,"connected_time":709000000000,"state":"active","ping":148},{"user_id":166,"name":"I‚Äôm Sleepy","steam_id":76561198879929343,"connected_time":946000000000,"state":"active","ping":57},{"user_id":137,"name":"Nightfall","steam_id":76561198169718867,"connected_time":2692000000000,"state":"active","ping":98},{"user_id":179,"name":"DevSlashUser","steam_id":76561198805884205,"connected_time":486000000000,"state":"active","ping":67},{"user_id":168,"name":"The guy","steam_id":76561199275071037,"connected_time":857000000000,"state":"active","ping":79},{"user_id":172,"name":"Salmon","steam_id":76561198285883040,"connected_time":672000000000,"state":"active","ping":116},{"user_id":187,"name":"Khallaria","steam_id":76561198000706490,"connected_time":316000000000,"state":"active","ping":126},{"user_id":171,"name":"deviousdaniel2005","steam_id":76561199087741582,"connected_time":705000000000,"state":"active","ping":98},{"user_id":182,"name":"SecondCarpet","steam_id":76561199008323078,"connected_time":457000000000,"state":"active","ping":87},{"user_id":174,"name":"Guwop","steam_id":76561197970425737,"connected_time":609000000000,"state":"active","ping":71},{"user_id":49,"name":"no vc no c","steam_id":76561197989503095,"connected_time":5151000000000,"state":"active","ping":193},{"user_id":184,"name":"Mr. 3","steam_id":76561198176366429,"connected_time":414000000000,"state":"active","ping":64},{"user_id":128,"name":"mu","steam_id":76561197997530228,"connected_time":2873000000000,"state":"active","ping":111},{"user_id":69,"name":"Kim Wexler","steam_id":76561199080236071,"connected_time":4657000000000,"state":"active","ping":78},{"user_id":46,"name":"Titus Tyrwitt","steam_id":76561197990779673,"connected_time":5182000000000,"state":"active","ping":62},{"user_id":185,"name":"Elvis Depressedly","steam_id":76561198943694656,"connected_time":413000000000,"state":"active","ping":87}]},{"server_id":401,"name":"Uncletopia | Atlanta | 4 | No Payload","name_short":"atl-4","host":"atl-1.us.uncletopia.com","port":27045,"enabled":true,"region":"us-east","cc":"us","latitude":33.753746,"longitude":-84.38633,"reserved":0,"last_update":"0001-01-01T00:00:00Z","name_a2s":"","protocol":0,"map":"","folder":"","game":"","app_id":0,"player_count":0,"max_players":0,"Bots":0,"server_type":"","server_os":"","password":false,"vac":false,"version":"","steam_id":0,"keywords":null,"game_id":0,"stv_port":0,"stv_name":"","players":null},{"server_id":2,"name":"Uncletopia | Chicago | 1 | All Maps","name_short":"chi-1","host":"chi-1.us.uncletopia.com","port":27015,"enabled":true,"region":"us-central","cc":"us","latitude":41.881832,"longitude":-87.62318,"reserved":0,"last_update":"0001-01-01T00:00:00Z","name_a2s":"Uncletopia | Chicago | 1 | All Maps","protocol":17,"map":"koth_highpass","folder":"tf","game":"Team Fortress","app_id":440,"player_count":1,"max_players":24,"Bots":0,"server_type":"Dedicated","server_os":"Linux","password":true,"vac":true,"version":"7757534","steam_id":85568392924469984,"keywords":["cp","nocrits","nodmgspread","uncletopia"],"game_id":440,"stv_port":27016,"stv_name":"Uncletopia | Chicago | 1 | All Maps | STV","players":[{"user_id":13,"name":"Cap","steam_id":76561198072870415,"connected_time":86000000000,"state":"active","ping":86}]},{"server_id":106,"name":"Uncletopia | Chicago | 2 | All Maps","name_short":"chi-2","host":"chi-1.us.uncletopia.com","port":27025,"enabled":true,"region":"us-central","cc":"us","latitude":41.881832,"longitude":-87.62318,"reserved":0,"last_update":"0001-01-01T00:00:00Z","name_a2s":"Uncletopia | Chicago | 2 | All Maps","protocol":17,"map":"koth_viaduct","folder":"tf","game":"Team Fortress","app_id":440,"player_count":0,"max_players":24,"Bots":0,"server_type":"Dedicated","server_os":"Linux","password":true,"vac":true,"version":"7757534","steam_id":85568392924469985,"keywords":["cp","nocrits","nodmgspread","uncletopia"],"game_id":440,"stv_port":27026,"stv_name":"Uncletopia | Chicago | 2 | All Maps | STV","players":null},{"server_id":402,"name":"Uncletopia | Chicago | 3 | All Maps","name_short":"chi-3","host":"chi-1.us.uncletopia.com","port":27035,"enabled":true,"region":"us-central","cc":"us","latitude":41.881832,"longitude":-87.62318,"reserved":0,"last_update":"0001-01-01T00:00:00Z","name_a2s":"Uncletopia | Chicago | 3 | All Maps","protocol":17,"map":"pl_borneo","folder":"tf","game":"Team Fortress","app_id":440,"player_count":24,"max_players":24,"Bots":0,"server_type":"Dedicated","server_os":"Linux","password":true,"vac":true,"version":"7757534","steam_id":85568392924515191,"keywords":["nocrits","nodmgspread","payload","uncletopia"],"game_id":440,"stv_port":27036,"stv_name":"Uncletopia | Chicago | 3 | All Maps | STV","players":[{"user_id":177,"name":"T√ñZI","steam_id":76561198045268695,"connected_time":356000000000,"state":"active","ping":59},{"user_id":181,"name":"dr peppah chug!","steam_id":76561198068835693,"connected_time":24000000000,"state":"spawning","ping":93},{"user_id":131,"name":"Kilphax","steam_id":76561197993814144,"connected_time":3983000000000,"state":"active","ping":60},{"user_id":179,"name":"Protoshake","steam_id":76561198840276176,"connected_time":329000000000,"state":"active","ping":61},{"user_id":164,"name":"T.TV/WhatsWater","steam_id":76561198036410259,"connected_time":1766000000000,"state":"active","ping":59},{"user_id":157,"name":"defs","steam_id":76561198134813102,"connected_time":2123000000000,"state":"active","ping":55},{"user_id":171,"name":"Try Gardening","steam_id":76561198120311340,"connected_time":1003000000000,"state":"active","ping":45},{"user_id":128,"name":"Ziath","steam_id":76561198094009164,"connected_time":4881000000000,"state":"active","ping":67},{"user_id":144,"name":"AdorableMew","steam_id":76561198186706405,"connected_time":3039000000000,"state":"active","ping":72},{"user_id":140,"name":"shokie","steam_id":76561197997961542,"connected_time":3671000000000,"state":"active","ping":75},{"user_id":151,"name":"Slippery","steam_id":76561199469441947,"connected_time":2747000000000,"state":"active","ping":59},{"user_id":180,"name":"Goober","steam_id":76561198105930089,"connected_time":317000000000,"state":"active","ping":65},{"user_id":159,"name":"Juubers","steam_id":76561198088229792,"connected_time":2056000000000,"state":"active","ping":55},{"user_id":127,"name":"TheGreatDong","steam_id":76561198000634178,"connected_time":4969000000000,"state":"active","ping":106},{"user_id":156,"name":"CJDGuy","steam_id":76561198213009545,"connected_time":2145000000000,"state":"active","ping":73},{"user_id":163,"name":"Vivzen","steam_id":76561198972619900,"connected_time":1910000000000,"state":"active","ping":72},{"user_id":160,"name":"legalizenuclearbombs","steam_id":76561199246416357,"connected_time":2026000000000,"state":"active","ping":128},{"user_id":165,"name":"Hermit_","steam_id":76561198013807290,"connected_time":1692000000000,"state":"active","ping":82},{"user_id":175,"name":"Rein","steam_id":76561198300340427,"connected_time":389000000000,"state":"active","ping":62},{"user_id":154,"name":"M@verick","steam_id":76561198006363519,"connected_time":2166000000000,"state":"active","ping":75},{"user_id":170,"name":"Poison Ivy","steam_id":76561198072384574,"connected_time":1356000000000,"state":"active","ping":51},{"user_id":161,"name":"cars extended warranty","steam_id":76561199084950961,"connected_time":2013000000000,"state":"active","ping":161},{"user_id":172,"name":"the spy from team fortress 2","steam_id":76561198047797306,"connected_time":667000000000,"state":"active","ping":59},{"user_id":174,"name":"ULTRACOCK","steam_id":76561198022967929,"connected_time":646000000000,"state":"active","ping":89}]},{"server_id":403,"name":"Uncletopia | Chicago | 4 | All Maps","name_short":"chi-4","host":"chi-1.us.uncletopia.com","port":27045,"enabled":true,"region":"us-central","cc":"us","latitude":41.881832,"longitude":-87.62318,"reserved":0,"last_update":"0001-01-01T00:00:00Z","name_a2s":"Uncletopia | Chicago | 4 | All Maps","protocol":17,"map":"pl_borneo","folder":"tf","game":"Team Fortress","app_id":440,"player_count":24,"max_players":24,"Bots":0,"server_type":"Dedicated","server_os":"Linux","password":true,"vac":true,"version":"7757534","steam_id":85568392924515193,"keywords":["nocrits","nodmgspread","payload","uncletopia"],"game_id":440,"stv_port":27046,"stv_name":"Uncletopia | Chicago | 4 | All Maps | STV","players":[{"user_id":114,"name":"The Big","steam_id":76561198078572184,"connected_time":8995000000000,"state":"active","ping":77},{"user_id":209,"name":"JennaShinx","steam_id":76561198074773762,"connected_time":1863000000000,"state":"active","ping":58},{"user_id":219,"name":"Brown_Dream","steam_id":76561198975766145,"connected_time":1394000000000,"state":"active","ping":79},{"user_id":222,"name":"Bee","steam_id":76561198074681324,"connected_time":1052000000000,"state":"active","ping":68},{"user_id":201,"name":"I'm Only 4 Inches","steam_id":76561198055542546,"connected_time":2148000000000,"state":"active","ping":57},{"user_id":202,"name":"Omni-S","steam_id":76561198082396372,"connected_time":2130000000000,"state":"active","ping":74},{"user_id":227,"name":"Dezorbo","steam_id":76561197971883897,"connected_time":479000000000,"state":"active","ping":93},{"user_id":207,"name":"Konrad Vilulf","steam_id":76561198111124481,"connected_time":1887000000000,"state":"active","ping":89},{"user_id":226,"name":"JustCoffee","steam_id":76561199389473180,"connected_time":604000000000,"state":"active","ping":72},{"user_id":225,"name":"Emails","steam_id":76561198836919458,"connected_time":910000000000,"state":"active","ping":87},{"user_id":228,"name":"beanz","steam_id":76561198023357154,"connected_time":23000000000,"state":"active","ping":126},{"user_id":221,"name":"Glory","steam_id":76561198013975080,"connected_time":1235000000000,"state":"active","ping":72},{"user_id":171,"name":"Monsterjessy","steam_id":76561198035630985,"connected_time":4089000000000,"state":"active","ping":64},{"user_id":208,"name":"Gheeotine","steam_id":76561198010181698,"connected_time":1882000000000,"state":"active","ping":96},{"user_id":179,"name":"lite","steam_id":76561198300633951,"connected_time":2966000000000,"state":"active","ping":106},{"user_id":196,"name":"Six","steam_id":76561198052472822,"connected_time":2372000000000,"state":"active","ping":65},{"user_id":210,"name":"Dallas","steam_id":76561198066542919,"connected_time":1856000000000,"state":"active","ping":98},{"user_id":200,"name":"Lifial","steam_id":76561198271885819,"connected_time":2208000000000,"state":"active","ping":79},{"user_id":211,"name":"PKBEAST_7","steam_id":76561198177136537,"connected_time":1842000000000,"state":"active","ping":90},{"user_id":218,"name":"Stock Medic","steam_id":76561198065479730,"connected_time":1445000000000,"state":"active","ping":45},{"user_id":213,"name":"Pyrovision Enthusiast","steam_id":76561198211892779,"connected_time":1785000000000,"state":"active","ping":64},{"user_id":214,"name":"Zero","steam_id":76561199383267408,"connected_time":1776000000000,"state":"active","ping":74},{"user_id":215,"name":"SlitherDoodle","steam_id":76561198000275473,"connected_time":1762000000000,"state":"active","ping":59},{"user_id":178,"name":"‚ô•dumb bimbo‚ô•","steam_id":76561198054925421,"connected_time":3056000000000,"state":"active","ping":52}]},{"server_id":36,"name":"Uncletopia | Chicago | 5 | All Maps","name_short":"chi-5","host":"chi-2.us.uncletopia.com","port":27015,"enabled":true,"region":"us-central","cc":"us","latitude":41.881832,"longitude":-87.62318,"reserved":0,"last_update":"0001-01-01T00:00:00Z","name_a2s":"Uncletopia | Chicago | 5 | All Maps","protocol":17,"map":"koth_cascade","folder":"tf","game":"Team Fortress","app_id":440,"player_count":0,"max_players":24,"Bots":0,"server_type":"Dedicated","server_os":"Linux","password":true,"vac":true,"version":"7757534","steam_id":85568392924866362,"keywords":["cp","nocrits","nodmgspread","uncletopia"],"game_id":440,"stv_port":27016,"stv_name":"Uncletopia | Chicago | 5 | All Maps | STV","players":null},{"server_id":37,"name":"Uncletopia | Chicago | 6 | All Maps","name_short":"chi-6","host":"chi-2.us.uncletopia.com","port":27025,"enabled":true,"region":"us-central","cc":"us","latitude":41.881832,"longitude":-87.62318,"reserved":0,"last_update":"0001-01-01T00:00:00Z","name_a2s":"Uncletopia | Chicago | 6 | All Maps","protocol":17,"map":"koth_cascade","folder":"tf","game":"Team Fortress","app_id":440,"player_count":0,"max_players":24,"Bots":0,"server_type":"Dedicated","server_os":"Linux","password":true,"vac":true,"version":"7757534","steam_id":85568392924866363,"keywords":["cp","nocrits","nodmgspread","uncletopia"],"game_id":440,"stv_port":27026,"stv_name":"Uncletopia | Chicago | 6 | All Maps | STV","players":null},{"server_id":38,"name":"Uncletopia | Chicago | 7 | Stopwatch Beta","name_short":"chi-7","host":"chi-2.us.uncletopia.com","port":27035,"enabled":true,"region":"us-central","cc":"us","latitude":41.881832,"longitude":-87.62318,"reserved":0,"last_update":"0001-01-01T00:00:00Z","name_a2s":"Uncletopia | Chicago | 7 | Stopwatch Beta","protocol":17,"map":"pl_upward","folder":"tf","game":"Team Fortress","app_id":440,"player_count":0,"max_players":24,"Bots":0,"server_type":"Dedicated","server_os":"Linux","password":true,"vac":true,"version":"7757534","steam_id":85568392924866364,"keywords":["nocrits","nodmgspread","payload","uncletopia"],"game_id":440,"stv_port":27036,"stv_name":"Uncletopia | Chicago | 7 | Stopwatch Beta | STV","players":null},{"server_id":39,"name":"Uncletopia | Chicago | 8 | Community","name_short":"chi-8","host":"chi-2.us.uncletopia.com","port":27045,"enabled":true,"region":"us-central","cc":"us","latitude":41.881832,"longitude":-87.62318,"reserved":0,"last_update":"0001-01-01T00:00:00Z","name_a2s":"Uncletopia | Chicago | 8 | Community","protocol":17,"map":"pl_barnblitz","folder":"tf","game":"Team Fortress","app_id":440,"player_count":0,"max_players":24,"Bots":0,"server_type":"Dedicated","server_os":"Linux","password":true,"vac":true,"version":"7757534","steam_id":85568392924866365,"keywords":["nocrits","nodmgspread","payload","uncletopia"],"game_id":440,"stv_port":27046,"stv_name":"Uncletopia | Chicago | 8 | Community | STV","players":null},{"server_id":8,"name":"Uncletopia | Dallas | 1 | All Maps","name_short":"dal-1","host":"dal-1.us.uncletopia.com","port":27015,"enabled":true,"region":"us-central","cc":"us","latitude":32.779167,"longitude":-96.80889,"reserved":0,"last_update":"0001-01-01T00:00:00Z","name_a2s":"Uncletopia | Dallas | 1 | All Maps","protocol":17,"map":"pl_frontier_final","folder":"tf","game":"Team Fortress","app_id":440,"player_count":24,"max_players":24,"Bots":0,"server_type":"Dedicated","server_os":"Linux","password":true,"vac":true,"version":"7757534","steam_id":85568392924469986,"keywords":["nocrits","nodmgspread","payload","uncletopia"],"game_id":440,"stv_port":27016,"stv_name":"Uncletopia | Dallas | 1 | All Maps | STV","players":[{"user_id":278,"name":"Paper Route Frank @GasOnDeck","steam_id":76561198035161555,"connected_time":2240000000000,"state":"active","ping":39},{"user_id":116,"name":"4 Itchy Tasty","steam_id":76561198009869383,"connected_time":16490000000000,"state":"active","ping":75},{"user_id":253,"name":"Sam","steam_id":76561198146472900,"connected_time":4241000000000,"state":"active","ping":107},{"user_id":303,"name":"mineblast99","steam_id":76561199065648954,"connected_time":784000000000,"state":"active","ping":90},{"user_id":310,"name":"claire","steam_id":76561198158123530,"connected_time":310000000000,"state":"active","ping":59},{"user_id":306,"name":"joyboy","steam_id":76561198400381132,"connected_time":691000000000,"state":"active","ping":77},{"user_id":279,"name":"Cody","steam_id":76561198173125775,"connected_time":2225000000000,"state":"active","ping":99},{"user_id":307,"name":"e","steam_id":76561198131245396,"connected_time":686000000000,"state":"active","ping":72},{"user_id":280,"name":"kfdhgljkdfhkjdhkfj","steam_id":76561198043896691,"connected_time":2198000000000,"state":"active","ping":75},{"user_id":299,"name":"engineer gaming","steam_id":76561199010051308,"connected_time":1084000000000,"state":"active","ping":181},{"user_id":284,"name":"Ashley H√©lo√Øse","steam_id":76561198103653429,"connected_time":2021000000000,"state":"active","ping":76},{"user_id":294,"name":"Jared In Target","steam_id":76561198372449718,"connected_time":1287000000000,"state":"active","ping":48},{"user_id":305,"name":"Neo0","steam_id":76561199031254338,"connected_time":734000000000,"state":"active","ping":175},{"user_id":149,"name":"Shuual","steam_id":76561198004395256,"connected_time":13749000000000,"state":"active","ping":78},{"user_id":255,"name":"Doctor Bear  ï ‚Ä¢·¥•‚Ä¢ î","steam_id":76561197968103161,"connected_time":4192000000000,"state":"active","ping":95},{"user_id":295,"name":"Variell","steam_id":76561198164566278,"connected_time":1252000000000,"state":"active","ping":118},{"user_id":304,"name":"Leo","steam_id":76561198309760791,"connected_time":773000000000,"state":"active","ping":123},{"user_id":274,"name":"Fox","steam_id":76561198063507627,"connected_time":2691000000000,"state":"active","ping":35},{"user_id":308,"name":"Kaedus","steam_id":76561198387362750,"connected_time":575000000000,"state":"active","ping":109},{"user_id":311,"name":"GL9001 Liam","steam_id":76561198059480214,"connected_time":248000000000,"state":"active","ping":81},{"user_id":300,"name":"BLU1 | Shame","steam_id":76561198100490994,"connected_time":1063000000000,"state":"active","ping":76},{"user_id":286,"name":"trans rights","steam_id":76561198044183038,"connected_time":1968000000000,"state":"active","ping":66},{"user_id":230,"name":"177013","steam_id":76561198072303290,"connected_time":6897000000000,"state":"active","ping":90},{"user_id":288,"name":"w3bd3v","steam_id":76561198077982525,"connected_time":1549000000000,"state":"active","ping":108}]},{"server_id":108,"name":"Uncletopia | Dallas | 2 | All Maps","name_short":"dal-2","host":"dal-1.us.uncletopia.com","port":27025,"enabled":true,"region":"us-central","cc":"us","latitude":32.779167,"longitude":-96.80889,"reserved":0,"last_update":"0001-01-01T00:00:00Z","name_a2s":"Uncletopia | Dallas | 2 | All Maps","protocol":17,"map":"cp_process_final","folder":"tf","game":"Team Fortress","app_id":440,"player_count":0,"max_players":24,"Bots":0,"server_type":"Dedicated","server_os":"Linux","password":true,"vac":true,"version":"7757534","steam_id":85568392924469988,"keywords":["cp","nocrits","nodmgspread","uncletopia"],"game_id":440,"stv_port":27026,"stv_name":"Uncletopia | Dallas | 2 | All Maps | STV","players":null},{"server_id":5,"name":"Uncletopia | Frankfurt | 1 | All Maps","name_short":"frk-1","host":"frk-1.de.uncletopia.com","port":27015,"enabled":true,"region":"eu","cc":"de","latitude":50.110924,"longitude":8.682127,"reserved":0,"last_update":"0001-01-01T00:00:00Z","name_a2s":"Uncletopia | Frankfurt | 1 | All Maps","protocol":17,"map":"pl_upward","folder":"tf","game":"Team Fortress","app_id":440,"player_count":24,"max_players":24,"Bots":0,"server_type":"Dedicated","server_os":"Linux","password":true,"vac":true,"version":"7757534","steam_id":85568392924469989,"keywords":["nocrits","nodmgspread","payload","uncletopia"],"game_id":440,"stv_port":27016,"stv_name":"Uncletopia | Frankfurt | 1 | All Maps | STV","players":[{"user_id":158,"name":"Rashid Besythe","steam_id":76561198081477129,"connected_time":404000000000,"state":"active","ping":65},{"user_id":134,"name":"Ghost11","steam_id":76561198068892992,"connected_time":1684000000000,"state":"active","ping":106},{"user_id":151,"name":"Carry Krypl","steam_id":76561198136938121,"connected_time":1006000000000,"state":"active","ping":57},{"user_id":135,"name":"Gumit","steam_id":76561198208126512,"connected_time":1573000000000,"state":"active","ping":143},{"user_id":128,"name":"SpeedyBoy","steam_id":76561199222795521,"connected_time":1927000000000,"state":"active","ping":97},{"user_id":162,"name":"Jara.","steam_id":76561197992207165,"connected_time":311000000000,"state":"active","ping":96},{"user_id":136,"name":"bigmazi","steam_id":76561198133276643,"connected_time":1570000000000,"state":"active","ping":87},{"user_id":104,"name":"poliakov.noam","steam_id":76561199259322961,"connected_time":3569000000000,"state":"active","ping":109},{"user_id":142,"name":"poopygamer93 (very racist)","steam_id":76561199100040000,"connected_time":1293000000000,"state":"active","ping":72},{"user_id":152,"name":"Hegyi tah√≥ F2P","steam_id":76561199219150356,"connected_time":957000000000,"state":"active","ping":70},{"user_id":153,"name":"WASDKUG_tr","steam_id":76561199158927134,"connected_time":922000000000,"state":"active","ping":85},{"user_id":163,"name":"filo","steam_id":76561198103633797,"connected_time":303000000000,"state":"active","ping":83},{"user_id":164,"name":"Chambersite","steam_id":76561198197022399,"connected_time":249000000000,"state":"active","ping":57},{"user_id":154,"name":"lettuce at 58p","steam_id":76561199401283123,"connected_time":918000000000,"state":"active","ping":63},{"user_id":129,"name":"JOK'R","steam_id":76561198140741944,"connected_time":1889000000000,"state":"active","ping":130},{"user_id":157,"name":"Hey, I¬¥m Andy!","steam_id":76561198060337777,"connected_time":565000000000,"state":"active","ping":71},{"user_id":132,"name":"Dithmarschen","steam_id":76561198068917140,"connected_time":1757000000000,"state":"active","ping":93},{"user_id":130,"name":"Economic crisis","steam_id":76561198063562843,"connected_time":1887000000000,"state":"active","ping":56},{"user_id":147,"name":"Our great leader, Stalin.","steam_id":76561198195695906,"connected_time":1136000000000,"state":"active","ping":54},{"user_id":110,"name":"Big Trader","steam_id":76561197992364667,"connected_time":2790000000000,"state":"active","ping":78},{"user_id":91,"name":"Salih","steam_id":76561198287934839,"connected_time":4863000000000,"state":"active","ping":51},{"user_id":133,"name":"Carl","steam_id":76561198045638738,"connected_time":1734000000000,"state":"active","ping":74},{"user_id":149,"name":"You slumber","steam_id":76561198344639692,"connected_time":1113000000000,"state":"active","ping":88},{"user_id":150,"name":"Skepter","steam_id":76561198097268468,"connected_time":1058000000000,"state":"active","ping":75}]},{"server_id":110,"name":"Uncletopia | Frankfurt | 2 | All Maps","name_short":"frk-2","host":"frk-1.de.uncletopia.com","port":27025,"enabled":true,"region":"eu","cc":"de","latitude":50.110924,"longitude":8.682127,"reserved":0,"last_update":"0001-01-01T00:00:00Z","name_a2s":"Uncletopia | Frankfurt | 2 | All Maps","protocol":17,"map":"cp_dustbowl","folder":"tf","game":"Team Fortress","app_id":440,"player_count":24,"max_players":24,"Bots":0,"server_type":"Dedicated","server_os":"Linux","password":true,"vac":true,"version":"7757534","steam_id":85568392924469990,"keywords":["cp","nocrits","nodmgspread","uncletopia"],"game_id":440,"stv_port":27026,"stv_name":"Uncletopia | Frankfurt | 2 | All Maps | STV","players":[{"user_id":119,"name":"Harmony","steam_id":76561198436817109,"connected_time":876000000000,"state":"active","ping":66},{"user_id":112,"name":"Qosmo","steam_id":76561197980806182,"connected_time":1288000000000,"state":"active","ping":85},{"user_id":122,"name":"Doctor Mobius","steam_id":76561197971281806,"connected_time":816000000000,"state":"active","ping":61},{"user_id":22,"name":"KillerQueen (he/they/she)","steam_id":76561199019399725,"connected_time":6182000000000,"state":"active","ping":65},{"user_id":78,"name":"K√∏sm√Ø","steam_id":76561198074938275,"connected_time":3162000000000,"state":"active","ping":74},{"user_id":19,"name":"Veile","steam_id":76561199007201531,"connected_time":6341000000000,"state":"active","ping":92},{"user_id":133,"name":"gagalak","steam_id":76561198089979108,"connected_time":258000000000,"state":"active","ping":90},{"user_id":101,"name":"Prim","steam_id":76561198043191342,"connected_time":1847000000000,"state":"active","ping":63},{"user_id":48,"name":"Rose-Marie","steam_id":76561198055611092,"connected_time":4841000000000,"state":"active","ping":58},{"user_id":126,"name":"juni","steam_id":76561198036504214,"connected_time":591000000000,"state":"active","ping":47},{"user_id":114,"name":"elio","steam_id":76561198142662131,"connected_time":1259000000000,"state":"active","ping":96},{"user_id":127,"name":":)","steam_id":76561198039964082,"connected_time":579000000000,"state":"active","ping":56},{"user_id":110,"name":"astigmatic","steam_id":76561199103959197,"connected_time":1379000000000,"state":"active","ping":113},{"user_id":118,"name":"MatesThePlayer","steam_id":76561198066156449,"connected_time":882000000000,"state":"active","ping":55},{"user_id":106,"name":"synoptic","steam_id":76561198995397050,"connected_time":1545000000000,"state":"active","ping":75},{"user_id":125,"name":"Wujek Cacek","steam_id":76561198010267943,"connected_time":613000000000,"state":"active","ping":72},{"user_id":109,"name":"Barmax","steam_id":76561198973424528,"connected_time":1417000000000,"state":"active","ping":84},{"user_id":130,"name":"NaN","steam_id":76561198071098413,"connected_time":532000000000,"state":"active","ping":42},{"user_id":82,"name":"Autumnsky","steam_id":76561198055161203,"connected_time":2683000000000,"state":"active","ping":58},{"user_id":132,"name":"Makasim:)","steam_id":76561198816061842,"connected_time":310000000000,"state":"active","ping":71},{"user_id":39,"name":"Kruthal","steam_id":76561198245726582,"connected_time":5544000000000,"state":"active","ping":74},{"user_id":76,"name":"Û†Ä°Û†Ä°HELE","steam_id":76561198886612260,"connected_time":3259000000000,"state":"active","ping":70},{"user_id":129,"name":"yeyegoncas","steam_id":76561198061217656,"connected_time":559000000000,"state":"active","ping":89},{"user_id":77,"name":"disc0rd","steam_id":76561197985965776,"connected_time":3248000000000,"state":"active","ping":66}]},{"server_id":308,"name":"Uncletopia | Frankfurt | 3 | All Maps","name_short":"frk-3","host":"frk-1.de.uncletopia.com","port":27035,"enabled":true,"region":"eu","cc":"de","latitude":50.110924,"longitude":8.682127,"reserved":0,"last_update":"0001-01-01T00:00:00Z","name_a2s":"Uncletopia | Frankfurt | 3 | All Maps","protocol":17,"map":"pl_enclosure_final","folder":"tf","game":"Team Fortress","app_id":440,"player_count":23,"max_players":24,"Bots":0,"server_type":"Dedicated","server_os":"Linux","password":true,"vac":true,"version":"7757534","steam_id":85568392924504274,"keywords":["nocrits","nodmgspread","payload","uncletopia"],"game_id":440,"stv_port":27036,"stv_name":"Uncletopia | Frankfurt | 3 | All Maps | STV","players":[{"user_id":95,"name":"balls2","steam_id":76561198018757672,"connected_time":4952000000000,"state":"active","ping":87},{"user_id":169,"name":"_zipfile","steam_id":76561198066133808,"connected_time":470000000000,"state":"active","ping":67},{"user_id":142,"name":"redindy","steam_id":76561198070154445,"connected_time":1391000000000,"state":"active","ping":166},{"user_id":154,"name":"Gardvord","steam_id":76561198120715753,"connected_time":1139000000000,"state":"active","ping":81},{"user_id":162,"name":"AmadStatistician","steam_id":76561198163654770,"connected_time":1024000000000,"state":"active","ping":62},{"user_id":151,"name":"Balcom","steam_id":76561198131951343,"connected_time":1280000000000,"state":"active","ping":58},{"user_id":163,"name":"HeresyMan","steam_id":76561198169154183,"connected_time":1016000000000,"state":"active","ping":71},{"user_id":144,"name":"After8","steam_id":76561198090750865,"connected_time":1384000000000,"state":"active","ping":67},{"user_id":161,"name":"kamekame","steam_id":76561198047108054,"connected_time":1077000000000,"state":"active","ping":98},{"user_id":174,"name":"hellrunner","steam_id":76561198205309695,"connected_time":191000000000,"state":"active","ping":80},{"user_id":108,"name":"4","steam_id":76561197964945192,"connected_time":3887000000000,"state":"active","ping":52},{"user_id":123,"name":"JohkupohkuXD","steam_id":76561198391108762,"connected_time":2712000000000,"state":"active","ping":87},{"user_id":166,"name":"wootabs","steam_id":76561198831766743,"connected_time":973000000000,"state":"active","ping":62},{"user_id":167,"name":"akakez","steam_id":76561198095432821,"connected_time":945000000000,"state":"active","ping":123},{"user_id":153,"name":"5AMACE","steam_id":76561198164702251,"connected_time":1196000000000,"state":"active","ping":90},{"user_id":155,"name":"ikeaworst","steam_id":76561198936990378,"connected_time":1130000000000,"state":"active","ping":76},{"user_id":172,"name":"Topia","steam_id":76561198163571788,"connected_time":305000000000,"state":"active","ping":98},{"user_id":165,"name":"St√ºmpy","steam_id":76561198255904077,"connected_time":994000000000,"state":"active","ping":66},{"user_id":158,"name":"‰∫∫ √ò–ê–ê–ê√ò‰∫∫","steam_id":76561198944032480,"connected_time":1101000000000,"state":"active","ping":94},{"user_id":159,"name":"Chill Spirit","steam_id":76561198845001725,"connected_time":1101000000000,"state":"active","ping":46},{"user_id":135,"name":"Lordware","steam_id":76561198022011299,"connected_time":2092000000000,"state":"active","ping":82},{"user_id":160,"name":"CaparezzaMunnezza","steam_id":76561198262231733,"connected_time":1097000000000,"state":"active","ping":63},{"user_id":173,"name":"WolfmanCZ","steam_id":76561199157141414,"connected_time":305000000000,"state":"active","ping":72}]},{"server_id":309,"name":"Uncletopia | Frankfurt | 4 | All Maps","name_short":"frk-4","host":"frk-1.de.uncletopia.com","port":27045,"enabled":true,"region":"eu","cc":"de","latitude":50.110924,"longitude":8.682127,"reserved":0,"last_update":"0001-01-01T00:00:00Z","name_a2s":"Uncletopia | Frankfurt | 4 | All Maps","protocol":17,"map":"pl_rumford_event","folder":"tf","game":"Team Fortress","app_id":440,"player_count":24,"max_players":24,"Bots":0,"server_type":"Dedicated","server_os":"Linux","password":true,"vac":true,"version":"7757534","steam_id":85568392924504275,"keywords":["nocrits","nodmgspread","payload","uncletopia"],"game_id":440,"stv_port":27046,"stv_name":"Uncletopia | Frankfurt | 4 | All Maps | STV","players":[{"user_id":397,"name":"hey kid, wanna see my Octagon?","steam_id":76561198066287297,"connected_time":3741000000000,"state":"active","ping":48},{"user_id":425,"name":"Swedish Vegan","steam_id":76561198042775020,"connected_time":2060000000000,"state":"active","ping":78},{"user_id":460,"name":"ProMate","steam_id":76561198277138236,"connected_time":665000000000,"state":"active","ping":72},{"user_id":461,"name":"cat","steam_id":76561198416527370,"connected_time":437000000000,"state":"active","ping":86},{"user_id":457,"name":"Zelmor","steam_id":76561197997708311,"connected_time":806000000000,"state":"active","ping":45},{"user_id":452,"name":"coreymccraw2410","steam_id":76561198142901091,"connected_time":1078000000000,"state":"active","ping":84},{"user_id":396,"name":"joe","steam_id":76561198026484403,"connected_time":3752000000000,"state":"active","ping":72},{"user_id":428,"name":"decomposing like a dead rose","steam_id":76561198147277460,"connected_time":1983000000000,"state":"active","ping":60},{"user_id":384,"name":"Pingutaro","steam_id":76561198112803718,"connected_time":4917000000000,"state":"active","ping":69},{"user_id":467,"name":"L√∂ss√∂","steam_id":76561197994254413,"connected_time":118000000000,"state":"active","ping":63},{"user_id":451,"name":"Wardruna96","steam_id":76561199057083828,"connected_time":1107000000000,"state":"active","ping":85},{"user_id":429,"name":"mercedes nuts","steam_id":76561198023211417,"connected_time":1972000000000,"state":"active","ping":62},{"user_id":459,"name":"yourtruemedic","steam_id":76561198826881879,"connected_time":704000000000,"state":"active","ping":75},{"user_id":444,"name":"Mor'du","steam_id":76561198274105878,"connected_time":1382000000000,"state":"active","ping":82},{"user_id":465,"name":"BoraY","steam_id":76561198443464667,"connected_time":292000000000,"state":"active","ping":107},{"user_id":443,"name":"–ª–æ–≤–ª—é —Ö–∞—Ö–∞","steam_id":76561198163244605,"connected_time":1406000000000,"state":"active","ping":65},{"user_id":436,"name":"R0X","steam_id":76561198047876624,"connected_time":1741000000000,"state":"active","ping":59},{"user_id":447,"name":"Bumblebee","steam_id":76561198033551105,"connected_time":1263000000000,"state":"active","ping":66},{"user_id":449,"name":"DrExplosive","steam_id":76561198063678579,"connected_time":1222000000000,"state":"active","ping":70},{"user_id":463,"name":"üóªüé¥Hadrian Maloneüé¥üóª","steam_id":76561198036151103,"connected_time":329000000000,"state":"active","ping":65},{"user_id":438,"name":"Seb, Comrade","steam_id":76561198040279587,"connected_time":1715000000000,"state":"active","ping":106},{"user_id":445,"name":"holykyckling","steam_id":76561198040661615,"connected_time":1322000000000,"state":"active","ping":75},{"user_id":454,"name":"Chen","steam_id":76561198440363619,"connected_time":1039000000000,"state":"active","ping":51},{"user_id":381,"name":"Spetse","steam_id":76561197990649972,"connected_time":5174000000000,"state":"active","ping":88}]},{"server_id":310,"name":"Uncletopia | Frankfurt | 5 | All Maps","name_short":"frk-5","host":"frk-1.de.uncletopia.com","port":27055,"enabled":true,"region":"eu","cc":"de","latitude":50.110924,"longitude":8.682127,"reserved":0,"last_update":"0001-01-01T00:00:00Z","name_a2s":"Uncletopia | Frankfurt | 5 | All Maps","protocol":17,"map":"pl_frontier_final","folder":"tf","game":"Team Fortress","app_id":440,"player_count":0,"max_players":24,"Bots":0,"server_type":"Dedicated","server_os":"Linux","password":true,"vac":true,"version":"7757534","steam_id":85568392924504277,"keywords":["nocrits","nodmgspread","payload","uncletopia"],"game_id":440,"stv_port":27056,"stv_name":"Uncletopia | Frankfurt | 5 | All Maps | STV","players":null},{"server_id":311,"name":"Uncletopia | Frankfurt | 6 | All Maps","name_short":"frk-6","host":"frk-1.de.uncletopia.com","port":27065,"enabled":true,"region":"eu","cc":"de","latitude":50.110924,"longitude":8.682127,"reserved":0,"last_update":"0001-01-01T00:00:00Z","name_a2s":"Uncletopia | Frankfurt | 6 | All Maps","protocol":17,"map":"pl_barnblitz","folder":"tf","game":"Team Fortress","app_id":440,"player_count":24,"max_players":24,"Bots":0,"server_type":"Dedicated","server_os":"Linux","password":true,"vac":true,"version":"7757534","steam_id":85568392924504278,"keywords":["nocrits","nodmgspread","payload","uncletopia"],"game_id":440,"stv_port":27066,"stv_name":"Uncletopia | Frankfurt | 6 | All Maps | STV","players":[{"user_id":51,"name":"Gman","steam_id":76561199135387666,"connected_time":2276000000000,"state":"active","ping":103},{"user_id":83,"name":"the kid named finger","steam_id":76561198449930192,"connected_time":72000000000,"state":"spawning","ping":92},{"user_id":15,"name":"joe mama","steam_id":76561198162446976,"connected_time":4810000000000,"state":"active","ping":49},{"user_id":16,"name":"WAGOOGUS","steam_id":76561198195893307,"connected_time":4804000000000,"state":"active","ping":60},{"user_id":69,"name":"Dictatorial Karelian","steam_id":76561198196736457,"connected_time":1001000000000,"state":"active","ping":74},{"user_id":80,"name":"glow","steam_id":76561198086654069,"connected_time":134000000000,"state":"active","ping":73},{"user_id":65,"name":"Bat in a thousand","steam_id":76561198320506848,"connected_time":1321000000000,"state":"active","ping":56},{"user_id":23,"name":"Balls","steam_id":76561198086400484,"connected_time":3375000000000,"state":"active","ping":84},{"user_id":43,"name":"SHIMMY GETS GRABED","steam_id":76561198106049954,"connected_time":2576000000000,"state":"active","ping":79},{"user_id":30,"name":"butt tickling bandit","steam_id":76561198884449271,"connected_time":2945000000000,"state":"active","ping":57},{"user_id":82,"name":"makiverem","steam_id":76561198425866216,"connected_time":99000000000,"state":"active","ping":84},{"user_id":41,"name":"the drip is real","steam_id":76561199033066517,"connected_time":2614000000000,"state":"active","ping":87},{"user_id":81,"name":"Mussolini","steam_id":76561198218384865,"connected_time":131000000000,"state":"active","ping":95},{"user_id":61,"name":"sdgfasdgasdgas","steam_id":76561198079277466,"connected_time":1534000000000,"state":"active","ping":59},{"user_id":67,"name":"Sandvich Gaming","steam_id":76561199079493666,"connected_time":1151000000000,"state":"active","ping":92},{"user_id":64,"name":"glyph","steam_id":76561197980736364,"connected_time":1391000000000,"state":"active","ping":75},{"user_id":71,"name":"lullaby","steam_id":76561198169132553,"connected_time":702000000000,"state":"active","ping":47},{"user_id":39,"name":"œÉsiris","steam_id":76561198050791602,"connected_time":2637000000000,"state":"active","ping":36},{"user_id":40,"name":"Lyra","steam_id":76561198043601838,"connected_time":2637000000000,"state":"active","ping":60},{"user_id":74,"name":"Gearless","steam_id":76561198362367074,"connected_time":634000000000,"state":"active","ping":81},{"user_id":75,"name":"Semi","steam_id":76561199105889252,"connected_time":619000000000,"state":"active","ping":36},{"user_id":47,"name":"Russenluster","steam_id":76561198118016220,"connected_time":2465000000000,"state":"active","ping":54},{"user_id":78,"name":"i make you my b*tch","steam_id":76561198190583242,"connected_time":404000000000,"state":"active","ping":94},{"user_id":70,"name":"Kwizine","steam_id":76561198147999400,"connected_time":1000000000000,"state":"active","ping":67}]},{"server_id":23,"name":"Uncletopia | Frankfurt | 7 | Stopwatch Beta","name_short":"frk-7","host":"frk-1.de.uncletopia.com","port":27075,"enabled":true,"region":"eu","cc":"de","latitude":50.110924,"longitude":8.682127,"reserved":0,"last_update":"0001-01-01T00:00:00Z","name_a2s":"Uncletopia | Frankfurt | 7 | Stopwatch Beta","protocol":17,"map":"workshop/koth_ramjam_rc1.ugc459778887","folder":"tf","game":"Team Fortress","app_id":440,"player_count":0,"max_players":24,"Bots":0,"server_type":"Dedicated","server_os":"Linux","password":true,"vac":true,"version":"7757534","steam_id":85568392924742827,"keywords":["cp","nocrits","nodmgspread","uncletopia"],"game_id":440,"stv_port":27076,"stv_name":"Uncletopia | Frankfurt | 7 | Stopwatch Beta | STV","players":null},{"server_id":24,"name":"Uncletopia | Frankfurt | 8 | Community","name_short":"frk-8","host":"frk-1.de.uncletopia.com","port":27085,"enabled":true,"region":"eu","cc":"de","latitude":50.110924,"longitude":8.682127,"reserved":0,"last_update":"0001-01-01T00:00:00Z","name_a2s":"Uncletopia | Frankfurt | 8 | Community","protocol":17,"map":"workshop/pl_badwater_pro_v12.ugc2142942074","folder":"tf","game":"Team Fortress","app_id":440,"player_count":0,"max_players":24,"Bots":0,"server_type":"Dedicated","server_os":"Linux","password":true,"vac":true,"version":"7757534","steam_id":85568392924742828,"keywords":["nocrits","nodmgspread","payload","uncletopia"],"game_id":440,"stv_port":27086,"stv_name":"Uncletopia | Frankfurt | 8 | Community | STV","players":null},{"server_id":202,"name":"Uncletopia | Hong Kong | 1 | All Maps","name_short":"hgk-1","host":"hgk-1.hk.uncletopia.com","port":27015,"enabled":true,"region":"asia","cc":"hk","latitude":22.302711,"longitude":114.177216,"reserved":0,"last_update":"0001-01-01T00:00:00Z","name_a2s":"Uncletopia | Hong Kong | 1 | All Maps","protocol":17,"map":"pl_snowycoast","folder":"tf","game":"Team Fortress","app_id":440,"player_count":0,"max_players":24,"Bots":0,"server_type":"Dedicated","server_os":"Linux","password":true,"vac":true,"version":"7757534","steam_id":85568392924494504,"keywords":["nocrits","nodmgspread","payload","uncletopia"],"game_id":440,"stv_port":27016,"stv_name":"Uncletopia | Hong Kong | 1 | All Maps | STV","players":null},{"server_id":1,"name":"Uncletopia | Los Angeles | 1 | All Maps","name_short":"lax-1","host":"lax-1.us.uncletopia.com","port":27015,"enabled":true,"region":"us-west","cc":"us","latitude":33.94279,"longitude":-118.41004,"reserved":0,"last_update":"0001-01-01T00:00:00Z","name_a2s":"Uncletopia | Los Angeles | 1 | All Maps","protocol":17,"map":"koth_viaduct","folder":"tf","game":"Team Fortress","app_id":440,"player_count":0,"max_players":24,"Bots":0,"server_type":"Dedicated","server_os":"Linux","password":true,"vac":true,"version":"7757534","steam_id":85568392924469991,"keywords":["cp","nocrits","nodmgspread","uncletopia"],"game_id":440,"stv_port":27016,"stv_name":"Uncletopia | Los Angeles | 1 | All Maps | STV","players":null},{"server_id":112,"name":"Uncletopia | Los Angeles | 2 | All Maps","name_short":"lax-2","host":"lax-1.us.uncletopia.com","port":27025,"enabled":true,"region":"us-west","cc":"us","latitude":33.94279,"longitude":-118.41004,"reserved":0,"last_update":"0001-01-01T00:00:00Z","name_a2s":"Uncletopia | Los Angeles | 2 | All Maps","protocol":17,"map":"koth_cascade","folder":"tf","game":"Team Fortress","app_id":440,"player_count":0,"max_players":24,"Bots":0,"server_type":"Dedicated","server_os":"Linux","password":true,"vac":true,"version":"7757534","steam_id":85568392924469992,"keywords":["cp","nocrits","nodmgspread","uncletopia"],"game_id":440,"stv_port":27026,"stv_name":"Uncletopia | Los Angeles | 2 | All Maps | STV","players":null},{"server_id":324,"name":"Uncletopia | Los Angeles | 3 | All Maps","name_short":"lax-3","host":"lax-1.us.uncletopia.com","port":27035,"enabled":true,"region":"us-west","cc":"us","latitude":33.94279,"longitude":-118.41004,"reserved":0,"last_update":"0001-01-01T00:00:00Z","name_a2s":"Uncletopia | Los Angeles | 3 | All Maps","protocol":17,"map":"pl_pier","folder":"tf","game":"Team Fortress","app_id":440,"player_count":0,"max_players":24,"Bots":0,"server_type":"Dedicated","server_os":"Linux","password":true,"vac":true,"version":"7757534","steam_id":85568392924510198,"keywords":["nocrits","nodmgspread","payload","uncletopia"],"game_id":440,"stv_port":27036,"stv_name":"Uncletopia | Los Angeles | 3 | All Maps | STV","players":null},{"server_id":25,"name":"Uncletopia | Los Angeles | 4 | Stopwatch Beta","name_short":"lax-4","host":"lax-1.us.uncletopia.com","port":27045,"enabled":true,"region":"us-west","cc":"us","latitude":33.94279,"longitude":-118.41004,"reserved":0,"last_update":"0001-01-01T00:00:00Z","name_a2s":"Uncletopia | Los Angeles | 4 | Stopwatch Beta","protocol":17,"map":"pl_frontier_final","folder":"tf","game":"Team Fortress","app_id":440,"player_count":0,"max_players":24,"Bots":0,"server_type":"Dedicated","server_os":"Linux","password":true,"vac":true,"version":"7757534","steam_id":85568392924510199,"keywords":["nocrits","nodmgspread","payload","uncletopia"],"game_id":440,"stv_port":27046,"stv_name":"Uncletopia | Los Angeles | 4 | Stopwatch Beta | STV","players":null},{"server_id":11,"name":"Uncletopia | London | 1 | All Maps","name_short":"lon-1","host":"lon-1.uk.uncletopia.com","port":27015,"enabled":true,"region":"eu","cc":"gb","latitude":51.509865,"longitude":-0.118092,"reserved":0,"last_update":"0001-01-01T00:00:00Z","name_a2s":"Uncletopia | London | 1 | All Maps","protocol":17,"map":"pl_upward","folder":"tf","game":"Team Fortress","app_id":440,"player_count":24,"max_players":24,"Bots":0,"server_type":"Dedicated","server_os":"Linux","password":true,"vac":true,"version":"7757534","steam_id":85568392924367362,"keywords":["nocrits","nodmgspread","payload","uncletopia"],"game_id":440,"stv_port":27016,"stv_name":"Uncletopia | London | 1 | All Maps | STV","players":[{"user_id":588,"name":"James","steam_id":76561198138558005,"connected_time":625000000000,"state":"active","ping":47},{"user_id":516,"name":"Sandshee","steam_id":76561198088574666,"connected_time":6202000000000,"state":"active","ping":44},{"user_id":585,"name":"Alexandre","steam_id":76561198121784446,"connected_time":716000000000,"state":"active","ping":35},{"user_id":590,"name":"Pabs :D","steam_id":76561198000016962,"connected_time":586000000000,"state":"active","ping":61},{"user_id":578,"name":"Majami","steam_id":76561198054365738,"connected_time":1659000000000,"state":"active","ping":92},{"user_id":591,"name":"Senna","steam_id":76561198047270798,"connected_time":562000000000,"state":"active","ping":35},{"user_id":573,"name":"„ÉÜ„Ç§„É´„Çπ","steam_id":76561198022403271,"connected_time":2587000000000,"state":"active","ping":60},{"user_id":556,"name":"Wattseyy","steam_id":76561198248567360,"connected_time":3439000000000,"state":"active","ping":44},{"user_id":481,"name":"ThatGamingKiwi","steam_id":76561199170522237,"connected_time":9228000000000,"state":"active","ping":151},{"user_id":512,"name":"Andreyka","steam_id":76561198038447927,"connected_time":6629000000000,"state":"active","ping":120},{"user_id":533,"name":"Penis Contortionist","steam_id":76561198073663784,"connected_time":4960000000000,"state":"active","ping":46},{"user_id":574,"name":"Solymr ibn Wali Barad","steam_id":76561198044008976,"connected_time":2584000000000,"state":"active","ping":64},{"user_id":565,"name":"Commander DM","steam_id":76561198059236770,"connected_time":3273000000000,"state":"active","ping":79},{"user_id":558,"name":"AfricanCommie","steam_id":76561198798803845,"connected_time":3415000000000,"state":"active","ping":45},{"user_id":592,"name":"Thyme","steam_id":76561198904910888,"connected_time":234000000000,"state":"active","ping":143},{"user_id":570,"name":"r yw","steam_id":76561198088624259,"connected_time":2762000000000,"state":"active","ping":62},{"user_id":555,"name":"Dolcelatte","steam_id":76561198038501770,"connected_time":3615000000000,"state":"active","ping":62},{"user_id":563,"name":"Orange Catface","steam_id":76561198963378933,"connected_time":3361000000000,"state":"active","ping":44},{"user_id":572,"name":"VolcanicArts","steam_id":76561198063453246,"connected_time":2644000000000,"state":"active","ping":54},{"user_id":577,"name":"JordanMJenkins","steam_id":76561198045493233,"connected_time":1886000000000,"state":"active","ping":43},{"user_id":580,"name":"Cogsworth","steam_id":76561198101859889,"connected_time":1620000000000,"state":"active","ping":161},{"user_id":589,"name":"CutteLighty","steam_id":76561198080700641,"connected_time":591000000000,"state":"active","ping":60},{"user_id":583,"name":"No Status","steam_id":76561198119526557,"connected_time":927000000000,"state":"active","ping":47},{"user_id":584,"name":"Vectillion","steam_id":76561198074292454,"connected_time":927000000000,"state":"active","ping":69}]},{"server_id":114,"name":"Uncletopia | London | 2 | All Maps","name_short":"lon-2","host":"lon-1.uk.uncletopia.com","port":27025,"enabled":true,"region":"eu","cc":"gb","latitude":51.509865,"longitude":-0.118092,"reserved":0,"last_update":"0001-01-01T00:00:00Z","name_a2s":"Uncletopia | London | 2 | All Maps","protocol":17,"map":"pl_swiftwater_final1","folder":"tf","game":"Team Fortress","app_id":440,"player_count":24,"max_players":24,"Bots":0,"server_type":"Dedicated","server_os":"Linux","password":true,"vac":true,"version":"7757534","steam_id":85568392924470941,"keywords":["nocrits","nodmgspread","payload","uncletopia"],"game_id":440,"stv_port":27026,"stv_name":"Uncletopia | London | 2 | All Maps | STV","players":[{"user_id":60,"name":"When Life gives you Lemons","steam_id":76561198318290663,"connected_time":2816000000000,"state":"active","ping":58},{"user_id":98,"name":"Laurie","steam_id":76561198082951750,"connected_time":800000000000,"state":"active","ping":48},{"user_id":83,"name":"Vitamin Weee","steam_id":76561199183937747,"connected_time":1663000000000,"state":"active","ping":83},{"user_id":90,"name":"Clitorina","steam_id":76561198077570815,"connected_time":916000000000,"state":"active","ping":43},{"user_id":91,"name":"MelvinIsANiceBoy","steam_id":76561198178415634,"connected_time":884000000000,"state":"active","ping":60},{"user_id":101,"name":"Zerfesh","steam_id":76561198117534358,"connected_time":628000000000,"state":"active","ping":87},{"user_id":67,"name":"quickfast","steam_id":76561199438900919,"connected_time":2444000000000,"state":"active","ping":45},{"user_id":105,"name":"General Kiel","steam_id":76561198021317816,"connected_time":115000000000,"state":"active","ping":69},{"user_id":100,"name":"PistolShrimp","steam_id":76561199171648755,"connected_time":705000000000,"state":"active","ping":68},{"user_id":106,"name":"f l —è n","steam_id":76561198079595755,"connected_time":110000000000,"state":"active","ping":55},{"user_id":104,"name":"Mikeal (Pro version)","steam_id":76561198241759034,"connected_time":315000000000,"state":"active","ping":80},{"user_id":72,"name":"P Diddy","steam_id":76561198829344838,"connected_time":2144000000000,"state":"active","ping":54},{"user_id":69,"name":"Wuffington","steam_id":76561198033762881,"connected_time":2397000000000,"state":"active","ping":46},{"user_id":64,"name":"Hash09","steam_id":76561198858691080,"connected_time":2662000000000,"state":"active","ping":122},{"user_id":94,"name":"Gnarville","steam_id":76561198006373329,"connected_time":813000000000,"state":"active","ping":49},{"user_id":107,"name":"Dr. Uberschwein","steam_id":76561198111367431,"connected_time":60000000000,"state":"active","ping":79},{"user_id":81,"name":"Aregularhuman","steam_id":76561198343319848,"connected_time":1783000000000,"state":"active","ping":53},{"user_id":36,"name":"Uncle Owen","steam_id":76561198157999291,"connected_time":3909000000000,"state":"active","ping":88},{"user_id":108,"name":"Varsity Athlete","steam_id":76561198012296395,"connected_time":39000000000,"state":"active","ping":48},{"user_id":76,"name":"Adopted?","steam_id":76561198118667043,"connected_time":2090000000000,"state":"active","ping":51},{"user_id":109,"name":"‡§Æ‡§æ‡§•‡§æ","steam_id":76561198154274757,"connected_time":18000000000,"state":"active","ping":56},{"user_id":99,"name":"carbonated_mana","steam_id":76561198329497466,"connected_time":791000000000,"state":"active","ping":105},{"user_id":103,"name":"Paul B√§umer","steam_id":76561198308302932,"connected_time":598000000000,"state":"active","ping":103},{"user_id":97,"name":"Cu713","steam_id":76561198175463442,"connected_time":804000000000,"state":"active","ping":89}]},{"server_id":320,"name":"Uncletopia | London | 3 | All Maps","name_short":"lon-3","host":"lon-1.uk.uncletopia.com","port":27035,"enabled":true,"region":"eu","cc":"gb","latitude":51.509865,"longitude":-0.118092,"reserved":0,"last_update":"0001-01-01T00:00:00Z","name_a2s":"Uncletopia | London | 3 | All Maps","protocol":17,"map":"cp_sunshine","folder":"tf","game":"Team Fortress","app_id":440,"player_count":21,"max_players":24,"Bots":0,"server_type":"Dedicated","server_os":"Linux","password":true,"vac":true,"version":"7757534","steam_id":85568392924510192,"keywords":["cp","nocrits","nodmgspread","uncletopia"],"game_id":440,"stv_port":27036,"stv_name":"Uncletopia | London | 3 | All Maps | STV","players":[{"user_id":450,"name":"no. 1 lucki fan","steam_id":76561198022382969,"connected_time":2708000000000,"state":"active","ping":75},{"user_id":387,"name":"Shibus","steam_id":76561198077328359,"connected_time":6953000000000,"state":"active","ping":57},{"user_id":486,"name":"Mi Manchi","steam_id":76561198171573129,"connected_time":145000000000,"state":"active","ping":59},{"user_id":489,"name":"Fat Pigeon","steam_id":76561198817940142,"connected_time":18000000000,"state":"active","ping":54},{"user_id":479,"name":"Kahvi","steam_id":76561198723244199,"connected_time":627000000000,"state":"active","ping":75},{"user_id":477,"name":"Ladybug","steam_id":76561198259885007,"connected_time":876000000000,"state":"active","ping":54},{"user_id":465,"name":"MIMI:CS","steam_id":76561198255389232,"connected_time":1681000000000,"state":"active","ping":65},{"user_id":460,"name":"CouT1nho","steam_id":76561198203926376,"connected_time":1940000000000,"state":"active","ping":40},{"user_id":481,"name":"wicked","steam_id":76561198164376035,"connected_time":369000000000,"state":"active","ping":80},{"user_id":457,"name":"Qxillum","steam_id":76561198037201297,"connected_time":2158000000000,"state":"active","ping":56},{"user_id":485,"name":"Boil em mash em","steam_id":76561198026508026,"connected_time":216000000000,"state":"active","ping":72},{"user_id":482,"name":"Dominixk","steam_id":76561198995512625,"connected_time":351000000000,"state":"active","ping":69},{"user_id":461,"name":"Big Balls Bill","steam_id":76561198045998627,"connected_time":1848000000000,"state":"active","ping":45},{"user_id":484,"name":"owlsie","steam_id":76561198094883280,"connected_time":274000000000,"state":"active","ping":62},{"user_id":455,"name":"Shlongulator","steam_id":76561198149779201,"connected_time":2230000000000,"state":"active","ping":52},{"user_id":470,"name":"r0la","steam_id":76561198128315340,"connected_time":1475000000000,"state":"active","ping":81},{"user_id":462,"name":"Pottery Knight","steam_id":76561198094455814,"connected_time":1841000000000,"state":"active","ping":94},{"user_id":434,"name":"mimi","steam_id":76561198060648946,"connected_time":3825000000000,"state":"active","ping":69},{"user_id":464,"name":"Posture Check","steam_id":76561198053897197,"connected_time":1702000000000,"state":"active","ping":37},{"user_id":476,"name":"Zhongding Construction Group Lt","steam_id":76561198065915748,"connected_time":1008000000000,"state":"active","ping":51},{"user_id":478,"name":"Svilar","steam_id":76561198828348612,"connected_time":876000000000,"state":"active","ping":80}]},{"server_id":321,"name":"Uncletopia | London | 4 | All Maps","name_short":"lon-4","host":"lon-1.uk.uncletopia.com","port":27045,"enabled":true,"region":"eu","cc":"gb","latitude":51.509865,"longitude":-0.118092,"reserved":0,"last_update":"0001-01-01T00:00:00Z","name_a2s":"Uncletopia | London | 4 | All Maps","protocol":17,"map":"pl_borneo","folder":"tf","game":"Team Fortress","app_id":440,"player_count":0,"max_players":24,"Bots":0,"server_type":"Dedicated","server_os":"Linux","password":true,"vac":true,"version":"7757534","steam_id":85568392924510193,"keywords":["nocrits","nodmgspread","payload","uncletopia"],"game_id":440,"stv_port":27046,"stv_name":"Uncletopia | London | 4 | All Maps | STV","players":null},{"server_id":21,"name":"Uncletopia | London | 5 | All Maps","name_short":"lon-5","host":"lon-1.uk.uncletopia.com","port":27055,"enabled":true,"region":"eu","cc":"gb","latitude":51.509865,"longitude":-0.118092,"reserved":0,"last_update":"0001-01-01T00:00:00Z","name_a2s":"Uncletopia | London | 5 | All Maps","protocol":17,"map":"pl_snowycoast","folder":"tf","game":"Team Fortress","app_id":440,"player_count":20,"max_players":24,"Bots":0,"server_type":"Dedicated","server_os":"Linux","password":true,"vac":true,"version":"7757534","steam_id":85568392924742829,"keywords":["nocrits","nodmgspread","payload","uncletopia"],"game_id":440,"stv_port":27056,"stv_name":"Uncletopia | London | 5 | All Maps | STV","players":[{"user_id":35,"name":"pardner","steam_id":76561198451471161,"connected_time":230000000000,"state":"active","ping":57},{"user_id":13,"name":"fried","steam_id":76561198307522022,"connected_time":1394000000000,"state":"active","ping":45},{"user_id":36,"name":"Mr.Happy","steam_id":76561198009646650,"connected_time":221000000000,"state":"active","ping":86},{"user_id":12,"name":"ran is running","steam_id":76561199443185667,"connected_time":1655000000000,"state":"active","ping":144},{"user_id":18,"name":"justin_ (f2p) (real)","steam_id":76561198839843428,"connected_time":645000000000,"state":"active","ping":122},{"user_id":42,"name":"Owl","steam_id":76561198248266580,"connected_time":78000000000,"state":"active","ping":57},{"user_id":37,"name":"E","steam_id":76561198166340115,"connected_time":177000000000,"state":"active","ping":62},{"user_id":21,"name":"„Éå„Éô„Éº„É´ (Nubert)","steam_id":76561199121806567,"connected_time":474000000000,"state":"active","ping":52},{"user_id":22,"name":"ikc159","steam_id":76561198020559026,"connected_time":462000000000,"state":"active","ping":54},{"user_id":38,"name":"Big They/Them is watching YOU","steam_id":76561198307598168,"connected_time":176000000000,"state":"active","ping":63},{"user_id":24,"name":"Hexagon","steam_id":76561198151205758,"connected_time":451000000000,"state":"active","ping":55},{"user_id":25,"name":"gaz","steam_id":76561198843714742,"connected_time":438000000000,"state":"active","ping":88},{"user_id":26,"name":"Harex3360 #Savetf2","steam_id":76561199122302529,"connected_time":437000000000,"state":"active","ping":51},{"user_id":30,"name":"GardenFungus","steam_id":76561198054894337,"connected_time":378000000000,"state":"active","ping":30},{"user_id":31,"name":"Mr. Mundy","steam_id":76561198132008918,"connected_time":344000000000,"state":"active","ping":90},{"user_id":29,"name":"Tea","steam_id":76561198799243030,"connected_time":401000000000,"state":"active","ping":54},{"user_id":33,"name":"Milo≈°","steam_id":76561198129684105,"connected_time":302000000000,"state":"active","ping":77},{"user_id":39,"name":"going through hell","steam_id":76561199042470246,"connected_time":159000000000,"state":"active","ping":61},{"user_id":43,"name":"isha","steam_id":76561199041566425,"connected_time":15000000000,"state":"spawning","ping":53},{"user_id":41,"name":"Sim","steam_id":76561198086641180,"connected_time":112000000000,"state":"active","ping":83}]},{"server_id":22,"name":"Uncletopia | London | 6 | All Maps","name_short":"lon-6","host":"lon-1.uk.uncletopia.com","port":27065,"enabled":true,"region":"eu","cc":"gb","latitude":51.509865,"longitude":-0.118092,"reserved":0,"last_update":"0001-01-01T00:00:00Z","name_a2s":"Uncletopia | London | 6 | All Maps","protocol":17,"map":"koth_cascade","folder":"tf","game":"Team Fortress","app_id":440,"player_count":0,"max_players":24,"Bots":0,"server_type":"Dedicated","server_os":"Linux","password":true,"vac":true,"version":"7757534","steam_id":85568392924742830,"keywords":["cp","nocrits","nodmgspread","uncletopia"],"game_id":440,"stv_port":27066,"stv_name":"Uncletopia | London | 6 | All Maps | STV","players":null},{"server_id":40,"name":"Uncletopia | London | 7 | No Payload","name_short":"lon-7","host":"lon-1.uk.uncletopia.com","port":27075,"enabled":true,"region":"eu","cc":"gb","latitude":51.509865,"longitude":-0.118092,"reserved":0,"last_update":"0001-01-01T00:00:00Z","name_a2s":"Uncletopia | London | 7 | No Payload","protocol":17,"map":"koth_cascade","folder":"tf","game":"Team Fortress","app_id":440,"player_count":0,"max_players":24,"Bots":0,"server_type":"Dedicated","server_os":"Linux","password":true,"vac":true,"version":"7757534","steam_id":85568392924964314,"keywords":["cp","nocrits","nodmgspread","uncletopia"],"game_id":440,"stv_port":27076,"stv_name":"Uncletopia | London | 7 | No Payload | STV","players":null},{"server_id":41,"name":"Uncletopia | London | 8 | Community","name_short":"lon-8","host":"lon-1.uk.uncletopia.com","port":27085,"enabled":true,"region":"eu","cc":"gb","latitude":51.509865,"longitude":-0.118092,"reserved":0,"last_update":"0001-01-01T00:00:00Z","name_a2s":"Uncletopia | London | 8 | Community","protocol":17,"map":"workshop/rd_asteroid_redux_b1.ugc2154902912","folder":"tf","game":"Team Fortress","app_id":440,"player_count":0,"max_players":24,"Bots":0,"server_type":"Dedicated","server_os":"Linux","password":true,"vac":true,"version":"7757534","steam_id":85568392924964315,"keywords":["beta","nocrits","nodmgspread","rd","uncletopia"],"game_id":440,"stv_port":27086,"stv_name":"Uncletopia | London | 8 | Community | STV","players":null},{"server_id":300,"name":"Uncletopia | Montr√©al | 1 | All Maps","name_short":"mtl-1","host":"mtl-1.ca.uncletopia.com","port":27015,"enabled":true,"region":"us-east","cc":"ca","latitude":45.50889,"longitude":-73.56167,"reserved":0,"last_update":"0001-01-01T00:00:00Z","name_a2s":"Uncletopia | Montr√©al | 1 | All Maps","protocol":17,"map":"pl_snowycoast","folder":"tf","game":"Team Fortress","app_id":440,"player_count":0,"max_players":24,"Bots":0,"server_type":"Dedicated","server_os":"Linux","password":true,"vac":true,"version":"7757534","steam_id":85568392924500087,"keywords":["nocrits","nodmgspread","payload","uncletopia"],"game_id":440,"stv_port":27016,"stv_name":"Uncletopia | Montr√©al | 1 | All Maps | STV","players":null},{"server_id":301,"name":"Uncletopia | Montr√©al | 2 | All Maps","name_short":"mtl-2","host":"mtl-1.ca.uncletopia.com","port":27025,"enabled":true,"region":"us-east","cc":"ca","latitude":45.50889,"longitude":-73.56167,"reserved":0,"last_update":"0001-01-01T00:00:00Z","name_a2s":"Uncletopia | Montr√©al | 2 | All Maps","protocol":17,"map":"pl_snowycoast","folder":"tf","game":"Team Fortress","app_id":440,"player_count":0,"max_players":24,"Bots":0,"server_type":"Dedicated","server_os":"Linux","password":true,"vac":true,"version":"7757534","steam_id":85568392924500088,"keywords":["nocrits","nodmgspread","payload","uncletopia"],"game_id":440,"stv_port":27026,"stv_name":"Uncletopia | Montr√©al | 2 | All Maps | STV","players":null},{"server_id":302,"name":"Uncletopia | Montr√©al | 3 | All Maps","name_short":"mtl-3","host":"mtl-1.ca.uncletopia.com","port":27035,"enabled":true,"region":"us-east","cc":"ca","latitude":45.50889,"longitude":-73.56167,"reserved":0,"last_update":"0001-01-01T00:00:00Z","name_a2s":"Uncletopia | Montr√©al | 3 | All Maps","protocol":17,"map":"cp_dustbowl","folder":"tf","game":"Team Fortress","app_id":440,"player_count":0,"max_players":24,"Bots":0,"server_type":"Dedicated","server_os":"Linux","password":true,"vac":true,"version":"7757534","steam_id":85568392924500089,"keywords":["cp","nocrits","nodmgspread","uncletopia"],"game_id":440,"stv_port":27036,"stv_name":"Uncletopia | Montr√©al | 3 | All Maps | STV","players":null},{"server_id":303,"name":"Uncletopia | Montr√©al | 4 | No Payload","name_short":"mtl-4","host":"mtl-1.ca.uncletopia.com","port":27045,"enabled":true,"region":"us-east","cc":"ca","latitude":45.50889,"longitude":-73.56167,"reserved":0,"last_update":"0001-01-01T00:00:00Z","name_a2s":"Uncletopia | Montr√©al | 4 | No Payload","protocol":17,"map":"pl_borneo","folder":"tf","game":"Team Fortress","app_id":440,"player_count":0,"max_players":24,"Bots":0,"server_type":"Dedicated","server_os":"Linux","password":true,"vac":true,"version":"7757534","steam_id":85568392924500090,"keywords":["nocrits","nodmgspread","payload","uncletopia"],"game_id":440,"stv_port":27046,"stv_name":"Uncletopia | Montr√©al | 4 | No Payload | STV","players":null},{"server_id":13,"name":"Uncletopia | New York City | 1 | All Maps","name_short":"nyc-1","host":"nyc-1.us.uncletopia.com","port":27015,"enabled":true,"region":"us-east","cc":"us","latitude":40.73061,"longitude":-73.93524,"reserved":0,"last_update":"0001-01-01T00:00:00Z","name_a2s":"Uncletopia | New York City | 1 | All Maps","protocol":17,"map":"cp_sunshine","folder":"tf","game":"Team Fortress","app_id":440,"player_count":24,"max_players":24,"Bots":0,"server_type":"Dedicated","server_os":"Linux","password":true,"vac":true,"version":"7757534","steam_id":85568392924469993,"keywords":["cp","nocrits","nodmgspread","uncletopia"],"game_id":440,"stv_port":27016,"stv_name":"Uncletopia | New York City | 1 | All Maps | STV","players":[{"user_id":186,"name":"moodi catgirl","steam_id":76561198124028045,"connected_time":858000000000,"state":"active","ping":69},{"user_id":175,"name":"Big Sauce","steam_id":76561198046654750,"connected_time":1594000000000,"state":"active","ping":55},{"user_id":128,"name":"furnace_user","steam_id":76561197995620232,"connected_time":4280000000000,"state":"active","ping":40},{"user_id":163,"name":"Slashes","steam_id":76561197968573499,"connected_time":2562000000000,"state":"active","ping":40},{"user_id":170,"name":"rudy","steam_id":76561198088712799,"connected_time":1909000000000,"state":"active","ping":84},{"user_id":176,"name":"R3TR0OWL","steam_id":76561198271055229,"connected_time":1588000000000,"state":"active","ping":79},{"user_id":187,"name":"puffle fanatic","steam_id":76561198094030685,"connected_time":797000000000,"state":"active","ping":88},{"user_id":154,"name":"gritty 2024","steam_id":76561198165567310,"connected_time":2814000000000,"state":"active","ping":45},{"user_id":155,"name":"CC-Crazy","steam_id":76561198805238059,"connected_time":2810000000000,"state":"active","ping":31},{"user_id":177,"name":"uzr","steam_id":76561198799343084,"connected_time":1559000000000,"state":"active","ping":106},{"user_id":156,"name":"[WKB‚úø] ‰Ω†ÁöÑ‰Ω†","steam_id":76561198010094350,"connected_time":2736000000000,"state":"active","ping":73},{"user_id":174,"name":"Fribas","steam_id":76561198138502813,"connected_time":1688000000000,"state":"active","ping":80},{"user_id":178,"name":"Ruud","steam_id":76561199195104977,"connected_time":1510000000000,"state":"active","ping":56},{"user_id":179,"name":"primordialheath","steam_id":76561199386942638,"connected_time":1496000000000,"state":"active","ping":84},{"user_id":159,"name":"basiliotornado","steam_id":76561198409009569,"connected_time":2703000000000,"state":"active","ping":79},{"user_id":130,"name":"Squid121","steam_id":76561198038832034,"connected_time":4262000000000,"state":"active","ping":120},{"user_id":160,"name":"neet","steam_id":76561197968115168,"connected_time":2692000000000,"state":"active","ping":45},{"user_id":191,"name":"PileofPolygons","steam_id":76561199321343460,"connected_time":237000000000,"state":"active","ping":83},{"user_id":188,"name":"Goner","steam_id":76561198055879094,"connected_time":785000000000,"state":"active","ping":75},{"user_id":165,"name":"ruimario","steam_id":76561198406752631,"connected_time":2318000000000,"state":"active","ping":64},{"user_id":147,"name":"Frajer","steam_id":76561198059129680,"connected_time":3356000000000,"state":"active","ping":72},{"user_id":192,"name":"stardust","steam_id":76561198413930183,"connected_time":82000000000,"state":"active","ping":45},{"user_id":190,"name":"Fudgely","steam_id":76561198039425862,"connected_time":384000000000,"state":"active","ping":58},{"user_id":169,"name":"lost in spaaaaace","steam_id":76561199085974120,"connected_time":2050000000000,"state":"active","ping":57}]},{"server_id":14,"name":"Uncletopia | New York City | 2 | All Maps","name_short":"nyc-2","host":"nyc-1.us.uncletopia.com","port":27025,"enabled":true,"region":"us-east","cc":"us","latitude":40.73061,"longitude":-73.93524,"reserved":0,"last_update":"0001-01-01T00:00:00Z","name_a2s":"Uncletopia | New York City | 2 | All Maps","protocol":17,"map":"pl_pier","folder":"tf","game":"Team Fortress","app_id":440,"player_count":0,"max_players":24,"Bots":0,"server_type":"Dedicated","server_os":"Linux","password":true,"vac":true,"version":"7757534","steam_id":85568392924469994,"keywords":["nocrits","nodmgspread","payload","uncletopia"],"game_id":440,"stv_port":27026,"stv_name":"Uncletopia | New York City | 2 | All Maps | STV","players":null},{"server_id":15,"name":"Uncletopia | New York City | 3 | Stopwatch Beta","name_short":"nyc-3","host":"nyc-1.us.uncletopia.com","port":27035,"enabled":true,"region":"us-east","cc":"us","latitude":40.73061,"longitude":-73.93524,"reserved":0,"last_update":"0001-01-01T00:00:00Z","name_a2s":"Uncletopia | New York City | 3 | Stopwatch Beta","protocol":17,"map":"cp_mountainlab","folder":"tf","game":"Team Fortress","app_id":440,"player_count":0,"max_players":24,"Bots":0,"server_type":"Dedicated","server_os":"Linux","password":true,"vac":true,"version":"7757534","steam_id":85568392924742820,"keywords":["cp","nocrits","nodmgspread","uncletopia"],"game_id":440,"stv_port":27036,"stv_name":"Uncletopia | New York City | 3 | Stopwatch Beta | STV","players":null},{"server_id":16,"name":"Uncletopia | New York City | 4 | Community","name_short":"nyc-4","host":"nyc-1.us.uncletopia.com","port":27045,"enabled":true,"region":"us-east","cc":"us","latitude":40.73061,"longitude":-73.93524,"reserved":0,"last_update":"0001-01-01T00:00:00Z","name_a2s":"Uncletopia | New York City | 4 | Community","protocol":17,"map":"pl_borneo","folder":"tf","game":"Team Fortress","app_id":440,"player_count":0,"max_players":24,"Bots":0,"server_type":"Dedicated","server_os":"Linux","password":true,"vac":true,"version":"7757534","steam_id":85568392924742821,"keywords":["nocrits","nodmgspread","payload","uncletopia"],"game_id":440,"stv_port":27046,"stv_name":"Uncletopia | New York City | 4 | Community | STV","players":null},{"server_id":142,"name":"Uncletopia | S√£o Paulo | 1 | All Maps","name_short":"sao-1","host":"sao-1.br.uncletopia.com","port":27015,"enabled":true,"region":"sa","cc":"br","latitude":-23.533773,"longitude":-46.62529,"reserved":0,"last_update":"0001-01-01T00:00:00Z","name_a2s":"Uncletopia | S√£o Paulo | 1 | All Maps","protocol":17,"map":"cp_snakewater_final1","folder":"tf","game":"Team Fortress","app_id":440,"player_count":3,"max_players":24,"Bots":0,"server_type":"Dedicated","server_os":"Linux","password":true,"vac":true,"version":"7757534","steam_id":85568392924469996,"keywords":["cp","nocrits","nodmgspread","uncletopia"],"game_id":440,"stv_port":27016,"stv_name":"Uncletopia | S√£o Paulo | 1 | All Maps | STV","players":[{"user_id":23,"name":"skrrrpyu","steam_id":76561199093950818,"connected_time":1095000000000,"state":"active","ping":57},{"user_id":22,"name":"kate ‚ùÄ","steam_id":76561198805567120,"connected_time":1299000000000,"state":"active","ping":49},{"user_id":30,"name":"Adolf Dripler","steam_id":76561198963738808,"connected_time":90000000000,"state":"active","ping":39}]},{"server_id":143,"name":"Uncletopia | S√£o Paulo | 2 | All Maps","name_short":"sao-2","host":"sao-2.br.uncletopia.com","port":27015,"enabled":true,"region":"sa","cc":"br","latitude":-23.533773,"longitude":-46.62529,"reserved":0,"last_update":"0001-01-01T00:00:00Z","name_a2s":"Uncletopia | S√£o Paulo | 2 | All Maps","protocol":17,"map":"koth_lakeside_final","folder":"tf","game":"Team Fortress","app_id":440,"player_count":0,"max_players":24,"Bots":0,"server_type":"Dedicated","server_os":"Linux","password":true,"vac":true,"version":"7757534","steam_id":85568392924485349,"keywords":["cp","nocrits","nodmgspread","uncletopia"],"game_id":440,"stv_port":27016,"stv_name":"Uncletopia | S√£o Paulo | 2 | All Maps | STV","players":null},{"server_id":7,"name":"Uncletopia | Seattle | 1 | All Maps","name_short":"sea-1","host":"sea-1.us.uncletopia.com","port":27015,"enabled":true,"region":"us-west","cc":"us","latitude":47.608013,"longitude":-122.33517,"reserved":0,"last_update":"0001-01-01T00:00:00Z","name_a2s":"Uncletopia | Seattle | 1 | All Maps","protocol":17,"map":"pl_pier","folder":"tf","game":"Team Fortress","app_id":440,"player_count":0,"max_players":24,"Bots":0,"server_type":"Dedicated","server_os":"Linux","password":true,"vac":true,"version":"7757534","steam_id":85568392924469997,"keywords":["nocrits","nodmgspread","payload","uncletopia"],"game_id":440,"stv_port":27016,"stv_name":"Uncletopia | Seattle | 1 | All Maps | STV","players":null},{"server_id":119,"name":"Uncletopia | Seattle | 2 | All Maps","name_short":"sea-2","host":"sea-1.us.uncletopia.com","port":27025,"enabled":true,"region":"us-west","cc":"us","latitude":47.608013,"longitude":-122.33517,"reserved":0,"last_update":"0001-01-01T00:00:00Z","name_a2s":"Uncletopia | Seattle | 2 | All Maps","protocol":17,"map":"pl_borneo","folder":"tf","game":"Team Fortress","app_id":440,"player_count":23,"max_players":24,"Bots":0,"server_type":"Dedicated","server_os":"Linux","password":true,"vac":true,"version":"7757534","steam_id":85568392924469998,"keywords":["nocrits","nodmgspread","payload","uncletopia"],"game_id":440,"stv_port":27026,"stv_name":"Uncletopia | Seattle | 2 | All Maps | STV","players":[{"user_id":85,"name":"Store Bought Bread","steam_id":76561198805239061,"connected_time":205000000000,"state":"active","ping":128},{"user_id":86,"name":"goblin","steam_id":76561198850428601,"connected_time":185000000000,"state":"active","ping":97},{"user_id":14,"name":"{907}DarkestFury","steam_id":76561198103662458,"connected_time":4491000000000,"state":"active","ping":75},{"user_id":83,"name":"Eris","steam_id":76561199471434875,"connected_time":326000000000,"state":"active","ping":32},{"user_id":10,"name":"laszlo","steam_id":76561198141198352,"connected_time":4622000000000,"state":"active","ping":91},{"user_id":87,"name":"‚§£RASCAL","steam_id":76561198269038647,"connected_time":159000000000,"state":"active","ping":75},{"user_id":40,"name":"trinqette","steam_id":76561198119543621,"connected_time":3556000000000,"state":"active","ping":94},{"user_id":44,"name":"The Pepsi¬Æ Superbowl¬Æ!","steam_id":76561198080828981,"connected_time":3358000000000,"state":"active","ping":75},{"user_id":50,"name":"Freeza","steam_id":76561198050341005,"connected_time":3114000000000,"state":"active","ping":60},{"user_id":79,"name":"Back with the milk","steam_id":76561199020105501,"connected_time":437000000000,"state":"active","ping":112},{"user_id":34,"name":"Little Linguine","steam_id":76561198816986370,"connected_time":3711000000000,"state":"active","ping":62},{"user_id":52,"name":"mumbles","steam_id":76561197994528974,"connected_time":3020000000000,"state":"active","ping":89},{"user_id":82,"name":"Shark Guy","steam_id":76561198133712800,"connected_time":380000000000,"state":"active","ping":104},{"user_id":38,"name":"Gammaplex","steam_id":76561198981228176,"connected_time":3607000000000,"state":"active","ping":103},{"user_id":56,"name":"Wackydavo","steam_id":76561197990094209,"connected_time":2841000000000,"state":"active","ping":108},{"user_id":29,"name":"Batso","steam_id":76561198106589452,"connected_time":3977000000000,"state":"active","ping":80},{"user_id":58,"name":"Œª","steam_id":76561198120426683,"connected_time":2716000000000,"state":"active","ping":62},{"user_id":81,"name":"AnonymouzR011","steam_id":76561198262685906,"connected_time":423000000000,"state":"active","ping":84},{"user_id":72,"name":"„Ä£dust„Ä£ -she/her-","steam_id":76561198045218909,"connected_time":1148000000000,"state":"active","ping":45},{"user_id":64,"name":"Dr. Hashbrown","steam_id":76561198410780370,"connected_time":1912000000000,"state":"active","ping":71},{"user_id":84,"name":"RoyaltyFreeRat","steam_id":76561198238186628,"connected_time":324000000000,"state":"active","ping":79},{"user_id":73,"name":"Goldenglow Explorer","steam_id":76561198392324745,"connected_time":1139000000000,"state":"active","ping":173},{"user_id":88,"name":"FOX927011","steam_id":76561198117831095,"connected_time":127000000000,"state":"active","ping":124}]},{"server_id":406,"name":"Uncletopia | Seattle | 3 | Stopwatch Beta","name_short":"sea-3","host":"sea-1.us.uncletopia.com","port":27035,"enabled":true,"region":"us-west","cc":"us","latitude":47.608013,"longitude":-122.33517,"reserved":0,"last_update":"0001-01-01T00:00:00Z","name_a2s":"Uncletopia | Seattle | 3 | Stopwatch Beta","protocol":17,"map":"pl_barnblitz","folder":"tf","game":"Team Fortress","app_id":440,"player_count":0,"max_players":24,"Bots":0,"server_type":"Dedicated","server_os":"Linux","password":true,"vac":true,"version":"7757534","steam_id":85568392924515217,"keywords":["nocrits","nodmgspread","payload","uncletopia"],"game_id":440,"stv_port":27036,"stv_name":"Uncletopia | Seattle | 3 | Stopwatch Beta | STV","players":null},{"server_id":17,"name":"Uncletopia | San Francisco | 1 | All Maps","name_short":"sfo-1","host":"sfo-1.us.uncletopia.com","port":27015,"enabled":true,"region":"us-west","cc":"us","latitude":37.77397,"longitude":-122.4313,"reserved":0,"last_update":"0001-01-01T00:00:00Z","name_a2s":"Uncletopia | San Francisco | 1 | All Maps","protocol":17,"map":"cp_process_final","folder":"tf","game":"Team Fortress","app_id":440,"player_count":0,"max_players":24,"Bots":0,"server_type":"Dedicated","server_os":"Linux","password":true,"vac":true,"version":"7757534","steam_id":85568392924469999,"keywords":["cp","nocrits","nodmgspread","uncletopia"],"game_id":440,"stv_port":27016,"stv_name":"Uncletopia | San Francisco | 1 | All Maps | STV","players":null},{"server_id":18,"name":"Uncletopia | San Francisco | 2 | All Maps","name_short":"sfo-2","host":"sfo-1.us.uncletopia.com","port":27025,"enabled":true,"region":"us-west","cc":"us","latitude":37.77397,"longitude":-122.4313,"reserved":0,"last_update":"0001-01-01T00:00:00Z","name_a2s":"Uncletopia | San Francisco | 2 | All Maps","protocol":17,"map":"cp_sunshine","folder":"tf","game":"Team Fortress","app_id":440,"player_count":0,"max_players":24,"Bots":0,"server_type":"Dedicated","server_os":"Linux","password":true,"vac":true,"version":"7757534","steam_id":85568392924470000,"keywords":["cp","nocrits","nodmgspread","uncletopia"],"game_id":440,"stv_port":27026,"stv_name":"Uncletopia | San Francisco | 2 | All Maps | STV","players":null},{"server_id":19,"name":"Uncletopia | San Francisco | 3 | Stopwatch Beta","name_short":"sfo-3","host":"sfo-1.us.uncletopia.com","port":27035,"enabled":true,"region":"us-west","cc":"us","latitude":37.77397,"longitude":-122.4313,"reserved":0,"last_update":"0001-01-01T00:00:00Z","name_a2s":"Uncletopia | San Francisco | 3 | Stopwatch Beta","protocol":17,"map":"pl_borneo","folder":"tf","game":"Team Fortress","app_id":440,"player_count":0,"max_players":24,"Bots":0,"server_type":"Dedicated","server_os":"Linux","password":true,"vac":true,"version":"7757534","steam_id":85568392924742824,"keywords":["nocrits","nodmgspread","payload","uncletopia"],"game_id":440,"stv_port":27036,"stv_name":"Uncletopia | San Francisco | 3 | Stopwatch Beta | STV","players":null},{"server_id":20,"name":"Uncletopia | San Francisco | 4 | Community","name_short":"sfo-4","host":"sfo-1.us.uncletopia.com","port":27045,"enabled":true,"region":"us-west","cc":"us","latitude":37.77397,"longitude":-122.4313,"reserved":0,"last_update":"0001-01-01T00:00:00Z","name_a2s":"Uncletopia | San Francisco | 4 | Community","protocol":17,"map":"koth_highpass","folder":"tf","game":"Team Fortress","app_id":440,"player_count":0,"max_players":24,"Bots":0,"server_type":"Dedicated","server_os":"Linux","password":true,"vac":true,"version":"7757534","steam_id":85568392924742826,"keywords":["cp","nocrits","nodmgspread","uncletopia"],"game_id":440,"stv_port":27046,"stv_name":"Uncletopia | San Francisco | 4 | Community | STV","players":null},{"server_id":141,"name":"Uncletopia | Sydney | 1 | All Maps","name_short":"syd-1","host":"syd-1.au.uncletopia.com","port":27015,"enabled":true,"region":"au","cc":"au","latitude":-33.865143,"longitude":151.2099,"reserved":0,"last_update":"0001-01-01T00:00:00Z","name_a2s":"Uncletopia | Sydney | 1 | All Maps","protocol":17,"map":"koth_highpass","folder":"tf","game":"Team Fortress","app_id":440,"player_count":0,"max_players":24,"Bots":0,"server_type":"Dedicated","server_os":"Linux","password":true,"vac":true,"version":"7757534","steam_id":85568392924470001,"keywords":["cp","nocrits","nodmgspread","uncletopia"],"game_id":440,"stv_port":27016,"stv_name":"Uncletopia | Sydney | 1 | All Maps | STV","players":null},{"server_id":123,"name":"Uncletopia | Sydney | 2 | All Maps","name_short":"syd-2","host":"syd-1.au.uncletopia.com","port":27025,"enabled":true,"region":"au","cc":"au","latitude":-33.865143,"longitude":151.2099,"reserved":0,"last_update":"0001-01-01T00:00:00Z","name_a2s":"Uncletopia | Sydney | 2 | All Maps","protocol":17,"map":"koth_lakeside_final","folder":"tf","game":"Team Fortress","app_id":440,"player_count":0,"max_players":24,"Bots":0,"server_type":"Dedicated","server_os":"Linux","password":true,"vac":true,"version":"7757534","steam_id":85568392924470002,"keywords":["cp","nocrits","nodmgspread","uncletopia"],"game_id":440,"stv_port":27026,"stv_name":"Uncletopia | Sydney | 2 | All Maps | STV","players":null},{"server_id":395,"name":"Uncletopia | Sydney | 3 | All Maps","name_short":"syd-3","host":"syd-1.au.uncletopia.com","port":27035,"enabled":true,"region":"au","cc":"au","latitude":-33.865143,"longitude":151.2099,"reserved":0,"last_update":"0001-01-01T00:00:00Z","name_a2s":"Uncletopia | Sydney | 3 | All Maps","protocol":17,"map":"pl_pier","folder":"tf","game":"Team Fortress","app_id":440,"player_count":0,"max_players":24,"Bots":0,"server_type":"Dedicated","server_os":"Linux","password":true,"vac":true,"version":"7757534","steam_id":85568392925194467,"keywords":["nocrits","nodmgspread","payload","uncletopia"],"game_id":440,"stv_port":27036,"stv_name":"Uncletopia | Sydney | 3 | All Maps | STV","players":null},{"server_id":396,"name":"Uncletopia | Sydney | 4 | All Maps","name_short":"syd-4","host":"syd-1.au.uncletopia.com","port":27045,"enabled":true,"region":"au","cc":"au","latitude":-33.865143,"longitude":151.2099,"reserved":0,"last_update":"0001-01-01T00:00:00Z","name_a2s":"Uncletopia | Sydney | 4 | All Maps","protocol":17,"map":"koth_lakeside_final","folder":"tf","game":"Team Fortress","app_id":440,"player_count":0,"max_players":24,"Bots":0,"server_type":"Dedicated","server_os":"Linux","password":true,"vac":true,"version":"7757534","steam_id":85568392925397958,"keywords":["cp","nocrits","nodmgspread","uncletopia"],"game_id":440,"stv_port":27046,"stv_name":"Uncletopia | Sydney | 4 | All Maps | STV","players":null},{"server_id":58,"name":"Uncletopia | Sydney | 5 | Stopwatch Beta","name_short":"syd-5","host":"syd-1.au.uncletopia.com","port":27055,"enabled":true,"region":"au","cc":"au","latitude":-33.865143,"longitude":151.2099,"reserved":0,"last_update":"0001-01-01T00:00:00Z","name_a2s":"Uncletopia | Sydney | 5 | Stopwatch Beta","protocol":17,"map":"koth_lakeside_final","folder":"tf","game":"Team Fortress","app_id":440,"player_count":0,"max_players":24,"Bots":0,"server_type":"Dedicated","server_os":"Linux","password":true,"vac":true,"version":"7757534","steam_id":85568392925397959,"keywords":["cp","nocrits","nodmgspread","uncletopia"],"game_id":440,"stv_port":27056,"stv_name":"Uncletopia | Sydney | 5 | Stopwatch Beta | STV","players":null},{"server_id":59,"name":"Uncletopia | Sydney | 6 | Community","name_short":"syd-6","host":"syd-1.au.uncletopia.com","port":27065,"enabled":true,"region":"au","cc":"au","latitude":-33.865143,"longitude":151.2099,"reserved":0,"last_update":"0001-01-01T00:00:00Z","name_a2s":"Uncletopia | Sydney | 6 | Community","protocol":17,"map":"workshop/pl_badwater_pro_v12.ugc2142942074","folder":"tf","game":"Team Fortress","app_id":440,"player_count":0,"max_players":24,"Bots":0,"server_type":"Dedicated","server_os":"Linux","password":true,"vac":true,"version":"7757534","steam_id":85568392925397960,"keywords":["nocrits","nodmgspread","payload","uncletopia"],"game_id":440,"stv_port":27066,"stv_name":"Uncletopia | Sydney | 6 | Community | STV","players":null},{"server_id":49,"name":"Uncletopia | Warsaw | 1 | All Maps","name_short":"waw-1","host":"waw-1.pl.uncletopia.com","port":27015,"enabled":true,"region":"eu","cc":"pl","latitude":52.2297,"longitude":21.017532,"reserved":0,"last_update":"0001-01-01T00:00:00Z","name_a2s":"","protocol":0,"map":"","folder":"","game":"","app_id":0,"player_count":0,"max_players":0,"Bots":0,"server_type":"","server_os":"","password":false,"vac":false,"version":"","steam_id":0,"keywords":null,"game_id":0,"stv_port":0,"stv_name":"","players":null},{"server_id":50,"name":"Uncletopia | Warsaw | 2 | All Maps","name_short":"waw-2","host":"waw-1.pl.uncletopia.com","port":27025,"enabled":true,"region":"eu","cc":"pl","latitude":52.2297,"longitude":21.017532,"reserved":0,"last_update":"0001-01-01T00:00:00Z","name_a2s":"Uncletopia | Warsaw | 2 | All Maps","protocol":17,"map":"koth_highpass","folder":"tf","game":"Team Fortress","app_id":440,"player_count":0,"max_players":24,"Bots":0,"server_type":"Dedicated","server_os":"Linux","password":true,"vac":true,"version":"7757534","steam_id":85568392925397851,"keywords":["cp","nocrits","nodmgspread","uncletopia"],"game_id":440,"stv_port":27026,"stv_name":"Uncletopia | Warsaw | 2 | All Maps | STV","players":null},{"server_id":51,"name":"Uncletopia | Warsaw | 3 | All Maps","name_short":"waw-3","host":"waw-1.pl.uncletopia.com","port":27035,"enabled":true,"region":"eu","cc":"pl","latitude":52.2297,"longitude":21.017532,"reserved":0,"last_update":"0001-01-01T00:00:00Z","name_a2s":"Uncletopia | Warsaw | 3 | All Maps","protocol":17,"map":"cp_dustbowl","folder":"tf","game":"Team Fortress","app_id":440,"player_count":0,"max_players":24,"Bots":0,"server_type":"Dedicated","server_os":"Linux","password":true,"vac":true,"version":"7757534","steam_id":85568392925397852,"keywords":["cp","nocrits","nodmgspread","uncletopia"],"game_id":440,"stv_port":27036,"stv_name":"Uncletopia | Warsaw | 3 | All Maps | STV","players":null},{"server_id":52,"name":"Uncletopia | Warsaw | 4 | All Maps","name_short":"waw-4","host":"waw-1.pl.uncletopia.com","port":27045,"enabled":true,"region":"eu","cc":"pl","latitude":52.2297,"longitude":21.017532,"reserved":0,"last_update":"0001-01-01T00:00:00Z","name_a2s":"Uncletopia | Warsaw | 4 | All Maps","protocol":17,"map":"pl_snowycoast","folder":"tf","game":"Team Fortress","app_id":440,"player_count":0,"max_players":24,"Bots":0,"server_type":"Dedicated","server_os":"Linux","password":true,"vac":true,"version":"7757534","steam_id":85568392925397853,"keywords":["nocrits","nodmgspread","payload","uncletopia"],"game_id":440,"stv_port":27046,"stv_name":"Uncletopia | Warsaw | 4 | All Maps | STV","players":null},{"server_id":53,"name":"Uncletopia | Warsaw | 5 | Stopwatch Beta","name_short":"waw-5","host":"waw-1.pl.uncletopia.com","port":27055,"enabled":true,"region":"eu","cc":"pl","latitude":52.2297,"longitude":21.017532,"reserved":0,"last_update":"0001-01-01T00:00:00Z","name_a2s":"Uncletopia | Warsaw | 5 | Stopwatch Beta","protocol":17,"map":"pl_barnblitz","folder":"tf","game":"Team Fortress","app_id":440,"player_count":0,"max_players":24,"Bots":0,"server_type":"Dedicated","server_os":"Linux","password":true,"vac":true,"version":"7757534","steam_id":85568392925397854,"keywords":["nocrits","nodmgspread","payload","uncletopia"],"game_id":440,"stv_port":27056,"stv_name":"Uncletopia | Warsaw | 5 | Stopwatch Beta | STV","players":null},{"server_id":54,"name":"Uncletopia | Warsaw | 6 | Community","name_short":"waw-6","host":"waw-1.pl.uncletopia.com","port":27065,"enabled":true,"region":"eu","cc":"pl","latitude":52.2297,"longitude":21.017532,"reserved":0,"last_update":"0001-01-01T00:00:00Z","name_a2s":"Uncletopia | Warsaw | 6 | Community","protocol":17,"map":"workshop/koth_ramjam_rc1.ugc459778887","folder":"tf","game":"Team Fortress","app_id":440,"player_count":6,"max_players":24,"Bots":0,"server_type":"Dedicated","server_os":"Linux","password":true,"vac":true,"version":"7757534","steam_id":85568392925397856,"keywords":["cp","nocrits","nodmgspread","uncletopia"],"game_id":440,"stv_port":27066,"stv_name":"Uncletopia | Warsaw | 6 | Community | STV","players":[{"user_id":3,"name":"Wicio„ÉÑ","steam_id":76561198855308827,"connected_time":390000000000,"state":"active","ping":46},{"user_id":4,"name":"Sebko„ÉÑ","steam_id":76561199039124704,"connected_time":387000000000,"state":"active","ping":54},{"user_id":5,"name":"fafikplayer","steam_id":76561199083737859,"connected_time":264000000000,"state":"active","ping":48},{"user_id":6,"name":"TSx* Osa__PL","steam_id":76561198027016799,"connected_time":30000000000,"state":"active","ping":45},{"user_id":7,"name":"TSx* Naxer","steam_id":76561198011986779,"connected_time":25000000000,"state":"active","ping":41},{"user_id":8,"name":"TSx* {Demon-Angel}","steam_id":76561198151486463,"connected_time":24000000000,"state":"active","ping":55}]}]}