{"status":true,"message":"","result":[{"server_id":2,"name":"Uncletopia | Chicago | 1 | All Maps","name_short":"chi-1","host":"chi-1.us.uncletopia.com","port":27015,"enabled":true,"region":"us-central","cc":"us","latitude":41.881832,"longitude":-87.62318,"reserved":0,"last_update":"0001-01-01T00:00:00Z","name_a2s":"Uncletopia | Chicago | 1 | All Maps","protocol":17,"map":"pl_frontier_final","folder":"tf","game":"Team Fortress","app_id":440,"player_count":24,"max_players":24,"Bots":0,"server_type":"Dedicated","server_os":"Linux","password":true,"vac":true,"version":"7932396","steam_id":85568392924469984,"keywords":["nocrits","nodmgspread","payload","uncletopia"],"game_id":440,"stv_port":27016,"stv_name":"Uncletopia | Chicago | 1 | All Maps | STV","players":[{"user_id":238,"name":"Quiet","steam_id":76561198119175817,"connected_time":5458000000000,"state":"active","ping":86},{"user_id":295,"name":"John Coltrane","steam_id":76561198037789297,"connected_time":366000000000,"state":"active","ping":114},{"user_id":296,"name":"Rein","steam_id":76561198300340427,"connected_time":251000000000,"state":"active","ping":58},{"user_id":281,"name":"Giorno_Giovanna","steam_id":76561199014402406,"connected_time":2248000000000,"state":"active","ping":67},{"user_id":206,"name":"Carl, Good to see you","steam_id":76561198070574075,"connected_time":8963000000000,"state":"active","ping":68},{"user_id":279,"name":"Scotty","steam_id":76561198268006443,"connected_time":2636000000000,"state":"active","ping":88},{"user_id":246,"name":"!mute","steam_id":76561198219209367,"connected_time":5355000000000,"state":"active","ping":59},{"user_id":201,"name":"Apetometrist","steam_id":76561198045391635,"connected_time":9318000000000,"state":"active","ping":61},{"user_id":285,"name":"Jackie_Lope","steam_id":76561198048297412,"connected_time":1958000000000,"state":"active","ping":52},{"user_id":280,"name":"TheAlmightyG","steam_id":76561198235946096,"connected_time":2573000000000,"state":"active","ping":95},{"user_id":291,"name":"LVL 4 Dispenser Gaming","steam_id":76561198044244547,"connected_time":1067000000000,"state":"active","ping":73},{"user_id":261,"name":"Morkmindy","steam_id":76561198065017954,"connected_time":4020000000000,"state":"active","ping":81},{"user_id":247,"name":"Swiftmend","steam_id":76561197995595692,"connected_time":5350000000000,"state":"active","ping":73},{"user_id":249,"name":"ᓀ‸ᓂ","steam_id":76561198046055673,"connected_time":5311000000000,"state":"active","ping":73},{"user_id":250,"name":"Kimba","steam_id":76561199092078325,"connected_time":5298000000000,"state":"active","ping":85},{"user_id":252,"name":"Stargazer","steam_id":76561198075490415,"connected_time":4700000000000,"state":"active","ping":64},{"user_id":292,"name":"Still Alive","steam_id":76561198042523000,"connected_time":1056000000000,"state":"active","ping":52},{"user_id":286,"name":"Your Local Queer Librarian","steam_id":76561198013077080,"connected_time":1596000000000,"state":"active","ping":49},{"user_id":266,"name":"alfajoor","steam_id":76561198968262613,"connected_time":3608000000000,"state":"active","ping":136},{"user_id":272,"name":"Quest For Prime Cuts","steam_id":76561198974286387,"connected_time":3208000000000,"state":"active","ping":72},{"user_id":287,"name":"The ghostly Piss MN","steam_id":76561198209197020,"connected_time":1489000000000,"state":"active","ping":65},{"user_id":268,"name":"I'm luvin dis here rap game $$$","steam_id":76561199127423378,"connected_time":3351000000000,"state":"active","ping":115},{"user_id":294,"name":"Im High","steam_id":76561198049954886,"connected_time":397000000000,"state":"active","ping":73},{"user_id":288,"name":"volta","steam_id":76561199214283884,"connected_time":1343000000000,"state":"active","ping":104}]},{"server_id":106,"name":"Uncletopia | Chicago | 2 | All Maps","name_short":"chi-2","host":"chi-1.us.uncletopia.com","port":27025,"enabled":true,"region":"us-central","cc":"us","latitude":41.881832,"longitude":-87.62318,"reserved":0,"last_update":"0001-01-01T00:00:00Z","name_a2s":"Uncletopia | Chicago | 2 | All Maps","protocol":17,"map":"pl_swiftwater_final1","folder":"tf","game":"Team Fortress","app_id":440,"player_count":24,"max_players":24,"Bots":0,"server_type":"Dedicated","server_os":"Linux","password":true,"vac":true,"version":"7932396","steam_id":85568392924469985,"keywords":["nocrits","nodmgspread","payload","uncletopia"],"game_id":440,"stv_port":27026,"stv_name":"Uncletopia | Chicago | 2 | All Maps | STV","players":[{"user_id":64,"name":"FamousAmos44","steam_id":76561197972253250,"connected_time":889000000000,"state":"active","ping":59},{"user_id":37,"name":"Fat Engi","steam_id":76561199243208497,"connected_time":3268000000000,"state":"active","ping":175},{"user_id":73,"name":"Trusty","steam_id":76561198035444237,"connected_time":231000000000,"state":"active","ping":60},{"user_id":70,"name":"echelon","steam_id":76561198139172979,"connected_time":639000000000,"state":"active","ping":102},{"user_id":74,"name":"Distraction","steam_id":76561199445895882,"connected_time":65000000000,"state":"active","ping":131},{"user_id":75,"name":"bigbeanman727","steam_id":76561199276518696,"connected_time":39000000000,"state":"active","ping":87},{"user_id":68,"name":"Dips","steam_id":76561198251975850,"connected_time":797000000000,"state":"active","ping":87},{"user_id":47,"name":"Sugahu17S","steam_id":76561198799403828,"connected_time":2095000000000,"state":"active","ping":48},{"user_id":14,"name":"Shady Businessman","steam_id":76561198143855968,"connected_time":4145000000000,"state":"active","ping":90},{"user_id":71,"name":"Voyager","steam_id":76561198803190521,"connected_time":465000000000,"state":"active","ping":60},{"user_id":16,"name":"civilian","steam_id":76561198289811981,"connected_time":4112000000000,"state":"active","ping":125},{"user_id":72,"name":"Skinny pete","steam_id":76561198801608576,"connected_time":377000000000,"state":"active","ping":74},{"user_id":58,"name":"Mercedes Benhart","steam_id":76561198131250808,"connected_time":1015000000000,"state":"active","ping":84},{"user_id":40,"name":"Scoter1009","steam_id":76561198315464837,"connected_time":3104000000000,"state":"active","ping":67},{"user_id":56,"name":"DualiTea","steam_id":76561198081733870,"connected_time":1614000000000,"state":"active","ping":58},{"user_id":22,"name":"VioletVixsyn","steam_id":76561198388575556,"connected_time":3999000000000,"state":"active","ping":75},{"user_id":67,"name":"Ⓑ⓪⓪ⓣⓨⓒⓐⓚⓔⓢ","steam_id":76561198088776421,"connected_time":837000000000,"state":"active","ping":61},{"user_id":59,"name":"exotic fishes","steam_id":76561199046490785,"connected_time":928000000000,"state":"active","ping":61},{"user_id":52,"name":"Epifiny","steam_id":76561198027958086,"connected_time":1947000000000,"state":"active","ping":78},{"user_id":46,"name":"big steve","steam_id":76561199037050183,"connected_time":2216000000000,"state":"active","ping":91},{"user_id":44,"name":"Nelson","steam_id":76561198850327678,"connected_time":2820000000000,"state":"active","ping":96},{"user_id":32,"name":"Punjabi \u003c3","steam_id":76561198982141827,"connected_time":3741000000000,"state":"active","ping":64},{"user_id":62,"name":"Zymiren","steam_id":76561198054985471,"connected_time":906000000000,"state":"active","ping":93}]},{"server_id":402,"name":"Uncletopia | Chicago | 3 | All Maps","name_short":"chi-3","host":"chi-1.us.uncletopia.com","port":27035,"enabled":true,"region":"us-central","cc":"us","latitude":41.881832,"longitude":-87.62318,"reserved":0,"last_update":"0001-01-01T00:00:00Z","name_a2s":"Uncletopia | Chicago | 3 | All Maps","protocol":17,"map":"pl_upward","folder":"tf","game":"Team Fortress","app_id":440,"player_count":0,"max_players":24,"Bots":0,"server_type":"Dedicated","server_os":"Linux","password":true,"vac":true,"version":"7932396","steam_id":85568392924515191,"keywords":["nocrits","nodmgspread","payload","uncletopia"],"game_id":440,"stv_port":27036,"stv_name":"Uncletopia | Chicago | 3 | All Maps | STV","players":null},{"server_id":403,"name":"Uncletopia | Chicago | 4 | All Maps","name_short":"chi-4","host":"chi-1.us.uncletopia.com","port":27045,"enabled":true,"region":"us-central","cc":"us","latitude":41.881832,"longitude":-87.62318,"reserved":0,"last_update":"0001-01-01T00:00:00Z","name_a2s":"Uncletopia | Chicago | 4 | All Maps","protocol":17,"map":"pl_frontier_final","folder":"tf","game":"Team Fortress","app_id":440,"player_count":24,"max_players":24,"Bots":0,"server_type":"Dedicated","server_os":"Linux","password":true,"vac":true,"version":"7932396","steam_id":85568392924515193,"keywords":["nocrits","nodmgspread","payload","uncletopia"],"game_id":440,"stv_port":27046,"stv_name":"Uncletopia | Chicago | 4 | All Maps | STV","players":[{"user_id":70,"name":"NikoOS (NO SOUND)","steam_id":76561198180020521,"connected_time":3759000000000,"state":"active","ping":162},{"user_id":105,"name":"ORACLE Aelkyr","steam_id":76561198112349210,"connected_time":93000000000,"state":"active","ping":136},{"user_id":106,"name":"Critscare","steam_id":76561198087712508,"connected_time":85000000000,"state":"active","ping":41},{"user_id":74,"name":"(no monitor) ayylien","steam_id":76561198042127970,"connected_time":3692000000000,"state":"active","ping":73},{"user_id":73,"name":"Charlotte","steam_id":76561198194975870,"connected_time":3705000000000,"state":"active","ping":71},{"user_id":94,"name":"caption cool","steam_id":76561197990612056,"connected_time":1444000000000,"state":"active","ping":46},{"user_id":62,"name":"nefarious criminal","steam_id":76561198077506415,"connected_time":4145000000000,"state":"active","ping":51},{"user_id":81,"name":"beats","steam_id":76561199245717718,"connected_time":3512000000000,"state":"active","ping":60},{"user_id":97,"name":"j - フライドチキン","steam_id":76561198061224922,"connected_time":516000000000,"state":"active","ping":72},{"user_id":58,"name":"Aeonspassed","steam_id":76561198014016451,"connected_time":4635000000000,"state":"active","ping":52},{"user_id":93,"name":"ZeroBiscuits","steam_id":76561199015600057,"connected_time":1484000000000,"state":"active","ping":66},{"user_id":75,"name":"ThePatheticMedic","steam_id":76561198873083105,"connected_time":3676000000000,"state":"active","ping":58},{"user_id":86,"name":"Malevo","steam_id":76561198148606522,"connected_time":2179000000000,"state":"active","ping":78},{"user_id":107,"name":"Tick","steam_id":76561198184161214,"connected_time":69000000000,"state":"active","ping":42},{"user_id":99,"name":"Sick The Disease","steam_id":76561199054591319,"connected_time":428000000000,"state":"active","ping":95},{"user_id":90,"name":"Provocator","steam_id":76561197961830410,"connected_time":1720000000000,"state":"active","ping":77},{"user_id":100,"name":"artixes","steam_id":76561198379574232,"connected_time":388000000000,"state":"active","ping":58},{"user_id":51,"name":"pea ttv/peabeanz","steam_id":76561198119551968,"connected_time":5253000000000,"state":"active","ping":81},{"user_id":78,"name":"Kobrakiddmeow","steam_id":76561198080696266,"connected_time":3662000000000,"state":"active","ping":86},{"user_id":101,"name":"King Sans","steam_id":76561198294198517,"connected_time":374000000000,"state":"active","ping":59},{"user_id":96,"name":"zabloinkus","steam_id":76561198069967245,"connected_time":773000000000,"state":"active","ping":98},{"user_id":35,"name":"AdorableMew","steam_id":76561198186706405,"connected_time":5868000000000,"state":"active","ping":71},{"user_id":102,"name":"William Wallace","steam_id":76561199343316814,"connected_time":370000000000,"state":"active","ping":82},{"user_id":88,"name":"mOoOoOoO","steam_id":76561198145615363,"connected_time":1985000000000,"state":"active","ping":105}]},{"server_id":36,"name":"Uncletopia | Chicago | 5 | All Maps","name_short":"chi-5","host":"chi-2.us.uncletopia.com","port":27015,"enabled":true,"region":"us-central","cc":"us","latitude":41.881832,"longitude":-87.62318,"reserved":0,"last_update":"0001-01-01T00:00:00Z","name_a2s":"Uncletopia | Chicago | 5 | All Maps","protocol":17,"map":"koth_cascade","folder":"tf","game":"Team Fortress","app_id":440,"player_count":0,"max_players":24,"Bots":0,"server_type":"Dedicated","server_os":"Linux","password":true,"vac":true,"version":"7932396","steam_id":85568392924866362,"keywords":["cp","nocrits","nodmgspread","uncletopia"],"game_id":440,"stv_port":27016,"stv_name":"Uncletopia | Chicago | 5 | All Maps | STV","players":null},{"server_id":37,"name":"Uncletopia | Chicago | 6 | All Maps","name_short":"chi-6","host":"chi-2.us.uncletopia.com","port":27025,"enabled":true,"region":"us-central","cc":"us","latitude":41.881832,"longitude":-87.62318,"reserved":0,"last_update":"0001-01-01T00:00:00Z","name_a2s":"Uncletopia | Chicago | 6 | All Maps","protocol":17,"map":"koth_viaduct","folder":"tf","game":"Team Fortress","app_id":440,"player_count":0,"max_players":24,"Bots":0,"server_type":"Dedicated","server_os":"Linux","password":true,"vac":true,"version":"7932396","steam_id":85568392924866363,"keywords":["cp","nocrits","nodmgspread","uncletopia"],"game_id":440,"stv_port":27026,"stv_name":"Uncletopia | Chicago | 6 | All Maps | STV","players":null},{"server_id":38,"name":"Uncletopia | Chicago | 7 | Stopwatch Beta","name_short":"chi-7","host":"chi-2.us.uncletopia.com","port":27035,"enabled":true,"region":"us-central","cc":"us","latitude":41.881832,"longitude":-87.62318,"reserved":0,"last_update":"0001-01-01T00:00:00Z","name_a2s":"Uncletopia | Chicago | 7 | Stopwatch Beta","protocol":17,"map":"pl_borneo","folder":"tf","game":"Team Fortress","app_id":440,"player_count":0,"max_players":24,"Bots":0,"server_type":"Dedicated","server_os":"Linux","password":true,"vac":true,"version":"7932396","steam_id":85568392924866364,"keywords":["nocrits","nodmgspread","payload","uncletopia"],"game_id":440,"stv_port":27036,"stv_name":"Uncletopia | Chicago | 7 | Stopwatch Beta | STV","players":null},{"server_id":39,"name":"Uncletopia | Chicago | 8 | Community","name_short":"chi-8","host":"chi-2.us.uncletopia.com","port":27045,"enabled":true,"region":"us-central","cc":"us","latitude":41.881832,"longitude":-87.62318,"reserved":0,"last_update":"0001-01-01T00:00:00Z","name_a2s":"Uncletopia | Chicago | 8 | Community","protocol":17,"map":"workshop/pl_badwater_pro_v12.ugc2142942074","folder":"tf","game":"Team Fortress","app_id":440,"player_count":16,"max_players":24,"Bots":0,"server_type":"Dedicated","server_os":"Linux","password":true,"vac":true,"version":"7932396","steam_id":85568392924866365,"keywords":["nocrits","nodmgspread","payload","uncletopia"],"game_id":440,"stv_port":27046,"stv_name":"Uncletopia | Chicago | 8 | Community | STV","players":[{"user_id":47,"name":"LordOfTheNoobs","steam_id":76561197962697523,"connected_time":14000000000,"state":"spawning","ping":178},{"user_id":42,"name":"Penser","steam_id":76561198798194358,"connected_time":173000000000,"state":"active","ping":67},{"user_id":16,"name":"NewGuy","steam_id":76561198968058652,"connected_time":2126000000000,"state":"active","ping":93},{"user_id":19,"name":"oomper","steam_id":76561199189982701,"connected_time":1433000000000,"state":"active","ping":46},{"user_id":20,"name":"coolguy","steam_id":76561199079292596,"connected_time":1341000000000,"state":"active","ping":80},{"user_id":38,"name":"Giant Joseph Fan Boy","steam_id":76561199230019748,"connected_time":421000000000,"state":"active","ping":75},{"user_id":22,"name":"Varie","steam_id":76561199454930210,"connected_time":1238000000000,"state":"active","ping":70},{"user_id":45,"name":"El Diablo Hijo","steam_id":76561197978525967,"connected_time":80000000000,"state":"active","ping":108},{"user_id":39,"name":"Riotdrone","steam_id":76561199012137105,"connected_time":260000000000,"state":"active","ping":350},{"user_id":27,"name":"the pest","steam_id":76561198826298849,"connected_time":939000000000,"state":"active","ping":92},{"user_id":28,"name":"ShadowWasUhOh","steam_id":76561198400361935,"connected_time":936000000000,"state":"active","ping":78},{"user_id":30,"name":"taCtaHpoT","steam_id":76561198152736160,"connected_time":807000000000,"state":"active","ping":52},{"user_id":40,"name":"THE PISS MASTER","steam_id":76561198359644859,"connected_time":235000000000,"state":"active","ping":160},{"user_id":41,"name":"Gutsavo the Branded  Espadachí","steam_id":76561198133608354,"connected_time":227000000000,"state":"active","ping":56},{"user_id":43,"name":"Sunshine","steam_id":76561198885528098,"connected_time":127000000000,"state":"active","ping":61},{"user_id":46,"name":"airballer","steam_id":76561198165899125,"connected_time":63000000000,"state":"active","ping":61}]},{"server_id":8,"name":"Uncletopia | Dallas | 1 | All Maps","name_short":"dal-1","host":"dal-1.us.uncletopia.com","port":27015,"enabled":true,"region":"us-central","cc":"us","latitude":32.779167,"longitude":-96.80889,"reserved":0,"last_update":"0001-01-01T00:00:00Z","name_a2s":"Uncletopia | Dallas | 1 | All Maps","protocol":17,"map":"pl_pier","folder":"tf","game":"Team Fortress","app_id":440,"player_count":22,"max_players":24,"Bots":0,"server_type":"Dedicated","server_os":"Linux","password":true,"vac":true,"version":"7932396","steam_id":85568392924469986,"keywords":["nocrits","nodmgspread","payload","uncletopia"],"game_id":440,"stv_port":27016,"stv_name":"Uncletopia | Dallas | 1 | All Maps | STV","players":[{"user_id":5,"name":"Sahbi (she/they)","steam_id":76561199196292242,"connected_time":2316000000000,"state":"active","ping":57},{"user_id":6,"name":"Lazy Bones","steam_id":76561198198928941,"connected_time":2117000000000,"state":"active","ping":74},{"user_id":7,"name":"Brian Williams","steam_id":76561198055586865,"connected_time":1813000000000,"state":"active","ping":82},{"user_id":8,"name":"Minlit","steam_id":76561198205832799,"connected_time":1619000000000,"state":"active","ping":47},{"user_id":11,"name":"thedittofemboy \u003c3","steam_id":76561199013129784,"connected_time":1317000000000,"state":"active","ping":53},{"user_id":10,"name":"lucky","steam_id":76561198323426623,"connected_time":1374000000000,"state":"active","ping":89},{"user_id":12,"name":"Compress Dong","steam_id":76561198018950826,"connected_time":1257000000000,"state":"active","ping":80},{"user_id":13,"name":"Boomer Gaming","steam_id":76561198037803087,"connected_time":1166000000000,"state":"active","ping":63},{"user_id":14,"name":"avumenes","steam_id":76561199085145396,"connected_time":1053000000000,"state":"active","ping":115},{"user_id":15,"name":"AwesomeAEA","steam_id":76561198303978260,"connected_time":940000000000,"state":"active","ping":106},{"user_id":16,"name":"Grandpa 1MinecraftEmpire","steam_id":76561198069046338,"connected_time":817000000000,"state":"active","ping":72},{"user_id":17,"name":"Skrunkly","steam_id":76561198241629912,"connected_time":780000000000,"state":"active","ping":127},{"user_id":18,"name":"zinnk","steam_id":76561198092081825,"connected_time":648000000000,"state":"active","ping":86},{"user_id":21,"name":"Deaddropping","steam_id":76561198043711366,"connected_time":484000000000,"state":"active","ping":75},{"user_id":20,"name":"Curried Rice","steam_id":76561198073324894,"connected_time":506000000000,"state":"active","ping":69},{"user_id":22,"name":"Engideer","steam_id":76561198145733164,"connected_time":441000000000,"state":"active","ping":44},{"user_id":23,"name":"Starkiller","steam_id":76561198101643120,"connected_time":333000000000,"state":"active","ping":45},{"user_id":24,"name":"Bombat","steam_id":76561198083096946,"connected_time":326000000000,"state":"active","ping":110},{"user_id":25,"name":"King of the Fishies","steam_id":76561198223901168,"connected_time":311000000000,"state":"active","ping":72},{"user_id":26,"name":"Mat-Shades","steam_id":76561198013998031,"connected_time":305000000000,"state":"active","ping":89},{"user_id":28,"name":"❤ Dolphiniz ❤","steam_id":76561199093367765,"connected_time":192000000000,"state":"active","ping":74},{"user_id":30,"name":"Galvarg","steam_id":76561198189877771,"connected_time":165000000000,"state":"active","ping":71}]},{"server_id":108,"name":"Uncletopia | Dallas | 2 | All Maps","name_short":"dal-2","host":"dal-1.us.uncletopia.com","port":27025,"enabled":true,"region":"us-central","cc":"us","latitude":32.779167,"longitude":-96.80889,"reserved":0,"last_update":"0001-01-01T00:00:00Z","name_a2s":"Uncletopia | Dallas | 2 | All Maps","protocol":17,"map":"cp_mountainlab","folder":"tf","game":"Team Fortress","app_id":440,"player_count":0,"max_players":24,"Bots":0,"server_type":"Dedicated","server_os":"Linux","password":true,"vac":true,"version":"7932396","steam_id":85568392924469988,"keywords":["cp","nocrits","nodmgspread","uncletopia"],"game_id":440,"stv_port":27026,"stv_name":"Uncletopia | Dallas | 2 | All Maps | STV","players":null},{"server_id":5,"name":"Uncletopia | Frankfurt | 1 | All Maps","name_short":"frk-1","host":"frk-1.de.uncletopia.com","port":27015,"enabled":true,"region":"eu","cc":"de","latitude":50.110924,"longitude":8.682127,"reserved":0,"last_update":"0001-01-01T00:00:00Z","name_a2s":"Uncletopia | Frankfurt | 1 | All Maps","protocol":17,"map":"pl_borneo","folder":"tf","game":"Team Fortress","app_id":440,"player_count":24,"max_players":24,"Bots":0,"server_type":"Dedicated","server_os":"Linux","password":true,"vac":true,"version":"7932396","steam_id":85568392924469989,"keywords":["nocrits","nodmgspread","payload","uncletopia"],"game_id":440,"stv_port":27016,"stv_name":"Uncletopia | Frankfurt | 1 | All Maps | STV","players":[{"user_id":264,"name":"dylu","steam_id":76561199127788008,"connected_time":384000000000,"state":"active","ping":75},{"user_id":255,"name":"HentaiEnjoyer","steam_id":76561198148361982,"connected_time":1296000000000,"state":"active","ping":56},{"user_id":269,"name":"Mimic","steam_id":76561199204932956,"connected_time":267000000000,"state":"active","ping":45},{"user_id":278,"name":"BRICK TOP","steam_id":76561198014366715,"connected_time":54000000000,"state":"active","ping":60},{"user_id":214,"name":"Chilchuck","steam_id":76561198432445254,"connected_time":3021000000000,"state":"active","ping":177},{"user_id":253,"name":"Mr.Duck","steam_id":76561197983710667,"connected_time":1386000000000,"state":"active","ping":76},{"user_id":257,"name":"Borlor","steam_id":76561198206059604,"connected_time":1195000000000,"state":"active","ping":53},{"user_id":226,"name":"elmstJP ₪ F4.exe","steam_id":76561197997909480,"connected_time":2501000000000,"state":"active","ping":75},{"user_id":228,"name":"CouT1nho","steam_id":76561198203926376,"connected_time":2441000000000,"state":"active","ping":52},{"user_id":270,"name":"Toaster1337","steam_id":76561198103706881,"connected_time":259000000000,"state":"active","ping":65},{"user_id":267,"name":"no one","steam_id":76561198438741909,"connected_time":349000000000,"state":"active","ping":77},{"user_id":279,"name":"miiq130","steam_id":76561198188010666,"connected_time":50000000000,"state":"active","ping":76},{"user_id":268,"name":"john fortress","steam_id":76561198013237629,"connected_time":340000000000,"state":"active","ping":106},{"user_id":245,"name":"RiX","steam_id":76561197969053733,"connected_time":1971000000000,"state":"active","ping":70},{"user_id":192,"name":"Spy is Sapping my Sandwich","steam_id":76561198011840096,"connected_time":4823000000000,"state":"active","ping":70},{"user_id":277,"name":"mysql123324","steam_id":76561199487635761,"connected_time":174000000000,"state":"active","ping":64},{"user_id":272,"name":"Dyfed","steam_id":76561198055389492,"connected_time":230000000000,"state":"active","ping":54},{"user_id":273,"name":"maslowski02","steam_id":76561199410835527,"connected_time":229000000000,"state":"active","ping":68},{"user_id":204,"name":"villagerpl4","steam_id":76561199490067804,"connected_time":3610000000000,"state":"active","ping":104},{"user_id":250,"name":"Kron Krian","steam_id":76561198122541754,"connected_time":1725000000000,"state":"active","ping":73},{"user_id":274,"name":"jt7","steam_id":76561198073655162,"connected_time":220000000000,"state":"active","ping":71},{"user_id":275,"name":"Qwerty","steam_id":76561198023525894,"connected_time":220000000000,"state":"active","ping":91},{"user_id":280,"name":"TAFI03","steam_id":76561198213082089,"connected_time":47000000000,"state":"active","ping":56},{"user_id":276,"name":"Nessieling","steam_id":76561198083556891,"connected_time":216000000000,"state":"active","ping":91}]},{"server_id":110,"name":"Uncletopia | Frankfurt | 2 | All Maps","name_short":"frk-2","host":"frk-1.de.uncletopia.com","port":27025,"enabled":true,"region":"eu","cc":"de","latitude":50.110924,"longitude":8.682127,"reserved":0,"last_update":"0001-01-01T00:00:00Z","name_a2s":"Uncletopia | Frankfurt | 2 | All Maps","protocol":17,"map":"koth_harvest_final","folder":"tf","game":"Team Fortress","app_id":440,"player_count":0,"max_players":24,"Bots":0,"server_type":"Dedicated","server_os":"Linux","password":true,"vac":true,"version":"7932396","steam_id":85568392924469990,"keywords":["cp","nocrits","nodmgspread","uncletopia"],"game_id":440,"stv_port":27026,"stv_name":"Uncletopia | Frankfurt | 2 | All Maps | STV","players":null},{"server_id":308,"name":"Uncletopia | Frankfurt | 3 | All Maps","name_short":"frk-3","host":"frk-1.de.uncletopia.com","port":27035,"enabled":true,"region":"eu","cc":"de","latitude":50.110924,"longitude":8.682127,"reserved":0,"last_update":"0001-01-01T00:00:00Z","name_a2s":"Uncletopia | Frankfurt | 3 | All Maps","protocol":17,"map":"cp_snakewater_final1","folder":"tf","game":"Team Fortress","app_id":440,"player_count":4,"max_players":24,"Bots":0,"server_type":"Dedicated","server_os":"Linux","password":true,"vac":true,"version":"7932396","steam_id":85568392924504274,"keywords":["cp","nocrits","nodmgspread","uncletopia"],"game_id":440,"stv_port":27036,"stv_name":"Uncletopia | Frankfurt | 3 | All Maps | STV","players":[{"user_id":442,"name":"not1tosettle","steam_id":76561198171617571,"connected_time":234000000000,"state":"active","ping":151},{"user_id":447,"name":"Frigorito","steam_id":76561198339372896,"connected_time":0,"state":"spawning","ping":20},{"user_id":446,"name":"HikiPelaaja","steam_id":76561198146333046,"connected_time":39000000000,"state":"active","ping":69},{"user_id":444,"name":"Quiet Kid","steam_id":76561199134800446,"connected_time":161000000000,"state":"active","ping":105}]},{"server_id":309,"name":"Uncletopia | Frankfurt | 4 | All Maps","name_short":"frk-4","host":"frk-1.de.uncletopia.com","port":27045,"enabled":true,"region":"eu","cc":"de","latitude":50.110924,"longitude":8.682127,"reserved":0,"last_update":"0001-01-01T00:00:00Z","name_a2s":"Uncletopia | Frankfurt | 4 | All Maps","protocol":17,"map":"pl_borneo","folder":"tf","game":"Team Fortress","app_id":440,"player_count":24,"max_players":24,"Bots":0,"server_type":"Dedicated","server_os":"Linux","password":true,"vac":true,"version":"7932396","steam_id":85568392924504275,"keywords":["nocrits","nodmgspread","payload","uncletopia"],"game_id":440,"stv_port":27046,"stv_name":"Uncletopia | Frankfurt | 4 | All Maps | STV","players":[{"user_id":302,"name":"Suetolog","steam_id":76561199053090212,"connected_time":178000000000,"state":"active","ping":47},{"user_id":304,"name":"MRKripo","steam_id":76561198125423512,"connected_time":60000000000,"state":"active","ping":118},{"user_id":305,"name":"kissing is yuck","steam_id":76561198170609049,"connected_time":59000000000,"state":"active","ping":90},{"user_id":276,"name":"le'pablo","steam_id":76561199009805208,"connected_time":1477000000000,"state":"active","ping":102},{"user_id":294,"name":"Confused1221","steam_id":76561199061802741,"connected_time":377000000000,"state":"active","ping":69},{"user_id":285,"name":"Vivon","steam_id":76561198830042245,"connected_time":862000000000,"state":"active","ping":125},{"user_id":286,"name":"hisham","steam_id":76561198414437290,"connected_time":848000000000,"state":"active","ping":109},{"user_id":299,"name":"Spoony","steam_id":76561198144204860,"connected_time":249000000000,"state":"active","ping":74},{"user_id":295,"name":"Fizzing Fool","steam_id":76561198425415033,"connected_time":374000000000,"state":"active","ping":108},{"user_id":274,"name":"mixxxa_french","steam_id":76561198085098243,"connected_time":1562000000000,"state":"active","ping":112},{"user_id":284,"name":"boykisser","steam_id":76561198024960364,"connected_time":916000000000,"state":"active","ping":44},{"user_id":264,"name":"Javascript best language","steam_id":76561198097507847,"connected_time":2686000000000,"state":"active","ping":76},{"user_id":308,"name":"poor men promises","steam_id":76561198864327475,"connected_time":19000000000,"state":"active","ping":110},{"user_id":297,"name":"puuksu_mees7","steam_id":76561198022616643,"connected_time":372000000000,"state":"active","ping":76},{"user_id":269,"name":"Diamhair","steam_id":76561198109020178,"connected_time":2587000000000,"state":"active","ping":72},{"user_id":287,"name":"Kestrel","steam_id":76561198144033005,"connected_time":840000000000,"state":"active","ping":61},{"user_id":292,"name":"Happy Cat","steam_id":76561198405359788,"connected_time":700000000000,"state":"active","ping":94},{"user_id":301,"name":"r06u3","steam_id":76561198254099253,"connected_time":190000000000,"state":"active","ping":164},{"user_id":262,"name":"beeb","steam_id":76561198211644077,"connected_time":2921000000000,"state":"active","ping":75},{"user_id":272,"name":"C#","steam_id":76561198067204908,"connected_time":2548000000000,"state":"active","ping":74},{"user_id":309,"name":"Lyra","steam_id":76561198043601838,"connected_time":18000000000,"state":"active","ping":70},{"user_id":281,"name":"Nobaddy","steam_id":76561198037871007,"connected_time":1386000000000,"state":"active","ping":88},{"user_id":303,"name":"urskiskurskis","steam_id":76561198107767058,"connected_time":178000000000,"state":"active","ping":89},{"user_id":307,"name":"Yelowchy","steam_id":76561198199416121,"connected_time":58000000000,"state":"active","ping":65}]},{"server_id":310,"name":"Uncletopia | Frankfurt | 5 | All Maps","name_short":"frk-5","host":"frk-1.de.uncletopia.com","port":27055,"enabled":true,"region":"eu","cc":"de","latitude":50.110924,"longitude":8.682127,"reserved":0,"last_update":"0001-01-01T00:00:00Z","name_a2s":"Uncletopia | Frankfurt | 5 | All Maps","protocol":17,"map":"koth_cascade","folder":"tf","game":"Team Fortress","app_id":440,"player_count":0,"max_players":24,"Bots":0,"server_type":"Dedicated","server_os":"Linux","password":true,"vac":true,"version":"7932396","steam_id":85568392924504277,"keywords":["cp","nocrits","nodmgspread","uncletopia"],"game_id":440,"stv_port":27056,"stv_name":"Uncletopia | Frankfurt | 5 | All Maps | STV","players":null},{"server_id":311,"name":"Uncletopia | Frankfurt | 6 | All Maps","name_short":"frk-6","host":"frk-1.de.uncletopia.com","port":27065,"enabled":true,"region":"eu","cc":"de","latitude":50.110924,"longitude":8.682127,"reserved":0,"last_update":"0001-01-01T00:00:00Z","name_a2s":"Uncletopia | Frankfurt | 6 | All Maps","protocol":17,"map":"koth_viaduct","folder":"tf","game":"Team Fortress","app_id":440,"player_count":0,"max_players":24,"Bots":0,"server_type":"Dedicated","server_os":"Linux","password":true,"vac":true,"version":"7932396","steam_id":85568392924504278,"keywords":["cp","nocrits","nodmgspread","uncletopia"],"game_id":440,"stv_port":27066,"stv_name":"Uncletopia | Frankfurt | 6 | All Maps | STV","players":null},{"server_id":23,"name":"Uncletopia | Frankfurt | 7 | Stopwatch Beta","name_short":"frk-7","host":"frk-1.de.uncletopia.com","port":27075,"enabled":true,"region":"eu","cc":"de","latitude":50.110924,"longitude":8.682127,"reserved":0,"last_update":"0001-01-01T00:00:00Z","name_a2s":"Uncletopia | Frankfurt | 7 | Stopwatch Beta","protocol":17,"map":"pl_snowycoast","folder":"tf","game":"Team Fortress","app_id":440,"player_count":0,"max_players":24,"Bots":0,"server_type":"Dedicated","server_os":"Linux","password":true,"vac":true,"version":"7932396","steam_id":85568392924742827,"keywords":["nocrits","nodmgspread","payload","uncletopia"],"game_id":440,"stv_port":27076,"stv_name":"Uncletopia | Frankfurt | 7 | Stopwatch Beta | STV","players":null},{"server_id":24,"name":"Uncletopia | Frankfurt | 8 | Community","name_short":"frk-8","host":"frk-1.de.uncletopia.com","port":27085,"enabled":true,"region":"eu","cc":"de","latitude":50.110924,"longitude":8.682127,"reserved":0,"last_update":"0001-01-01T00:00:00Z","name_a2s":"Uncletopia | Frankfurt | 8 | Community","protocol":17,"map":"workshop/koth_bagel_rc6.ugc2514036946","folder":"tf","game":"Team Fortress","app_id":440,"player_count":0,"max_players":24,"Bots":0,"server_type":"Dedicated","server_os":"Linux","password":true,"vac":true,"version":"7932396","steam_id":85568392924742828,"keywords":["cp","nocrits","nodmgspread","uncletopia"],"game_id":440,"stv_port":27086,"stv_name":"Uncletopia | Frankfurt | 8 | Community | STV","players":null},{"server_id":202,"name":"Uncletopia | Hong Kong | 1 | All Maps","name_short":"hgk-1","host":"hgk-1.hk.uncletopia.com","port":27015,"enabled":true,"region":"asia","cc":"hk","latitude":22.302711,"longitude":114.177216,"reserved":0,"last_update":"0001-01-01T00:00:00Z","name_a2s":"Uncletopia | Hong Kong | 1 | All Maps","protocol":17,"map":"pl_upward","folder":"tf","game":"Team Fortress","app_id":440,"player_count":5,"max_players":24,"Bots":0,"server_type":"Dedicated","server_os":"Linux","password":true,"vac":true,"version":"7932396","steam_id":85568392924494504,"keywords":["nocrits","nodmgspread","payload","uncletopia"],"game_id":440,"stv_port":27016,"stv_name":"Uncletopia | Hong Kong | 1 | All Maps | STV","players":[{"user_id":330,"name":"vikadavid55555","steam_id":76561199481784641,"connected_time":123000000000,"state":"connecting","ping":298},{"user_id":320,"name":"Taiwan","steam_id":76561198049849067,"connected_time":1246000000000,"state":"active","ping":87},{"user_id":232,"name":"母の肉団子@hao123.com","steam_id":76561198069561896,"connected_time":10636000000000,"state":"active","ping":31},{"user_id":317,"name":"Shibe009 (F2P)","steam_id":76561199118649916,"connected_time":1485000000000,"state":"active","ping":161},{"user_id":308,"name":"s4(nazuna)","steam_id":76561198173486463,"connected_time":2355000000000,"state":"active","ping":41}]},{"server_id":1,"name":"Uncletopia | Los Angeles | 1 | All Maps","name_short":"lax-1","host":"lax-1.us.uncletopia.com","port":27015,"enabled":true,"region":"us-west","cc":"us","latitude":33.94279,"longitude":-118.41004,"reserved":0,"last_update":"0001-01-01T00:00:00Z","name_a2s":"Uncletopia | Los Angeles | 1 | All Maps","protocol":17,"map":"cp_process_final","folder":"tf","game":"Team Fortress","app_id":440,"player_count":0,"max_players":24,"Bots":0,"server_type":"Dedicated","server_os":"Linux","password":true,"vac":true,"version":"7932396","steam_id":85568392924469991,"keywords":["cp","nocrits","nodmgspread","uncletopia"],"game_id":440,"stv_port":27016,"stv_name":"Uncletopia | Los Angeles | 1 | All Maps | STV","players":null},{"server_id":112,"name":"Uncletopia | Los Angeles | 2 | All Maps","name_short":"lax-2","host":"lax-1.us.uncletopia.com","port":27025,"enabled":true,"region":"us-west","cc":"us","latitude":33.94279,"longitude":-118.41004,"reserved":0,"last_update":"0001-01-01T00:00:00Z","name_a2s":"Uncletopia | Los Angeles | 2 | All Maps","protocol":17,"map":"pl_borneo","folder":"tf","game":"Team Fortress","app_id":440,"player_count":0,"max_players":24,"Bots":0,"server_type":"Dedicated","server_os":"Linux","password":true,"vac":true,"version":"7932396","steam_id":85568392924469992,"keywords":["nocrits","nodmgspread","payload","uncletopia"],"game_id":440,"stv_port":27026,"stv_name":"Uncletopia | Los Angeles | 2 | All Maps | STV","players":null},{"server_id":324,"name":"Uncletopia | Los Angeles | 3 | All Maps","name_short":"lax-3","host":"lax-1.us.uncletopia.com","port":27035,"enabled":true,"region":"us-west","cc":"us","latitude":33.94279,"longitude":-118.41004,"reserved":0,"last_update":"0001-01-01T00:00:00Z","name_a2s":"Uncletopia | Los Angeles | 3 | All Maps","protocol":17,"map":"pl_borneo","folder":"tf","game":"Team Fortress","app_id":440,"player_count":0,"max_players":24,"Bots":0,"server_type":"Dedicated","server_os":"Linux","password":true,"vac":true,"version":"7932396","steam_id":85568392924510198,"keywords":["nocrits","nodmgspread","payload","uncletopia"],"game_id":440,"stv_port":27036,"stv_name":"Uncletopia | Los Angeles | 3 | All Maps | STV","players":null},{"server_id":25,"name":"Uncletopia | Los Angeles | 4 | Stopwatch Beta","name_short":"lax-4","host":"lax-1.us.uncletopia.com","port":27045,"enabled":true,"region":"us-west","cc":"us","latitude":33.94279,"longitude":-118.41004,"reserved":0,"last_update":"0001-01-01T00:00:00Z","name_a2s":"Uncletopia | Los Angeles | 4 | Stopwatch Beta","protocol":17,"map":"cp_altitude","folder":"tf","game":"Team Fortress","app_id":440,"player_count":0,"max_players":24,"Bots":0,"server_type":"Dedicated","server_os":"Linux","password":true,"vac":true,"version":"7932396","steam_id":85568392924510199,"keywords":["cp","nocrits","nodmgspread","uncletopia"],"game_id":440,"stv_port":27046,"stv_name":"Uncletopia | Los Angeles | 4 | Stopwatch Beta | STV","players":null},{"server_id":11,"name":"Uncletopia | London | 1 | All Maps","name_short":"lon-1","host":"lon-1.uk.uncletopia.com","port":27015,"enabled":true,"region":"eu","cc":"gb","latitude":51.509865,"longitude":-0.118092,"reserved":0,"last_update":"0001-01-01T00:00:00Z","name_a2s":"Uncletopia | London | 1 | All Maps","protocol":17,"map":"cp_dustbowl","folder":"tf","game":"Team Fortress","app_id":440,"player_count":24,"max_players":24,"Bots":0,"server_type":"Dedicated","server_os":"Linux","password":true,"vac":true,"version":"7932396","steam_id":85568392924367362,"keywords":["cp","nocrits","nodmgspread","uncletopia"],"game_id":440,"stv_port":27016,"stv_name":"Uncletopia | London | 1 | All Maps | STV","players":[{"user_id":211,"name":"Comeraghed","steam_id":76561198342373255,"connected_time":177000000000,"state":"active","ping":50},{"user_id":168,"name":"Caerot","steam_id":76561198839000676,"connected_time":1926000000000,"state":"active","ping":62},{"user_id":166,"name":"Bobbegaard","steam_id":76561199425101629,"connected_time":1942000000000,"state":"active","ping":69},{"user_id":74,"name":"fecal incident","steam_id":76561198086770023,"connected_time":9625000000000,"state":"active","ping":68},{"user_id":202,"name":"After8","steam_id":76561198090750865,"connected_time":320000000000,"state":"active","ping":61},{"user_id":203,"name":"Risinger","steam_id":76561198079789688,"connected_time":316000000000,"state":"active","ping":60},{"user_id":195,"name":"fshfkr","steam_id":76561198095979282,"connected_time":762000000000,"state":"active","ping":41},{"user_id":209,"name":"Boxtrot","steam_id":76561198026321441,"connected_time":247000000000,"state":"active","ping":72},{"user_id":199,"name":"scott steiners strongest warrio","steam_id":76561198148888622,"connected_time":336000000000,"state":"active","ping":59},{"user_id":189,"name":"Croy","steam_id":76561197972552579,"connected_time":1270000000000,"state":"active","ping":43},{"user_id":186,"name":"ACur","steam_id":76561198880488491,"connected_time":1334000000000,"state":"active","ping":69},{"user_id":217,"name":"Rat King","steam_id":76561198256783599,"connected_time":96000000000,"state":"active","ping":57},{"user_id":215,"name":"Lewylow","steam_id":76561198005425686,"connected_time":115000000000,"state":"active","ping":57},{"user_id":83,"name":"halow","steam_id":76561198061505163,"connected_time":8990000000000,"state":"active","ping":101},{"user_id":184,"name":"Whackyone5588","steam_id":76561198846242972,"connected_time":1358000000000,"state":"active","ping":114},{"user_id":163,"name":"7Tales","steam_id":76561198121572869,"connected_time":1960000000000,"state":"active","ping":52},{"user_id":192,"name":"jermany","steam_id":76561198126599355,"connected_time":1113000000000,"state":"active","ping":57},{"user_id":196,"name":"Toofy","steam_id":76561197989727907,"connected_time":693000000000,"state":"active","ping":38},{"user_id":201,"name":"Chillrend | #SaveTF2","steam_id":76561198452963141,"connected_time":329000000000,"state":"active","ping":89},{"user_id":139,"name":"png.png","steam_id":76561198444446521,"connected_time":4370000000000,"state":"active","ping":107},{"user_id":210,"name":"mr bones","steam_id":76561199004370870,"connected_time":231000000000,"state":"active","ping":61},{"user_id":214,"name":"FoxRealGaming","steam_id":76561199363992142,"connected_time":167000000000,"state":"active","ping":96},{"user_id":205,"name":"Floris","steam_id":76561198001717422,"connected_time":306000000000,"state":"active","ping":60},{"user_id":206,"name":"perry the platypus","steam_id":76561199379159771,"connected_time":306000000000,"state":"active","ping":126}]},{"server_id":114,"name":"Uncletopia | London | 2 | All Maps","name_short":"lon-2","host":"lon-1.uk.uncletopia.com","port":27025,"enabled":true,"region":"eu","cc":"gb","latitude":51.509865,"longitude":-0.118092,"reserved":0,"last_update":"0001-01-01T00:00:00Z","name_a2s":"Uncletopia | London | 2 | All Maps","protocol":17,"map":"koth_highpass","folder":"tf","game":"Team Fortress","app_id":440,"player_count":10,"max_players":24,"Bots":0,"server_type":"Dedicated","server_os":"Linux","password":true,"vac":true,"version":"7932396","steam_id":85568392924470941,"keywords":["cp","nocrits","nodmgspread","uncletopia"],"game_id":440,"stv_port":27026,"stv_name":"Uncletopia | London | 2 | All Maps | STV","players":[{"user_id":10,"name":"2fort's silliest soldier","steam_id":76561198128613675,"connected_time":921000000000,"state":"active","ping":140},{"user_id":11,"name":"Xenowolfraptor","steam_id":76561199085273567,"connected_time":803000000000,"state":"active","ping":96},{"user_id":13,"name":"Undefined Behaviour","steam_id":76561198069518492,"connected_time":565000000000,"state":"active","ping":86},{"user_id":14,"name":"strideΔ","steam_id":76561199007826093,"connected_time":493000000000,"state":"active","ping":86},{"user_id":15,"name":"LemonLeCitron","steam_id":76561198215545267,"connected_time":391000000000,"state":"active","ping":66},{"user_id":19,"name":"Rez","steam_id":76561198410598772,"connected_time":87000000000,"state":"active","ping":43},{"user_id":17,"name":"yell_cup","steam_id":76561199482507575,"connected_time":230000000000,"state":"active","ping":85},{"user_id":18,"name":"nemelex","steam_id":76561198958005865,"connected_time":164000000000,"state":"active","ping":58},{"user_id":20,"name":"Merinos","steam_id":76561199064150546,"connected_time":68000000000,"state":"active","ping":94},{"user_id":22,"name":"geralde","steam_id":76561198454317908,"connected_time":6000000000,"state":"spawning","ping":76}]},{"server_id":320,"name":"Uncletopia | London | 3 | All Maps","name_short":"lon-3","host":"lon-1.uk.uncletopia.com","port":27035,"enabled":true,"region":"eu","cc":"gb","latitude":51.509865,"longitude":-0.118092,"reserved":0,"last_update":"0001-01-01T00:00:00Z","name_a2s":"Uncletopia | London | 3 | All Maps","protocol":17,"map":"koth_viaduct","folder":"tf","game":"Team Fortress","app_id":440,"player_count":0,"max_players":24,"Bots":0,"server_type":"Dedicated","server_os":"Linux","password":true,"vac":true,"version":"7932396","steam_id":85568392924510192,"keywords":["cp","nocrits","nodmgspread","uncletopia"],"game_id":440,"stv_port":27036,"stv_name":"Uncletopia | London | 3 | All Maps | STV","players":null},{"server_id":321,"name":"Uncletopia | London | 4 | All Maps","name_short":"lon-4","host":"lon-1.uk.uncletopia.com","port":27045,"enabled":true,"region":"eu","cc":"gb","latitude":51.509865,"longitude":-0.118092,"reserved":0,"last_update":"0001-01-01T00:00:00Z","name_a2s":"Uncletopia | London | 4 | All Maps","protocol":17,"map":"cp_snakewater_final1","folder":"tf","game":"Team Fortress","app_id":440,"player_count":2,"max_players":24,"Bots":0,"server_type":"Dedicated","server_os":"Linux","password":true,"vac":true,"version":"7932396","steam_id":85568392924510193,"keywords":["cp","nocrits","nodmgspread","uncletopia"],"game_id":440,"stv_port":27046,"stv_name":"Uncletopia | London | 4 | All Maps | STV","players":[{"user_id":191,"name":"Lwyz016","steam_id":76561199164626058,"connected_time":2000000000,"state":"spawning","ping":63},{"user_id":190,"name":"Silverstorm","steam_id":76561198118175267,"connected_time":380000000000,"state":"active","ping":69}]},{"server_id":21,"name":"Uncletopia | London | 5 | All Maps","name_short":"lon-5","host":"lon-1.uk.uncletopia.com","port":27055,"enabled":true,"region":"eu","cc":"gb","latitude":51.509865,"longitude":-0.118092,"reserved":0,"last_update":"0001-01-01T00:00:00Z","name_a2s":"Uncletopia | London | 5 | All Maps","protocol":17,"map":"pl_badwater","folder":"tf","game":"Team Fortress","app_id":440,"player_count":24,"max_players":24,"Bots":0,"server_type":"Dedicated","server_os":"Linux","password":true,"vac":true,"version":"7932396","steam_id":85568392924742829,"keywords":["nocrits","nodmgspread","payload","uncletopia"],"game_id":440,"stv_port":27056,"stv_name":"Uncletopia | London | 5 | All Maps | STV","players":[{"user_id":294,"name":"Ran33","steam_id":76561197991474499,"connected_time":1168000000000,"state":"active","ping":90},{"user_id":259,"name":"[☁]Emiel","steam_id":76561198063814219,"connected_time":3785000000000,"state":"active","ping":54},{"user_id":293,"name":"PrinsJohan","steam_id":76561198827496915,"connected_time":1176000000000,"state":"active","ping":101},{"user_id":112,"name":"wal","steam_id":76561198066043883,"connected_time":15728000000000,"state":"active","ping":46},{"user_id":267,"name":"trampampoline","steam_id":76561198121286517,"connected_time":3165000000000,"state":"active","ping":30},{"user_id":114,"name":"Naix","steam_id":76561198053893077,"connected_time":15576000000000,"state":"active","ping":55},{"user_id":258,"name":"Puss in Boots","steam_id":76561198211599767,"connected_time":3855000000000,"state":"active","ping":52},{"user_id":39,"name":"gravity displeases me","steam_id":76561198342570528,"connected_time":21493000000000,"state":"active","ping":65},{"user_id":283,"name":"jerf(pls make me woman)","steam_id":76561199213901239,"connected_time":1473000000000,"state":"active","ping":46},{"user_id":236,"name":"無意味","steam_id":76561198139729249,"connected_time":6029000000000,"state":"active","ping":115},{"user_id":260,"name":"Joel!","steam_id":76561198155422742,"connected_time":3779000000000,"state":"active","ping":43},{"user_id":275,"name":"Geoff the Oracle","steam_id":76561198053759965,"connected_time":2361000000000,"state":"active","ping":57},{"user_id":284,"name":"C11H15NO2","steam_id":76561198066146016,"connected_time":1471000000000,"state":"active","ping":74},{"user_id":301,"name":"KillKenny","steam_id":76561199196877300,"connected_time":628000000000,"state":"active","ping":72},{"user_id":165,"name":"Hexagon","steam_id":76561198151205758,"connected_time":12382000000000,"state":"active","ping":60},{"user_id":287,"name":"Smilin' Wanderer","steam_id":76561198067698907,"connected_time":1310000000000,"state":"active","ping":95},{"user_id":290,"name":"MrClyde","steam_id":76561198132627420,"connected_time":1280000000000,"state":"active","ping":102},{"user_id":298,"name":"Pantroglodytestherapy","steam_id":76561198236015392,"connected_time":822000000000,"state":"active","ping":120},{"user_id":289,"name":"majo84321","steam_id":76561198071336437,"connected_time":1285000000000,"state":"active","ping":72},{"user_id":296,"name":"fénix","steam_id":76561198083199151,"connected_time":993000000000,"state":"active","ping":54},{"user_id":265,"name":"DR4GONF1RE_18","steam_id":76561198821717786,"connected_time":3533000000000,"state":"active","ping":71},{"user_id":181,"name":"Zerfesh","steam_id":76561198117534358,"connected_time":10700000000000,"state":"active","ping":105},{"user_id":269,"name":"mogwaihudson","steam_id":76561199486770715,"connected_time":3129000000000,"state":"active","ping":51},{"user_id":303,"name":"i shit, therefore i smell","steam_id":76561198050214002,"connected_time":300000000000,"state":"active","ping":60}]},{"server_id":22,"name":"Uncletopia | London | 6 | All Maps","name_short":"lon-6","host":"lon-1.uk.uncletopia.com","port":27065,"enabled":true,"region":"eu","cc":"gb","latitude":51.509865,"longitude":-0.118092,"reserved":0,"last_update":"0001-01-01T00:00:00Z","name_a2s":"Uncletopia | London | 6 | All Maps","protocol":17,"map":"pl_snowycoast","folder":"tf","game":"Team Fortress","app_id":440,"player_count":19,"max_players":24,"Bots":0,"server_type":"Dedicated","server_os":"Linux","password":true,"vac":true,"version":"7932396","steam_id":85568392924742830,"keywords":["nocrits","nodmgspread","payload","uncletopia"],"game_id":440,"stv_port":27066,"stv_name":"Uncletopia | London | 6 | All Maps | STV","players":[{"user_id":56,"name":"cister0","steam_id":76561198130195469,"connected_time":5105000000000,"state":"active","ping":82},{"user_id":122,"name":"Eyosh","steam_id":76561197998352095,"connected_time":136000000000,"state":"active","ping":44},{"user_id":124,"name":"Michael","steam_id":76561198003146906,"connected_time":94000000000,"state":"active","ping":43},{"user_id":125,"name":"the catboy","steam_id":76561198236015506,"connected_time":58000000000,"state":"active","ping":108},{"user_id":109,"name":"Hyppy ja liipasin pohjaan :D","steam_id":76561198080669698,"connected_time":1645000000000,"state":"active","ping":105},{"user_id":121,"name":"VEH-DEH-VEH","steam_id":76561198010978989,"connected_time":150000000000,"state":"active","ping":70},{"user_id":126,"name":"Envy","steam_id":76561198132723219,"connected_time":56000000000,"state":"active","ping":123},{"user_id":16,"name":"Ruth(-less bitch)","steam_id":76561198150006573,"connected_time":6294000000000,"state":"active","ping":56},{"user_id":101,"name":"Kocham Wode z Filtra","steam_id":76561198016042113,"connected_time":2450000000000,"state":"active","ping":86},{"user_id":89,"name":"Akkie.","steam_id":76561198017619091,"connected_time":3063000000000,"state":"active","ping":54},{"user_id":108,"name":"Madmoose96","steam_id":76561198081888486,"connected_time":1879000000000,"state":"active","ping":73},{"user_id":127,"name":"C.H.E.R.E.P.","steam_id":76561198026938595,"connected_time":47000000000,"state":"active","ping":83},{"user_id":84,"name":"Well, off to hang myself","steam_id":76561198053374944,"connected_time":3447000000000,"state":"active","ping":90},{"user_id":128,"name":"Kyrisuu","steam_id":76561198362711064,"connected_time":29000000000,"state":"active","ping":146},{"user_id":120,"name":"kryhu","steam_id":76561198293327713,"connected_time":312000000000,"state":"active","ping":75},{"user_id":119,"name":"Krefa12","steam_id":76561198268375393,"connected_time":878000000000,"state":"active","ping":90},{"user_id":85,"name":"Nephi","steam_id":76561198031525122,"connected_time":3443000000000,"state":"active","ping":146},{"user_id":97,"name":"Yuzu","steam_id":76561198121694613,"connected_time":2619000000000,"state":"active","ping":45},{"user_id":117,"name":"Woman (Real)","steam_id":76561199151823932,"connected_time":1403000000000,"state":"active","ping":81}]},{"server_id":40,"name":"Uncletopia | London | 7 | No Payload","name_short":"lon-7","host":"lon-1.uk.uncletopia.com","port":27075,"enabled":true,"region":"eu","cc":"gb","latitude":51.509865,"longitude":-0.118092,"reserved":0,"last_update":"0001-01-01T00:00:00Z","name_a2s":"Uncletopia | London | 7 | No Payload","protocol":17,"map":"cp_5gorge","folder":"tf","game":"Team Fortress","app_id":440,"player_count":24,"max_players":24,"Bots":0,"server_type":"Dedicated","server_os":"Linux","password":true,"vac":true,"version":"7932396","steam_id":85568392924964314,"keywords":["cp","nocrits","nodmgspread","uncletopia"],"game_id":440,"stv_port":27076,"stv_name":"Uncletopia | London | 7 | No Payload | STV","players":[{"user_id":534,"name":"FishNachoz","steam_id":76561198026519426,"connected_time":752000000000,"state":"active","ping":51},{"user_id":512,"name":"BoxLag","steam_id":76561198303995144,"connected_time":2014000000000,"state":"active","ping":44},{"user_id":517,"name":"Miyck","steam_id":76561198100934403,"connected_time":1927000000000,"state":"active","ping":73},{"user_id":544,"name":"Udinese Dion","steam_id":76561198067931573,"connected_time":19000000000,"state":"active","ping":55},{"user_id":513,"name":"8onJour","steam_id":76561198995725491,"connected_time":2007000000000,"state":"active","ping":89},{"user_id":510,"name":"Spectre","steam_id":76561198163819482,"connected_time":2211000000000,"state":"active","ping":68},{"user_id":545,"name":"Operable2694","steam_id":76561199486377532,"connected_time":7000000000,"state":"spawning","ping":45},{"user_id":523,"name":"Zembis","steam_id":76561198008017918,"connected_time":1621000000000,"state":"active","ping":104},{"user_id":542,"name":"clean carp","steam_id":76561198127053294,"connected_time":399000000000,"state":"active","ping":75},{"user_id":490,"name":"farus","steam_id":76561198066521617,"connected_time":2794000000000,"state":"active","ping":107},{"user_id":529,"name":"Hodood","steam_id":76561198167443476,"connected_time":1114000000000,"state":"active","ping":57},{"user_id":491,"name":"Begone","steam_id":76561199093369711,"connected_time":2748000000000,"state":"active","ping":91},{"user_id":420,"name":"Psyche","steam_id":76561198091662001,"connected_time":6569000000000,"state":"active","ping":64},{"user_id":541,"name":"LOBZIK","steam_id":76561198114830120,"connected_time":415000000000,"state":"active","ping":75},{"user_id":492,"name":"Alyosha","steam_id":76561198032771167,"connected_time":2738000000000,"state":"active","ping":85},{"user_id":493,"name":"P3rsErkki","steam_id":76561198063093495,"connected_time":2733000000000,"state":"active","ping":62},{"user_id":530,"name":"Talent","steam_id":76561198153880354,"connected_time":1105000000000,"state":"active","ping":51},{"user_id":543,"name":"X-tis","steam_id":76561198043837480,"connected_time":209000000000,"state":"active","ping":70},{"user_id":524,"name":"Dolcelatte","steam_id":76561198038501770,"connected_time":1616000000000,"state":"active","ping":60},{"user_id":504,"name":"Fat Pigeon","steam_id":76561198817940142,"connected_time":2268000000000,"state":"active","ping":46},{"user_id":484,"name":"I.AM.THE.BOOP.WHICH.IS.APROACHI","steam_id":76561198049342507,"connected_time":3148000000000,"state":"active","ping":85},{"user_id":463,"name":"afk in the brain","steam_id":76561198334042273,"connected_time":4251000000000,"state":"active","ping":49},{"user_id":525,"name":"Maks","steam_id":76561198315278876,"connected_time":1433000000000,"state":"active","ping":51},{"user_id":498,"name":"Jonathan","steam_id":76561198087988880,"connected_time":2432000000000,"state":"active","ping":49}]},{"server_id":41,"name":"Uncletopia | London | 8 | Community","name_short":"lon-8","host":"lon-1.uk.uncletopia.com","port":27085,"enabled":true,"region":"eu","cc":"gb","latitude":51.509865,"longitude":-0.118092,"reserved":0,"last_update":"0001-01-01T00:00:00Z","name_a2s":"Uncletopia | London | 8 | Community","protocol":17,"map":"workshop/cp_sulfur_rc2.ugc619869471","folder":"tf","game":"Team Fortress","app_id":440,"player_count":0,"max_players":24,"Bots":0,"server_type":"Dedicated","server_os":"Linux","password":true,"vac":true,"version":"7932396","steam_id":85568392924964315,"keywords":["cp","nocrits","nodmgspread","uncletopia"],"game_id":440,"stv_port":27086,"stv_name":"Uncletopia | London | 8 | Community | STV","players":null},{"server_id":300,"name":"Uncletopia | Montréal | 1 | All Maps","name_short":"mtl-1","host":"mtl-1.ca.uncletopia.com","port":27015,"enabled":true,"region":"us-east","cc":"ca","latitude":45.50889,"longitude":-73.56167,"reserved":0,"last_update":"0001-01-01T00:00:00Z","name_a2s":"Uncletopia | Montréal | 1 | All Maps","protocol":17,"map":"cp_altitude","folder":"tf","game":"Team Fortress","app_id":440,"player_count":1,"max_players":24,"Bots":0,"server_type":"Dedicated","server_os":"Linux","password":true,"vac":true,"version":"7932396","steam_id":85568392924500087,"keywords":["cp","nocrits","nodmgspread","uncletopia"],"game_id":440,"stv_port":27016,"stv_name":"Uncletopia | Montréal | 1 | All Maps | STV","players":[{"user_id":3,"name":"Flambé","steam_id":76561199050383942,"connected_time":54000000000,"state":"active","ping":126}]},{"server_id":301,"name":"Uncletopia | Montréal | 2 | All Maps","name_short":"mtl-2","host":"mtl-1.ca.uncletopia.com","port":27025,"enabled":true,"region":"us-east","cc":"ca","latitude":45.50889,"longitude":-73.56167,"reserved":0,"last_update":"0001-01-01T00:00:00Z","name_a2s":"Uncletopia | Montréal | 2 | All Maps","protocol":17,"map":"koth_lakeside_final","folder":"tf","game":"Team Fortress","app_id":440,"player_count":0,"max_players":24,"Bots":0,"server_type":"Dedicated","server_os":"Linux","password":true,"vac":true,"version":"7932396","steam_id":85568392924500088,"keywords":["cp","nocrits","nodmgspread","uncletopia"],"game_id":440,"stv_port":27026,"stv_name":"Uncletopia | Montréal | 2 | All Maps | STV","players":null},{"server_id":302,"name":"Uncletopia | Montréal | 3 | All Maps","name_short":"mtl-3","host":"mtl-1.ca.uncletopia.com","port":27035,"enabled":true,"region":"us-east","cc":"ca","latitude":45.50889,"longitude":-73.56167,"reserved":0,"last_update":"0001-01-01T00:00:00Z","name_a2s":"Uncletopia | Montréal | 3 | All Maps","protocol":17,"map":"cp_process_final","folder":"tf","game":"Team Fortress","app_id":440,"player_count":0,"max_players":24,"Bots":0,"server_type":"Dedicated","server_os":"Linux","password":true,"vac":true,"version":"7932396","steam_id":85568392924500089,"keywords":["cp","nocrits","nodmgspread","uncletopia"],"game_id":440,"stv_port":27036,"stv_name":"Uncletopia | Montréal | 3 | All Maps | STV","players":null},{"server_id":303,"name":"Uncletopia | Montréal | 4 | No Payload","name_short":"mtl-4","host":"mtl-1.ca.uncletopia.com","port":27045,"enabled":true,"region":"us-east","cc":"ca","latitude":45.50889,"longitude":-73.56167,"reserved":0,"last_update":"0001-01-01T00:00:00Z","name_a2s":"Uncletopia | Montréal | 4 | No Payload","protocol":17,"map":"cp_snakewater_final1","folder":"tf","game":"Team Fortress","app_id":440,"player_count":0,"max_players":24,"Bots":0,"server_type":"Dedicated","server_os":"Linux","password":true,"vac":true,"version":"7932396","steam_id":85568392924500090,"keywords":["cp","nocrits","nodmgspread","uncletopia"],"game_id":440,"stv_port":27046,"stv_name":"Uncletopia | Montréal | 4 | No Payload | STV","players":null},{"server_id":13,"name":"Uncletopia | New York City | 1 | All Maps","name_short":"nyc-1","host":"nyc-1.us.uncletopia.com","port":27015,"enabled":true,"region":"us-east","cc":"us","latitude":40.73061,"longitude":-73.93524,"reserved":0,"last_update":"0001-01-01T00:00:00Z","name_a2s":"Uncletopia | New York City | 1 | All Maps","protocol":17,"map":"cp_dustbowl","folder":"tf","game":"Team Fortress","app_id":440,"player_count":0,"max_players":24,"Bots":0,"server_type":"Dedicated","server_os":"Linux","password":true,"vac":true,"version":"7932396","steam_id":85568392924469993,"keywords":["cp","nocrits","nodmgspread","uncletopia"],"game_id":440,"stv_port":27016,"stv_name":"Uncletopia | New York City | 1 | All Maps | STV","players":null},{"server_id":14,"name":"Uncletopia | New York City | 2 | All Maps","name_short":"nyc-2","host":"nyc-1.us.uncletopia.com","port":27025,"enabled":true,"region":"us-east","cc":"us","latitude":40.73061,"longitude":-73.93524,"reserved":0,"last_update":"0001-01-01T00:00:00Z","name_a2s":"Uncletopia | New York City | 2 | All Maps","protocol":17,"map":"koth_lakeside_final","folder":"tf","game":"Team Fortress","app_id":440,"player_count":0,"max_players":24,"Bots":0,"server_type":"Dedicated","server_os":"Linux","password":true,"vac":true,"version":"7932396","steam_id":85568392924469994,"keywords":["cp","nocrits","nodmgspread","uncletopia"],"game_id":440,"stv_port":27026,"stv_name":"Uncletopia | New York City | 2 | All Maps | STV","players":null},{"server_id":15,"name":"Uncletopia | New York City | 3 | Stopwatch Beta","name_short":"nyc-3","host":"nyc-1.us.uncletopia.com","port":27035,"enabled":true,"region":"us-east","cc":"us","latitude":40.73061,"longitude":-73.93524,"reserved":0,"last_update":"0001-01-01T00:00:00Z","name_a2s":"Uncletopia | New York City | 3 | Stopwatch Beta","protocol":17,"map":"cp_granary","folder":"tf","game":"Team Fortress","app_id":440,"player_count":0,"max_players":24,"Bots":0,"server_type":"Dedicated","server_os":"Linux","password":true,"vac":true,"version":"7932396","steam_id":85568392924742820,"keywords":["cp","nocrits","nodmgspread","uncletopia"],"game_id":440,"stv_port":27036,"stv_name":"Uncletopia | New York City | 3 | Stopwatch Beta | STV","players":null},{"server_id":16,"name":"Uncletopia | New York City | 4 | Community","name_short":"nyc-4","host":"nyc-1.us.uncletopia.com","port":27045,"enabled":true,"region":"us-east","cc":"us","latitude":40.73061,"longitude":-73.93524,"reserved":0,"last_update":"0001-01-01T00:00:00Z","name_a2s":"Uncletopia | New York City | 4 | Community","protocol":17,"map":"pl_barnblitz","folder":"tf","game":"Team Fortress","app_id":440,"player_count":0,"max_players":24,"Bots":0,"server_type":"Dedicated","server_os":"Linux","password":true,"vac":true,"version":"7932396","steam_id":85568392924742821,"keywords":["nocrits","nodmgspread","payload","uncletopia"],"game_id":440,"stv_port":27046,"stv_name":"Uncletopia | New York City | 4 | Community | STV","players":null},{"server_id":142,"name":"Uncletopia | São Paulo | 1 | All Maps","name_short":"sao-1","host":"sao-1.br.uncletopia.com","port":27015,"enabled":true,"region":"sa","cc":"br","latitude":-23.533773,"longitude":-46.62529,"reserved":0,"last_update":"0001-01-01T00:00:00Z","name_a2s":"Uncletopia | São Paulo | 1 | All Maps","protocol":17,"map":"pl_snowycoast","folder":"tf","game":"Team Fortress","app_id":440,"player_count":0,"max_players":24,"Bots":0,"server_type":"Dedicated","server_os":"Linux","password":true,"vac":true,"version":"7932396","steam_id":85568392924469996,"keywords":["nocrits","nodmgspread","payload","uncletopia"],"game_id":440,"stv_port":27016,"stv_name":"Uncletopia | São Paulo | 1 | All Maps | STV","players":null},{"server_id":143,"name":"Uncletopia | São Paulo | 2 | All Maps","name_short":"sao-2","host":"sao-2.br.uncletopia.com","port":27015,"enabled":true,"region":"sa","cc":"br","latitude":-23.533773,"longitude":-46.62529,"reserved":0,"last_update":"0001-01-01T00:00:00Z","name_a2s":"Uncletopia | São Paulo | 2 | All Maps","protocol":17,"map":"pl_swiftwater_final1","folder":"tf","game":"Team Fortress","app_id":440,"player_count":0,"max_players":24,"Bots":0,"server_type":"Dedicated","server_os":"Linux","password":true,"vac":true,"version":"7932396","steam_id":85568392924485349,"keywords":["nocrits","nodmgspread","payload","uncletopia"],"game_id":440,"stv_port":27016,"stv_name":"Uncletopia | São Paulo | 2 | All Maps | STV","players":null},{"server_id":7,"name":"Uncletopia | Seattle | 1 | All Maps","name_short":"sea-1","host":"sea-1.us.uncletopia.com","port":27015,"enabled":true,"region":"us-west","cc":"us","latitude":47.608013,"longitude":-122.33517,"reserved":0,"last_update":"0001-01-01T00:00:00Z","name_a2s":"Uncletopia | Seattle | 1 | All Maps","protocol":17,"map":"koth_highpass","folder":"tf","game":"Team Fortress","app_id":440,"player_count":23,"max_players":24,"Bots":0,"server_type":"Dedicated","server_os":"Linux","password":true,"vac":true,"version":"7932396","steam_id":85568392924469997,"keywords":["cp","nocrits","nodmgspread","uncletopia"],"game_id":440,"stv_port":27016,"stv_name":"Uncletopia | Seattle | 1 | All Maps | STV","players":[{"user_id":209,"name":"Milk","steam_id":76561198796215640,"connected_time":448000000000,"state":"active","ping":45},{"user_id":206,"name":"Kzjytsugn","steam_id":76561198130241974,"connected_time":508000000000,"state":"active","ping":42},{"user_id":201,"name":"Daz","steam_id":76561198041431938,"connected_time":730000000000,"state":"active","ping":48},{"user_id":193,"name":"Acro","steam_id":76561198092451804,"connected_time":1288000000000,"state":"active","ping":123},{"user_id":210,"name":"muddy","steam_id":76561198035015260,"connected_time":439000000000,"state":"active","ping":84},{"user_id":179,"name":"Blood Gal","steam_id":76561198850484924,"connected_time":1655000000000,"state":"active","ping":84},{"user_id":154,"name":"too much peyote","steam_id":76561198161747964,"connected_time":3284000000000,"state":"active","ping":63},{"user_id":186,"name":"Embrio4119","steam_id":76561198079463795,"connected_time":1478000000000,"state":"active","ping":127},{"user_id":173,"name":"rachael rabies","steam_id":76561198000851637,"connected_time":1869000000000,"state":"active","ping":124},{"user_id":182,"name":"Anor","steam_id":76561198356139775,"connected_time":1579000000000,"state":"active","ping":89},{"user_id":198,"name":"A Can of AriZona Green Tea","steam_id":76561198062481133,"connected_time":907000000000,"state":"active","ping":86},{"user_id":213,"name":"if looks could krill","steam_id":76561198424248616,"connected_time":28000000000,"state":"spawning","ping":91},{"user_id":175,"name":"FlamingManiac","steam_id":76561198361996837,"connected_time":1767000000000,"state":"active","ping":116},{"user_id":202,"name":"Franz","steam_id":76561198041929745,"connected_time":660000000000,"state":"active","ping":102},{"user_id":203,"name":"bodie._.","steam_id":76561198079474904,"connected_time":657000000000,"state":"active","ping":71},{"user_id":197,"name":"CreamFreaker","steam_id":76561198320293423,"connected_time":1019000000000,"state":"active","ping":53},{"user_id":208,"name":"Muralo","steam_id":76561198202160268,"connected_time":456000000000,"state":"active","ping":44},{"user_id":205,"name":"Zetta","steam_id":76561198045710113,"connected_time":580000000000,"state":"active","ping":101},{"user_id":204,"name":"Leonic","steam_id":76561198067699203,"connected_time":596000000000,"state":"active","ping":180},{"user_id":190,"name":"dont trip","steam_id":76561198370431307,"connected_time":1448000000000,"state":"active","ping":89},{"user_id":195,"name":"AffirmedDrip13","steam_id":76561198241951532,"connected_time":1251000000000,"state":"active","ping":111},{"user_id":211,"name":"BrockSpread","steam_id":76561198145924402,"connected_time":389000000000,"state":"active","ping":134},{"user_id":212,"name":"Röntgen","steam_id":76561197993492325,"connected_time":108000000000,"state":"active","ping":60}]},{"server_id":119,"name":"Uncletopia | Seattle | 2 | All Maps","name_short":"sea-2","host":"sea-1.us.uncletopia.com","port":27025,"enabled":true,"region":"us-west","cc":"us","latitude":47.608013,"longitude":-122.33517,"reserved":0,"last_update":"0001-01-01T00:00:00Z","name_a2s":"Uncletopia | Seattle | 2 | All Maps","protocol":17,"map":"cp_dustbowl","folder":"tf","game":"Team Fortress","app_id":440,"player_count":0,"max_players":24,"Bots":0,"server_type":"Dedicated","server_os":"Linux","password":true,"vac":true,"version":"7932396","steam_id":85568392924469998,"keywords":["cp","nocrits","nodmgspread","uncletopia"],"game_id":440,"stv_port":27026,"stv_name":"Uncletopia | Seattle | 2 | All Maps | STV","players":null},{"server_id":406,"name":"Uncletopia | Seattle | 3 | Stopwatch Beta","name_short":"sea-3","host":"sea-1.us.uncletopia.com","port":27035,"enabled":true,"region":"us-west","cc":"us","latitude":47.608013,"longitude":-122.33517,"reserved":0,"last_update":"0001-01-01T00:00:00Z","name_a2s":"Uncletopia | Seattle | 3 | Stopwatch Beta","protocol":17,"map":"cp_mountainlab","folder":"tf","game":"Team Fortress","app_id":440,"player_count":0,"max_players":24,"Bots":0,"server_type":"Dedicated","server_os":"Linux","password":true,"vac":true,"version":"7932396","steam_id":85568392924515217,"keywords":["cp","nocrits","nodmgspread","uncletopia"],"game_id":440,"stv_port":27036,"stv_name":"Uncletopia | Seattle | 3 | Stopwatch Beta | STV","players":null},{"server_id":17,"name":"Uncletopia | San Francisco | 1 | All Maps","name_short":"sfo-1","host":"sfo-1.us.uncletopia.com","port":27015,"enabled":true,"region":"us-west","cc":"us","latitude":37.77397,"longitude":-122.4313,"reserved":0,"last_update":"0001-01-01T00:00:00Z","name_a2s":"Uncletopia | San Francisco | 1 | All Maps","protocol":17,"map":"koth_highpass","folder":"tf","game":"Team Fortress","app_id":440,"player_count":0,"max_players":24,"Bots":0,"server_type":"Dedicated","server_os":"Linux","password":true,"vac":true,"version":"7932396","steam_id":85568392924469999,"keywords":["cp","nocrits","nodmgspread","uncletopia"],"game_id":440,"stv_port":27016,"stv_name":"Uncletopia | San Francisco | 1 | All Maps | STV","players":null},{"server_id":18,"name":"Uncletopia | San Francisco | 2 | All Maps","name_short":"sfo-2","host":"sfo-1.us.uncletopia.com","port":27025,"enabled":true,"region":"us-west","cc":"us","latitude":37.77397,"longitude":-122.4313,"reserved":0,"last_update":"0001-01-01T00:00:00Z","name_a2s":"Uncletopia | San Francisco | 2 | All Maps","protocol":17,"map":"pl_frontier_final","folder":"tf","game":"Team Fortress","app_id":440,"player_count":0,"max_players":24,"Bots":0,"server_type":"Dedicated","server_os":"Linux","password":true,"vac":true,"version":"7932396","steam_id":85568392924470000,"keywords":["nocrits","nodmgspread","payload","uncletopia"],"game_id":440,"stv_port":27026,"stv_name":"Uncletopia | San Francisco | 2 | All Maps | STV","players":null},{"server_id":19,"name":"Uncletopia | San Francisco | 3 | Stopwatch Beta","name_short":"sfo-3","host":"sfo-1.us.uncletopia.com","port":27035,"enabled":true,"region":"us-west","cc":"us","latitude":37.77397,"longitude":-122.4313,"reserved":0,"last_update":"0001-01-01T00:00:00Z","name_a2s":"Uncletopia | San Francisco | 3 | Stopwatch Beta","protocol":17,"map":"koth_lakeside_final","folder":"tf","game":"Team Fortress","app_id":440,"player_count":0,"max_players":24,"Bots":0,"server_type":"Dedicated","server_os":"Linux","password":true,"vac":true,"version":"7932396","steam_id":85568392924742824,"keywords":["cp","nocrits","nodmgspread","uncletopia"],"game_id":440,"stv_port":27036,"stv_name":"Uncletopia | San Francisco | 3 | Stopwatch Beta | STV","players":null},{"server_id":20,"name":"Uncletopia | San Francisco | 4 | Community","name_short":"sfo-4","host":"sfo-1.us.uncletopia.com","port":27045,"enabled":true,"region":"us-west","cc":"us","latitude":37.77397,"longitude":-122.4313,"reserved":0,"last_update":"0001-01-01T00:00:00Z","name_a2s":"Uncletopia | San Francisco | 4 | Community","protocol":17,"map":"workshop/cp_alloy_rc3.ugc592805587","folder":"tf","game":"Team Fortress","app_id":440,"player_count":0,"max_players":24,"Bots":0,"server_type":"Dedicated","server_os":"Linux","password":true,"vac":true,"version":"7932396","steam_id":85568392924742826,"keywords":["cp","nocrits","nodmgspread","uncletopia"],"game_id":440,"stv_port":27046,"stv_name":"Uncletopia | San Francisco | 4 | Community | STV","players":null},{"server_id":141,"name":"Uncletopia | Sydney | 1 | All Maps","name_short":"syd-1","host":"syd-1.au.uncletopia.com","port":27015,"enabled":true,"region":"au","cc":"au","latitude":-33.865143,"longitude":151.2099,"reserved":0,"last_update":"0001-01-01T00:00:00Z","name_a2s":"Uncletopia | Sydney | 1 | All Maps","protocol":17,"map":"koth_viaduct","folder":"tf","game":"Team Fortress","app_id":440,"player_count":0,"max_players":24,"Bots":0,"server_type":"Dedicated","server_os":"Linux","password":true,"vac":true,"version":"7932396","steam_id":85568392924470001,"keywords":["cp","nocrits","nodmgspread","uncletopia"],"game_id":440,"stv_port":27016,"stv_name":"Uncletopia | Sydney | 1 | All Maps | STV","players":null},{"server_id":123,"name":"Uncletopia | Sydney | 2 | All Maps","name_short":"syd-2","host":"syd-1.au.uncletopia.com","port":27025,"enabled":true,"region":"au","cc":"au","latitude":-33.865143,"longitude":151.2099,"reserved":0,"last_update":"0001-01-01T00:00:00Z","name_a2s":"Uncletopia | Sydney | 2 | All Maps","protocol":17,"map":"pl_upward","folder":"tf","game":"Team Fortress","app_id":440,"player_count":0,"max_players":24,"Bots":0,"server_type":"Dedicated","server_os":"Linux","password":true,"vac":true,"version":"7932396","steam_id":85568392924470002,"keywords":["nocrits","nodmgspread","payload","uncletopia"],"game_id":440,"stv_port":27026,"stv_name":"Uncletopia | Sydney | 2 | All Maps | STV","players":null},{"server_id":395,"name":"Uncletopia | Sydney | 3 | All Maps","name_short":"syd-3","host":"syd-1.au.uncletopia.com","port":27035,"enabled":true,"region":"au","cc":"au","latitude":-33.865143,"longitude":151.2099,"reserved":0,"last_update":"0001-01-01T00:00:00Z","name_a2s":"Uncletopia | Sydney | 3 | All Maps","protocol":17,"map":"koth_cascade","folder":"tf","game":"Team Fortress","app_id":440,"player_count":0,"max_players":24,"Bots":0,"server_type":"Dedicated","server_os":"Linux","password":true,"vac":true,"version":"7932396","steam_id":85568392925194467,"keywords":["cp","nocrits","nodmgspread","uncletopia"],"game_id":440,"stv_port":27036,"stv_name":"Uncletopia | Sydney | 3 | All Maps | STV","players":null},{"server_id":396,"name":"Uncletopia | Sydney | 4 | All Maps","name_short":"syd-4","host":"syd-1.au.uncletopia.com","port":27045,"enabled":true,"region":"au","cc":"au","latitude":-33.865143,"longitude":151.2099,"reserved":0,"last_update":"0001-01-01T00:00:00Z","name_a2s":"Uncletopia | Sydney | 4 | All Maps","protocol":17,"map":"koth_cascade","folder":"tf","game":"Team Fortress","app_id":440,"player_count":0,"max_players":24,"Bots":0,"server_type":"Dedicated","server_os":"Linux","password":true,"vac":true,"version":"7932396","steam_id":85568392925397958,"keywords":["cp","nocrits","nodmgspread","uncletopia"],"game_id":440,"stv_port":27046,"stv_name":"Uncletopia | Sydney | 4 | All Maps | STV","players":null},{"server_id":58,"name":"Uncletopia | Sydney | 5 | Stopwatch Beta","name_short":"syd-5","host":"syd-1.au.uncletopia.com","port":27055,"enabled":true,"region":"au","cc":"au","latitude":-33.865143,"longitude":151.2099,"reserved":0,"last_update":"0001-01-01T00:00:00Z","name_a2s":"Uncletopia | Sydney | 5 | Stopwatch Beta","protocol":17,"map":"pl_borneo","folder":"tf","game":"Team Fortress","app_id":440,"player_count":0,"max_players":24,"Bots":0,"server_type":"Dedicated","server_os":"Linux","password":true,"vac":true,"version":"7932396","steam_id":85568392925397959,"keywords":["nocrits","nodmgspread","payload","uncletopia"],"game_id":440,"stv_port":27056,"stv_name":"Uncletopia | Sydney | 5 | Stopwatch Beta | STV","players":null},{"server_id":59,"name":"Uncletopia | Sydney | 6 | Community","name_short":"syd-6","host":"syd-1.au.uncletopia.com","port":27065,"enabled":true,"region":"au","cc":"au","latitude":-33.865143,"longitude":151.2099,"reserved":0,"last_update":"0001-01-01T00:00:00Z","name_a2s":"Uncletopia | Sydney | 6 | Community","protocol":17,"map":"workshop/cp_glacier_rc6.ugc2905735376","folder":"tf","game":"Team Fortress","app_id":440,"player_count":0,"max_players":24,"Bots":0,"server_type":"Dedicated","server_os":"Linux","password":true,"vac":true,"version":"7932396","steam_id":85568392925397960,"keywords":["cp","nocrits","nodmgspread","uncletopia"],"game_id":440,"stv_port":27066,"stv_name":"Uncletopia | Sydney | 6 | Community | STV","players":null},{"server_id":49,"name":"Uncletopia | Warsaw | 1 | All Maps","name_short":"waw-1","host":"waw-1.pl.uncletopia.com","port":27015,"enabled":true,"region":"eu","cc":"pl","latitude":52.2297,"longitude":21.017532,"reserved":0,"last_update":"0001-01-01T00:00:00Z","name_a2s":"","protocol":0,"map":"","folder":"","game":"","app_id":0,"player_count":0,"max_players":0,"Bots":0,"server_type":"","server_os":"","password":false,"vac":false,"version":"","steam_id":0,"keywords":null,"game_id":0,"stv_port":0,"stv_name":"","players":null},{"server_id":50,"name":"Uncletopia | Warsaw | 2 | All Maps","name_short":"waw-2","host":"waw-1.pl.uncletopia.com","port":27025,"enabled":true,"region":"eu","cc":"pl","latitude":52.2297,"longitude":21.017532,"reserved":0,"last_update":"0001-01-01T00:00:00Z","name_a2s":"Uncletopia | Warsaw | 2 | All Maps","protocol":17,"map":"cp_snakewater_final1","folder":"tf","game":"Team Fortress","app_id":440,"player_count":0,"max_players":24,"Bots":0,"server_type":"Dedicated","server_os":"Linux","password":true,"vac":true,"version":"7932396","steam_id":85568392925397851,"keywords":["cp","nocrits","nodmgspread","uncletopia"],"game_id":440,"stv_port":27026,"stv_name":"Uncletopia | Warsaw | 2 | All Maps | STV","players":null},{"server_id":51,"name":"Uncletopia | Warsaw | 3 | All Maps","name_short":"waw-3","host":"waw-1.pl.uncletopia.com","port":27035,"enabled":true,"region":"eu","cc":"pl","latitude":52.2297,"longitude":21.017532,"reserved":0,"last_update":"0001-01-01T00:00:00Z","name_a2s":"Uncletopia | Warsaw | 3 | All Maps","protocol":17,"map":"cp_mountainlab","folder":"tf","game":"Team Fortress","app_id":440,"player_count":1,"max_players":24,"Bots":0,"server_type":"Dedicated","server_os":"Linux","password":true,"vac":true,"version":"7932396","steam_id":85568392925397852,"keywords":["cp","nocrits","nodmgspread","uncletopia"],"game_id":440,"stv_port":27036,"stv_name":"Uncletopia | Warsaw | 3 | All Maps | STV","players":[{"user_id":37,"name":"Momovsky","steam_id":76561198005738407,"connected_time":2163000000000,"state":"active","ping":69}]},{"server_id":52,"name":"Uncletopia | Warsaw | 4 | All Maps","name_short":"waw-4","host":"waw-1.pl.uncletopia.com","port":27045,"enabled":true,"region":"eu","cc":"pl","latitude":52.2297,"longitude":21.017532,"reserved":0,"last_update":"0001-01-01T00:00:00Z","name_a2s":"Uncletopia | Warsaw | 4 | All Maps","protocol":17,"map":"cp_dustbowl","folder":"tf","game":"Team Fortress","app_id":440,"player_count":6,"max_players":24,"Bots":0,"server_type":"Dedicated","server_os":"Linux","password":true,"vac":true,"version":"7932396","steam_id":85568392925397853,"keywords":["cp","nocrits","nodmgspread","uncletopia"],"game_id":440,"stv_port":27046,"stv_name":"Uncletopia | Warsaw | 4 | All Maps | STV","players":[{"user_id":7,"name":"griddy hitter na bojišti","steam_id":76561198406483941,"connected_time":2394000000000,"state":"active","ping":73},{"user_id":14,"name":"Mikki Morfin","steam_id":76561198199870045,"connected_time":599000000000,"state":"active","ping":89},{"user_id":19,"name":"Andreia","steam_id":76561199490530866,"connected_time":237000000000,"state":"active","ping":83},{"user_id":21,"name":"realness","steam_id":76561199129226935,"connected_time":30000000000,"state":"active","ping":117},{"user_id":15,"name":"39","steam_id":76561199091672937,"connected_time":595000000000,"state":"active","ping":85},{"user_id":16,"name":"ashi","steam_id":76561198424646794,"connected_time":567000000000,"state":"active","ping":103}]},{"server_id":53,"name":"Uncletopia | Warsaw | 5 | Stopwatch Beta","name_short":"waw-5","host":"waw-1.pl.uncletopia.com","port":27055,"enabled":true,"region":"eu","cc":"pl","latitude":52.2297,"longitude":21.017532,"reserved":0,"last_update":"0001-01-01T00:00:00Z","name_a2s":"Uncletopia | Warsaw | 5 | Stopwatch Beta","protocol":17,"map":"koth_highpass","folder":"tf","game":"Team Fortress","app_id":440,"player_count":0,"max_players":24,"Bots":0,"server_type":"Dedicated","server_os":"Linux","password":true,"vac":true,"version":"7932396","steam_id":85568392925397854,"keywords":["cp","nocrits","nodmgspread","uncletopia"],"game_id":440,"stv_port":27056,"stv_name":"Uncletopia | Warsaw | 5 | Stopwatch Beta | STV","players":null},{"server_id":54,"name":"Uncletopia | Warsaw | 6 | Community","name_short":"waw-6","host":"waw-1.pl.uncletopia.com","port":27065,"enabled":true,"region":"eu","cc":"pl","latitude":52.2297,"longitude":21.017532,"reserved":0,"last_update":"0001-01-01T00:00:00Z","name_a2s":"Uncletopia | Warsaw | 6 | Community","protocol":17,"map":"workshop/pl_shoreleave_rc2.ugc1238849347","folder":"tf","game":"Team Fortress","app_id":440,"player_count":0,"max_players":24,"Bots":0,"server_type":"Dedicated","server_os":"Linux","password":true,"vac":true,"version":"7932396","steam_id":85568392925397856,"keywords":["nocrits","nodmgspread","payload","uncletopia"],"game_id":440,"stv_port":27066,"stv_name":"Uncletopia | Warsaw | 6 | Community | STV","players":null}]}