{"status":true,"message":"","result":[{"server_id":9,"name":"Uncletopia | Atlanta | 1 | All Maps","name_short":"atl-1","host":"atl-1.us.uncletopia.com","port":27015,"enabled":true,"region":"us-east","cc":"us","latitude":33.753746,"longitude":-84.38633,"reserved":0,"last_update":"0001-01-01T00:00:00Z","name_a2s":"Uncletopia | Atlanta | 1 | All Maps","protocol":17,"map":"pl_barnblitz","folder":"tf","game":"Team Fortress","app_id":440,"player_count":24,"max_players":24,"Bots":0,"server_type":"Dedicated","server_os":"Linux","password":true,"vac":true,"version":"7742253","steam_id":85568392924469982,"keywords":["nocrits","nodmgspread","payload","uncletopia"],"game_id":440,"stv_port":27016,"stv_name":"Uncletopia | Atlanta | 1 | All Maps | STV","players":[{"user_id":600,"name":"Regi","steam_id":76561198271508598,"connected_time":1390000000000,"state":"active","ping":76},{"user_id":609,"name":"Rokkon Shojo","steam_id":76561198082071180,"connected_time":947000000000,"state":"active","ping":179},{"user_id":580,"name":"schizo","steam_id":76561198016121536,"connected_time":2629000000000,"state":"active","ping":79},{"user_id":578,"name":"poey","steam_id":76561198865346767,"connected_time":2709000000000,"state":"active","ping":106},{"user_id":615,"name":"Sex Midfielder","steam_id":76561198048918192,"connected_time":97000000000,"state":"active","ping":48},{"user_id":579,"name":"Miramar","steam_id":76561198022057653,"connected_time":2633000000000,"state":"active","ping":80},{"user_id":418,"name":"nnoby","steam_id":76561198878729277,"connected_time":15754000000000,"state":"active","ping":61},{"user_id":589,"name":"Talented","steam_id":76561198800259660,"connected_time":2218000000000,"state":"active","ping":50},{"user_id":611,"name":"stink","steam_id":76561198099318923,"connected_time":874000000000,"state":"active","ping":76},{"user_id":581,"name":"Grilled Of The Cheese","steam_id":76561198145066749,"connected_time":2565000000000,"state":"active","ping":76},{"user_id":613,"name":"skillet - monster","steam_id":76561198048882285,"connected_time":207000000000,"state":"active","ping":62},{"user_id":592,"name":"Hobity","steam_id":76561198135386781,"connected_time":1831000000000,"state":"active","ping":61},{"user_id":606,"name":"nin nin","steam_id":76561198055445565,"connected_time":1181000000000,"state":"active","ping":156},{"user_id":614,"name":"Rose","steam_id":76561198068421587,"connected_time":140000000000,"state":"active","ping":109},{"user_id":599,"name":"goon tf2","steam_id":76561198341806593,"connected_time":1412000000000,"state":"active","ping":79},{"user_id":598,"name":"elyk37","steam_id":76561198124135253,"connected_time":1435000000000,"state":"active","ping":93},{"user_id":532,"name":"ATL1 | to4st","steam_id":76561198981009008,"connected_time":7550000000000,"state":"active","ping":70},{"user_id":512,"name":"Tay1Qr","steam_id":76561198082809935,"connected_time":9043000000000,"state":"active","ping":70},{"user_id":524,"name":"Alt","steam_id":76561197992591984,"connected_time":7886000000000,"state":"active","ping":80},{"user_id":610,"name":"aversa","steam_id":76561198840460101,"connected_time":915000000000,"state":"active","ping":69},{"user_id":596,"name":"Karma's Camera","steam_id":76561198059385185,"connected_time":1749000000000,"state":"active","ping":81},{"user_id":607,"name":"Toi-Kan Sa Itto","steam_id":76561198059655937,"connected_time":1177000000000,"state":"active","ping":165},{"user_id":586,"name":"kangconqueror","steam_id":76561199229806456,"connected_time":2465000000000,"state":"active","ping":45}]},{"server_id":400,"name":"Uncletopia | Atlanta | 3 | Stopwatch Beta","name_short":"atl-3","host":"atl-1.us.uncletopia.com","port":27035,"enabled":true,"region":"us-east","cc":"us","latitude":33.753746,"longitude":-84.38633,"reserved":0,"last_update":"0001-01-01T00:00:00Z","name_a2s":"Uncletopia | Atlanta | 3 | Stopwatch Beta","protocol":17,"map":"workshop/pl_badwater_pro_v12.ugc2142942074","folder":"tf","game":"Team Fortress","app_id":440,"player_count":0,"max_players":24,"Bots":0,"server_type":"Dedicated","server_os":"Linux","password":true,"vac":true,"version":"7742253","steam_id":85568392924515187,"keywords":["nocrits","nodmgspread","payload","uncletopia"],"game_id":440,"stv_port":27036,"stv_name":"Uncletopia | Atlanta | 3 | Stopwatch Beta | STV","players":null},{"server_id":401,"name":"Uncletopia | Atlanta | 4 | No Payload","name_short":"atl-4","host":"atl-1.us.uncletopia.com","port":27045,"enabled":true,"region":"us-east","cc":"us","latitude":33.753746,"longitude":-84.38633,"reserved":0,"last_update":"0001-01-01T00:00:00Z","name_a2s":"Uncletopia | Atlanta | 4 | No Payload","protocol":17,"map":"pl_pier","folder":"tf","game":"Team Fortress","app_id":440,"player_count":0,"max_players":24,"Bots":0,"server_type":"Dedicated","server_os":"Linux","password":true,"vac":true,"version":"7723704","steam_id":85568392924515188,"keywords":["nocrits","nodmgspread","payload","uncletopia"],"game_id":440,"stv_port":27046,"stv_name":"Uncletopia | Atlanta | 4 | No Payload | STV","players":null},{"server_id":2,"name":"Uncletopia | Chicago | 1 | All Maps","name_short":"chi-1","host":"chi-1.us.uncletopia.com","port":27015,"enabled":true,"region":"us-central","cc":"us","latitude":41.881832,"longitude":-87.62318,"reserved":0,"last_update":"0001-01-01T00:00:00Z","name_a2s":"Uncletopia | Chicago | 1 | All Maps","protocol":17,"map":"pl_borneo","folder":"tf","game":"Team Fortress","app_id":440,"player_count":24,"max_players":24,"Bots":0,"server_type":"Dedicated","server_os":"Linux","password":true,"vac":true,"version":"7742253","steam_id":85568392924469984,"keywords":["nocrits","nodmgspread","payload","uncletopia"],"game_id":440,"stv_port":27016,"stv_name":"Uncletopia | Chicago | 1 | All Maps | STV","players":[{"user_id":740,"name":"debin","steam_id":76561198070711217,"connected_time":5237000000000,"state":"active","ping":60},{"user_id":765,"name":"Flume","steam_id":76561198801227132,"connected_time":3959000000000,"state":"active","ping":54},{"user_id":798,"name":"peter griffin","steam_id":76561198079485096,"connected_time":544000000000,"state":"active","ping":78},{"user_id":773,"name":"Thatoneguybunchanumbers","steam_id":76561198028039160,"connected_time":3722000000000,"state":"active","ping":75},{"user_id":799,"name":"♥ Femboy♥Ventily ♥","steam_id":76561198157260335,"connected_time":539000000000,"state":"active","ping":49},{"user_id":785,"name":"NOLSEY","steam_id":76561198108959504,"connected_time":2181000000000,"state":"active","ping":46},{"user_id":743,"name":"Ras","steam_id":76561198123546775,"connected_time":5203000000000,"state":"active","ping":66},{"user_id":794,"name":"arashsmash","steam_id":76561198277649058,"connected_time":1822000000000,"state":"active","ping":64},{"user_id":768,"name":"Amphibian Gaming","steam_id":76561199173558915,"connected_time":3892000000000,"state":"active","ping":61},{"user_id":802,"name":"hugger of bugs and insects","steam_id":76561198354473513,"connected_time":284000000000,"state":"active","ping":60},{"user_id":796,"name":"Dullahan","steam_id":76561198119668908,"connected_time":1209000000000,"state":"active","ping":94},{"user_id":753,"name":"Merchants of Misery","steam_id":76561199188142396,"connected_time":4531000000000,"state":"active","ping":73},{"user_id":800,"name":"mammoth!?","steam_id":76561198066881911,"connected_time":539000000000,"state":"active","ping":75},{"user_id":770,"name":"Jolly evil little man","steam_id":76561198311053471,"connected_time":3858000000000,"state":"active","ping":76},{"user_id":752,"name":"blob","steam_id":76561198122375328,"connected_time":4545000000000,"state":"active","ping":61},{"user_id":749,"name":"Cleric","steam_id":76561198045887994,"connected_time":4739000000000,"state":"active","ping":45},{"user_id":803,"name":"❤ Ashley ❤","steam_id":76561198056428303,"connected_time":282000000000,"state":"active","ping":105},{"user_id":791,"name":"Aperture Laboratories","steam_id":76561198072281743,"connected_time":2045000000000,"state":"active","ping":87},{"user_id":750,"name":"PKBEAST_7","steam_id":76561198177136537,"connected_time":4617000000000,"state":"active","ping":78},{"user_id":797,"name":"GreenApples","steam_id":76561198120559543,"connected_time":1204000000000,"state":"active","ping":100},{"user_id":776,"name":"the deadliest pyroshark","steam_id":76561198374227766,"connected_time":3564000000000,"state":"active","ping":73},{"user_id":748,"name":"Ye ( I Love Caulk ) West","steam_id":76561198068830312,"connected_time":4829000000000,"state":"active","ping":51},{"user_id":801,"name":"sweaterfan","steam_id":76561199389567214,"connected_time":538000000000,"state":"active","ping":83}]},{"server_id":106,"name":"Uncletopia | Chicago | 2 | All Maps","name_short":"chi-2","host":"chi-1.us.uncletopia.com","port":27025,"enabled":true,"region":"us-central","cc":"us","latitude":41.881832,"longitude":-87.62318,"reserved":0,"last_update":"0001-01-01T00:00:00Z","name_a2s":"Uncletopia | Chicago | 2 | All Maps","protocol":17,"map":"pl_snowycoast","folder":"tf","game":"Team Fortress","app_id":440,"player_count":24,"max_players":24,"Bots":0,"server_type":"Dedicated","server_os":"Linux","password":true,"vac":true,"version":"7742253","steam_id":85568392924469985,"keywords":["nocrits","nodmgspread","payload","uncletopia"],"game_id":440,"stv_port":27026,"stv_name":"Uncletopia | Chicago | 2 | All Maps | STV","players":[{"user_id":716,"name":"BigSchwif","steam_id":76561198007976941,"connected_time":2496000000000,"state":"active","ping":60},{"user_id":728,"name":"Terium","steam_id":76561198331234327,"connected_time":2226000000000,"state":"active","ping":59},{"user_id":700,"name":"WildEvieAppears","steam_id":76561198004001828,"connected_time":3574000000000,"state":"active","ping":50},{"user_id":735,"name":"Fubarhamm","steam_id":76561198007269231,"connected_time":852000000000,"state":"active","ping":68},{"user_id":679,"name":"Shuzzilay","steam_id":76561197969138678,"connected_time":5135000000000,"state":"active","ping":79},{"user_id":641,"name":"Baka!⑨⑨⑨⑨","steam_id":76561198152948254,"connected_time":8471000000000,"state":"active","ping":62},{"user_id":603,"name":"kairOs.fk","steam_id":76561197972421260,"connected_time":10760000000000,"state":"active","ping":64},{"user_id":750,"name":"Marceline the Vampire Queen","steam_id":76561198322969864,"connected_time":195000000000,"state":"active","ping":81},{"user_id":692,"name":"whizwit","steam_id":76561198011759651,"connected_time":4516000000000,"state":"active","ping":151},{"user_id":751,"name":"Randy \"the Man\" Johnson","steam_id":76561198039124445,"connected_time":156000000000,"state":"active","ping":90},{"user_id":655,"name":"Squid121","steam_id":76561198038832034,"connected_time":6586000000000,"state":"active","ping":103},{"user_id":713,"name":"Leviathan","steam_id":76561197997528907,"connected_time":2739000000000,"state":"active","ping":57},{"user_id":602,"name":"you are loved","steam_id":76561198108524571,"connected_time":10761000000000,"state":"active","ping":75},{"user_id":708,"name":"Lunartik","steam_id":76561199004827382,"connected_time":3056000000000,"state":"active","ping":62},{"user_id":682,"name":"Shaw","steam_id":76561198019915537,"connected_time":5102000000000,"state":"active","ping":54},{"user_id":745,"name":"(real)","steam_id":76561199062024437,"connected_time":391000000000,"state":"active","ping":57},{"user_id":737,"name":"Florist","steam_id":76561198009121060,"connected_time":784000000000,"state":"active","ping":99},{"user_id":738,"name":"wake up bro its 2009","steam_id":76561198149666258,"connected_time":744000000000,"state":"active","ping":66},{"user_id":647,"name":"A Puppy","steam_id":76561198828184456,"connected_time":7498000000000,"state":"active","ping":61},{"user_id":747,"name":"McAspie","steam_id":76561198079700167,"connected_time":337000000000,"state":"active","ping":84},{"user_id":733,"name":"Ace Chromatica","steam_id":76561198042211131,"connected_time":1566000000000,"state":"active","ping":60},{"user_id":743,"name":"BUFF THE SCORCH SHOT","steam_id":76561198042899484,"connected_time":523000000000,"state":"active","ping":76},{"user_id":740,"name":"StarWither","steam_id":76561198383264295,"connected_time":725000000000,"state":"active","ping":104},{"user_id":749,"name":"ChipperGunslinger","steam_id":76561199100483140,"connected_time":267000000000,"state":"active","ping":86}]},{"server_id":402,"name":"Uncletopia | Chicago | 3 | All Maps","name_short":"chi-3","host":"chi-1.us.uncletopia.com","port":27035,"enabled":true,"region":"us-central","cc":"us","latitude":41.881832,"longitude":-87.62318,"reserved":0,"last_update":"0001-01-01T00:00:00Z","name_a2s":"Uncletopia | Chicago | 3 | All Maps","protocol":17,"map":"pl_swiftwater_final1","folder":"tf","game":"Team Fortress","app_id":440,"player_count":24,"max_players":24,"Bots":0,"server_type":"Dedicated","server_os":"Linux","password":true,"vac":true,"version":"7742253","steam_id":85568392924515191,"keywords":["nocrits","nodmgspread","payload","uncletopia"],"game_id":440,"stv_port":27036,"stv_name":"Uncletopia | Chicago | 3 | All Maps | STV","players":[{"user_id":609,"name":"2L84U","steam_id":76561198079176017,"connected_time":538000000000,"state":"active","ping":92},{"user_id":610,"name":"kb","steam_id":76561198115914109,"connected_time":377000000000,"state":"active","ping":74},{"user_id":601,"name":"bikerkid207","steam_id":76561198390782783,"connected_time":2076000000000,"state":"active","ping":62},{"user_id":611,"name":"D6_6","steam_id":76561198055790332,"connected_time":354000000000,"state":"active","ping":70},{"user_id":583,"name":"caption cool","steam_id":76561197990612056,"connected_time":3510000000000,"state":"active","ping":46},{"user_id":613,"name":"Rusty","steam_id":76561198055585129,"connected_time":226000000000,"state":"active","ping":90},{"user_id":616,"name":"GiantSlayer314","steam_id":76561198851583293,"connected_time":150000000000,"state":"active","ping":66},{"user_id":615,"name":"hunky dory","steam_id":76561198030422254,"connected_time":177000000000,"state":"active","ping":70},{"user_id":589,"name":"moonage72","steam_id":76561199187008629,"connected_time":2740000000000,"state":"active","ping":66},{"user_id":617,"name":"Ziixx","steam_id":76561198380423847,"connected_time":141000000000,"state":"active","ping":46},{"user_id":608,"name":"vyx","steam_id":76561198037205391,"connected_time":581000000000,"state":"active","ping":60},{"user_id":618,"name":"Lore","steam_id":76561198098407538,"connected_time":104000000000,"state":"active","ping":51},{"user_id":619,"name":"bicth","steam_id":76561198086314381,"connected_time":64000000000,"state":"active","ping":77},{"user_id":580,"name":"One Shot and A Miss","steam_id":76561198124269698,"connected_time":3815000000000,"state":"active","ping":63},{"user_id":620,"name":"Dr. Martin Luther","steam_id":76561198064572586,"connected_time":50000000000,"state":"active","ping":86},{"user_id":621,"name":"dudeer733","steam_id":76561198030319392,"connected_time":47000000000,"state":"active","ping":72},{"user_id":565,"name":"Sir, this is a Wendy's","steam_id":76561198983656317,"connected_time":4626000000000,"state":"active","ping":72},{"user_id":622,"name":"peachy","steam_id":76561198026664629,"connected_time":34000000000,"state":"active","ping":46},{"user_id":597,"name":"Dysist","steam_id":76561198387226905,"connected_time":2166000000000,"state":"active","ping":78},{"user_id":623,"name":"MrLeftTurn","steam_id":76561198856743969,"connected_time":27000000000,"state":"active","ping":130},{"user_id":607,"name":"skidzz","steam_id":76561198257068611,"connected_time":956000000000,"state":"active","ping":79},{"user_id":624,"name":"Blitzy","steam_id":76561198149472890,"connected_time":25000000000,"state":"active","ping":74},{"user_id":625,"name":"Infinitytacos","steam_id":76561198884260211,"connected_time":20000000000,"state":"spawning","ping":100},{"user_id":626,"name":"futmaus","steam_id":76561199063130278,"connected_time":18000000000,"state":"active","ping":101}]},{"server_id":403,"name":"Uncletopia | Chicago | 4 | All Maps","name_short":"chi-4","host":"chi-1.us.uncletopia.com","port":27045,"enabled":true,"region":"us-central","cc":"us","latitude":41.881832,"longitude":-87.62318,"reserved":0,"last_update":"0001-01-01T00:00:00Z","name_a2s":"Uncletopia | Chicago | 4 | All Maps","protocol":17,"map":"pl_upward","folder":"tf","game":"Team Fortress","app_id":440,"player_count":25,"max_players":24,"Bots":0,"server_type":"Dedicated","server_os":"Linux","password":true,"vac":true,"version":"7742253","steam_id":85568392924515193,"keywords":["nocrits","nodmgspread","payload","uncletopia"],"game_id":440,"stv_port":27046,"stv_name":"Uncletopia | Chicago | 4 | All Maps | STV","players":[{"user_id":559,"name":"Joe Biden","steam_id":76561198163057374,"connected_time":551000000000,"state":"active","ping":55},{"user_id":544,"name":"Valor","steam_id":76561198014888610,"connected_time":961000000000,"state":"active","ping":56},{"user_id":579,"name":"tranquil","steam_id":76561198319990195,"connected_time":138000000000,"state":"active","ping":86},{"user_id":520,"name":"AverageRundownJoe.ttv","steam_id":76561198059359620,"connected_time":1726000000000,"state":"active","ping":73},{"user_id":545,"name":"mr.edderkopper","steam_id":76561198152614478,"connected_time":931000000000,"state":"active","ping":62},{"user_id":492,"name":"Zubats |TAOZ|","steam_id":76561198041819445,"connected_time":2380000000000,"state":"active","ping":50},{"user_id":502,"name":"Reckless Klondike","steam_id":76561198060904416,"connected_time":2167000000000,"state":"active","ping":72},{"user_id":546,"name":"GusyPls","steam_id":76561198058423925,"connected_time":918000000000,"state":"active","ping":64},{"user_id":560,"name":"Do Moose go Moo?","steam_id":76561198073550620,"connected_time":546000000000,"state":"active","ping":45},{"user_id":447,"name":"baguette","steam_id":76561198066048980,"connected_time":3417000000000,"state":"active","ping":45},{"user_id":562,"name":"m9","steam_id":76561198125732157,"connected_time":498000000000,"state":"active","ping":60},{"user_id":574,"name":"epic.science.kid.2019","steam_id":76561198075510786,"connected_time":230000000000,"state":"active","ping":72},{"user_id":486,"name":"Elizabeth truss","steam_id":76561198058250979,"connected_time":2420000000000,"state":"active","ping":66},{"user_id":495,"name":"Aspxts","steam_id":76561199125254746,"connected_time":2305000000000,"state":"active","ping":57},{"user_id":565,"name":"gangstalker","steam_id":76561198363267009,"connected_time":438000000000,"state":"active","ping":72},{"user_id":578,"name":"BigOrca54","steam_id":76561198181360271,"connected_time":151000000000,"state":"active","ping":54},{"user_id":515,"name":"Cuttle's Fish","steam_id":76561198280483257,"connected_time":1851000000000,"state":"active","ping":61},{"user_id":456,"name":"pathways","steam_id":76561198054832333,"connected_time":3211000000000,"state":"active","ping":64},{"user_id":555,"name":"Frank_Eash","steam_id":76561198135470871,"connected_time":745000000000,"state":"active","ping":50},{"user_id":585,"name":"fredpimpstone","steam_id":76561198201872929,"connected_time":26000000000,"state":"spawning","ping":70},{"user_id":552,"name":"Your Local NPR Station","steam_id":76561198143830279,"connected_time":826000000000,"state":"active","ping":59},{"user_id":408,"name":"smuffy","steam_id":76561198091459506,"connected_time":5726000000000,"state":"active","ping":73},{"user_id":506,"name":"Good","steam_id":76561197996835854,"connected_time":2074000000000,"state":"active","ping":66},{"user_id":524,"name":"JamakaJudd","steam_id":76561198045755086,"connected_time":1679000000000,"state":"active","ping":77},{"user_id":454,"name":"son","steam_id":76561198442138731,"connected_time":3284000000000,"state":"active","ping":61}]},{"server_id":36,"name":"Uncletopia | Chicago | 5 | All Maps","name_short":"chi-5","host":"chi-2.us.uncletopia.com","port":27015,"enabled":true,"region":"us-central","cc":"us","latitude":41.881832,"longitude":-87.62318,"reserved":0,"last_update":"0001-01-01T00:00:00Z","name_a2s":"Uncletopia | Chicago | 5 | All Maps","protocol":17,"map":"koth_cascade","folder":"tf","game":"Team Fortress","app_id":440,"player_count":0,"max_players":24,"Bots":0,"server_type":"Dedicated","server_os":"Linux","password":true,"vac":true,"version":"7742253","steam_id":85568392924866362,"keywords":["cp","nocrits","nodmgspread","uncletopia"],"game_id":440,"stv_port":27016,"stv_name":"Uncletopia | Chicago | 5 | All Maps | STV","players":null},{"server_id":37,"name":"Uncletopia | Chicago | 6 | All Maps","name_short":"chi-6","host":"chi-2.us.uncletopia.com","port":27025,"enabled":true,"region":"us-central","cc":"us","latitude":41.881832,"longitude":-87.62318,"reserved":0,"last_update":"0001-01-01T00:00:00Z","name_a2s":"Uncletopia | Chicago | 6 | All Maps","protocol":17,"map":"cp_process_final","folder":"tf","game":"Team Fortress","app_id":440,"player_count":0,"max_players":24,"Bots":0,"server_type":"Dedicated","server_os":"Linux","password":true,"vac":true,"version":"7742253","steam_id":85568392924866363,"keywords":["cp","nocrits","nodmgspread","uncletopia"],"game_id":440,"stv_port":27026,"stv_name":"Uncletopia | Chicago | 6 | All Maps | STV","players":null},{"server_id":38,"name":"Uncletopia | Chicago | 7 | Stopwatch Beta","name_short":"chi-7","host":"chi-2.us.uncletopia.com","port":27035,"enabled":true,"region":"us-central","cc":"us","latitude":41.881832,"longitude":-87.62318,"reserved":0,"last_update":"0001-01-01T00:00:00Z","name_a2s":"Uncletopia | Chicago | 7 | Stopwatch Beta","protocol":17,"map":"workshop/pl_barnblitz_pro7.ugc582280235","folder":"tf","game":"Team Fortress","app_id":440,"player_count":0,"max_players":24,"Bots":0,"server_type":"Dedicated","server_os":"Linux","password":true,"vac":true,"version":"7742253","steam_id":85568392924866364,"keywords":["nocrits","nodmgspread","payload","uncletopia"],"game_id":440,"stv_port":27036,"stv_name":"Uncletopia | Chicago | 7 | Stopwatch Beta | STV","players":null},{"server_id":39,"name":"Uncletopia | Chicago | 8 | Community","name_short":"chi-8","host":"chi-2.us.uncletopia.com","port":27045,"enabled":true,"region":"us-central","cc":"us","latitude":41.881832,"longitude":-87.62318,"reserved":0,"last_update":"0001-01-01T00:00:00Z","name_a2s":"Uncletopia | Chicago | 8 | Community","protocol":17,"map":"koth_lakeside_final","folder":"tf","game":"Team Fortress","app_id":440,"player_count":0,"max_players":24,"Bots":0,"server_type":"Dedicated","server_os":"Linux","password":true,"vac":true,"version":"7742253","steam_id":85568392924866365,"keywords":["cp","nocrits","nodmgspread","uncletopia"],"game_id":440,"stv_port":27046,"stv_name":"Uncletopia | Chicago | 8 | Community | STV","players":null},{"server_id":8,"name":"Uncletopia | Dallas | 1 | All Maps","name_short":"dal-1","host":"dal-1.us.uncletopia.com","port":27015,"enabled":true,"region":"us-central","cc":"us","latitude":32.779167,"longitude":-96.80889,"reserved":0,"last_update":"0001-01-01T00:00:00Z","name_a2s":"Uncletopia | Dallas | 1 | All Maps","protocol":17,"map":"pl_barnblitz","folder":"tf","game":"Team Fortress","app_id":440,"player_count":24,"max_players":24,"Bots":0,"server_type":"Dedicated","server_os":"Linux","password":true,"vac":true,"version":"7742253","steam_id":85568392924469986,"keywords":["nocrits","nodmgspread","payload","uncletopia"],"game_id":440,"stv_port":27016,"stv_name":"Uncletopia | Dallas | 1 | All Maps | STV","players":[{"user_id":391,"name":"Samsiel","steam_id":76561198094134951,"connected_time":1866000000000,"state":"active","ping":90},{"user_id":410,"name":"Squatter1","steam_id":76561198078987734,"connected_time":637000000000,"state":"active","ping":81},{"user_id":348,"name":"Arcana","steam_id":76561198120924164,"connected_time":6061000000000,"state":"active","ping":56},{"user_id":402,"name":"Pepsi-Man","steam_id":76561198052061790,"connected_time":1504000000000,"state":"active","ping":80},{"user_id":414,"name":"a fuddruckers","steam_id":76561198092656099,"connected_time":479000000000,"state":"active","ping":46},{"user_id":389,"name":"sil","steam_id":76561198046650995,"connected_time":1924000000000,"state":"active","ping":62},{"user_id":403,"name":"Rocatex(halloween enjoyer)","steam_id":76561199095053897,"connected_time":1450000000000,"state":"active","ping":38},{"user_id":396,"name":"Biosock Infiknit","steam_id":76561198072693794,"connected_time":1556000000000,"state":"active","ping":74},{"user_id":397,"name":"hack fraud","steam_id":76561198015036066,"connected_time":1551000000000,"state":"active","ping":75},{"user_id":412,"name":"All 24 Pokémon movies at once","steam_id":76561198164738311,"connected_time":529000000000,"state":"active","ping":65},{"user_id":398,"name":"Someguy6470","steam_id":76561198047240975,"connected_time":1549000000000,"state":"active","ping":75},{"user_id":399,"name":"Star-Lord","steam_id":76561198035908175,"connected_time":1546000000000,"state":"active","ping":95},{"user_id":393,"name":"HumFreY","steam_id":76561198076639682,"connected_time":1839000000000,"state":"active","ping":93},{"user_id":383,"name":"JANGEL","steam_id":76561199243477077,"connected_time":2539000000000,"state":"active","ping":59},{"user_id":358,"name":"UncleJunkle","steam_id":76561198289559487,"connected_time":5752000000000,"state":"active","ping":45},{"user_id":406,"name":"Faust main","steam_id":76561198971799149,"connected_time":1005000000000,"state":"active","ping":67},{"user_id":404,"name":"mrp","steam_id":76561198942843544,"connected_time":1400000000000,"state":"active","ping":90},{"user_id":390,"name":"Garduuk","steam_id":76561198010745965,"connected_time":1918000000000,"state":"active","ping":78},{"user_id":413,"name":"The War of 1812","steam_id":76561198318151266,"connected_time":503000000000,"state":"active","ping":113},{"user_id":417,"name":"little hog","steam_id":76561199230929836,"connected_time":312000000000,"state":"active","ping":61},{"user_id":415,"name":"BIG HOG","steam_id":76561198079923652,"connected_time":477000000000,"state":"active","ping":57},{"user_id":377,"name":"Psychosis","steam_id":76561198078659070,"connected_time":2718000000000,"state":"active","ping":84},{"user_id":319,"name":"SumTingWong","steam_id":76561198119286222,"connected_time":8991000000000,"state":"active","ping":67},{"user_id":416,"name":"deadly_gamer #!ganger!","steam_id":76561198311446636,"connected_time":467000000000,"state":"active","ping":75}]},{"server_id":108,"name":"Uncletopia | Dallas | 2 | All Maps","name_short":"dal-2","host":"dal-1.us.uncletopia.com","port":27025,"enabled":true,"region":"us-central","cc":"us","latitude":32.779167,"longitude":-96.80889,"reserved":0,"last_update":"0001-01-01T00:00:00Z","name_a2s":"Uncletopia | Dallas | 2 | All Maps","protocol":17,"map":"pl_upward","folder":"tf","game":"Team Fortress","app_id":440,"player_count":24,"max_players":24,"Bots":0,"server_type":"Dedicated","server_os":"Linux","password":true,"vac":true,"version":"7742253","steam_id":85568392924469988,"keywords":["nocrits","nodmgspread","payload","uncletopia"],"game_id":440,"stv_port":27026,"stv_name":"Uncletopia | Dallas | 2 | All Maps | STV","players":[{"user_id":419,"name":"Sylvaris","steam_id":76561198156678773,"connected_time":2822000000000,"state":"active","ping":49},{"user_id":430,"name":"punkey","steam_id":76561198193213691,"connected_time":2572000000000,"state":"active","ping":48},{"user_id":438,"name":"Krugerrand","steam_id":76561198058752131,"connected_time":1463000000000,"state":"active","ping":87},{"user_id":425,"name":"Totes Adorbs!","steam_id":76561197994655618,"connected_time":2695000000000,"state":"active","ping":94},{"user_id":444,"name":"Gum","steam_id":76561198129976826,"connected_time":423000000000,"state":"active","ping":69},{"user_id":420,"name":"Winter Turtle","steam_id":76561199013760076,"connected_time":2802000000000,"state":"active","ping":71},{"user_id":435,"name":"Matella","steam_id":76561198097427947,"connected_time":2354000000000,"state":"active","ping":122},{"user_id":436,"name":"[δ] Delta","steam_id":76561198287190116,"connected_time":1929000000000,"state":"active","ping":61},{"user_id":442,"name":"Carcino","steam_id":76561198006170253,"connected_time":642000000000,"state":"active","ping":63},{"user_id":408,"name":"refrigerator","steam_id":76561198034385095,"connected_time":3837000000000,"state":"active","ping":59},{"user_id":422,"name":"Mancer","steam_id":76561198002825637,"connected_time":2754000000000,"state":"active","ping":90},{"user_id":445,"name":"Beeveelution","steam_id":76561198331526301,"connected_time":390000000000,"state":"active","ping":86},{"user_id":441,"name":"kid squid","steam_id":76561198167016289,"connected_time":993000000000,"state":"active","ping":79},{"user_id":423,"name":"Pyromanncer TF","steam_id":76561198018508494,"connected_time":2741000000000,"state":"active","ping":86},{"user_id":446,"name":"PTR","steam_id":76561198237253772,"connected_time":310000000000,"state":"active","ping":49},{"user_id":447,"name":"alphe","steam_id":76561198039346340,"connected_time":297000000000,"state":"active","ping":78},{"user_id":305,"name":"Reyloko","steam_id":76561198172480913,"connected_time":11050000000000,"state":"active","ping":60},{"user_id":440,"name":"Kuchio","steam_id":76561198161218914,"connected_time":1092000000000,"state":"active","ping":92},{"user_id":439,"name":"Chowdie","steam_id":76561198039605762,"connected_time":1411000000000,"state":"active","ping":87},{"user_id":431,"name":"Jinx","steam_id":76561198010088266,"connected_time":2469000000000,"state":"active","ping":94},{"user_id":428,"name":"Fantion","steam_id":76561198139000042,"connected_time":2677000000000,"state":"active","ping":98},{"user_id":448,"name":"Tetanus Bob","steam_id":76561198074500319,"connected_time":239000000000,"state":"active","ping":101},{"user_id":434,"name":"Superxbossman","steam_id":76561199162569586,"connected_time":2384000000000,"state":"active","ping":80},{"user_id":433,"name":"TTV/PolperLane","steam_id":76561198079439317,"connected_time":2397000000000,"state":"active","ping":65}]},{"server_id":5,"name":"Uncletopia | Frankfurt | 1 | All Maps","name_short":"frk-1","host":"frk-1.de.uncletopia.com","port":27015,"enabled":true,"region":"eu","cc":"de","latitude":50.110924,"longitude":8.682127,"reserved":0,"last_update":"0001-01-01T00:00:00Z","name_a2s":"Uncletopia | Frankfurt | 1 | All Maps","protocol":17,"map":"pl_borneo","folder":"tf","game":"Team Fortress","app_id":440,"player_count":0,"max_players":24,"Bots":0,"server_type":"Dedicated","server_os":"Linux","password":true,"vac":true,"version":"7742253","steam_id":85568392924469989,"keywords":["nocrits","nodmgspread","payload","uncletopia"],"game_id":440,"stv_port":27016,"stv_name":"Uncletopia | Frankfurt | 1 | All Maps | STV","players":null},{"server_id":110,"name":"Uncletopia | Frankfurt | 2 | All Maps","name_short":"frk-2","host":"frk-1.de.uncletopia.com","port":27025,"enabled":true,"region":"eu","cc":"de","latitude":50.110924,"longitude":8.682127,"reserved":0,"last_update":"0001-01-01T00:00:00Z","name_a2s":"Uncletopia | Frankfurt | 2 | All Maps","protocol":17,"map":"pl_swiftwater_final1","folder":"tf","game":"Team Fortress","app_id":440,"player_count":0,"max_players":24,"Bots":0,"server_type":"Dedicated","server_os":"Linux","password":true,"vac":true,"version":"7742253","steam_id":85568392924469990,"keywords":["nocrits","nodmgspread","payload","uncletopia"],"game_id":440,"stv_port":27026,"stv_name":"Uncletopia | Frankfurt | 2 | All Maps | STV","players":null},{"server_id":308,"name":"Uncletopia | Frankfurt | 3 | All Maps","name_short":"frk-3","host":"frk-1.de.uncletopia.com","port":27035,"enabled":true,"region":"eu","cc":"de","latitude":50.110924,"longitude":8.682127,"reserved":0,"last_update":"0001-01-01T00:00:00Z","name_a2s":"Uncletopia | Frankfurt | 3 | All Maps","protocol":17,"map":"cp_dustbowl","folder":"tf","game":"Team Fortress","app_id":440,"player_count":0,"max_players":24,"Bots":0,"server_type":"Dedicated","server_os":"Linux","password":true,"vac":true,"version":"7742253","steam_id":85568392924504274,"keywords":["cp","nocrits","nodmgspread","uncletopia"],"game_id":440,"stv_port":27036,"stv_name":"Uncletopia | Frankfurt | 3 | All Maps | STV","players":null},{"server_id":309,"name":"Uncletopia | Frankfurt | 4 | All Maps","name_short":"frk-4","host":"frk-1.de.uncletopia.com","port":27045,"enabled":true,"region":"eu","cc":"de","latitude":50.110924,"longitude":8.682127,"reserved":0,"last_update":"0001-01-01T00:00:00Z","name_a2s":"Uncletopia | Frankfurt | 4 | All Maps","protocol":17,"map":"cp_sunshine","folder":"tf","game":"Team Fortress","app_id":440,"player_count":0,"max_players":24,"Bots":0,"server_type":"Dedicated","server_os":"Linux","password":true,"vac":true,"version":"7742253","steam_id":85568392924504275,"keywords":["cp","nocrits","nodmgspread","uncletopia"],"game_id":440,"stv_port":27046,"stv_name":"Uncletopia | Frankfurt | 4 | All Maps | STV","players":null},{"server_id":310,"name":"Uncletopia | Frankfurt | 5 | All Maps","name_short":"frk-5","host":"frk-1.de.uncletopia.com","port":27055,"enabled":true,"region":"eu","cc":"de","latitude":50.110924,"longitude":8.682127,"reserved":0,"last_update":"0001-01-01T00:00:00Z","name_a2s":"Uncletopia | Frankfurt | 5 | All Maps","protocol":17,"map":"koth_highpass","folder":"tf","game":"Team Fortress","app_id":440,"player_count":0,"max_players":24,"Bots":0,"server_type":"Dedicated","server_os":"Linux","password":true,"vac":true,"version":"7742253","steam_id":85568392924504277,"keywords":["cp","nocrits","nodmgspread","uncletopia"],"game_id":440,"stv_port":27056,"stv_name":"Uncletopia | Frankfurt | 5 | All Maps | STV","players":null},{"server_id":311,"name":"Uncletopia | Frankfurt | 6 | All Maps","name_short":"frk-6","host":"frk-1.de.uncletopia.com","port":27065,"enabled":true,"region":"eu","cc":"de","latitude":50.110924,"longitude":8.682127,"reserved":0,"last_update":"0001-01-01T00:00:00Z","name_a2s":"Uncletopia | Frankfurt | 6 | All Maps","protocol":17,"map":"koth_lakeside_final","folder":"tf","game":"Team Fortress","app_id":440,"player_count":0,"max_players":24,"Bots":0,"server_type":"Dedicated","server_os":"Linux","password":true,"vac":true,"version":"7742253","steam_id":85568392924504278,"keywords":["cp","nocrits","nodmgspread","uncletopia"],"game_id":440,"stv_port":27066,"stv_name":"Uncletopia | Frankfurt | 6 | All Maps | STV","players":null},{"server_id":23,"name":"Uncletopia | Frankfurt | 7 | Stopwatch Beta","name_short":"frk-7","host":"frk-1.de.uncletopia.com","port":27075,"enabled":true,"region":"eu","cc":"de","latitude":50.110924,"longitude":8.682127,"reserved":0,"last_update":"0001-01-01T00:00:00Z","name_a2s":"Uncletopia | Frankfurt | 7 | Stopwatch Beta","protocol":17,"map":"pl_badwater","folder":"tf","game":"Team Fortress","app_id":440,"player_count":0,"max_players":24,"Bots":0,"server_type":"Dedicated","server_os":"Linux","password":true,"vac":true,"version":"7742253","steam_id":85568392924742827,"keywords":["nocrits","nodmgspread","payload","uncletopia"],"game_id":440,"stv_port":27076,"stv_name":"Uncletopia | Frankfurt | 7 | Stopwatch Beta | STV","players":null},{"server_id":24,"name":"Uncletopia | Frankfurt | 8 | Community","name_short":"frk-8","host":"frk-1.de.uncletopia.com","port":27085,"enabled":true,"region":"eu","cc":"de","latitude":50.110924,"longitude":8.682127,"reserved":0,"last_update":"0001-01-01T00:00:00Z","name_a2s":"Uncletopia | Frankfurt | 8 | Community","protocol":17,"map":"koth_cascade","folder":"tf","game":"Team Fortress","app_id":440,"player_count":0,"max_players":24,"Bots":0,"server_type":"Dedicated","server_os":"Linux","password":true,"vac":true,"version":"7742253","steam_id":85568392924742828,"keywords":["cp","nocrits","nodmgspread","uncletopia"],"game_id":440,"stv_port":27086,"stv_name":"Uncletopia | Frankfurt | 8 | Community | STV","players":null},{"server_id":202,"name":"Uncletopia | Hong Kong | 1 | All Maps","name_short":"hgk-1","host":"hgk-1.hk.uncletopia.com","port":27015,"enabled":true,"region":"asia","cc":"hk","latitude":22.302711,"longitude":114.177216,"reserved":0,"last_update":"0001-01-01T00:00:00Z","name_a2s":"Uncletopia | Hong Kong | 1 | All Maps","protocol":17,"map":"pl_upward","folder":"tf","game":"Team Fortress","app_id":440,"player_count":24,"max_players":24,"Bots":0,"server_type":"Dedicated","server_os":"Linux","password":true,"vac":true,"version":"7742253","steam_id":85568392924494504,"keywords":["nocrits","nodmgspread","payload","uncletopia"],"game_id":440,"stv_port":27016,"stv_name":"Uncletopia | Hong Kong | 1 | All Maps | STV","players":[{"user_id":187,"name":"BOK","steam_id":76561198095872644,"connected_time":3501000000000,"state":"active","ping":79},{"user_id":121,"name":":D","steam_id":76561198009692495,"connected_time":7389000000000,"state":"active","ping":85},{"user_id":205,"name":"-exus1ai","steam_id":76561198136906917,"connected_time":1201000000000,"state":"active","ping":56},{"user_id":175,"name":"Lu","steam_id":76561198320532821,"connected_time":4001000000000,"state":"active","ping":63},{"user_id":215,"name":"Likes","steam_id":76561198012769267,"connected_time":564000000000,"state":"active","ping":105},{"user_id":212,"name":"thanks and have fun","steam_id":76561198748035294,"connected_time":694000000000,"state":"active","ping":109},{"user_id":201,"name":"ocha お茶 전통차","steam_id":76561199224096189,"connected_time":1321000000000,"state":"active","ping":85},{"user_id":196,"name":"meelee","steam_id":76561199227871384,"connected_time":2182000000000,"state":"active","ping":58},{"user_id":202,"name":"old chunk of coal","steam_id":76561197990537324,"connected_time":1318000000000,"state":"active","ping":148},{"user_id":213,"name":"worntag","steam_id":76561199056960214,"connected_time":668000000000,"state":"active","ping":143},{"user_id":197,"name":"lillalune","steam_id":76561198230213828,"connected_time":1354000000000,"state":"active","ping":65},{"user_id":150,"name":"Fluffy","steam_id":76561198316671856,"connected_time":6091000000000,"state":"active","ping":97},{"user_id":214,"name":"bad at everything","steam_id":76561199378524169,"connected_time":638000000000,"state":"active","ping":83},{"user_id":203,"name":"heronthebird","steam_id":76561198964411581,"connected_time":1314000000000,"state":"active","ping":67},{"user_id":211,"name":"sáu thiện nhân","steam_id":76561199373637717,"connected_time":708000000000,"state":"active","ping":120},{"user_id":191,"name":"P","steam_id":76561198304514505,"connected_time":2597000000000,"state":"active","ping":80},{"user_id":169,"name":"qb","steam_id":76561198412329672,"connected_time":4628000000000,"state":"active","ping":90},{"user_id":184,"name":"conq","steam_id":76561199110124835,"connected_time":3840000000000,"state":"active","ping":130},{"user_id":207,"name":"포말양홍원이센스칸예","steam_id":76561199443938682,"connected_time":738000000000,"state":"active","ping":112},{"user_id":185,"name":"Mao","steam_id":76561198250315764,"connected_time":3823000000000,"state":"active","ping":103},{"user_id":91,"name":"Urotsuki","steam_id":76561198074339034,"connected_time":8754000000000,"state":"active","ping":74},{"user_id":164,"name":"Violezine","steam_id":76561199000502615,"connected_time":5188000000000,"state":"active","ping":82},{"user_id":210,"name":"Cá Tháng 4","steam_id":76561198047162026,"connected_time":714000000000,"state":"active","ping":73},{"user_id":193,"name":"MAGNUS","steam_id":76561198208990721,"connected_time":2581000000000,"state":"active","ping":105}]},{"server_id":1,"name":"Uncletopia | Los Angeles | 1 | All Maps","name_short":"lax-1","host":"lax-1.us.uncletopia.com","port":27015,"enabled":true,"region":"us-west","cc":"us","latitude":33.94279,"longitude":-118.41004,"reserved":0,"last_update":"0001-01-01T00:00:00Z","name_a2s":"Uncletopia | Los Angeles | 1 | All Maps","protocol":17,"map":"koth_lakeside_final","folder":"tf","game":"Team Fortress","app_id":440,"player_count":0,"max_players":24,"Bots":0,"server_type":"Dedicated","server_os":"Linux","password":true,"vac":true,"version":"7742253","steam_id":85568392924469991,"keywords":["cp","nocrits","nodmgspread","uncletopia"],"game_id":440,"stv_port":27016,"stv_name":"Uncletopia | Los Angeles | 1 | All Maps | STV","players":null},{"server_id":112,"name":"Uncletopia | Los Angeles | 2 | All Maps","name_short":"lax-2","host":"lax-1.us.uncletopia.com","port":27025,"enabled":true,"region":"us-west","cc":"us","latitude":33.94279,"longitude":-118.41004,"reserved":0,"last_update":"0001-01-01T00:00:00Z","name_a2s":"Uncletopia | Los Angeles | 2 | All Maps","protocol":17,"map":"pl_borneo","folder":"tf","game":"Team Fortress","app_id":440,"player_count":24,"max_players":24,"Bots":0,"server_type":"Dedicated","server_os":"Linux","password":true,"vac":true,"version":"7742253","steam_id":85568392924469992,"keywords":["nocrits","nodmgspread","payload","uncletopia"],"game_id":440,"stv_port":27026,"stv_name":"Uncletopia | Los Angeles | 2 | All Maps | STV","players":[{"user_id":432,"name":"Americanfailure","steam_id":76561198880985302,"connected_time":2041000000000,"state":"active","ping":69},{"user_id":356,"name":"Pyrotek⁴","steam_id":76561198072747672,"connected_time":7566000000000,"state":"active","ping":45},{"user_id":309,"name":"Frazzer","steam_id":76561198088679707,"connected_time":8497000000000,"state":"active","ping":45},{"user_id":399,"name":"Petroleum Jelly","steam_id":76561198118778800,"connected_time":5367000000000,"state":"active","ping":47},{"user_id":398,"name":"Delimeat","steam_id":76561198043824595,"connected_time":5528000000000,"state":"active","ping":45},{"user_id":440,"name":"kirkland signature","steam_id":76561198062712676,"connected_time":1226000000000,"state":"active","ping":74},{"user_id":441,"name":"Qinxnix","steam_id":76561198091538771,"connected_time":1223000000000,"state":"active","ping":57},{"user_id":427,"name":"Lune","steam_id":76561198124572077,"connected_time":2313000000000,"state":"active","ping":94},{"user_id":437,"name":"kr1tsurf3r","steam_id":76561198076402476,"connected_time":1598000000000,"state":"active","ping":60},{"user_id":425,"name":"Bada Bingus","steam_id":76561198046743307,"connected_time":3087000000000,"state":"active","ping":119},{"user_id":445,"name":"THIRDPIERCE","steam_id":76561198405366314,"connected_time":644000000000,"state":"active","ping":91},{"user_id":428,"name":"SkovaDrat","steam_id":76561198839038945,"connected_time":2310000000000,"state":"active","ping":53},{"user_id":443,"name":"en.wikipedia.org/wiki/Nae_Nae","steam_id":76561198418288939,"connected_time":1196000000000,"state":"active","ping":57},{"user_id":439,"name":"beatrix-mas","steam_id":76561199057103062,"connected_time":1260000000000,"state":"active","ping":62},{"user_id":444,"name":"lukednoob","steam_id":76561199158872193,"connected_time":1147000000000,"state":"active","ping":46},{"user_id":433,"name":"Sergeant Sear","steam_id":76561197963477221,"connected_time":1995000000000,"state":"active","ping":47},{"user_id":402,"name":"master_minion","steam_id":76561198170693990,"connected_time":5192000000000,"state":"active","ping":47},{"user_id":404,"name":"a festive sooley","steam_id":76561198134500189,"connected_time":5145000000000,"state":"active","ping":109},{"user_id":426,"name":"Barnie Sandlers","steam_id":76561198153295482,"connected_time":2613000000000,"state":"active","ping":36},{"user_id":421,"name":"NagitoTheLucky","steam_id":76561198065096327,"connected_time":3331000000000,"state":"active","ping":60},{"user_id":422,"name":"squid","steam_id":76561198070236972,"connected_time":3327000000000,"state":"active","ping":60},{"user_id":424,"name":"Veritox","steam_id":76561198075778026,"connected_time":3303000000000,"state":"active","ping":58},{"user_id":434,"name":"Antis","steam_id":76561198055790522,"connected_time":1972000000000,"state":"active","ping":55},{"user_id":409,"name":"13","steam_id":76561198174655403,"connected_time":4661000000000,"state":"active","ping":68}]},{"server_id":324,"name":"Uncletopia | Los Angeles | 3 | All Maps","name_short":"lax-3","host":"lax-1.us.uncletopia.com","port":27035,"enabled":true,"region":"us-west","cc":"us","latitude":33.94279,"longitude":-118.41004,"reserved":0,"last_update":"0001-01-01T00:00:00Z","name_a2s":"Uncletopia | Los Angeles | 3 | All Maps","protocol":17,"map":"pl_pier","folder":"tf","game":"Team Fortress","app_id":440,"player_count":20,"max_players":24,"Bots":0,"server_type":"Dedicated","server_os":"Linux","password":true,"vac":true,"version":"7742253","steam_id":85568392924510198,"keywords":["nocrits","nodmgspread","payload","uncletopia"],"game_id":440,"stv_port":27036,"stv_name":"Uncletopia | Los Angeles | 3 | All Maps | STV","players":[{"user_id":220,"name":"SciFri","steam_id":76561197994651669,"connected_time":1007000000000,"state":"connecting","ping":138},{"user_id":219,"name":"THANOPOD!!!!!!!!!!","steam_id":76561198201875359,"connected_time":1199000000000,"state":"connecting","ping":168},{"user_id":224,"name":"Abobo","steam_id":76561198161817421,"connected_time":396000000000,"state":"connecting","ping":104},{"user_id":151,"name":"autumn","steam_id":76561198036901822,"connected_time":6247000000000,"state":"spawning","ping":98},{"user_id":205,"name":"Large Man","steam_id":76561198880396651,"connected_time":3066000000000,"state":"connecting","ping":132},{"user_id":156,"name":"Mitty","steam_id":76561198014177684,"connected_time":5700000000000,"state":"connecting","ping":63},{"user_id":195,"name":"The Robot Menace","steam_id":76561198043390413,"connected_time":3376000000000,"state":"spawning","ping":107},{"user_id":200,"name":"Frank HardWood","steam_id":76561198109364911,"connected_time":3263000000000,"state":"connecting","ping":128},{"user_id":217,"name":"El Gato Paranoico","steam_id":76561198116567116,"connected_time":1455000000000,"state":"connecting","ping":120},{"user_id":158,"name":"「Jimbo Reference」","steam_id":76561198016078541,"connected_time":5613000000000,"state":"connecting","ping":56},{"user_id":228,"name":"Wess","steam_id":76561198302735017,"connected_time":174000000000,"state":"connecting","ping":103},{"user_id":218,"name":"The Hoagie Hero","steam_id":76561198057569298,"connected_time":1427000000000,"state":"connecting","ping":146},{"user_id":213,"name":"macaroli","steam_id":76561198969523979,"connected_time":1624000000000,"state":"connecting","ping":59},{"user_id":229,"name":"kezia","steam_id":76561198059815894,"connected_time":6000000000,"state":"connecting","ping":118},{"user_id":193,"name":"supatrip","steam_id":76561198131030886,"connected_time":3796000000000,"state":"connecting","ping":83},{"user_id":203,"name":"Joan of Arc","steam_id":76561198056219848,"connected_time":3210000000000,"state":"connecting","ping":141},{"user_id":216,"name":"Thrashmatic","steam_id":76561198190996007,"connected_time":1560000000000,"state":"spawning","ping":80},{"user_id":194,"name":"fuzzorino","steam_id":76561198093146293,"connected_time":3711000000000,"state":"connecting","ping":79},{"user_id":211,"name":"bansheerubber","steam_id":76561198042009362,"connected_time":1892000000000,"state":"connecting","ping":70},{"user_id":222,"name":"John Wick's puppy","steam_id":76561198064662875,"connected_time":587000000000,"state":"connecting","ping":71}]},{"server_id":25,"name":"Uncletopia | Los Angeles | 4 | Stopwatch Beta","name_short":"lax-4","host":"lax-1.us.uncletopia.com","port":27045,"enabled":true,"region":"us-west","cc":"us","latitude":33.94279,"longitude":-118.41004,"reserved":0,"last_update":"0001-01-01T00:00:00Z","name_a2s":"Uncletopia | Los Angeles | 4 | Stopwatch Beta","protocol":17,"map":"pl_borneo","folder":"tf","game":"Team Fortress","app_id":440,"player_count":0,"max_players":24,"Bots":0,"server_type":"Dedicated","server_os":"Linux","password":true,"vac":true,"version":"7742253","steam_id":85568392924510199,"keywords":["nocrits","nodmgspread","payload","uncletopia"],"game_id":440,"stv_port":27046,"stv_name":"Uncletopia | Los Angeles | 4 | Stopwatch Beta | STV","players":null},{"server_id":11,"name":"Uncletopia | London | 1 | All Maps","name_short":"lon-1","host":"lon-1.uk.uncletopia.com","port":27015,"enabled":true,"region":"eu","cc":"gb","latitude":51.509865,"longitude":-0.118092,"reserved":0,"last_update":"0001-01-01T00:00:00Z","name_a2s":"Uncletopia | London | 1 | All Maps","protocol":17,"map":"cp_dustbowl","folder":"tf","game":"Team Fortress","app_id":440,"player_count":0,"max_players":24,"Bots":0,"server_type":"Dedicated","server_os":"Linux","password":true,"vac":true,"version":"7742253","steam_id":85568392924367362,"keywords":["cp","nocrits","nodmgspread","uncletopia"],"game_id":440,"stv_port":27016,"stv_name":"Uncletopia | London | 1 | All Maps | STV","players":null},{"server_id":114,"name":"Uncletopia | London | 2 | All Maps","name_short":"lon-2","host":"lon-1.uk.uncletopia.com","port":27025,"enabled":true,"region":"eu","cc":"gb","latitude":51.509865,"longitude":-0.118092,"reserved":0,"last_update":"0001-01-01T00:00:00Z","name_a2s":"Uncletopia | London | 2 | All Maps","protocol":17,"map":"cp_process_final","folder":"tf","game":"Team Fortress","app_id":440,"player_count":24,"max_players":24,"Bots":0,"server_type":"Dedicated","server_os":"Linux","password":true,"vac":true,"version":"7742253","steam_id":85568392924470941,"keywords":["cp","nocrits","nodmgspread","uncletopia"],"game_id":440,"stv_port":27026,"stv_name":"Uncletopia | London | 2 | All Maps | STV","players":[{"user_id":1115,"name":"Kali","steam_id":76561198070745106,"connected_time":2453000000000,"state":"active","ping":43},{"user_id":1124,"name":"Pinkchup","steam_id":76561198106802803,"connected_time":1233000000000,"state":"active","ping":90},{"user_id":1129,"name":"akirajimbo","steam_id":76561197979960008,"connected_time":1002000000000,"state":"active","ping":106},{"user_id":1118,"name":"duster cat","steam_id":76561198832231975,"connected_time":1815000000000,"state":"active","ping":91},{"user_id":1126,"name":"murderwow","steam_id":76561198024566944,"connected_time":1108000000000,"state":"active","ping":111},{"user_id":1116,"name":"parrot","steam_id":76561198029873185,"connected_time":2098000000000,"state":"active","ping":57},{"user_id":1090,"name":"IKARUS","steam_id":76561198850898422,"connected_time":5158000000000,"state":"active","ping":64},{"user_id":1123,"name":"zLowNemesis","steam_id":76561198870863407,"connected_time":1355000000000,"state":"active","ping":89},{"user_id":1080,"name":"Luigi Gaming (real and official","steam_id":76561198082502910,"connected_time":5722000000000,"state":"active","ping":64},{"user_id":1122,"name":"BONK","steam_id":76561199120275042,"connected_time":1404000000000,"state":"active","ping":60},{"user_id":1081,"name":"engri\u003e:[","steam_id":76561198202059054,"connected_time":5654000000000,"state":"active","ping":70},{"user_id":1117,"name":"Saudi X","steam_id":76561199019798461,"connected_time":1838000000000,"state":"active","ping":152},{"user_id":1137,"name":"khuligan.abdullah.95","steam_id":76561198349000185,"connected_time":104000000000,"state":"active","ping":75},{"user_id":1111,"name":"Mr_Gamr211","steam_id":76561198960079818,"connected_time":2936000000000,"state":"active","ping":108},{"user_id":1106,"name":"upisfree","steam_id":76561198064037857,"connected_time":3488000000000,"state":"active","ping":120},{"user_id":1127,"name":"[T]aKer","steam_id":76561198001778013,"connected_time":1077000000000,"state":"active","ping":46},{"user_id":1136,"name":"Scutchy","steam_id":76561198104431220,"connected_time":260000000000,"state":"active","ping":46},{"user_id":1107,"name":"0.0.0.0.00.0.000.00..00.0.0","steam_id":76561198170334258,"connected_time":3436000000000,"state":"active","ping":71},{"user_id":1133,"name":"Joltcreet","steam_id":76561198056212712,"connected_time":468000000000,"state":"active","ping":155},{"user_id":1134,"name":"Groose","steam_id":76561198261094295,"connected_time":412000000000,"state":"active","ping":62},{"user_id":1121,"name":"Donald Trump","steam_id":76561198160884318,"connected_time":1563000000000,"state":"active","ping":90},{"user_id":1110,"name":"Pinroe","steam_id":76561198968160899,"connected_time":3366000000000,"state":"active","ping":50},{"user_id":1135,"name":"mordecai","steam_id":76561198000689264,"connected_time":283000000000,"state":"active","ping":90},{"user_id":1075,"name":"thekoolest88","steam_id":76561199022415672,"connected_time":6021000000000,"state":"active","ping":146}]},{"server_id":320,"name":"Uncletopia | London | 3 | All Maps","name_short":"lon-3","host":"lon-1.uk.uncletopia.com","port":27035,"enabled":true,"region":"eu","cc":"gb","latitude":51.509865,"longitude":-0.118092,"reserved":0,"last_update":"0001-01-01T00:00:00Z","name_a2s":"Uncletopia | London | 3 | All Maps","protocol":17,"map":"koth_viaduct","folder":"tf","game":"Team Fortress","app_id":440,"player_count":0,"max_players":24,"Bots":0,"server_type":"Dedicated","server_os":"Linux","password":true,"vac":true,"version":"7742253","steam_id":85568392924510192,"keywords":["cp","nocrits","nodmgspread","uncletopia"],"game_id":440,"stv_port":27036,"stv_name":"Uncletopia | London | 3 | All Maps | STV","players":null},{"server_id":321,"name":"Uncletopia | London | 4 | All Maps","name_short":"lon-4","host":"lon-1.uk.uncletopia.com","port":27045,"enabled":true,"region":"eu","cc":"gb","latitude":51.509865,"longitude":-0.118092,"reserved":0,"last_update":"0001-01-01T00:00:00Z","name_a2s":"Uncletopia | London | 4 | All Maps","protocol":17,"map":"koth_cascade","folder":"tf","game":"Team Fortress","app_id":440,"player_count":0,"max_players":24,"Bots":0,"server_type":"Dedicated","server_os":"Linux","password":true,"vac":true,"version":"7742253","steam_id":85568392924510193,"keywords":["cp","nocrits","nodmgspread","uncletopia"],"game_id":440,"stv_port":27046,"stv_name":"Uncletopia | London | 4 | All Maps | STV","players":null},{"server_id":21,"name":"Uncletopia | London | 5 | All Maps","name_short":"lon-5","host":"lon-1.uk.uncletopia.com","port":27055,"enabled":true,"region":"eu","cc":"gb","latitude":51.509865,"longitude":-0.118092,"reserved":0,"last_update":"0001-01-01T00:00:00Z","name_a2s":"Uncletopia | London | 5 | All Maps","protocol":17,"map":"koth_viaduct","folder":"tf","game":"Team Fortress","app_id":440,"player_count":0,"max_players":24,"Bots":0,"server_type":"Dedicated","server_os":"Linux","password":true,"vac":true,"version":"7742253","steam_id":85568392924742829,"keywords":["cp","nocrits","nodmgspread","uncletopia"],"game_id":440,"stv_port":27056,"stv_name":"Uncletopia | London | 5 | All Maps | STV","players":null},{"server_id":22,"name":"Uncletopia | London | 6 | All Maps","name_short":"lon-6","host":"lon-1.uk.uncletopia.com","port":27065,"enabled":true,"region":"eu","cc":"gb","latitude":51.509865,"longitude":-0.118092,"reserved":0,"last_update":"0001-01-01T00:00:00Z","name_a2s":"Uncletopia | London | 6 | All Maps","protocol":17,"map":"koth_cascade","folder":"tf","game":"Team Fortress","app_id":440,"player_count":0,"max_players":24,"Bots":0,"server_type":"Dedicated","server_os":"Linux","password":true,"vac":true,"version":"7742253","steam_id":85568392924742830,"keywords":["cp","nocrits","nodmgspread","uncletopia"],"game_id":440,"stv_port":27066,"stv_name":"Uncletopia | London | 6 | All Maps | STV","players":null},{"server_id":40,"name":"Uncletopia | London | 7 | No Payload","name_short":"lon-7","host":"lon-1.uk.uncletopia.com","port":27075,"enabled":true,"region":"eu","cc":"gb","latitude":51.509865,"longitude":-0.118092,"reserved":0,"last_update":"0001-01-01T00:00:00Z","name_a2s":"Uncletopia | London | 7 | No Payload","protocol":17,"map":"koth_badlands","folder":"tf","game":"Team Fortress","app_id":440,"player_count":0,"max_players":24,"Bots":0,"server_type":"Dedicated","server_os":"Linux","password":true,"vac":true,"version":"7742253","steam_id":85568392924964314,"keywords":["cp","nocrits","nodmgspread","uncletopia"],"game_id":440,"stv_port":27076,"stv_name":"Uncletopia | London | 7 | No Payload | STV","players":null},{"server_id":41,"name":"Uncletopia | London | 8 | Community","name_short":"lon-8","host":"lon-1.uk.uncletopia.com","port":27085,"enabled":true,"region":"eu","cc":"gb","latitude":51.509865,"longitude":-0.118092,"reserved":0,"last_update":"0001-01-01T00:00:00Z","name_a2s":"Uncletopia | London | 8 | Community","protocol":17,"map":"workshop/koth_slaughter_rc1.ugc1712845210","folder":"tf","game":"Team Fortress","app_id":440,"player_count":0,"max_players":24,"Bots":0,"server_type":"Dedicated","server_os":"Linux","password":true,"vac":true,"version":"7742253","steam_id":85568392924964315,"keywords":["cp","nocrits","nodmgspread","uncletopia"],"game_id":440,"stv_port":27086,"stv_name":"Uncletopia | London | 8 | Community | STV","players":null},{"server_id":300,"name":"Uncletopia | Montréal | 1 | All Maps","name_short":"mtl-1","host":"mtl-1.ca.uncletopia.com","port":27015,"enabled":true,"region":"us-east","cc":"ca","latitude":45.50889,"longitude":-73.56167,"reserved":0,"last_update":"0001-01-01T00:00:00Z","name_a2s":"Uncletopia | Montréal | 1 | All Maps","protocol":17,"map":"pl_snowycoast","folder":"tf","game":"Team Fortress","app_id":440,"player_count":0,"max_players":24,"Bots":0,"server_type":"Dedicated","server_os":"Linux","password":true,"vac":true,"version":"7742253","steam_id":85568392924500087,"keywords":["nocrits","nodmgspread","payload","uncletopia"],"game_id":440,"stv_port":27016,"stv_name":"Uncletopia | Montréal | 1 | All Maps | STV","players":null},{"server_id":301,"name":"Uncletopia | Montréal | 2 | All Maps","name_short":"mtl-2","host":"mtl-1.ca.uncletopia.com","port":27025,"enabled":true,"region":"us-east","cc":"ca","latitude":45.50889,"longitude":-73.56167,"reserved":0,"last_update":"0001-01-01T00:00:00Z","name_a2s":"Uncletopia | Montréal | 2 | All Maps","protocol":17,"map":"koth_highpass","folder":"tf","game":"Team Fortress","app_id":440,"player_count":0,"max_players":24,"Bots":0,"server_type":"Dedicated","server_os":"Linux","password":true,"vac":true,"version":"7742253","steam_id":85568392924500088,"keywords":["cp","nocrits","nodmgspread","uncletopia"],"game_id":440,"stv_port":27026,"stv_name":"Uncletopia | Montréal | 2 | All Maps | STV","players":null},{"server_id":302,"name":"Uncletopia | Montréal | 3 | All Maps","name_short":"mtl-3","host":"mtl-1.ca.uncletopia.com","port":27035,"enabled":true,"region":"us-east","cc":"ca","latitude":45.50889,"longitude":-73.56167,"reserved":0,"last_update":"0001-01-01T00:00:00Z","name_a2s":"Uncletopia | Montréal | 3 | All Maps","protocol":17,"map":"pl_badwater","folder":"tf","game":"Team Fortress","app_id":440,"player_count":24,"max_players":24,"Bots":0,"server_type":"Dedicated","server_os":"Linux","password":true,"vac":true,"version":"7742253","steam_id":85568392924500089,"keywords":["nocrits","nodmgspread","payload","uncletopia"],"game_id":440,"stv_port":27036,"stv_name":"Uncletopia | Montréal | 3 | All Maps | STV","players":[{"user_id":109,"name":"Elena Manetta","steam_id":76561197998344054,"connected_time":1068000000000,"state":"active","ping":44},{"user_id":81,"name":"Lucy","steam_id":76561198424603937,"connected_time":2300000000000,"state":"active","ping":80},{"user_id":101,"name":"North Central Positronics Rep","steam_id":76561198133718360,"connected_time":1640000000000,"state":"active","ping":54},{"user_id":85,"name":"70camarofan","steam_id":76561198840416895,"connected_time":2161000000000,"state":"active","ping":65},{"user_id":95,"name":"JoeShmo29","steam_id":76561198218745481,"connected_time":1797000000000,"state":"active","ping":59},{"user_id":110,"name":"Gelidus","steam_id":76561198817304634,"connected_time":1068000000000,"state":"active","ping":93},{"user_id":111,"name":"BrownMemeSter","steam_id":76561198113745020,"connected_time":1046000000000,"state":"active","ping":52},{"user_id":112,"name":"craftycrafterwastaken","steam_id":76561199217624073,"connected_time":990000000000,"state":"active","ping":129},{"user_id":91,"name":"Block Dude","steam_id":76561199159323271,"connected_time":1846000000000,"state":"active","ping":138},{"user_id":119,"name":"Rudy","steam_id":76561198013456828,"connected_time":132000000000,"state":"active","ping":45},{"user_id":21,"name":"burial","steam_id":76561198069431694,"connected_time":6384000000000,"state":"active","ping":62},{"user_id":105,"name":"The Absolute Worst","steam_id":76561199465652640,"connected_time":1406000000000,"state":"active","ping":103},{"user_id":113,"name":"Bacon","steam_id":76561198016585383,"connected_time":985000000000,"state":"active","ping":75},{"user_id":114,"name":"Trey","steam_id":76561198208069087,"connected_time":971000000000,"state":"active","ping":118},{"user_id":94,"name":"Tonyyo45","steam_id":76561199146907104,"connected_time":1807000000000,"state":"active","ping":95},{"user_id":104,"name":"Chuck Finley","steam_id":76561198027411284,"connected_time":1427000000000,"state":"active","ping":89},{"user_id":115,"name":"Big_John.exe","steam_id":76561198149587627,"connected_time":871000000000,"state":"active","ping":97},{"user_id":37,"name":"tomboytysen","steam_id":76561198149641643,"connected_time":4982000000000,"state":"active","ping":62},{"user_id":97,"name":"mrsanto15","steam_id":76561199311793955,"connected_time":1733000000000,"state":"active","ping":48},{"user_id":76,"name":"Sapphireblitz","steam_id":76561198272635379,"connected_time":2923000000000,"state":"active","ping":72},{"user_id":116,"name":"t.tv/FamilyGuyFunnyMoments277","steam_id":76561198416047580,"connected_time":824000000000,"state":"active","ping":61},{"user_id":100,"name":"man","steam_id":76561199365643094,"connected_time":1663000000000,"state":"active","ping":106},{"user_id":56,"name":"RyInc","steam_id":76561198874261643,"connected_time":4256000000000,"state":"active","ping":39},{"user_id":120,"name":"Saristan","steam_id":76561198093346048,"connected_time":11000000000,"state":"active","ping":85}]},{"server_id":303,"name":"Uncletopia | Montréal | 4 | No Payload","name_short":"mtl-4","host":"mtl-1.ca.uncletopia.com","port":27045,"enabled":true,"region":"us-east","cc":"ca","latitude":45.50889,"longitude":-73.56167,"reserved":0,"last_update":"0001-01-01T00:00:00Z","name_a2s":"Uncletopia | Montréal | 4 | No Payload","protocol":17,"map":"koth_nucleus","folder":"tf","game":"Team Fortress","app_id":440,"player_count":0,"max_players":24,"Bots":0,"server_type":"Dedicated","server_os":"Linux","password":true,"vac":true,"version":"7742253","steam_id":85568392924500090,"keywords":["cp","nocrits","nodmgspread","uncletopia"],"game_id":440,"stv_port":27046,"stv_name":"Uncletopia | Montréal | 4 | No Payload | STV","players":null},{"server_id":13,"name":"Uncletopia | New York City | 1 | All Maps","name_short":"nyc-1","host":"nyc-1.us.uncletopia.com","port":27015,"enabled":true,"region":"us-east","cc":"us","latitude":40.73061,"longitude":-73.93524,"reserved":0,"last_update":"0001-01-01T00:00:00Z","name_a2s":"Uncletopia | New York City | 1 | All Maps","protocol":17,"map":"koth_highpass","folder":"tf","game":"Team Fortress","app_id":440,"player_count":0,"max_players":24,"Bots":0,"server_type":"Dedicated","server_os":"Linux","password":true,"vac":true,"version":"7742253","steam_id":85568392924469993,"keywords":["cp","nocrits","nodmgspread","uncletopia"],"game_id":440,"stv_port":27016,"stv_name":"Uncletopia | New York City | 1 | All Maps | STV","players":null},{"server_id":14,"name":"Uncletopia | New York City | 2 | All Maps","name_short":"nyc-2","host":"nyc-1.us.uncletopia.com","port":27025,"enabled":true,"region":"us-east","cc":"us","latitude":40.73061,"longitude":-73.93524,"reserved":0,"last_update":"0001-01-01T00:00:00Z","name_a2s":"Uncletopia | New York City | 2 | All Maps","protocol":17,"map":"pl_badwater","folder":"tf","game":"Team Fortress","app_id":440,"player_count":24,"max_players":24,"Bots":0,"server_type":"Dedicated","server_os":"Linux","password":true,"vac":true,"version":"7742253","steam_id":85568392924469994,"keywords":["nocrits","nodmgspread","payload","uncletopia"],"game_id":440,"stv_port":27026,"stv_name":"Uncletopia | New York City | 2 | All Maps | STV","players":[{"user_id":736,"name":"HondurasFan9","steam_id":76561199030493166,"connected_time":3110000000000,"state":"active","ping":114},{"user_id":760,"name":"TransInclusiveRadicalMisogynist","steam_id":76561198165208572,"connected_time":931000000000,"state":"active","ping":62},{"user_id":750,"name":"the12xu","steam_id":76561198197086561,"connected_time":2046000000000,"state":"active","ping":53},{"user_id":759,"name":"help","steam_id":76561198439506503,"connected_time":962000000000,"state":"active","ping":38},{"user_id":654,"name":"cyan","steam_id":76561198019387213,"connected_time":9262000000000,"state":"active","ping":64},{"user_id":755,"name":"Ronin Grinch","steam_id":76561198041439581,"connected_time":1427000000000,"state":"active","ping":55},{"user_id":748,"name":"Dark Clementine","steam_id":76561199061604280,"connected_time":2079000000000,"state":"active","ping":61},{"user_id":713,"name":"ndvr","steam_id":76561199379200102,"connected_time":5143000000000,"state":"active","ping":47},{"user_id":757,"name":"lyanide","steam_id":76561198311704368,"connected_time":1004000000000,"state":"active","ping":53},{"user_id":735,"name":"Oshel","steam_id":76561198388097417,"connected_time":3118000000000,"state":"active","ping":83},{"user_id":767,"name":"Milkaplier","steam_id":76561198056914302,"connected_time":631000000000,"state":"active","ping":82},{"user_id":746,"name":"dunbar miflean","steam_id":76561198055820772,"connected_time":2224000000000,"state":"active","ping":52},{"user_id":752,"name":"Daksuki","steam_id":76561198084127751,"connected_time":2028000000000,"state":"active","ping":90},{"user_id":743,"name":"Oni.Exe","steam_id":76561198856806147,"connected_time":2753000000000,"state":"active","ping":67},{"user_id":726,"name":"Horrizan","steam_id":76561197965028480,"connected_time":4663000000000,"state":"active","ping":88},{"user_id":740,"name":"Roz257","steam_id":76561198842844532,"connected_time":2980000000000,"state":"active","ping":82},{"user_id":738,"name":"Ballin \u0026 Can't Get Up","steam_id":76561198047394013,"connected_time":3083000000000,"state":"active","ping":59},{"user_id":695,"name":"Eduardo","steam_id":76561198236519984,"connected_time":6665000000000,"state":"active","ping":94},{"user_id":664,"name":"Professor Sin","steam_id":76561198079288027,"connected_time":8543000000000,"state":"active","ping":55},{"user_id":649,"name":"Bee_Pirate","steam_id":76561199000599111,"connected_time":9812000000000,"state":"active","ping":55},{"user_id":732,"name":"gamignfan2","steam_id":76561198278655467,"connected_time":3966000000000,"state":"active","ping":39},{"user_id":753,"name":"tethys","steam_id":76561199022899220,"connected_time":2023000000000,"state":"active","ping":50},{"user_id":758,"name":"VerSaKa","steam_id":76561198052392540,"connected_time":996000000000,"state":"active","ping":66},{"user_id":754,"name":"festive jester","steam_id":76561198079609974,"connected_time":2017000000000,"state":"active","ping":121}]},{"server_id":15,"name":"Uncletopia | New York City | 3 | Stopwatch Beta","name_short":"nyc-3","host":"nyc-1.us.uncletopia.com","port":27035,"enabled":true,"region":"us-east","cc":"us","latitude":40.73061,"longitude":-73.93524,"reserved":0,"last_update":"0001-01-01T00:00:00Z","name_a2s":"Uncletopia | New York City | 3 | Stopwatch Beta","protocol":17,"map":"workshop/pl_vigil_rc9.ugc1266210012","folder":"tf","game":"Team Fortress","app_id":440,"player_count":0,"max_players":24,"Bots":0,"server_type":"Dedicated","server_os":"Linux","password":true,"vac":true,"version":"7742253","steam_id":85568392924742820,"keywords":["nocrits","nodmgspread","payload","uncletopia"],"game_id":440,"stv_port":27036,"stv_name":"Uncletopia | New York City | 3 | Stopwatch Beta | STV","players":null},{"server_id":16,"name":"Uncletopia | New York City | 4 | Community","name_short":"nyc-4","host":"nyc-1.us.uncletopia.com","port":27045,"enabled":true,"region":"us-east","cc":"us","latitude":40.73061,"longitude":-73.93524,"reserved":0,"last_update":"0001-01-01T00:00:00Z","name_a2s":"Uncletopia | New York City | 4 | Community","protocol":17,"map":"workshop/koth_synthetic_rc6a.ugc1549817316","folder":"tf","game":"Team Fortress","app_id":440,"player_count":7,"max_players":24,"Bots":0,"server_type":"Dedicated","server_os":"Linux","password":true,"vac":true,"version":"7742253","steam_id":85568392924742821,"keywords":["cp","nocrits","nodmgspread","uncletopia"],"game_id":440,"stv_port":27046,"stv_name":"Uncletopia | New York City | 4 | Community | STV","players":[{"user_id":29,"name":"Mallow the duck","steam_id":76561199192305279,"connected_time":1479000000000,"state":"active","ping":51},{"user_id":30,"name":"Liudovik7007","steam_id":76561199361354500,"connected_time":1425000000000,"state":"active","ping":61},{"user_id":31,"name":"Wacko","steam_id":76561198333271604,"connected_time":790000000000,"state":"active","ping":61},{"user_id":32,"name":"Jolt","steam_id":76561198168669087,"connected_time":507000000000,"state":"active","ping":35},{"user_id":33,"name":"trubbabubba","steam_id":76561198095118127,"connected_time":359000000000,"state":"active","ping":88},{"user_id":34,"name":"Mackerel","steam_id":76561198044777481,"connected_time":110000000000,"state":"active","ping":52},{"user_id":35,"name":"redcheeseburger","steam_id":76561198059452248,"connected_time":19000000000,"state":"active","ping":51}]},{"server_id":142,"name":"Uncletopia | São Paulo | 1 | All Maps","name_short":"sao-1","host":"sao-1.br.uncletopia.com","port":27015,"enabled":true,"region":"sa","cc":"br","latitude":-23.533773,"longitude":-46.62529,"reserved":0,"last_update":"0001-01-01T00:00:00Z","name_a2s":"Uncletopia | São Paulo | 1 | All Maps","protocol":17,"map":"koth_lakeside_final","folder":"tf","game":"Team Fortress","app_id":440,"player_count":3,"max_players":24,"Bots":0,"server_type":"Dedicated","server_os":"Linux","password":true,"vac":true,"version":"7742253","steam_id":85568392924469996,"keywords":["cp","nocrits","nodmgspread","uncletopia"],"game_id":440,"stv_port":27016,"stv_name":"Uncletopia | São Paulo | 1 | All Maps | STV","players":[{"user_id":115,"name":"DogePlayer","steam_id":76561198304552173,"connected_time":4581000000000,"state":"active","ping":76},{"user_id":116,"name":"Gerente","steam_id":76561198190567717,"connected_time":4567000000000,"state":"active","ping":54},{"user_id":117,"name":"Gaming","steam_id":76561199072778609,"connected_time":4261000000000,"state":"active","ping":48}]},{"server_id":143,"name":"Uncletopia | São Paulo | 2 | All Maps","name_short":"sao-2","host":"sao-2.br.uncletopia.com","port":27015,"enabled":true,"region":"sa","cc":"br","latitude":-23.533773,"longitude":-46.62529,"reserved":0,"last_update":"0001-01-01T00:00:00Z","name_a2s":"Uncletopia | São Paulo | 2 | All Maps","protocol":17,"map":"pl_barnblitz","folder":"tf","game":"Team Fortress","app_id":440,"player_count":0,"max_players":24,"Bots":0,"server_type":"Dedicated","server_os":"Linux","password":true,"vac":true,"version":"7742253","steam_id":85568392924485349,"keywords":["nocrits","nodmgspread","payload","uncletopia"],"game_id":440,"stv_port":27016,"stv_name":"Uncletopia | São Paulo | 2 | All Maps | STV","players":null},{"server_id":7,"name":"Uncletopia | Seattle | 1 | All Maps","name_short":"sea-1","host":"sea-1.us.uncletopia.com","port":27015,"enabled":true,"region":"us-west","cc":"us","latitude":47.608013,"longitude":-122.33517,"reserved":0,"last_update":"0001-01-01T00:00:00Z","name_a2s":"Uncletopia | Seattle | 1 | All Maps","protocol":17,"map":"pl_coal_event","folder":"tf","game":"Team Fortress","app_id":440,"player_count":24,"max_players":24,"Bots":0,"server_type":"Dedicated","server_os":"Linux","password":true,"vac":true,"version":"7742253","steam_id":85568392924469997,"keywords":["nocrits","nodmgspread","payload","uncletopia"],"game_id":440,"stv_port":27016,"stv_name":"Uncletopia | Seattle | 1 | All Maps | STV","players":[{"user_id":733,"name":"Greskrendtregk","steam_id":76561197969553142,"connected_time":1188000000000,"state":"active","ping":60},{"user_id":705,"name":"Tom","steam_id":76561198070630154,"connected_time":4335000000000,"state":"active","ping":82},{"user_id":737,"name":"Csquared","steam_id":76561198169038599,"connected_time":993000000000,"state":"active","ping":92},{"user_id":675,"name":"WannaSeeA","steam_id":76561198097701042,"connected_time":7155000000000,"state":"active","ping":106},{"user_id":671,"name":"Mignyanne :3","steam_id":76561198048754056,"connected_time":7435000000000,"state":"active","ping":69},{"user_id":728,"name":"Ayayahuasca","steam_id":76561199002906056,"connected_time":1240000000000,"state":"active","ping":48},{"user_id":747,"name":"Brocklee","steam_id":76561198189330642,"connected_time":36000000000,"state":"active","ping":85},{"user_id":739,"name":"Snoogs","steam_id":76561198444880931,"connected_time":854000000000,"state":"active","ping":131},{"user_id":738,"name":"Pneumo.","steam_id":76561197987911883,"connected_time":939000000000,"state":"active","ping":57},{"user_id":735,"name":"minion from minions","steam_id":76561199001464827,"connected_time":1152000000000,"state":"active","ping":114},{"user_id":743,"name":"SofaKing","steam_id":76561198176691859,"connected_time":509000000000,"state":"active","ping":55},{"user_id":745,"name":"rin-rin","steam_id":76561198166827208,"connected_time":163000000000,"state":"active","ping":50},{"user_id":731,"name":"Sniff","steam_id":76561198010270922,"connected_time":1205000000000,"state":"active","ping":46},{"user_id":718,"name":"spenca","steam_id":76561198025371154,"connected_time":2579000000000,"state":"active","ping":82},{"user_id":693,"name":"penguinlord30","steam_id":76561198437116566,"connected_time":5355000000000,"state":"active","ping":56},{"user_id":685,"name":"jungus","steam_id":76561198129862008,"connected_time":6551000000000,"state":"active","ping":86},{"user_id":714,"name":"[TrC] Nosy","steam_id":76561197978859310,"connected_time":2859000000000,"state":"active","ping":64},{"user_id":715,"name":"mean penguin","steam_id":76561198174751517,"connected_time":2832000000000,"state":"active","ping":87},{"user_id":708,"name":"Fh","steam_id":76561198000903511,"connected_time":3663000000000,"state":"active","ping":74},{"user_id":724,"name":"eraser cat","steam_id":76561199045570463,"connected_time":1263000000000,"state":"active","ping":43},{"user_id":691,"name":"[TrC] Dackstrus","steam_id":76561197973518509,"connected_time":5374000000000,"state":"active","ping":66},{"user_id":712,"name":"mu","steam_id":76561197997530228,"connected_time":3195000000000,"state":"active","ping":64},{"user_id":746,"name":"Arsonist Goose","steam_id":76561198147441830,"connected_time":145000000000,"state":"active","ping":80}]},{"server_id":119,"name":"Uncletopia | Seattle | 2 | All Maps","name_short":"sea-2","host":"sea-1.us.uncletopia.com","port":27025,"enabled":true,"region":"us-west","cc":"us","latitude":47.608013,"longitude":-122.33517,"reserved":0,"last_update":"0001-01-01T00:00:00Z","name_a2s":"Uncletopia | Seattle | 2 | All Maps","protocol":17,"map":"pl_upward","folder":"tf","game":"Team Fortress","app_id":440,"player_count":24,"max_players":24,"Bots":0,"server_type":"Dedicated","server_os":"Linux","password":true,"vac":true,"version":"7742253","steam_id":85568392924469998,"keywords":["nocrits","nodmgspread","payload","uncletopia"],"game_id":440,"stv_port":27026,"stv_name":"Uncletopia | Seattle | 2 | All Maps | STV","players":[{"user_id":463,"name":"Optimore","steam_id":76561198047662990,"connected_time":3665000000000,"state":"active","ping":79},{"user_id":516,"name":"Samiho","steam_id":76561198984374561,"connected_time":496000000000,"state":"active","ping":75},{"user_id":498,"name":"Schnitz","steam_id":76561198265484253,"connected_time":1141000000000,"state":"active","ping":90},{"user_id":517,"name":"(Edited)","steam_id":76561198201657342,"connected_time":471000000000,"state":"active","ping":111},{"user_id":452,"name":"Sad Sapling","steam_id":76561198075612150,"connected_time":4929000000000,"state":"active","ping":96},{"user_id":499,"name":"Yoozer","steam_id":76561198420257694,"connected_time":1131000000000,"state":"active","ping":86},{"user_id":513,"name":"jj874181","steam_id":76561199455124144,"connected_time":641000000000,"state":"active","ping":94},{"user_id":456,"name":"Uncle Ulysses","steam_id":76561198043929070,"connected_time":4393000000000,"state":"active","ping":78},{"user_id":491,"name":"Farmer From The Barnyard","steam_id":76561198138054595,"connected_time":1435000000000,"state":"active","ping":149},{"user_id":508,"name":"BlargBeta","steam_id":76561198042458309,"connected_time":833000000000,"state":"active","ping":97},{"user_id":495,"name":"weebsaucey","steam_id":76561199310639403,"connected_time":1326000000000,"state":"active","ping":120},{"user_id":501,"name":"gamer gunk","steam_id":76561198858328080,"connected_time":1111000000000,"state":"active","ping":72},{"user_id":520,"name":"NGsterson","steam_id":76561198162108154,"connected_time":179000000000,"state":"active","ping":51},{"user_id":503,"name":"cornshot","steam_id":76561198043496387,"connected_time":986000000000,"state":"active","ping":103},{"user_id":505,"name":"EduardoLopez2005","steam_id":76561198188481309,"connected_time":971000000000,"state":"active","ping":76},{"user_id":506,"name":"Big Dragon, Thick Wagon","steam_id":76561198040425096,"connected_time":919000000000,"state":"active","ping":121},{"user_id":507,"name":"Robert M. Slackson, DDS","steam_id":76561197963562896,"connected_time":880000000000,"state":"active","ping":93},{"user_id":509,"name":"Orion Gobbo","steam_id":76561198033522518,"connected_time":806000000000,"state":"active","ping":81},{"user_id":521,"name":"Frongus","steam_id":76561197979056451,"connected_time":8000000000,"state":"active","ping":91},{"user_id":511,"name":"mista wayne","steam_id":76561198056249150,"connected_time":672000000000,"state":"active","ping":145},{"user_id":512,"name":"Fire_box41238","steam_id":76561199185673650,"connected_time":666000000000,"state":"active","ping":53},{"user_id":514,"name":"Wormy Getting Coal","steam_id":76561198054539200,"connected_time":636000000000,"state":"active","ping":58},{"user_id":515,"name":"magunyamu","steam_id":76561198823083676,"connected_time":559000000000,"state":"active","ping":96},{"user_id":519,"name":"Genius Meme","steam_id":76561198162911254,"connected_time":423000000000,"state":"active","ping":58}]},{"server_id":406,"name":"Uncletopia | Seattle | 3 | Stopwatch Beta","name_short":"sea-3","host":"sea-1.us.uncletopia.com","port":27035,"enabled":true,"region":"us-west","cc":"us","latitude":47.608013,"longitude":-122.33517,"reserved":0,"last_update":"0001-01-01T00:00:00Z","name_a2s":"Uncletopia | Seattle | 3 | Stopwatch Beta","protocol":17,"map":"pl_upward","folder":"tf","game":"Team Fortress","app_id":440,"player_count":17,"max_players":24,"Bots":0,"server_type":"Dedicated","server_os":"Linux","password":true,"vac":true,"version":"7742253","steam_id":85568392924515217,"keywords":["nocrits","nodmgspread","payload","uncletopia"],"game_id":440,"stv_port":27036,"stv_name":"Uncletopia | Seattle | 3 | Stopwatch Beta | STV","players":[{"user_id":169,"name":"Arbiter Soul","steam_id":76561198067798973,"connected_time":764000000000,"state":"active","ping":89},{"user_id":149,"name":"Grognak","steam_id":76561198044710527,"connected_time":1740000000000,"state":"active","ping":37},{"user_id":181,"name":"Fred","steam_id":76561197983870604,"connected_time":11000000000,"state":"active","ping":94},{"user_id":150,"name":"RipHunter77","steam_id":76561198272973014,"connected_time":1727000000000,"state":"active","ping":80},{"user_id":175,"name":"bad spy player","steam_id":76561198873699671,"connected_time":173000000000,"state":"active","ping":43},{"user_id":177,"name":"Danny Ocean","steam_id":76561198802194551,"connected_time":94000000000,"state":"active","ping":101},{"user_id":158,"name":"self sufficient kitten","steam_id":76561197960592612,"connected_time":1505000000000,"state":"active","ping":41},{"user_id":109,"name":"Van","steam_id":76561198073518712,"connected_time":4485000000000,"state":"active","ping":46},{"user_id":140,"name":"EvenCoinApple","steam_id":76561198987947291,"connected_time":2336000000000,"state":"active","ping":79},{"user_id":178,"name":"Psylics","steam_id":76561198221323008,"connected_time":47000000000,"state":"active","ping":143},{"user_id":179,"name":"TinnCann","steam_id":76561198370910909,"connected_time":44000000000,"state":"active","ping":107},{"user_id":166,"name":"DAMM BRO","steam_id":76561198984762462,"connected_time":1241000000000,"state":"active","ping":62},{"user_id":180,"name":"Voyager","steam_id":76561199128786637,"connected_time":28000000000,"state":"active","ping":141},{"user_id":142,"name":"dw4rf","steam_id":76561198046953937,"connected_time":2187000000000,"state":"active","ping":56},{"user_id":170,"name":"the real mocha (not fake)","steam_id":76561198825658971,"connected_time":746000000000,"state":"active","ping":76},{"user_id":143,"name":"gonurlight","steam_id":76561198935839416,"connected_time":2185000000000,"state":"active","ping":116},{"user_id":162,"name":"sp123","steam_id":76561198082337619,"connected_time":1401000000000,"state":"active","ping":118}]},{"server_id":17,"name":"Uncletopia | San Francisco | 1 | All Maps","name_short":"sfo-1","host":"sfo-1.us.uncletopia.com","port":27015,"enabled":true,"region":"us-west","cc":"us","latitude":37.77397,"longitude":-122.4313,"reserved":0,"last_update":"0001-01-01T00:00:00Z","name_a2s":"Uncletopia | San Francisco | 1 | All Maps","protocol":17,"map":"koth_viaduct","folder":"tf","game":"Team Fortress","app_id":440,"player_count":5,"max_players":24,"Bots":0,"server_type":"Dedicated","server_os":"Linux","password":true,"vac":true,"version":"7742253","steam_id":85568392924469999,"keywords":["cp","nocrits","nodmgspread","uncletopia"],"game_id":440,"stv_port":27016,"stv_name":"Uncletopia | San Francisco | 1 | All Maps | STV","players":[{"user_id":10,"name":"InfernoFlower64","steam_id":76561198181097391,"connected_time":3055000000000,"state":"active","ping":96},{"user_id":14,"name":"pizzaguy4","steam_id":76561198058821622,"connected_time":1954000000000,"state":"active","ping":66},{"user_id":27,"name":"Name Mc Name","steam_id":76561198298102478,"connected_time":446000000000,"state":"active","ping":48},{"user_id":26,"name":"Octocoffe","steam_id":76561199229506100,"connected_time":838000000000,"state":"active","ping":200},{"user_id":20,"name":"AlbinoRhino","steam_id":76561198005894818,"connected_time":1536000000000,"state":"active","ping":57}]},{"server_id":18,"name":"Uncletopia | San Francisco | 2 | All Maps","name_short":"sfo-2","host":"sfo-1.us.uncletopia.com","port":27025,"enabled":true,"region":"us-west","cc":"us","latitude":37.77397,"longitude":-122.4313,"reserved":0,"last_update":"0001-01-01T00:00:00Z","name_a2s":"Uncletopia | San Francisco | 2 | All Maps","protocol":17,"map":"koth_highpass","folder":"tf","game":"Team Fortress","app_id":440,"player_count":0,"max_players":24,"Bots":0,"server_type":"Dedicated","server_os":"Linux","password":true,"vac":true,"version":"7742253","steam_id":85568392924470000,"keywords":["cp","nocrits","nodmgspread","uncletopia"],"game_id":440,"stv_port":27026,"stv_name":"Uncletopia | San Francisco | 2 | All Maps | STV","players":null},{"server_id":19,"name":"Uncletopia | San Francisco | 3 | Stopwatch Beta","name_short":"sfo-3","host":"sfo-1.us.uncletopia.com","port":27035,"enabled":true,"region":"us-west","cc":"us","latitude":37.77397,"longitude":-122.4313,"reserved":0,"last_update":"0001-01-01T00:00:00Z","name_a2s":"Uncletopia | San Francisco | 3 | Stopwatch Beta","protocol":17,"map":"workshop/pl_vigil_rc9.ugc1266210012","folder":"tf","game":"Team Fortress","app_id":440,"player_count":0,"max_players":24,"Bots":0,"server_type":"Dedicated","server_os":"Linux","password":true,"vac":true,"version":"7742253","steam_id":85568392924742824,"keywords":["nocrits","nodmgspread","payload","uncletopia"],"game_id":440,"stv_port":27036,"stv_name":"Uncletopia | San Francisco | 3 | Stopwatch Beta | STV","players":null},{"server_id":20,"name":"Uncletopia | San Francisco | 4 | Community","name_short":"sfo-4","host":"sfo-1.us.uncletopia.com","port":27045,"enabled":true,"region":"us-west","cc":"us","latitude":37.77397,"longitude":-122.4313,"reserved":0,"last_update":"0001-01-01T00:00:00Z","name_a2s":"Uncletopia | San Francisco | 4 | Community","protocol":17,"map":"workshop/koth_ashville_final.ugc2130459942","folder":"tf","game":"Team Fortress","app_id":440,"player_count":0,"max_players":24,"Bots":0,"server_type":"Dedicated","server_os":"Linux","password":true,"vac":true,"version":"7742253","steam_id":85568392924742826,"keywords":["cp","nocrits","nodmgspread","uncletopia"],"game_id":440,"stv_port":27046,"stv_name":"Uncletopia | San Francisco | 4 | Community | STV","players":null},{"server_id":141,"name":"Uncletopia | Sydney | 1 | All Maps","name_short":"syd-1","host":"syd-1.au.uncletopia.com","port":27015,"enabled":true,"region":"au","cc":"au","latitude":-33.865143,"longitude":151.2099,"reserved":0,"last_update":"0001-01-01T00:00:00Z","name_a2s":"Uncletopia | Sydney | 1 | All Maps","protocol":17,"map":"cp_sunshine","folder":"tf","game":"Team Fortress","app_id":440,"player_count":0,"max_players":24,"Bots":0,"server_type":"Dedicated","server_os":"Linux","password":true,"vac":true,"version":"7742253","steam_id":85568392924470001,"keywords":["cp","nocrits","nodmgspread","uncletopia"],"game_id":440,"stv_port":27016,"stv_name":"Uncletopia | Sydney | 1 | All Maps | STV","players":null},{"server_id":123,"name":"Uncletopia | Sydney | 2 | All Maps","name_short":"syd-2","host":"syd-1.au.uncletopia.com","port":27025,"enabled":true,"region":"au","cc":"au","latitude":-33.865143,"longitude":151.2099,"reserved":0,"last_update":"0001-01-01T00:00:00Z","name_a2s":"Uncletopia | Sydney | 2 | All Maps","protocol":17,"map":"pl_badwater","folder":"tf","game":"Team Fortress","app_id":440,"player_count":2,"max_players":24,"Bots":0,"server_type":"Dedicated","server_os":"Linux","password":true,"vac":true,"version":"7742253","steam_id":85568392924470002,"keywords":["nocrits","nodmgspread","payload","uncletopia"],"game_id":440,"stv_port":27026,"stv_name":"Uncletopia | Sydney | 2 | All Maps | STV","players":[{"user_id":393,"name":"hive","steam_id":76561199099744527,"connected_time":161000000000,"state":"active","ping":45},{"user_id":394,"name":"Qwerty","steam_id":76561199157092367,"connected_time":95000000000,"state":"active","ping":134}]},{"server_id":395,"name":"Uncletopia | Sydney | 3 | All Maps","name_short":"syd-3","host":"syd-1.au.uncletopia.com","port":27035,"enabled":true,"region":"au","cc":"au","latitude":-33.865143,"longitude":151.2099,"reserved":0,"last_update":"0001-01-01T00:00:00Z","name_a2s":"Uncletopia | Sydney | 3 | All Maps","protocol":17,"map":"koth_viaduct","folder":"tf","game":"Team Fortress","app_id":440,"player_count":0,"max_players":24,"Bots":0,"server_type":"Dedicated","server_os":"Linux","password":true,"vac":true,"version":"7742253","steam_id":85568392925194467,"keywords":["cp","nocrits","nodmgspread","uncletopia"],"game_id":440,"stv_port":27036,"stv_name":"Uncletopia | Sydney | 3 | All Maps | STV","players":null},{"server_id":396,"name":"Uncletopia | Sydney | 4 | All Maps","name_short":"syd-4","host":"syd-1.au.uncletopia.com","port":27045,"enabled":true,"region":"au","cc":"au","latitude":-33.865143,"longitude":151.2099,"reserved":0,"last_update":"0001-01-01T00:00:00Z","name_a2s":"Uncletopia | Sydney | 4 | All Maps","protocol":17,"map":"cp_mountainlab","folder":"tf","game":"Team Fortress","app_id":440,"player_count":0,"max_players":24,"Bots":0,"server_type":"Dedicated","server_os":"Linux","password":true,"vac":true,"version":"7742253","steam_id":85568392925397958,"keywords":["cp","nocrits","nodmgspread","uncletopia"],"game_id":440,"stv_port":27046,"stv_name":"Uncletopia | Sydney | 4 | All Maps | STV","players":null},{"server_id":58,"name":"Uncletopia | Sydney | 5 | Stopwatch Beta","name_short":"syd-5","host":"syd-1.au.uncletopia.com","port":27055,"enabled":true,"region":"au","cc":"au","latitude":-33.865143,"longitude":151.2099,"reserved":0,"last_update":"0001-01-01T00:00:00Z","name_a2s":"Uncletopia | Sydney | 5 | Stopwatch Beta","protocol":17,"map":"workshop/cp_process_f11.ugc2302948105","folder":"tf","game":"Team Fortress","app_id":440,"player_count":0,"max_players":24,"Bots":0,"server_type":"Dedicated","server_os":"Linux","password":true,"vac":true,"version":"7742253","steam_id":85568392925397959,"keywords":["cp","nocrits","nodmgspread","uncletopia"],"game_id":440,"stv_port":27056,"stv_name":"Uncletopia | Sydney | 5 | Stopwatch Beta | STV","players":null},{"server_id":59,"name":"Uncletopia | Sydney | 6 | Community","name_short":"syd-6","host":"syd-1.au.uncletopia.com","port":27065,"enabled":true,"region":"au","cc":"au","latitude":-33.865143,"longitude":151.2099,"reserved":0,"last_update":"0001-01-01T00:00:00Z","name_a2s":"Uncletopia | Sydney | 6 | Community","protocol":17,"map":"workshop/koth_slaughter_rc1.ugc1712845210","folder":"tf","game":"Team Fortress","app_id":440,"player_count":6,"max_players":24,"Bots":0,"server_type":"Dedicated","server_os":"Linux","password":true,"vac":true,"version":"7742253","steam_id":85568392925397960,"keywords":["cp","nocrits","nodmgspread","uncletopia"],"game_id":440,"stv_port":27066,"stv_name":"Uncletopia | Sydney | 6 | Community | STV","players":[{"user_id":33,"name":"Cheesy","steam_id":76561198335893217,"connected_time":155000000000,"state":"active","ping":36},{"user_id":29,"name":"oracle","steam_id":76561198429055852,"connected_time":910000000000,"state":"active","ping":62},{"user_id":32,"name":"BilboSwaggins79","steam_id":76561198984446872,"connected_time":637000000000,"state":"active","ping":51},{"user_id":31,"name":"Doctor!","steam_id":76561198041851238,"connected_time":665000000000,"state":"active","ping":90},{"user_id":19,"name":"Kingcole2022","steam_id":76561198030663950,"connected_time":1603000000000,"state":"active","ping":251},{"user_id":27,"name":"Poison_Kouki","steam_id":76561198150364859,"connected_time":1032000000000,"state":"active","ping":52}]},{"server_id":49,"name":"Uncletopia | Warsaw | 1 | All Maps","name_short":"waw-1","host":"waw-1.pl.uncletopia.com","port":27015,"enabled":true,"region":"eu","cc":"pl","latitude":52.2297,"longitude":21.017532,"reserved":0,"last_update":"0001-01-01T00:00:00Z","name_a2s":"","protocol":0,"map":"","folder":"","game":"","app_id":0,"player_count":0,"max_players":0,"Bots":0,"server_type":"","server_os":"","password":false,"vac":false,"version":"","steam_id":0,"keywords":null,"game_id":0,"stv_port":0,"stv_name":"","players":null},{"server_id":50,"name":"Uncletopia | Warsaw | 2 | All Maps","name_short":"waw-2","host":"waw-1.pl.uncletopia.com","port":27025,"enabled":true,"region":"eu","cc":"pl","latitude":52.2297,"longitude":21.017532,"reserved":0,"last_update":"0001-01-01T00:00:00Z","name_a2s":"Uncletopia | Warsaw | 2 | All Maps","protocol":17,"map":"pl_upward","folder":"tf","game":"Team Fortress","app_id":440,"player_count":0,"max_players":24,"Bots":0,"server_type":"Dedicated","server_os":"Linux","password":true,"vac":true,"version":"7742253","steam_id":85568392925397851,"keywords":["nocrits","nodmgspread","payload","uncletopia"],"game_id":440,"stv_port":27026,"stv_name":"Uncletopia | Warsaw | 2 | All Maps | STV","players":null},{"server_id":51,"name":"Uncletopia | Warsaw | 3 | All Maps","name_short":"waw-3","host":"waw-1.pl.uncletopia.com","port":27035,"enabled":true,"region":"eu","cc":"pl","latitude":52.2297,"longitude":21.017532,"reserved":0,"last_update":"0001-01-01T00:00:00Z","name_a2s":"Uncletopia | Warsaw | 3 | All Maps","protocol":17,"map":"koth_lakeside_final","folder":"tf","game":"Team Fortress","app_id":440,"player_count":0,"max_players":24,"Bots":0,"server_type":"Dedicated","server_os":"Linux","password":true,"vac":true,"version":"7742253","steam_id":85568392925397852,"keywords":["cp","nocrits","nodmgspread","uncletopia"],"game_id":440,"stv_port":27036,"stv_name":"Uncletopia | Warsaw | 3 | All Maps | STV","players":null},{"server_id":52,"name":"Uncletopia | Warsaw | 4 | All Maps","name_short":"waw-4","host":"waw-1.pl.uncletopia.com","port":27045,"enabled":true,"region":"eu","cc":"pl","latitude":52.2297,"longitude":21.017532,"reserved":0,"last_update":"0001-01-01T00:00:00Z","name_a2s":"Uncletopia | Warsaw | 4 | All Maps","protocol":17,"map":"pl_upward","folder":"tf","game":"Team Fortress","app_id":440,"player_count":0,"max_players":24,"Bots":0,"server_type":"Dedicated","server_os":"Linux","password":true,"vac":true,"version":"7742253","steam_id":85568392925397853,"keywords":["nocrits","nodmgspread","payload","uncletopia"],"game_id":440,"stv_port":27046,"stv_name":"Uncletopia | Warsaw | 4 | All Maps | STV","players":null},{"server_id":53,"name":"Uncletopia | Warsaw | 5 | Stopwatch Beta","name_short":"waw-5","host":"waw-1.pl.uncletopia.com","port":27055,"enabled":true,"region":"eu","cc":"pl","latitude":52.2297,"longitude":21.017532,"reserved":0,"last_update":"0001-01-01T00:00:00Z","name_a2s":"Uncletopia | Warsaw | 5 | Stopwatch Beta","protocol":17,"map":"pl_swiftwater_final1","folder":"tf","game":"Team Fortress","app_id":440,"player_count":0,"max_players":24,"Bots":0,"server_type":"Dedicated","server_os":"Linux","password":true,"vac":true,"version":"7742253","steam_id":85568392925397854,"keywords":["nocrits","nodmgspread","payload","uncletopia"],"game_id":440,"stv_port":27056,"stv_name":"Uncletopia | Warsaw | 5 | Stopwatch Beta | STV","players":null},{"server_id":54,"name":"Uncletopia | Warsaw | 6 | Community","name_short":"waw-6","host":"waw-1.pl.uncletopia.com","port":27065,"enabled":true,"region":"eu","cc":"pl","latitude":52.2297,"longitude":21.017532,"reserved":0,"last_update":"0001-01-01T00:00:00Z","name_a2s":"Uncletopia | Warsaw | 6 | Community","protocol":17,"map":"koth_highpass","folder":"tf","game":"Team Fortress","app_id":440,"player_count":0,"max_players":24,"Bots":0,"server_type":"Dedicated","server_os":"Linux","password":true,"vac":true,"version":"7742253","steam_id":85568392925397856,"keywords":["cp","nocrits","nodmgspread","uncletopia"],"game_id":440,"stv_port":27066,"stv_name":"Uncletopia | Warsaw | 6 | Community | STV","players":null}]}