{"status":true,"message":"","result":[{"server_id":9,"name":"Uncletopia | Atlanta | 1 | All Maps","name_short":"atl-1","host":"atl-1.us.uncletopia.com","port":27015,"enabled":true,"region":"us-east","cc":"us","latitude":33.753746,"longitude":-84.38633,"reserved":0,"last_update":"0001-01-01T00:00:00Z","name_a2s":"Uncletopia | Atlanta | 1 | All Maps","protocol":17,"map":"cp_badlands","folder":"tf","game":"Team Fortress","app_id":440,"player_count":23,"max_players":24,"Bots":0,"server_type":"Dedicated","server_os":"Linux","password":true,"vac":true,"version":"7961495","steam_id":85568392924469982,"keywords":["cp","nocrits","nodmgspread","uncletopia"],"game_id":440,"stv_port":27016,"stv_name":"Uncletopia | Atlanta | 1 | All Maps | STV","players":null},{"server_id":104,"name":"Uncletopia | Atlanta | 2 | All Maps","name_short":"atl-2","host":"atl-1.us.uncletopia.com","port":27025,"enabled":true,"region":"us-east","cc":"us","latitude":33.753746,"longitude":-84.38633,"reserved":0,"last_update":"0001-01-01T00:00:00Z","name_a2s":"Uncletopia | Atlanta | 2 | All Maps","protocol":17,"map":"cp_metalworks","folder":"tf","game":"Team Fortress","app_id":440,"player_count":22,"max_players":24,"Bots":0,"server_type":"Dedicated","server_os":"Linux","password":true,"vac":true,"version":"7961495","steam_id":85568392924469983,"keywords":["cp","nocrits","nodmgspread","uncletopia"],"game_id":440,"stv_port":27026,"stv_name":"Uncletopia | Atlanta | 2 | All Maps | STV","players":null},{"server_id":400,"name":"Uncletopia | Atlanta | 3 | All Maps","name_short":"atl-3","host":"atl-1.us.uncletopia.com","port":27035,"enabled":true,"region":"us-east","cc":"us","latitude":33.753746,"longitude":-84.38633,"reserved":0,"last_update":"0001-01-01T00:00:00Z","name_a2s":"Uncletopia | Atlanta | 3 | All Maps","protocol":17,"map":"pl_borneo","folder":"tf","game":"Team Fortress","app_id":440,"player_count":5,"max_players":24,"Bots":0,"server_type":"Dedicated","server_os":"Linux","password":true,"vac":true,"version":"7961495","steam_id":85568392924515187,"keywords":["nocrits","nodmgspread","payload","uncletopia"],"game_id":440,"stv_port":27036,"stv_name":"Uncletopia | Atlanta | 3 | All Maps | STV","players":null},{"server_id":401,"name":"Uncletopia | Atlanta | 4 | Community","name_short":"atl-4","host":"atl-1.us.uncletopia.com","port":27045,"enabled":true,"region":"us-east","cc":"us","latitude":33.753746,"longitude":-84.38633,"reserved":0,"last_update":"0001-01-01T00:00:00Z","name_a2s":"Uncletopia | Atlanta | 4 | Community","protocol":17,"map":"pl_divulgence_b4b","folder":"tf","game":"Team Fortress","app_id":440,"player_count":0,"max_players":24,"Bots":0,"server_type":"Dedicated","server_os":"Linux","password":true,"vac":true,"version":"7961495","steam_id":85568392924515188,"keywords":["nocrits","nodmgspread","payload","uncletopia"],"game_id":440,"stv_port":27046,"stv_name":"Uncletopia | Atlanta | 4 | Community | STV","players":null},{"server_id":2,"name":"Uncletopia | Chicago | 1 | All Maps","name_short":"chi-1","host":"chi-1.us.uncletopia.com","port":27015,"enabled":true,"region":"us-central","cc":"us","latitude":41.881832,"longitude":-87.62318,"reserved":0,"last_update":"0001-01-01T00:00:00Z","name_a2s":"Uncletopia | Chicago | 1 | All Maps","protocol":17,"map":"cp_dustbowl","folder":"tf","game":"Team Fortress","app_id":440,"player_count":12,"max_players":24,"Bots":0,"server_type":"Dedicated","server_os":"Linux","password":true,"vac":true,"version":"7961495","steam_id":85568392924469984,"keywords":["cp","nocrits","nodmgspread","uncletopia"],"game_id":440,"stv_port":27016,"stv_name":"Uncletopia | Chicago | 1 | All Maps | STV","players":[{"user_id":759,"name":"Abram the 1st","steam_id":76561198210964703,"connected_time":271000000000,"state":"active","ping":85},{"user_id":760,"name":"Captian Wobbs","steam_id":76561198142884936,"connected_time":218000000000,"state":"active","ping":83},{"user_id":704,"name":"MedRed™ #IATAH","steam_id":76561198002962970,"connected_time":3583000000000,"state":"active","ping":91},{"user_id":761,"name":"Mehman","steam_id":76561199020244051,"connected_time":190000000000,"state":"active","ping":85},{"user_id":762,"name":"eepy kitty :3","steam_id":76561198106313563,"connected_time":80000000000,"state":"active","ping":45},{"user_id":750,"name":"Nuwrox1","steam_id":76561198406951007,"connected_time":796000000000,"state":"active","ping":60},{"user_id":736,"name":"only a spoonful","steam_id":76561198113180616,"connected_time":1789000000000,"state":"active","ping":64},{"user_id":751,"name":"vgMaster749","steam_id":76561198205048900,"connected_time":784000000000,"state":"active","ping":46},{"user_id":745,"name":"Raccoon Wizard","steam_id":76561198072562591,"connected_time":1132000000000,"state":"active","ping":83},{"user_id":697,"name":"gnoll filth","steam_id":76561198066123607,"connected_time":5612000000000,"state":"active","ping":44},{"user_id":752,"name":"Ethan7704","steam_id":76561198821010606,"connected_time":754000000000,"state":"active","ping":53},{"user_id":753,"name":"daeboss03","steam_id":76561199074488696,"connected_time":709000000000,"state":"active","ping":71}]},{"server_id":106,"name":"Uncletopia | Chicago | 2 | All Maps","name_short":"chi-2","host":"chi-1.us.uncletopia.com","port":27025,"enabled":true,"region":"us-central","cc":"us","latitude":41.881832,"longitude":-87.62318,"reserved":0,"last_update":"0001-01-01T00:00:00Z","name_a2s":"Uncletopia | Chicago | 2 | All Maps","protocol":17,"map":"cp_dustbowl","folder":"tf","game":"Team Fortress","app_id":440,"player_count":24,"max_players":24,"Bots":0,"server_type":"Dedicated","server_os":"Linux","password":true,"vac":true,"version":"7961495","steam_id":85568392924469985,"keywords":["cp","nocrits","nodmgspread","uncletopia"],"game_id":440,"stv_port":27026,"stv_name":"Uncletopia | Chicago | 2 | All Maps | STV","players":[{"user_id":581,"name":"Nori","steam_id":76561198192548258,"connected_time":389000000000,"state":"active","ping":102},{"user_id":573,"name":"Twinny","steam_id":76561198159538978,"connected_time":2102000000000,"state":"active","ping":75},{"user_id":539,"name":"Fuegan Ra","steam_id":76561198287923849,"connected_time":4268000000000,"state":"active","ping":48},{"user_id":575,"name":"MinusSoup918","steam_id":76561198060902773,"connected_time":1612000000000,"state":"active","ping":139},{"user_id":578,"name":"Extro","steam_id":76561198178908694,"connected_time":659000000000,"state":"active","ping":57},{"user_id":560,"name":"myunicorn","steam_id":76561199391478575,"connected_time":2506000000000,"state":"active","ping":114},{"user_id":562,"name":"Lots0","steam_id":76561198043143145,"connected_time":2491000000000,"state":"active","ping":83},{"user_id":583,"name":"Joe Nathan","steam_id":76561198041030399,"connected_time":358000000000,"state":"active","ping":80},{"user_id":579,"name":"dbz","steam_id":76561197988022174,"connected_time":611000000000,"state":"active","ping":77},{"user_id":549,"name":"TRx AxIon2","steam_id":76561198980931557,"connected_time":3161000000000,"state":"active","ping":65},{"user_id":584,"name":"валера расенган","steam_id":76561199038015187,"connected_time":320000000000,"state":"active","ping":193},{"user_id":564,"name":"PageBoiSkull","steam_id":76561198237353578,"connected_time":2465000000000,"state":"active","ping":110},{"user_id":585,"name":"elyk37","steam_id":76561198124135253,"connected_time":217000000000,"state":"active","ping":72},{"user_id":504,"name":"Castroy","steam_id":76561198108160099,"connected_time":7134000000000,"state":"active","ping":66},{"user_id":576,"name":"SpaceCat4201","steam_id":76561199258367243,"connected_time":1470000000000,"state":"active","ping":70},{"user_id":574,"name":"cookie","steam_id":76561198051499968,"connected_time":1793000000000,"state":"active","ping":69},{"user_id":507,"name":"Boomerish","steam_id":76561198083946878,"connected_time":6823000000000,"state":"active","ping":66},{"user_id":520,"name":"ip09 i-0;olk;lj9u","steam_id":76561199490115981,"connected_time":5207000000000,"state":"active","ping":74},{"user_id":570,"name":"fazaness","steam_id":76561198851525394,"connected_time":2385000000000,"state":"active","ping":80},{"user_id":571,"name":"V","steam_id":76561198057374871,"connected_time":2376000000000,"state":"active","ping":50},{"user_id":577,"name":"Madrox Who?","steam_id":76561197988859134,"connected_time":1136000000000,"state":"active","ping":64},{"user_id":473,"name":"Levi","steam_id":76561198089832776,"connected_time":9010000000000,"state":"active","ping":78},{"user_id":514,"name":"Dominic","steam_id":76561198006988361,"connected_time":5954000000000,"state":"active","ping":65},{"user_id":552,"name":"DaltonD","steam_id":76561197990266679,"connected_time":2656000000000,"state":"active","ping":86}]},{"server_id":402,"name":"Uncletopia | Chicago | 3 | All Maps","name_short":"chi-3","host":"chi-1.us.uncletopia.com","port":27035,"enabled":true,"region":"us-central","cc":"us","latitude":41.881832,"longitude":-87.62318,"reserved":0,"last_update":"0001-01-01T00:00:00Z","name_a2s":"Uncletopia | Chicago | 3 | All Maps","protocol":17,"map":"pl_swiftwater_final1","folder":"tf","game":"Team Fortress","app_id":440,"player_count":24,"max_players":24,"Bots":0,"server_type":"Dedicated","server_os":"Linux","password":true,"vac":true,"version":"7961495","steam_id":85568392924515191,"keywords":["nocrits","nodmgspread","payload","uncletopia"],"game_id":440,"stv_port":27036,"stv_name":"Uncletopia | Chicago | 3 | All Maps | STV","players":[{"user_id":768,"name":"Tenna","steam_id":76561198052020077,"connected_time":2689000000000,"state":"active","ping":86},{"user_id":788,"name":"Fargo","steam_id":76561198044703931,"connected_time":971000000000,"state":"active","ping":74},{"user_id":792,"name":"firstlastmcgee","steam_id":76561198170187989,"connected_time":853000000000,"state":"active","ping":61},{"user_id":785,"name":"General Mightyian11","steam_id":76561199125278476,"connected_time":1470000000000,"state":"active","ping":58},{"user_id":771,"name":"DanTheMan","steam_id":76561198003337360,"connected_time":2186000000000,"state":"active","ping":75},{"user_id":801,"name":"evolutionary sleeper","steam_id":76561198125328737,"connected_time":217000000000,"state":"active","ping":61},{"user_id":802,"name":"Jill","steam_id":76561198097398193,"connected_time":204000000000,"state":"active","ping":90},{"user_id":800,"name":"November","steam_id":76561198131631865,"connected_time":344000000000,"state":"active","ping":83},{"user_id":803,"name":"Hans","steam_id":76561198029373733,"connected_time":195000000000,"state":"active","ping":99},{"user_id":804,"name":"rackkoonz","steam_id":76561198370412874,"connected_time":195000000000,"state":"active","ping":60},{"user_id":774,"name":"Muffin","steam_id":76561198050715053,"connected_time":2122000000000,"state":"active","ping":70},{"user_id":809,"name":"MrBiggieCheese.","steam_id":76561199489528525,"connected_time":7000000000,"state":"spawning","ping":89},{"user_id":769,"name":"conner","steam_id":76561198052911241,"connected_time":2685000000000,"state":"active","ping":69},{"user_id":793,"name":"FORBIDDEN STEP","steam_id":76561198100942212,"connected_time":846000000000,"state":"active","ping":75},{"user_id":797,"name":"oof aim small brain","steam_id":76561198079925551,"connected_time":578000000000,"state":"active","ping":60},{"user_id":786,"name":"onion","steam_id":76561198242311084,"connected_time":1087000000000,"state":"active","ping":63},{"user_id":805,"name":"CreativeName","steam_id":76561198853344895,"connected_time":194000000000,"state":"active","ping":100},{"user_id":806,"name":"Glanderson booper","steam_id":76561198021223747,"connected_time":158000000000,"state":"active","ping":111},{"user_id":783,"name":"Liquid Oxycodone","steam_id":76561198154162664,"connected_time":1605000000000,"state":"active","ping":78},{"user_id":807,"name":"cheetaz","steam_id":76561198224614084,"connected_time":137000000000,"state":"active","ping":75},{"user_id":808,"name":"GirlKisser","steam_id":76561198936412406,"connected_time":136000000000,"state":"active","ping":86},{"user_id":796,"name":"puppy :3","steam_id":76561198011196264,"connected_time":736000000000,"state":"active","ping":57},{"user_id":748,"name":"0100101101100001011100100110110","steam_id":76561198034028769,"connected_time":4733000000000,"state":"active","ping":59},{"user_id":761,"name":":)","steam_id":76561198093921290,"connected_time":3636000000000,"state":"active","ping":49}]},{"server_id":403,"name":"Uncletopia | Chicago | 4 | All Maps","name_short":"chi-4","host":"chi-1.us.uncletopia.com","port":27045,"enabled":true,"region":"us-central","cc":"us","latitude":41.881832,"longitude":-87.62318,"reserved":0,"last_update":"0001-01-01T00:00:00Z","name_a2s":"Uncletopia | Chicago | 4 | All Maps","protocol":17,"map":"pl_upward","folder":"tf","game":"Team Fortress","app_id":440,"player_count":24,"max_players":24,"Bots":0,"server_type":"Dedicated","server_os":"Linux","password":true,"vac":true,"version":"7961495","steam_id":85568392924515193,"keywords":["nocrits","nodmgspread","payload","uncletopia"],"game_id":440,"stv_port":27046,"stv_name":"Uncletopia | Chicago | 4 | All Maps | STV","players":[{"user_id":563,"name":"Truffles","steam_id":76561198095868800,"connected_time":7334000000000,"state":"active","ping":82},{"user_id":611,"name":"DoctrZoot","steam_id":76561199171835450,"connected_time":2008000000000,"state":"active","ping":83},{"user_id":613,"name":"sentry food","steam_id":76561198042926224,"connected_time":1787000000000,"state":"active","ping":95},{"user_id":625,"name":"Thunder","steam_id":76561198097721532,"connected_time":1072000000000,"state":"active","ping":103},{"user_id":544,"name":"doro","steam_id":76561198099041747,"connected_time":9676000000000,"state":"active","ping":100},{"user_id":615,"name":"J-Prism","steam_id":76561198118214399,"connected_time":1666000000000,"state":"active","ping":118},{"user_id":628,"name":"Vaudeville Villain","steam_id":76561199212093339,"connected_time":1004000000000,"state":"active","ping":92},{"user_id":627,"name":"La Tabda","steam_id":76561198120364620,"connected_time":1054000000000,"state":"active","ping":92},{"user_id":602,"name":"Mythical Lag","steam_id":76561198347031281,"connected_time":3295000000000,"state":"active","ping":73},{"user_id":599,"name":"shitass | troutsupply.net","steam_id":76561198210572481,"connected_time":3431000000000,"state":"active","ping":85},{"user_id":631,"name":"hill of the king","steam_id":76561198099491925,"connected_time":668000000000,"state":"active","ping":96},{"user_id":618,"name":"Natsuki the Scunt","steam_id":76561199175922684,"connected_time":1522000000000,"state":"active","ping":108},{"user_id":617,"name":"frank","steam_id":76561198137777483,"connected_time":1556000000000,"state":"active","ping":71},{"user_id":629,"name":"Okpar","steam_id":76561199221067945,"connected_time":946000000000,"state":"active","ping":90},{"user_id":634,"name":"drevott74","steam_id":76561199262592779,"connected_time":635000000000,"state":"active","ping":107},{"user_id":608,"name":"Scorp Saltman","steam_id":76561198011052028,"connected_time":2159000000000,"state":"active","ping":58},{"user_id":633,"name":"Mister_Jester","steam_id":76561198247130592,"connected_time":645000000000,"state":"active","ping":71},{"user_id":595,"name":"Tetra","steam_id":76561198012329955,"connected_time":3656000000000,"state":"active","ping":106},{"user_id":603,"name":"chicken pot pie gaming","steam_id":76561198104800182,"connected_time":3270000000000,"state":"active","ping":48},{"user_id":636,"name":"Flexo","steam_id":76561198111618506,"connected_time":424000000000,"state":"active","ping":100},{"user_id":635,"name":"mop","steam_id":76561198083853538,"connected_time":635000000000,"state":"active","ping":80},{"user_id":621,"name":"floom","steam_id":76561198387571809,"connected_time":1480000000000,"state":"active","ping":69},{"user_id":453,"name":"Grand","steam_id":76561198290143399,"connected_time":15944000000000,"state":"active","ping":75},{"user_id":622,"name":"HUMBY","steam_id":76561198065045867,"connected_time":1466000000000,"state":"active","ping":83}]},{"server_id":36,"name":"Uncletopia | Chicago | 5 | All Maps","name_short":"chi-5","host":"chi-2.us.uncletopia.com","port":27015,"enabled":true,"region":"us-central","cc":"us","latitude":41.881832,"longitude":-87.62318,"reserved":0,"last_update":"0001-01-01T00:00:00Z","name_a2s":"Uncletopia | Chicago | 5 | All Maps","protocol":17,"map":"ctf_turbine","folder":"tf","game":"Team Fortress","app_id":440,"player_count":7,"max_players":24,"Bots":0,"server_type":"Dedicated","server_os":"Linux","password":true,"vac":true,"version":"7961495","steam_id":85568392924866362,"keywords":["ctf","nocrits","nodmgspread","uncletopia"],"game_id":440,"stv_port":27016,"stv_name":"Uncletopia | Chicago | 5 | All Maps | STV","players":[{"user_id":690,"name":"GalacticHero2068","steam_id":76561199063612661,"connected_time":765000000000,"state":"active","ping":87},{"user_id":691,"name":"☭ CRZYRUSSIAN4 ☭","steam_id":76561198046911622,"connected_time":227000000000,"state":"active","ping":78},{"user_id":692,"name":"jepaarachchi76","steam_id":76561199066221187,"connected_time":226000000000,"state":"active","ping":70},{"user_id":672,"name":"marge","steam_id":76561198064823861,"connected_time":2711000000000,"state":"active","ping":66},{"user_id":671,"name":"garbo","steam_id":76561198149280150,"connected_time":2840000000000,"state":"active","ping":76},{"user_id":678,"name":"Conn","steam_id":76561198368748494,"connected_time":2208000000000,"state":"active","ping":57},{"user_id":674,"name":"chrislo27","steam_id":76561198070331231,"connected_time":2507000000000,"state":"active","ping":100}]},{"server_id":37,"name":"Uncletopia | Chicago | 6 | All Maps","name_short":"chi-6","host":"chi-2.us.uncletopia.com","port":27025,"enabled":true,"region":"us-central","cc":"us","latitude":41.881832,"longitude":-87.62318,"reserved":0,"last_update":"0001-01-01T00:00:00Z","name_a2s":"Uncletopia | Chicago | 6 | All Maps","protocol":17,"map":"pl_swiftwater_final1","folder":"tf","game":"Team Fortress","app_id":440,"player_count":23,"max_players":24,"Bots":0,"server_type":"Dedicated","server_os":"Linux","password":true,"vac":true,"version":"7961495","steam_id":85568392924866363,"keywords":["nocrits","nodmgspread","payload","uncletopia"],"game_id":440,"stv_port":27026,"stv_name":"Uncletopia | Chicago | 6 | All Maps | STV","players":[{"user_id":595,"name":"Remy the rat","steam_id":76561198080519558,"connected_time":139000000000,"state":"active","ping":74},{"user_id":574,"name":"FiddyFoMike","steam_id":76561198057072581,"connected_time":1418000000000,"state":"active","ping":98},{"user_id":565,"name":"B.D. Joe Bowling","steam_id":76561198125801070,"connected_time":1856000000000,"state":"active","ping":115},{"user_id":538,"name":"weeb_whacker","steam_id":76561198187098041,"connected_time":4406000000000,"state":"active","ping":49},{"user_id":572,"name":"retinazer","steam_id":76561198089852954,"connected_time":1453000000000,"state":"active","ping":76},{"user_id":586,"name":"Promethe_S","steam_id":76561198389635948,"connected_time":623000000000,"state":"active","ping":89},{"user_id":546,"name":"Alshek","steam_id":76561198115594676,"connected_time":3766000000000,"state":"active","ping":54},{"user_id":576,"name":"catlovinggreenbean","steam_id":76561198355974740,"connected_time":1246000000000,"state":"active","ping":85},{"user_id":548,"name":"Whatsapp Spy","steam_id":76561198085410969,"connected_time":3729000000000,"state":"active","ping":51},{"user_id":584,"name":"Chihuahua","steam_id":76561199133120527,"connected_time":966000000000,"state":"active","ping":117},{"user_id":562,"name":"steel is like a donut","steam_id":76561198074624639,"connected_time":1948000000000,"state":"active","ping":53},{"user_id":506,"name":"Donut is like a Steel","steam_id":76561198256869589,"connected_time":6457000000000,"state":"active","ping":58},{"user_id":515,"name":"cincoyt LFB","steam_id":76561198041643833,"connected_time":6057000000000,"state":"active","ping":86},{"user_id":592,"name":"Devoid","steam_id":76561198254039012,"connected_time":210000000000,"state":"active","ping":52},{"user_id":539,"name":"But what if theres more then WM","steam_id":76561199122315920,"connected_time":4377000000000,"state":"active","ping":64},{"user_id":597,"name":"Defragmented","steam_id":76561198854210081,"connected_time":102000000000,"state":"active","ping":72},{"user_id":530,"name":"A Puppy","steam_id":76561198828184456,"connected_time":5104000000000,"state":"active","ping":60},{"user_id":587,"name":"Gavilán","steam_id":76561198285212453,"connected_time":571000000000,"state":"active","ping":100},{"user_id":598,"name":"bikerkid207","steam_id":76561198390782783,"connected_time":44000000000,"state":"active","ping":71},{"user_id":594,"name":"Deadangla Merkel","steam_id":76561198038258405,"connected_time":192000000000,"state":"active","ping":61},{"user_id":581,"name":"fruitcake","steam_id":76561198436085863,"connected_time":1042000000000,"state":"active","ping":105},{"user_id":571,"name":"97duckworth","steam_id":76561199231763519,"connected_time":1457000000000,"state":"active","ping":140}]},{"server_id":38,"name":"Uncletopia | Chicago | 7 | Stopwatch Beta","name_short":"chi-7","host":"chi-2.us.uncletopia.com","port":27035,"enabled":true,"region":"us-central","cc":"us","latitude":41.881832,"longitude":-87.62318,"reserved":0,"last_update":"0001-01-01T00:00:00Z","name_a2s":"Uncletopia | Chicago | 7 | Stopwatch Beta","protocol":17,"map":"pl_borneo","folder":"tf","game":"Team Fortress","app_id":440,"player_count":0,"max_players":24,"Bots":0,"server_type":"Dedicated","server_os":"Linux","password":true,"vac":true,"version":"7961495","steam_id":85568392924866364,"keywords":["nocrits","nodmgspread","payload","uncletopia"],"game_id":440,"stv_port":27036,"stv_name":"Uncletopia | Chicago | 7 | Stopwatch Beta | STV","players":null},{"server_id":39,"name":"Uncletopia | Chicago | 8 | Community","name_short":"chi-8","host":"chi-2.us.uncletopia.com","port":27045,"enabled":true,"region":"us-central","cc":"us","latitude":41.881832,"longitude":-87.62318,"reserved":0,"last_update":"0001-01-01T00:00:00Z","name_a2s":"Uncletopia | Chicago | 8 | Community","protocol":17,"map":"workshop/pl_cactuscanyon_redux_final2.ugc2579644293","folder":"tf","game":"Team Fortress","app_id":440,"player_count":24,"max_players":24,"Bots":0,"server_type":"Dedicated","server_os":"Linux","password":true,"vac":true,"version":"7961495","steam_id":85568392924866365,"keywords":["nocrits","nodmgspread","payload","uncletopia"],"game_id":440,"stv_port":27046,"stv_name":"Uncletopia | Chicago | 8 | Community | STV","players":[{"user_id":702,"name":"Musica Universalis","steam_id":76561198184794174,"connected_time":4208000000000,"state":"active","ping":71},{"user_id":723,"name":"Mom","steam_id":76561198207936000,"connected_time":2104000000000,"state":"active","ping":90},{"user_id":718,"name":"Jolt","steam_id":76561198168669087,"connected_time":3053000000000,"state":"active","ping":61},{"user_id":721,"name":"Capt.Swag","steam_id":76561198088340994,"connected_time":2286000000000,"state":"active","ping":85},{"user_id":735,"name":"Lenny Gaggins","steam_id":76561198119768140,"connected_time":1231000000000,"state":"active","ping":77},{"user_id":722,"name":"Acorn","steam_id":76561198353480153,"connected_time":2180000000000,"state":"active","ping":60},{"user_id":725,"name":"Crealo","steam_id":76561198117070967,"connected_time":2094000000000,"state":"active","ping":88},{"user_id":744,"name":"Skeleton Hotel","steam_id":76561198041704727,"connected_time":259000000000,"state":"active","ping":68},{"user_id":745,"name":"Pizza Party","steam_id":76561198165730754,"connected_time":242000000000,"state":"active","ping":80},{"user_id":747,"name":"Amazon","steam_id":76561198156095880,"connected_time":130000000000,"state":"active","ping":91},{"user_id":726,"name":"Aldinach","steam_id":76561198079912615,"connected_time":2051000000000,"state":"active","ping":54},{"user_id":727,"name":"Shaymoo","steam_id":76561198063659732,"connected_time":2011000000000,"state":"active","ping":91},{"user_id":728,"name":"Pop","steam_id":76561198041278811,"connected_time":2007000000000,"state":"active","ping":137},{"user_id":741,"name":"Kzjytsugn","steam_id":76561198130241974,"connected_time":420000000000,"state":"active","ping":90},{"user_id":719,"name":"yamme","steam_id":76561198117849124,"connected_time":2775000000000,"state":"active","ping":106},{"user_id":742,"name":"Weeb","steam_id":76561198333568146,"connected_time":400000000000,"state":"active","ping":82},{"user_id":694,"name":"Rodrick Knee","steam_id":76561198283021062,"connected_time":5891000000000,"state":"active","ping":89},{"user_id":748,"name":"THIRDPIERCE","steam_id":76561198405366314,"connected_time":92000000000,"state":"active","ping":83},{"user_id":743,"name":"苺Ichigo苺","steam_id":76561198143515390,"connected_time":389000000000,"state":"active","ping":94},{"user_id":749,"name":"koisamis","steam_id":76561198364459442,"connected_time":87000000000,"state":"active","ping":88},{"user_id":732,"name":"Rex Tremendae","steam_id":76561198046651215,"connected_time":1941000000000,"state":"active","ping":118},{"user_id":733,"name":"Pine","steam_id":76561198056892915,"connected_time":1787000000000,"state":"active","ping":77},{"user_id":688,"name":"Mayo Monkey","steam_id":76561198090023039,"connected_time":6542000000000,"state":"active","ping":94},{"user_id":699,"name":"Infinitytacos","steam_id":76561198884260211,"connected_time":5233000000000,"state":"active","ping":46}]},{"server_id":8,"name":"Uncletopia | Dallas | 1 | All Maps","name_short":"dal-1","host":"dal-1.us.uncletopia.com","port":27015,"enabled":true,"region":"us-central","cc":"us","latitude":32.779167,"longitude":-96.80889,"reserved":0,"last_update":"0001-01-01T00:00:00Z","name_a2s":"Uncletopia | Dallas | 1 | All Maps","protocol":17,"map":"cp_snakewater_final1","folder":"tf","game":"Team Fortress","app_id":440,"player_count":24,"max_players":24,"Bots":0,"server_type":"Dedicated","server_os":"Linux","password":true,"vac":true,"version":"7961495","steam_id":85568392924469986,"keywords":["cp","nocrits","nodmgspread","uncletopia"],"game_id":440,"stv_port":27016,"stv_name":"Uncletopia | Dallas | 1 | All Maps | STV","players":[{"user_id":706,"name":"LampMan","steam_id":76561198079857527,"connected_time":2852000000000,"state":"active","ping":55},{"user_id":491,"name":"flippercurve","steam_id":76561199238295034,"connected_time":18542000000000,"state":"active","ping":72},{"user_id":721,"name":"Malex","steam_id":76561198012216805,"connected_time":1201000000000,"state":"active","ping":77},{"user_id":682,"name":"Huh?","steam_id":76561198305380082,"connected_time":5562000000000,"state":"active","ping":70},{"user_id":729,"name":"遊戲玩家乍得上帝巨人","steam_id":76561198021308963,"connected_time":727000000000,"state":"active","ping":61},{"user_id":708,"name":"Kng","steam_id":76561198993248203,"connected_time":2583000000000,"state":"active","ping":85},{"user_id":677,"name":"everettroth63","steam_id":76561199237772642,"connected_time":5832000000000,"state":"active","ping":83},{"user_id":716,"name":"Long Wong Van Hugendong","steam_id":76561198074856827,"connected_time":1860000000000,"state":"active","ping":97},{"user_id":732,"name":"Per My Last Email","steam_id":76561197970096950,"connected_time":289000000000,"state":"active","ping":43},{"user_id":710,"name":"Post-It Paige","steam_id":76561198294059159,"connected_time":2449000000000,"state":"active","ping":85},{"user_id":694,"name":"tewz(s)","steam_id":76561198163264838,"connected_time":5106000000000,"state":"active","ping":60},{"user_id":733,"name":"TheoLynwood","steam_id":76561198079596878,"connected_time":278000000000,"state":"active","ping":71},{"user_id":623,"name":"The Best Bad Idea","steam_id":76561198105931367,"connected_time":8233000000000,"state":"active","ping":39},{"user_id":696,"name":"A Straw","steam_id":76561199367935846,"connected_time":4873000000000,"state":"active","ping":74},{"user_id":719,"name":"Tommy Provolone","steam_id":76561198170062377,"connected_time":1263000000000,"state":"active","ping":68},{"user_id":644,"name":"constipated samurai","steam_id":76561198827327225,"connected_time":7008000000000,"state":"active","ping":55},{"user_id":645,"name":"booty","steam_id":76561198817452952,"connected_time":7000000000000,"state":"active","ping":80},{"user_id":725,"name":"Ryzema","steam_id":76561198165594229,"connected_time":1111000000000,"state":"active","ping":91},{"user_id":723,"name":"evil","steam_id":76561199001918194,"connected_time":1160000000000,"state":"active","ping":96},{"user_id":674,"name":"Evil little man","steam_id":76561198311053471,"connected_time":6061000000000,"state":"active","ping":54},{"user_id":724,"name":"BrownMemeSter","steam_id":76561198113745020,"connected_time":1160000000000,"state":"active","ping":74},{"user_id":726,"name":"mellowhype","steam_id":76561198040675606,"connected_time":969000000000,"state":"active","ping":45},{"user_id":634,"name":"JtsRes","steam_id":76561197994809241,"connected_time":7704000000000,"state":"active","ping":64},{"user_id":703,"name":"Hydroxianchaos","steam_id":76561198043786828,"connected_time":3976000000000,"state":"active","ping":93}]},{"server_id":108,"name":"Uncletopia | Dallas | 2 | All Maps","name_short":"dal-2","host":"dal-1.us.uncletopia.com","port":27025,"enabled":true,"region":"us-central","cc":"us","latitude":32.779167,"longitude":-96.80889,"reserved":0,"last_update":"0001-01-01T00:00:00Z","name_a2s":"Uncletopia | Dallas | 2 | All Maps","protocol":17,"map":"pl_thundermountain","folder":"tf","game":"Team Fortress","app_id":440,"player_count":24,"max_players":24,"Bots":0,"server_type":"Dedicated","server_os":"Linux","password":true,"vac":true,"version":"7961495","steam_id":85568392924469988,"keywords":["nocrits","nodmgspread","payload","uncletopia"],"game_id":440,"stv_port":27026,"stv_name":"Uncletopia | Dallas | 2 | All Maps | STV","players":[{"user_id":715,"name":"Fruity","steam_id":76561198999674564,"connected_time":4797000000000,"state":"active","ping":44},{"user_id":743,"name":"Ayylmao","steam_id":76561198104780147,"connected_time":2470000000000,"state":"active","ping":63},{"user_id":761,"name":"XX_SkittleSnorter69_XX","steam_id":76561198278897354,"connected_time":705000000000,"state":"active","ping":76},{"user_id":755,"name":"MaybeMars","steam_id":76561198084736804,"connected_time":1552000000000,"state":"active","ping":81},{"user_id":759,"name":"aidenmc3","steam_id":76561198062209166,"connected_time":1262000000000,"state":"active","ping":43},{"user_id":735,"name":"GrumpyGrampaKoala","steam_id":76561198020441036,"connected_time":3208000000000,"state":"active","ping":106},{"user_id":750,"name":"Deadline","steam_id":76561199079078845,"connected_time":2070000000000,"state":"active","ping":101},{"user_id":744,"name":"Els (F2P)","steam_id":76561199129761684,"connected_time":2454000000000,"state":"active","ping":78},{"user_id":736,"name":"paypur -rng","steam_id":76561198214370515,"connected_time":3206000000000,"state":"active","ping":75},{"user_id":745,"name":"ShadowDragon0125","steam_id":76561198343849022,"connected_time":2438000000000,"state":"active","ping":65},{"user_id":746,"name":"Die-Sas","steam_id":76561198987794008,"connected_time":2383000000000,"state":"active","ping":82},{"user_id":752,"name":"Always Here for You","steam_id":76561198219252313,"connected_time":1991000000000,"state":"active","ping":90},{"user_id":710,"name":"plink","steam_id":76561198057829889,"connected_time":5225000000000,"state":"active","ping":59},{"user_id":762,"name":"noel","steam_id":76561198128280883,"connected_time":699000000000,"state":"active","ping":103},{"user_id":691,"name":"sleepy","steam_id":76561198255015060,"connected_time":6871000000000,"state":"active","ping":89},{"user_id":702,"name":"Holp","steam_id":76561199019186848,"connected_time":5569000000000,"state":"active","ping":83},{"user_id":767,"name":"Kirbothebrony","steam_id":76561198971911330,"connected_time":279000000000,"state":"active","ping":70},{"user_id":760,"name":"ihave80hp","steam_id":76561199251621911,"connected_time":849000000000,"state":"active","ping":64},{"user_id":764,"name":"Epifiny","steam_id":76561198027958086,"connected_time":689000000000,"state":"active","ping":95},{"user_id":749,"name":"Plains Phoenix","steam_id":76561198817161299,"connected_time":2305000000000,"state":"active","ping":60},{"user_id":717,"name":"ĐïɐȐɹɦɆa","steam_id":76561198981411945,"connected_time":4740000000000,"state":"active","ping":86},{"user_id":754,"name":"SiphonFIre","steam_id":76561198305327992,"connected_time":1651000000000,"state":"active","ping":63},{"user_id":672,"name":"TOKENLIZARD","steam_id":76561198218765205,"connected_time":8493000000000,"state":"active","ping":64},{"user_id":766,"name":"BigButteryCrepes","steam_id":76561199153649549,"connected_time":643000000000,"state":"active","ping":94}]},{"server_id":404,"name":"Uncletopia | Dallas | 3 | All Maps","name_short":"dal-3","host":"dal-1.us.uncletopia.com","port":27035,"enabled":true,"region":"us-central","cc":"us","latitude":32.779167,"longitude":-96.80889,"reserved":0,"last_update":"0001-01-01T00:00:00Z","name_a2s":"Uncletopia | Dallas | 3 | All Maps","protocol":17,"map":"pl_upward","folder":"tf","game":"Team Fortress","app_id":440,"player_count":24,"max_players":24,"Bots":0,"server_type":"Dedicated","server_os":"Linux","password":true,"vac":true,"version":"7961495","steam_id":85568392924515219,"keywords":["nocrits","nodmgspread","payload","uncletopia"],"game_id":440,"stv_port":27036,"stv_name":"Uncletopia | Dallas | 3 | All Maps | STV","players":[{"user_id":612,"name":"RAWRWAIFU","steam_id":76561198032118386,"connected_time":3339000000000,"state":"active","ping":69},{"user_id":621,"name":"Feral Femboy","steam_id":76561198130714378,"connected_time":2294000000000,"state":"active","ping":122},{"user_id":631,"name":"yeeeeouch! my peepnis!","steam_id":76561198243695590,"connected_time":1736000000000,"state":"active","ping":109},{"user_id":640,"name":"Lugi","steam_id":76561198873757026,"connected_time":314000000000,"state":"active","ping":57},{"user_id":622,"name":"Ajax","steam_id":76561198071310833,"connected_time":2293000000000,"state":"active","ping":68},{"user_id":641,"name":"Lore","steam_id":76561198098407538,"connected_time":291000000000,"state":"active","ping":73},{"user_id":636,"name":"mooney","steam_id":76561199110622484,"connected_time":784000000000,"state":"active","ping":131},{"user_id":589,"name":"U ω U","steam_id":76561198118802562,"connected_time":4162000000000,"state":"active","ping":92},{"user_id":638,"name":"Gangbang Venture Capitalist","steam_id":76561198188115438,"connected_time":658000000000,"state":"active","ping":79},{"user_id":616,"name":"Big Papa","steam_id":76561198095879407,"connected_time":2780000000000,"state":"active","ping":139},{"user_id":592,"name":"H2OBourne","steam_id":76561198396293109,"connected_time":4116000000000,"state":"active","ping":64},{"user_id":634,"name":"raya","steam_id":76561198051504581,"connected_time":1604000000000,"state":"active","ping":57},{"user_id":639,"name":"PSPSPSPSPSPSPSPSPSPSPS","steam_id":76561198000750960,"connected_time":591000000000,"state":"active","ping":180},{"user_id":596,"name":"ningelo","steam_id":76561198133057951,"connected_time":3896000000000,"state":"active","ping":118},{"user_id":637,"name":"CoralBlue","steam_id":76561199085138970,"connected_time":666000000000,"state":"active","ping":97},{"user_id":598,"name":"2002 Toyota Corolla VE","steam_id":76561198149172070,"connected_time":3834000000000,"state":"active","ping":49},{"user_id":626,"name":"Boy Kisser","steam_id":76561199069629037,"connected_time":2265000000000,"state":"active","ping":103},{"user_id":644,"name":"webaline :3","steam_id":76561199052450127,"connected_time":86000000000,"state":"spawning","ping":66},{"user_id":601,"name":"Churchilla","steam_id":76561198317915810,"connected_time":3676000000000,"state":"active","ping":81},{"user_id":619,"name":"Frost","steam_id":76561198272014381,"connected_time":2440000000000,"state":"active","ping":89},{"user_id":645,"name":"Dreamy Sweat from 2hu","steam_id":76561198094602446,"connected_time":73000000000,"state":"active","ping":90},{"user_id":642,"name":"BlackheartKyurem","steam_id":76561198088842813,"connected_time":279000000000,"state":"active","ping":105},{"user_id":643,"name":"brotalium","steam_id":76561198055439054,"connected_time":257000000000,"state":"active","ping":93},{"user_id":628,"name":"Shroomish","steam_id":76561199109440924,"connected_time":2214000000000,"state":"active","ping":115}]},{"server_id":405,"name":"Uncletopia | Dallas | 4 | Community","name_short":"dal-4","host":"dal-1.us.uncletopia.com","port":27045,"enabled":true,"region":"us-central","cc":"us","latitude":32.779167,"longitude":-96.80889,"reserved":0,"last_update":"0001-01-01T00:00:00Z","name_a2s":"Uncletopia | Dallas | 4 | Community","protocol":17,"map":"workshop/koth_kemptown_rc1.ugc767410655","folder":"tf","game":"Team Fortress","app_id":440,"player_count":0,"max_players":24,"Bots":0,"server_type":"Dedicated","server_os":"Linux","password":true,"vac":true,"version":"7961495","steam_id":85568392924515220,"keywords":["cp","nocrits","nodmgspread","uncletopia"],"game_id":440,"stv_port":27046,"stv_name":"Uncletopia | Dallas | 4 | Community | STV","players":null},{"server_id":5,"name":"Uncletopia | Frankfurt | 1 | All Maps","name_short":"frk-1","host":"frk-1.de.uncletopia.com","port":27015,"enabled":true,"region":"eu","cc":"de","latitude":50.110924,"longitude":8.682127,"reserved":0,"last_update":"0001-01-01T00:00:00Z","name_a2s":"Uncletopia | Frankfurt | 1 | All Maps","protocol":17,"map":"pl_snowycoast","folder":"tf","game":"Team Fortress","app_id":440,"player_count":0,"max_players":24,"Bots":0,"server_type":"Dedicated","server_os":"Linux","password":true,"vac":true,"version":"7961495","steam_id":85568392924469989,"keywords":["nocrits","nodmgspread","payload","uncletopia"],"game_id":440,"stv_port":27016,"stv_name":"Uncletopia | Frankfurt | 1 | All Maps | STV","players":null},{"server_id":110,"name":"Uncletopia | Frankfurt | 2 | All Maps","name_short":"frk-2","host":"frk-1.de.uncletopia.com","port":27025,"enabled":true,"region":"eu","cc":"de","latitude":50.110924,"longitude":8.682127,"reserved":0,"last_update":"0001-01-01T00:00:00Z","name_a2s":"Uncletopia | Frankfurt | 2 | All Maps","protocol":17,"map":"koth_lakeside_final","folder":"tf","game":"Team Fortress","app_id":440,"player_count":0,"max_players":24,"Bots":0,"server_type":"Dedicated","server_os":"Linux","password":true,"vac":true,"version":"7961495","steam_id":85568392924469990,"keywords":["cp","nocrits","nodmgspread","uncletopia"],"game_id":440,"stv_port":27026,"stv_name":"Uncletopia | Frankfurt | 2 | All Maps | STV","players":null},{"server_id":308,"name":"Uncletopia | Frankfurt | 3 | All Maps","name_short":"frk-3","host":"frk-1.de.uncletopia.com","port":27035,"enabled":true,"region":"eu","cc":"de","latitude":50.110924,"longitude":8.682127,"reserved":0,"last_update":"0001-01-01T00:00:00Z","name_a2s":"Uncletopia | Frankfurt | 3 | All Maps","protocol":17,"map":"cp_sunshine","folder":"tf","game":"Team Fortress","app_id":440,"player_count":0,"max_players":24,"Bots":0,"server_type":"Dedicated","server_os":"Linux","password":true,"vac":true,"version":"7961495","steam_id":85568392924504274,"keywords":["cp","nocrits","nodmgspread","uncletopia"],"game_id":440,"stv_port":27036,"stv_name":"Uncletopia | Frankfurt | 3 | All Maps | STV","players":null},{"server_id":309,"name":"Uncletopia | Frankfurt | 4 | All Maps","name_short":"frk-4","host":"frk-1.de.uncletopia.com","port":27045,"enabled":true,"region":"eu","cc":"de","latitude":50.110924,"longitude":8.682127,"reserved":0,"last_update":"0001-01-01T00:00:00Z","name_a2s":"Uncletopia | Frankfurt | 4 | All Maps","protocol":17,"map":"cp_altitude","folder":"tf","game":"Team Fortress","app_id":440,"player_count":0,"max_players":24,"Bots":0,"server_type":"Dedicated","server_os":"Linux","password":true,"vac":true,"version":"7961495","steam_id":85568392924504275,"keywords":["cp","nocrits","nodmgspread","uncletopia"],"game_id":440,"stv_port":27046,"stv_name":"Uncletopia | Frankfurt | 4 | All Maps | STV","players":null},{"server_id":310,"name":"Uncletopia | Frankfurt | 5 | All Maps","name_short":"frk-5","host":"frk-1.de.uncletopia.com","port":27055,"enabled":true,"region":"eu","cc":"de","latitude":50.110924,"longitude":8.682127,"reserved":0,"last_update":"0001-01-01T00:00:00Z","name_a2s":"Uncletopia | Frankfurt | 5 | All Maps","protocol":17,"map":"pl_badwater","folder":"tf","game":"Team Fortress","app_id":440,"player_count":0,"max_players":24,"Bots":0,"server_type":"Dedicated","server_os":"Linux","password":true,"vac":true,"version":"7961495","steam_id":85568392924504277,"keywords":["nocrits","nodmgspread","payload","uncletopia"],"game_id":440,"stv_port":27056,"stv_name":"Uncletopia | Frankfurt | 5 | All Maps | STV","players":null},{"server_id":311,"name":"Uncletopia | Frankfurt | 6 | All Maps","name_short":"frk-6","host":"frk-1.de.uncletopia.com","port":27065,"enabled":true,"region":"eu","cc":"de","latitude":50.110924,"longitude":8.682127,"reserved":0,"last_update":"0001-01-01T00:00:00Z","name_a2s":"Uncletopia | Frankfurt | 6 | All Maps","protocol":17,"map":"pl_barnblitz","folder":"tf","game":"Team Fortress","app_id":440,"player_count":0,"max_players":24,"Bots":0,"server_type":"Dedicated","server_os":"Linux","password":true,"vac":true,"version":"7961495","steam_id":85568392924504278,"keywords":["nocrits","nodmgspread","payload","uncletopia"],"game_id":440,"stv_port":27066,"stv_name":"Uncletopia | Frankfurt | 6 | All Maps | STV","players":null},{"server_id":23,"name":"Uncletopia | Frankfurt | 7 | Stopwatch Beta","name_short":"frk-7","host":"frk-1.de.uncletopia.com","port":27075,"enabled":true,"region":"eu","cc":"de","latitude":50.110924,"longitude":8.682127,"reserved":0,"last_update":"0001-01-01T00:00:00Z","name_a2s":"Uncletopia | Frankfurt | 7 | Stopwatch Beta","protocol":17,"map":"koth_cascade","folder":"tf","game":"Team Fortress","app_id":440,"player_count":0,"max_players":24,"Bots":0,"server_type":"Dedicated","server_os":"Linux","password":true,"vac":true,"version":"7961495","steam_id":85568392924742827,"keywords":["cp","nocrits","nodmgspread","uncletopia"],"game_id":440,"stv_port":27076,"stv_name":"Uncletopia | Frankfurt | 7 | Stopwatch Beta | STV","players":null},{"server_id":24,"name":"Uncletopia | Frankfurt | 8 | Community","name_short":"frk-8","host":"frk-1.de.uncletopia.com","port":27085,"enabled":true,"region":"eu","cc":"de","latitude":50.110924,"longitude":8.682127,"reserved":0,"last_update":"0001-01-01T00:00:00Z","name_a2s":"Uncletopia | Frankfurt | 8 | Community","protocol":17,"map":"cp_dustbowl","folder":"tf","game":"Team Fortress","app_id":440,"player_count":0,"max_players":24,"Bots":0,"server_type":"Dedicated","server_os":"Linux","password":true,"vac":true,"version":"7961495","steam_id":85568392924742828,"keywords":["cp","nocrits","nodmgspread","uncletopia"],"game_id":440,"stv_port":27086,"stv_name":"Uncletopia | Frankfurt | 8 | Community | STV","players":null},{"server_id":202,"name":"Uncletopia | Hong Kong | 1 | All Maps","name_short":"hgk-1","host":"hgk-1.hk.uncletopia.com","port":27015,"enabled":true,"region":"asia","cc":"hk","latitude":22.302711,"longitude":114.177216,"reserved":0,"last_update":"0001-01-01T00:00:00Z","name_a2s":"Uncletopia | Hong Kong | 1 | All Maps","protocol":17,"map":"pl_snowycoast","folder":"tf","game":"Team Fortress","app_id":440,"player_count":24,"max_players":24,"Bots":0,"server_type":"Dedicated","server_os":"Linux","password":true,"vac":true,"version":"7961495","steam_id":85568392924494504,"keywords":["nocrits","nodmgspread","payload","uncletopia"],"game_id":440,"stv_port":27016,"stv_name":"Uncletopia | Hong Kong | 1 | All Maps | STV","players":[{"user_id":205,"name":"Puddin","steam_id":76561198140052918,"connected_time":2586000000000,"state":"active","ping":89},{"user_id":248,"name":"TomCat","steam_id":76561198133744053,"connected_time":353000000000,"state":"active","ping":113},{"user_id":195,"name":"aeross","steam_id":76561198834445483,"connected_time":3404000000000,"state":"active","ping":73},{"user_id":183,"name":"malkuth","steam_id":76561198230213828,"connected_time":4304000000000,"state":"active","ping":63},{"user_id":153,"name":"Muerto","steam_id":76561198328718520,"connected_time":5850000000000,"state":"active","ping":115},{"user_id":201,"name":"salami","steam_id":76561198306834480,"connected_time":3007000000000,"state":"active","ping":76},{"user_id":246,"name":"Fluffy","steam_id":76561198316671856,"connected_time":677000000000,"state":"active","ping":100},{"user_id":237,"name":"Beef Wellington","steam_id":76561197995635241,"connected_time":1340000000000,"state":"active","ping":121},{"user_id":194,"name":"Stewb","steam_id":76561198131423270,"connected_time":3488000000000,"state":"active","ping":66},{"user_id":227,"name":"P","steam_id":76561198304514505,"connected_time":1767000000000,"state":"active","ping":74},{"user_id":247,"name":"water tastes good","steam_id":76561199375947670,"connected_time":655000000000,"state":"active","ping":82},{"user_id":210,"name":"sylvie","steam_id":76561199152824088,"connected_time":2239000000000,"state":"active","ping":62},{"user_id":249,"name":"김광만","steam_id":76561198295279503,"connected_time":44000000000,"state":"active","ping":88},{"user_id":214,"name":"monkeyman536","steam_id":76561197997717737,"connected_time":2150000000000,"state":"active","ping":128},{"user_id":245,"name":"turd","steam_id":76561199006212966,"connected_time":839000000000,"state":"active","ping":87},{"user_id":235,"name":"Ink Sans","steam_id":76561198412072687,"connected_time":1412000000000,"state":"active","ping":57},{"user_id":223,"name":"toad","steam_id":76561198082199290,"connected_time":1825000000000,"state":"active","ping":58},{"user_id":217,"name":"watamelon","steam_id":76561197994194946,"connected_time":2044000000000,"state":"active","ping":104},{"user_id":240,"name":"biz","steam_id":76561198159000109,"connected_time":1281000000000,"state":"active","ping":148},{"user_id":225,"name":"\"SKS\"","steam_id":76561198187995386,"connected_time":1775000000000,"state":"active","ping":89},{"user_id":226,"name":"got muted lol . . .","steam_id":76561198074339034,"connected_time":1773000000000,"state":"active","ping":75},{"user_id":242,"name":"SHADOWWIZARDMONEYGANG","steam_id":76561198850021147,"connected_time":1030000000000,"state":"active","ping":80},{"user_id":230,"name":"Samoyed","steam_id":76561198299150410,"connected_time":1762000000000,"state":"active","ping":81},{"user_id":241,"name":"Liveshwun","steam_id":76561198876388404,"connected_time":1186000000000,"state":"active","ping":88}]},{"server_id":1,"name":"Uncletopia | Los Angeles | 1 | All Maps","name_short":"lax-1","host":"lax-1.us.uncletopia.com","port":27015,"enabled":true,"region":"us-west","cc":"us","latitude":33.94279,"longitude":-118.41004,"reserved":0,"last_update":"0001-01-01T00:00:00Z","name_a2s":"Uncletopia | Los Angeles | 1 | All Maps","protocol":17,"map":"cp_steel","folder":"tf","game":"Team Fortress","app_id":440,"player_count":24,"max_players":24,"Bots":0,"server_type":"Dedicated","server_os":"Linux","password":true,"vac":true,"version":"7961495","steam_id":85568392924469991,"keywords":["cp","nocrits","nodmgspread","uncletopia"],"game_id":440,"stv_port":27016,"stv_name":"Uncletopia | Los Angeles | 1 | All Maps | STV","players":[{"user_id":269,"name":"LeTonzy","steam_id":76561198005806699,"connected_time":1976000000000,"state":"active","ping":64},{"user_id":301,"name":"Silvermace","steam_id":76561198090696843,"connected_time":172000000000,"state":"active","ping":45},{"user_id":302,"name":"SharkSteaks","steam_id":76561198114240219,"connected_time":163000000000,"state":"active","ping":83},{"user_id":303,"name":"Flare Dance","steam_id":76561198260443137,"connected_time":128000000000,"state":"active","ping":62},{"user_id":296,"name":"Defeat","steam_id":76561198065203818,"connected_time":377000000000,"state":"active","ping":59},{"user_id":297,"name":"Scorcho","steam_id":76561198071413833,"connected_time":356000000000,"state":"active","ping":87},{"user_id":249,"name":"gleek","steam_id":76561198105374054,"connected_time":4443000000000,"state":"active","ping":69},{"user_id":305,"name":"whatifplants","steam_id":76561198279213338,"connected_time":8000000000,"state":"spawning","ping":63},{"user_id":248,"name":"jovial","steam_id":76561198297130941,"connected_time":4457000000000,"state":"active","ping":50},{"user_id":295,"name":"Crustacean Daddy","steam_id":76561198993807061,"connected_time":413000000000,"state":"active","ping":43},{"user_id":238,"name":"Chiaki Nanami","steam_id":76561198164782653,"connected_time":5511000000000,"state":"active","ping":120},{"user_id":284,"name":"Ann Ziegler (No Sound)","steam_id":76561198052249401,"connected_time":1314000000000,"state":"active","ping":96},{"user_id":239,"name":"gerg","steam_id":76561197997127387,"connected_time":5507000000000,"state":"active","ping":61},{"user_id":293,"name":"Drilly22","steam_id":76561198068838338,"connected_time":436000000000,"state":"active","ping":97},{"user_id":290,"name":"Keamy","steam_id":76561199471434875,"connected_time":959000000000,"state":"active","ping":75},{"user_id":272,"name":"zinqi","steam_id":76561198376838848,"connected_time":1903000000000,"state":"active","ping":128},{"user_id":273,"name":"radical","steam_id":76561199194112599,"connected_time":1890000000000,"state":"active","ping":125},{"user_id":299,"name":"GlizzLord","steam_id":76561198321010427,"connected_time":273000000000,"state":"active","ping":64},{"user_id":241,"name":"social distance warrior","steam_id":76561198128992994,"connected_time":5469000000000,"state":"active","ping":75},{"user_id":298,"name":"babywhoa","steam_id":76561198070854627,"connected_time":308000000000,"state":"active","ping":51},{"user_id":300,"name":"big car","steam_id":76561198067082350,"connected_time":188000000000,"state":"active","ping":60},{"user_id":214,"name":"Buswolley","steam_id":76561197995205571,"connected_time":7132000000000,"state":"active","ping":55},{"user_id":245,"name":"Dooku","steam_id":76561198216958508,"connected_time":4970000000000,"state":"active","ping":53},{"user_id":277,"name":"FunHaver69","steam_id":76561199086723311,"connected_time":1848000000000,"state":"active","ping":74}]},{"server_id":112,"name":"Uncletopia | Los Angeles | 2 | All Maps","name_short":"lax-2","host":"lax-1.us.uncletopia.com","port":27025,"enabled":true,"region":"us-west","cc":"us","latitude":33.94279,"longitude":-118.41004,"reserved":0,"last_update":"0001-01-01T00:00:00Z","name_a2s":"Uncletopia | Los Angeles | 2 | All Maps","protocol":17,"map":"pl_swiftwater_final1","folder":"tf","game":"Team Fortress","app_id":440,"player_count":22,"max_players":24,"Bots":0,"server_type":"Dedicated","server_os":"Linux","password":true,"vac":true,"version":"7961495","steam_id":85568392924469992,"keywords":["nocrits","nodmgspread","payload","uncletopia"],"game_id":440,"stv_port":27026,"stv_name":"Uncletopia | Los Angeles | 2 | All Maps | STV","players":[{"user_id":320,"name":"MasterGeek.MX","steam_id":76561198063355220,"connected_time":984000000000,"state":"active","ping":119},{"user_id":277,"name":"parallax","steam_id":76561198004438881,"connected_time":3585000000000,"state":"active","ping":70},{"user_id":317,"name":"silver","steam_id":76561199020503397,"connected_time":1040000000000,"state":"active","ping":46},{"user_id":298,"name":"xbox record that","steam_id":76561198150117455,"connected_time":2265000000000,"state":"active","ping":49},{"user_id":312,"name":"Gavin Gruesome","steam_id":76561198349908268,"connected_time":1649000000000,"state":"active","ping":55},{"user_id":289,"name":"Classus Moira","steam_id":76561199218374185,"connected_time":3120000000000,"state":"active","ping":93},{"user_id":321,"name":"BLU Payload Cart","steam_id":76561198352427247,"connected_time":979000000000,"state":"active","ping":66},{"user_id":299,"name":"Immortal8Reaper","steam_id":76561198297661559,"connected_time":2253000000000,"state":"active","ping":127},{"user_id":316,"name":"BlueberryScones","steam_id":76561199423641132,"connected_time":1202000000000,"state":"active","ping":43},{"user_id":318,"name":"Ralph Kramden (Slim Charles)","steam_id":76561197981687895,"connected_time":1037000000000,"state":"active","ping":61},{"user_id":300,"name":"cream team","steam_id":76561198139043953,"connected_time":2246000000000,"state":"active","ping":79},{"user_id":303,"name":"ark","steam_id":76561198041066271,"connected_time":2214000000000,"state":"active","ping":89},{"user_id":327,"name":"Cael Thavain","steam_id":76561198136789464,"connected_time":520000000000,"state":"active","ping":61},{"user_id":331,"name":"Cam","steam_id":76561198139174433,"connected_time":335000000000,"state":"active","ping":55},{"user_id":332,"name":"Ghwhaine","steam_id":76561199045414702,"connected_time":318000000000,"state":"active","ping":85},{"user_id":279,"name":"icechiller","steam_id":76561198070895266,"connected_time":3500000000000,"state":"active","ping":63},{"user_id":304,"name":"Toddinator","steam_id":76561198303329028,"connected_time":2200000000000,"state":"active","ping":127},{"user_id":296,"name":"El Super Monkey Ball","steam_id":76561198135634819,"connected_time":2662000000000,"state":"active","ping":56},{"user_id":322,"name":"[chef] iron","steam_id":76561197970888616,"connected_time":976000000000,"state":"active","ping":90},{"user_id":330,"name":"TF2C | fac -AA-","steam_id":76561198009818412,"connected_time":391000000000,"state":"active","ping":80},{"user_id":264,"name":"Did you know","steam_id":76561198090057040,"connected_time":5010000000000,"state":"active","ping":54},{"user_id":276,"name":"Sábado Gigante","steam_id":76561197994685971,"connected_time":4202000000000,"state":"active","ping":52}]},{"server_id":324,"name":"Uncletopia | Los Angeles | 3 | All Maps","name_short":"lax-3","host":"lax-1.us.uncletopia.com","port":27035,"enabled":true,"region":"us-west","cc":"us","latitude":33.94279,"longitude":-118.41004,"reserved":0,"last_update":"0001-01-01T00:00:00Z","name_a2s":"Uncletopia | Los Angeles | 3 | All Maps","protocol":17,"map":"pl_upward","folder":"tf","game":"Team Fortress","app_id":440,"player_count":24,"max_players":24,"Bots":0,"server_type":"Dedicated","server_os":"Linux","password":true,"vac":true,"version":"7961495","steam_id":85568392924510198,"keywords":["nocrits","nodmgspread","payload","uncletopia"],"game_id":440,"stv_port":27036,"stv_name":"Uncletopia | Los Angeles | 3 | All Maps | STV","players":[{"user_id":715,"name":"Punished Jeff (Drain Messiah)","steam_id":76561198304252584,"connected_time":187000000000,"state":"active","ping":54},{"user_id":681,"name":"orangePulp","steam_id":76561198038373636,"connected_time":1397000000000,"state":"active","ping":59},{"user_id":718,"name":"❤Brooke Heart❤","steam_id":76561198045582166,"connected_time":4000000000,"state":"spawning","ping":59},{"user_id":688,"name":"oh god i'm gonna CHUM","steam_id":76561198019210187,"connected_time":1016000000000,"state":"active","ping":76},{"user_id":574,"name":"Vintage TV","steam_id":76561198800334545,"connected_time":8886000000000,"state":"active","ping":46},{"user_id":689,"name":"☢(XJ)","steam_id":76561198102189618,"connected_time":996000000000,"state":"active","ping":42},{"user_id":702,"name":"albert jones","steam_id":76561198404271005,"connected_time":658000000000,"state":"active","ping":55},{"user_id":685,"name":"Monkey on top","steam_id":76561198057868006,"connected_time":1083000000000,"state":"active","ping":99},{"user_id":695,"name":"TYLER","steam_id":76561198841399048,"connected_time":832000000000,"state":"active","ping":95},{"user_id":667,"name":"Loogus","steam_id":76561198811561721,"connected_time":2395000000000,"state":"active","ping":58},{"user_id":713,"name":"Subject Delta","steam_id":76561199109118980,"connected_time":201000000000,"state":"active","ping":53},{"user_id":672,"name":"ThatOneRhyGuy","steam_id":76561198107821741,"connected_time":1799000000000,"state":"active","ping":68},{"user_id":680,"name":"winrar","steam_id":76561198418239391,"connected_time":1494000000000,"state":"active","ping":46},{"user_id":714,"name":"Rodgedan","steam_id":76561198226236524,"connected_time":200000000000,"state":"active","ping":142},{"user_id":694,"name":"TrueGodOfBread","steam_id":76561198127577215,"connected_time":845000000000,"state":"active","ping":44},{"user_id":710,"name":"Puny Punny","steam_id":76561198060143203,"connected_time":550000000000,"state":"active","ping":56},{"user_id":716,"name":"Torkhum","steam_id":76561198162880748,"connected_time":83000000000,"state":"active","ping":65},{"user_id":712,"name":"Nate","steam_id":76561198045186954,"connected_time":336000000000,"state":"active","ping":48},{"user_id":693,"name":"euphoricfilth","steam_id":76561198100160865,"connected_time":885000000000,"state":"active","ping":95},{"user_id":690,"name":"ElectronX","steam_id":76561198116034988,"connected_time":995000000000,"state":"active","ping":54},{"user_id":677,"name":"nomis","steam_id":76561198115367704,"connected_time":1714000000000,"state":"active","ping":69},{"user_id":698,"name":"Infentdegree211","steam_id":76561198385234127,"connected_time":750000000000,"state":"active","ping":64},{"user_id":659,"name":"Rommel2007","steam_id":76561198041744631,"connected_time":3017000000000,"state":"active","ping":53},{"user_id":711,"name":"crankshaft","steam_id":76561197992798282,"connected_time":383000000000,"state":"active","ping":45}]},{"server_id":25,"name":"Uncletopia | Los Angeles | 4 | Stopwatch Beta","name_short":"lax-4","host":"lax-1.us.uncletopia.com","port":27045,"enabled":true,"region":"us-west","cc":"us","latitude":33.94279,"longitude":-118.41004,"reserved":0,"last_update":"0001-01-01T00:00:00Z","name_a2s":"Uncletopia | Los Angeles | 4 | Stopwatch Beta","protocol":17,"map":"pl_upward","folder":"tf","game":"Team Fortress","app_id":440,"player_count":0,"max_players":24,"Bots":0,"server_type":"Dedicated","server_os":"Linux","password":true,"vac":true,"version":"7961495","steam_id":85568392924510199,"keywords":["nocrits","nodmgspread","payload","uncletopia"],"game_id":440,"stv_port":27046,"stv_name":"Uncletopia | Los Angeles | 4 | Stopwatch Beta | STV","players":null},{"server_id":11,"name":"Uncletopia | London | 1 | All Maps","name_short":"lon-1","host":"lon-1.uk.uncletopia.com","port":27015,"enabled":true,"region":"eu","cc":"gb","latitude":51.509865,"longitude":-0.118092,"reserved":0,"last_update":"0001-01-01T00:00:00Z","name_a2s":"Uncletopia | London | 1 | All Maps","protocol":17,"map":"pl_borneo","folder":"tf","game":"Team Fortress","app_id":440,"player_count":0,"max_players":24,"Bots":0,"server_type":"Dedicated","server_os":"Linux","password":true,"vac":true,"version":"7961495","steam_id":85568392924367362,"keywords":["nocrits","nodmgspread","payload","uncletopia"],"game_id":440,"stv_port":27016,"stv_name":"Uncletopia | London | 1 | All Maps | STV","players":null},{"server_id":114,"name":"Uncletopia | London | 2 | All Maps","name_short":"lon-2","host":"lon-1.uk.uncletopia.com","port":27025,"enabled":true,"region":"eu","cc":"gb","latitude":51.509865,"longitude":-0.118092,"reserved":0,"last_update":"0001-01-01T00:00:00Z","name_a2s":"Uncletopia | London | 2 | All Maps","protocol":17,"map":"cp_snakewater_final1","folder":"tf","game":"Team Fortress","app_id":440,"player_count":0,"max_players":24,"Bots":0,"server_type":"Dedicated","server_os":"Linux","password":true,"vac":true,"version":"7961495","steam_id":85568392924470941,"keywords":["cp","nocrits","nodmgspread","uncletopia"],"game_id":440,"stv_port":27026,"stv_name":"Uncletopia | London | 2 | All Maps | STV","players":null},{"server_id":320,"name":"Uncletopia | London | 3 | All Maps","name_short":"lon-3","host":"lon-1.uk.uncletopia.com","port":27035,"enabled":true,"region":"eu","cc":"gb","latitude":51.509865,"longitude":-0.118092,"reserved":0,"last_update":"0001-01-01T00:00:00Z","name_a2s":"Uncletopia | London | 3 | All Maps","protocol":17,"map":"pl_pier","folder":"tf","game":"Team Fortress","app_id":440,"player_count":0,"max_players":24,"Bots":0,"server_type":"Dedicated","server_os":"Linux","password":true,"vac":true,"version":"7961495","steam_id":85568392924510192,"keywords":["nocrits","nodmgspread","payload","uncletopia"],"game_id":440,"stv_port":27036,"stv_name":"Uncletopia | London | 3 | All Maps | STV","players":null},{"server_id":321,"name":"Uncletopia | London | 4 | All Maps","name_short":"lon-4","host":"lon-1.uk.uncletopia.com","port":27045,"enabled":true,"region":"eu","cc":"gb","latitude":51.509865,"longitude":-0.118092,"reserved":0,"last_update":"0001-01-01T00:00:00Z","name_a2s":"Uncletopia | London | 4 | All Maps","protocol":17,"map":"koth_viaduct","folder":"tf","game":"Team Fortress","app_id":440,"player_count":0,"max_players":24,"Bots":0,"server_type":"Dedicated","server_os":"Linux","password":true,"vac":true,"version":"7961495","steam_id":85568392924510193,"keywords":["cp","nocrits","nodmgspread","uncletopia"],"game_id":440,"stv_port":27046,"stv_name":"Uncletopia | London | 4 | All Maps | STV","players":null},{"server_id":21,"name":"Uncletopia | London | 5 | All Maps","name_short":"lon-5","host":"lon-1.uk.uncletopia.com","port":27055,"enabled":true,"region":"eu","cc":"gb","latitude":51.509865,"longitude":-0.118092,"reserved":0,"last_update":"0001-01-01T00:00:00Z","name_a2s":"Uncletopia | London | 5 | All Maps","protocol":17,"map":"pl_barnblitz","folder":"tf","game":"Team Fortress","app_id":440,"player_count":0,"max_players":24,"Bots":0,"server_type":"Dedicated","server_os":"Linux","password":true,"vac":true,"version":"7961495","steam_id":85568392924742829,"keywords":["nocrits","nodmgspread","payload","uncletopia"],"game_id":440,"stv_port":27056,"stv_name":"Uncletopia | London | 5 | All Maps | STV","players":null},{"server_id":22,"name":"Uncletopia | London | 6 | All Maps","name_short":"lon-6","host":"lon-1.uk.uncletopia.com","port":27065,"enabled":true,"region":"eu","cc":"gb","latitude":51.509865,"longitude":-0.118092,"reserved":0,"last_update":"0001-01-01T00:00:00Z","name_a2s":"Uncletopia | London | 6 | All Maps","protocol":17,"map":"pl_borneo","folder":"tf","game":"Team Fortress","app_id":440,"player_count":0,"max_players":24,"Bots":0,"server_type":"Dedicated","server_os":"Linux","password":true,"vac":true,"version":"7961495","steam_id":85568392924742830,"keywords":["nocrits","nodmgspread","payload","uncletopia"],"game_id":440,"stv_port":27066,"stv_name":"Uncletopia | London | 6 | All Maps | STV","players":null},{"server_id":40,"name":"Uncletopia | London | 7 | No Payload","name_short":"lon-7","host":"lon-1.uk.uncletopia.com","port":27075,"enabled":true,"region":"eu","cc":"gb","latitude":51.509865,"longitude":-0.118092,"reserved":0,"last_update":"0001-01-01T00:00:00Z","name_a2s":"Uncletopia | London | 7 | No Payload","protocol":17,"map":"pl_pier","folder":"tf","game":"Team Fortress","app_id":440,"player_count":0,"max_players":24,"Bots":0,"server_type":"Dedicated","server_os":"Linux","password":true,"vac":true,"version":"7961495","steam_id":85568392924964314,"keywords":["nocrits","nodmgspread","payload","uncletopia"],"game_id":440,"stv_port":27076,"stv_name":"Uncletopia | London | 7 | No Payload | STV","players":null},{"server_id":41,"name":"Uncletopia | London | 8 | Community","name_short":"lon-8","host":"lon-1.uk.uncletopia.com","port":27085,"enabled":true,"region":"eu","cc":"gb","latitude":51.509865,"longitude":-0.118092,"reserved":0,"last_update":"0001-01-01T00:00:00Z","name_a2s":"Uncletopia | London | 8 | Community","protocol":17,"map":"pl_borneo","folder":"tf","game":"Team Fortress","app_id":440,"player_count":0,"max_players":24,"Bots":0,"server_type":"Dedicated","server_os":"Linux","password":true,"vac":true,"version":"7961495","steam_id":85568392924964315,"keywords":["nocrits","nodmgspread","payload","uncletopia"],"game_id":440,"stv_port":27086,"stv_name":"Uncletopia | London | 8 | Community | STV","players":null},{"server_id":300,"name":"Uncletopia | Montréal | 1 | All Maps","name_short":"mtl-1","host":"mtl-1.ca.uncletopia.com","port":27015,"enabled":true,"region":"us-east","cc":"ca","latitude":45.50889,"longitude":-73.56167,"reserved":0,"last_update":"0001-01-01T00:00:00Z","name_a2s":"","protocol":0,"map":"","folder":"","game":"","app_id":0,"player_count":0,"max_players":0,"Bots":0,"server_type":"","server_os":"","password":false,"vac":false,"version":"","steam_id":0,"keywords":null,"game_id":0,"stv_port":0,"stv_name":"","players":null},{"server_id":301,"name":"Uncletopia | Montréal | 2 | All Maps","name_short":"mtl-2","host":"mtl-1.ca.uncletopia.com","port":27025,"enabled":true,"region":"us-east","cc":"ca","latitude":45.50889,"longitude":-73.56167,"reserved":0,"last_update":"0001-01-01T00:00:00Z","name_a2s":"","protocol":0,"map":"","folder":"","game":"","app_id":0,"player_count":0,"max_players":0,"Bots":0,"server_type":"","server_os":"","password":false,"vac":false,"version":"","steam_id":0,"keywords":null,"game_id":0,"stv_port":0,"stv_name":"","players":null},{"server_id":302,"name":"Uncletopia | Montréal | 3 | All Maps","name_short":"mtl-3","host":"mtl-1.ca.uncletopia.com","port":27035,"enabled":true,"region":"us-east","cc":"ca","latitude":45.50889,"longitude":-73.56167,"reserved":0,"last_update":"0001-01-01T00:00:00Z","name_a2s":"","protocol":0,"map":"","folder":"","game":"","app_id":0,"player_count":0,"max_players":0,"Bots":0,"server_type":"","server_os":"","password":false,"vac":false,"version":"","steam_id":0,"keywords":null,"game_id":0,"stv_port":0,"stv_name":"","players":null},{"server_id":303,"name":"Uncletopia | Montréal | 4 | No Payload","name_short":"mtl-4","host":"mtl-1.ca.uncletopia.com","port":27045,"enabled":true,"region":"us-east","cc":"ca","latitude":45.50889,"longitude":-73.56167,"reserved":0,"last_update":"0001-01-01T00:00:00Z","name_a2s":"","protocol":0,"map":"","folder":"","game":"","app_id":0,"player_count":0,"max_players":0,"Bots":0,"server_type":"","server_os":"","password":false,"vac":false,"version":"","steam_id":0,"keywords":null,"game_id":0,"stv_port":0,"stv_name":"","players":null},{"server_id":13,"name":"Uncletopia | New York City | 1 | All Maps","name_short":"nyc-1","host":"nyc-1.us.uncletopia.com","port":27015,"enabled":true,"region":"us-east","cc":"us","latitude":40.73061,"longitude":-73.93524,"reserved":0,"last_update":"0001-01-01T00:00:00Z","name_a2s":"Uncletopia | New York City | 1 | All Maps","protocol":17,"map":"koth_lakeside_final","folder":"tf","game":"Team Fortress","app_id":440,"player_count":22,"max_players":24,"Bots":0,"server_type":"Dedicated","server_os":"Linux","password":true,"vac":true,"version":"7961495","steam_id":85568392924469993,"keywords":["cp","nocrits","nodmgspread","uncletopia"],"game_id":440,"stv_port":27016,"stv_name":"Uncletopia | New York City | 1 | All Maps | STV","players":[{"user_id":788,"name":"Atlas AS7-D","steam_id":76561198425078444,"connected_time":234000000000,"state":"active","ping":136},{"user_id":783,"name":"ElElliot","steam_id":76561198842278840,"connected_time":285000000000,"state":"active","ping":50},{"user_id":786,"name":"Primitive","steam_id":76561198060500671,"connected_time":264000000000,"state":"active","ping":35},{"user_id":705,"name":"twinkhole sinkhole","steam_id":76561198149775502,"connected_time":6177000000000,"state":"active","ping":54},{"user_id":722,"name":"flamingcookies","steam_id":76561198280864779,"connected_time":4891000000000,"state":"active","ping":65},{"user_id":790,"name":"Mag","steam_id":76561198049836322,"connected_time":186000000000,"state":"active","ping":164},{"user_id":784,"name":"sugarkat","steam_id":76561198166692133,"connected_time":278000000000,"state":"active","ping":63},{"user_id":780,"name":"Tripll-L","steam_id":76561197998077437,"connected_time":422000000000,"state":"active","ping":94},{"user_id":755,"name":"Kuber_Streamz","steam_id":76561198046008453,"connected_time":2244000000000,"state":"active","ping":64},{"user_id":793,"name":"SCARY MONSTERS","steam_id":76561198042034176,"connected_time":68000000000,"state":"active","ping":60},{"user_id":794,"name":"Scum Knight | T.I.D.K.","steam_id":76561198282444763,"connected_time":56000000000,"state":"active","ping":48},{"user_id":767,"name":"ceres","steam_id":76561198291976960,"connected_time":1055000000000,"state":"active","ping":135},{"user_id":749,"name":"NovaSc6ut","steam_id":76561198277163301,"connected_time":2481000000000,"state":"active","ping":75},{"user_id":781,"name":"EliteSpartan","steam_id":76561198174023582,"connected_time":394000000000,"state":"active","ping":75},{"user_id":715,"name":"ErenJenga54","steam_id":76561199066185761,"connected_time":5315000000000,"state":"active","ping":136},{"user_id":706,"name":"the j","steam_id":76561198257263022,"connected_time":6150000000000,"state":"active","ping":53},{"user_id":760,"name":"bug","steam_id":76561198125208660,"connected_time":1622000000000,"state":"active","ping":92},{"user_id":607,"name":"XX_gamer2001_XxX","steam_id":76561198105405869,"connected_time":15065000000000,"state":"active","ping":89},{"user_id":752,"name":"Slime","steam_id":76561198128358144,"connected_time":2434000000000,"state":"active","ping":47},{"user_id":759,"name":"tooba","steam_id":76561198202589758,"connected_time":1653000000000,"state":"active","ping":62},{"user_id":756,"name":"Grandma","steam_id":76561198419412841,"connected_time":2129000000000,"state":"active","ping":38},{"user_id":773,"name":"eryn 🗺","steam_id":76561198004433070,"connected_time":797000000000,"state":"active","ping":80}]},{"server_id":14,"name":"Uncletopia | New York City | 2 | All Maps","name_short":"nyc-2","host":"nyc-1.us.uncletopia.com","port":27025,"enabled":true,"region":"us-east","cc":"us","latitude":40.73061,"longitude":-73.93524,"reserved":0,"last_update":"0001-01-01T00:00:00Z","name_a2s":"Uncletopia | New York City | 2 | All Maps","protocol":17,"map":"pl_snowycoast","folder":"tf","game":"Team Fortress","app_id":440,"player_count":0,"max_players":24,"Bots":0,"server_type":"Dedicated","server_os":"Linux","password":true,"vac":true,"version":"7961495","steam_id":85568392924469994,"keywords":["nocrits","nodmgspread","payload","uncletopia"],"game_id":440,"stv_port":27026,"stv_name":"Uncletopia | New York City | 2 | All Maps | STV","players":null},{"server_id":15,"name":"Uncletopia | New York City | 3 | Stopwatch Beta","name_short":"nyc-3","host":"nyc-1.us.uncletopia.com","port":27035,"enabled":true,"region":"us-east","cc":"us","latitude":40.73061,"longitude":-73.93524,"reserved":0,"last_update":"0001-01-01T00:00:00Z","name_a2s":"Uncletopia | New York City | 3 | Stopwatch Beta","protocol":17,"map":"cp_sunshine","folder":"tf","game":"Team Fortress","app_id":440,"player_count":11,"max_players":24,"Bots":0,"server_type":"Dedicated","server_os":"Linux","password":true,"vac":true,"version":"7961495","steam_id":85568392924742820,"keywords":["cp","nocrits","nodmgspread","uncletopia"],"game_id":440,"stv_port":27036,"stv_name":"Uncletopia | New York City | 3 | Stopwatch Beta | STV","players":[{"user_id":60,"name":"marlow","steam_id":76561198094408360,"connected_time":363000000000,"state":"active","ping":70},{"user_id":61,"name":"numa","steam_id":76561198856016840,"connected_time":305000000000,"state":"active","ping":45},{"user_id":62,"name":"portal","steam_id":76561198142432749,"connected_time":139000000000,"state":"active","ping":74},{"user_id":63,"name":"jakey","steam_id":76561198043556142,"connected_time":118000000000,"state":"active","ping":60},{"user_id":64,"name":"GIR's pet pig","steam_id":76561198000061808,"connected_time":24000000000,"state":"active","ping":76},{"user_id":35,"name":"armaghgeddon™","steam_id":76561198018519640,"connected_time":3178000000000,"state":"active","ping":71},{"user_id":41,"name":"60Hz gaming","steam_id":76561198032698137,"connected_time":2312000000000,"state":"active","ping":146},{"user_id":37,"name":"Novagas13","steam_id":76561198141045568,"connected_time":2735000000000,"state":"active","ping":131},{"user_id":44,"name":"Hegemon","steam_id":76561198325191507,"connected_time":2039000000000,"state":"active","ping":75},{"user_id":43,"name":"yadaman2020","steam_id":76561198413707253,"connected_time":2290000000000,"state":"active","ping":80},{"user_id":51,"name":"Sean","steam_id":76561199367470003,"connected_time":1389000000000,"state":"active","ping":130}]},{"server_id":16,"name":"Uncletopia | New York City | 4 | Community","name_short":"nyc-4","host":"nyc-1.us.uncletopia.com","port":27045,"enabled":true,"region":"us-east","cc":"us","latitude":40.73061,"longitude":-73.93524,"reserved":0,"last_update":"0001-01-01T00:00:00Z","name_a2s":"Uncletopia | New York City | 4 | Community","protocol":17,"map":"workshop/koth_product_final.ugc454272353","folder":"tf","game":"Team Fortress","app_id":440,"player_count":0,"max_players":24,"Bots":0,"server_type":"Dedicated","server_os":"Linux","password":true,"vac":true,"version":"7961495","steam_id":85568392924742821,"keywords":["cp","nocrits","nodmgspread","uncletopia"],"game_id":440,"stv_port":27046,"stv_name":"Uncletopia | New York City | 4 | Community | STV","players":null},{"server_id":142,"name":"Uncletopia | São Paulo | 1 | All Maps","name_short":"sao-1","host":"sao-1.br.uncletopia.com","port":27015,"enabled":true,"region":"sa","cc":"br","latitude":-23.533773,"longitude":-46.62529,"reserved":0,"last_update":"0001-01-01T00:00:00Z","name_a2s":"Uncletopia | São Paulo | 1 | All Maps","protocol":17,"map":"cp_sunshine","folder":"tf","game":"Team Fortress","app_id":440,"player_count":2,"max_players":24,"Bots":0,"server_type":"Dedicated","server_os":"Linux","password":true,"vac":true,"version":"7961495","steam_id":85568392924469996,"keywords":["cp","nocrits","nodmgspread","uncletopia"],"game_id":440,"stv_port":27016,"stv_name":"Uncletopia | São Paulo | 1 | All Maps | STV","players":[{"user_id":108,"name":"Slz.","steam_id":76561199156075097,"connected_time":8301000000000,"state":"active","ping":50},{"user_id":109,"name":"Zezerdison","steam_id":76561198974347652,"connected_time":8259000000000,"state":"active","ping":62}]},{"server_id":143,"name":"Uncletopia | São Paulo | 2 | Community","name_short":"sao-2","host":"sao-2.br.uncletopia.com","port":27015,"enabled":true,"region":"sa","cc":"br","latitude":-23.533773,"longitude":-46.62529,"reserved":0,"last_update":"0001-01-01T00:00:00Z","name_a2s":"Uncletopia | São Paulo | 2 | Community","protocol":17,"map":"workshop/cp_mannbase_rc2a.ugc1900737467","folder":"tf","game":"Team Fortress","app_id":440,"player_count":0,"max_players":24,"Bots":0,"server_type":"Dedicated","server_os":"Linux","password":true,"vac":true,"version":"7961495","steam_id":85568392924485349,"keywords":["cp","nocrits","nodmgspread","uncletopia"],"game_id":440,"stv_port":27016,"stv_name":"Uncletopia | São Paulo | 2 | Community | STV","players":null},{"server_id":7,"name":"Uncletopia | Seattle | 1 | All Maps","name_short":"sea-1","host":"sea-1.us.uncletopia.com","port":27015,"enabled":true,"region":"us-west","cc":"us","latitude":47.608013,"longitude":-122.33517,"reserved":0,"last_update":"0001-01-01T00:00:00Z","name_a2s":"Uncletopia | Seattle | 1 | All Maps","protocol":17,"map":"koth_suijin","folder":"tf","game":"Team Fortress","app_id":440,"player_count":24,"max_players":24,"Bots":0,"server_type":"Dedicated","server_os":"Linux","password":true,"vac":true,"version":"7961495","steam_id":85568392924469997,"keywords":["cp","nocrits","nodmgspread","uncletopia"],"game_id":440,"stv_port":27016,"stv_name":"Uncletopia | Seattle | 1 | All Maps | STV","players":[{"user_id":71,"name":"♥ Keiran Tracey ♥ (Soupcan)","steam_id":76561198056269538,"connected_time":232000000000,"state":"active","ping":60},{"user_id":4,"name":"zpalmtree","steam_id":76561198134307620,"connected_time":4649000000000,"state":"active","ping":119},{"user_id":59,"name":"fart thief","steam_id":76561198046073848,"connected_time":1354000000000,"state":"active","ping":39},{"user_id":52,"name":"Arsonist Goose","steam_id":76561198147441830,"connected_time":2189000000000,"state":"active","ping":69},{"user_id":7,"name":"Ayayayayayahuasca","steam_id":76561199002906056,"connected_time":4647000000000,"state":"active","ping":49},{"user_id":63,"name":"Ducks","steam_id":76561198130038345,"connected_time":1170000000000,"state":"active","ping":64},{"user_id":70,"name":"D34dR4bbit","steam_id":76561198167411455,"connected_time":546000000000,"state":"active","ping":55},{"user_id":10,"name":"NEBULA","steam_id":76561198086878595,"connected_time":4639000000000,"state":"active","ping":73},{"user_id":42,"name":"pepe warlord","steam_id":76561198080819197,"connected_time":3161000000000,"state":"active","ping":80},{"user_id":60,"name":"jayeskae","steam_id":76561198144220801,"connected_time":1276000000000,"state":"active","ping":49},{"user_id":34,"name":"a REAL wizard!!!!","steam_id":76561198097178599,"connected_time":3604000000000,"state":"active","ping":53},{"user_id":67,"name":"Domopon","steam_id":76561199080347686,"connected_time":1003000000000,"state":"active","ping":89},{"user_id":36,"name":"Big Shon","steam_id":76561198183967827,"connected_time":3562000000000,"state":"active","ping":98},{"user_id":69,"name":"turtle","steam_id":76561198112673874,"connected_time":550000000000,"state":"active","ping":70},{"user_id":44,"name":"ʳᵒʸᵒ","steam_id":76561198155447646,"connected_time":2860000000000,"state":"active","ping":77},{"user_id":76,"name":"Dextersbrain","steam_id":76561198011831579,"connected_time":114000000000,"state":"active","ping":63},{"user_id":20,"name":"no vc no c","steam_id":76561197989503095,"connected_time":4564000000000,"state":"active","ping":153},{"user_id":65,"name":"spenca","steam_id":76561198025371154,"connected_time":1079000000000,"state":"active","ping":74},{"user_id":33,"name":"Jahootis Pootis","steam_id":76561198048879388,"connected_time":3909000000000,"state":"active","ping":63},{"user_id":53,"name":"zobro","steam_id":76561198110031579,"connected_time":2033000000000,"state":"active","ping":81},{"user_id":68,"name":"rorywashere /ᐠ - ˕ -マ Ⳋ","steam_id":76561198065825165,"connected_time":804000000000,"state":"active","ping":118},{"user_id":56,"name":"Kaiga","steam_id":76561198044052046,"connected_time":1732000000000,"state":"active","ping":124},{"user_id":28,"name":"PJROCK101","steam_id":76561198070616561,"connected_time":4317000000000,"state":"active","ping":81},{"user_id":62,"name":"Yack Skag","steam_id":76561198068251493,"connected_time":1194000000000,"state":"active","ping":71}]},{"server_id":119,"name":"Uncletopia | Seattle | 2 | All Maps","name_short":"sea-2","host":"sea-1.us.uncletopia.com","port":27025,"enabled":true,"region":"us-west","cc":"us","latitude":47.608013,"longitude":-122.33517,"reserved":0,"last_update":"0001-01-01T00:00:00Z","name_a2s":"Uncletopia | Seattle | 2 | All Maps","protocol":17,"map":"koth_harvest_final","folder":"tf","game":"Team Fortress","app_id":440,"player_count":24,"max_players":24,"Bots":0,"server_type":"Dedicated","server_os":"Linux","password":true,"vac":true,"version":"7961495","steam_id":85568392924469998,"keywords":["cp","nocrits","nodmgspread","uncletopia"],"game_id":440,"stv_port":27026,"stv_name":"Uncletopia | Seattle | 2 | All Maps | STV","players":[{"user_id":3,"name":"pete davidson","steam_id":76561198073549508,"connected_time":4652000000000,"state":"active","ping":62},{"user_id":68,"name":"Red Man","steam_id":76561198293333566,"connected_time":1390000000000,"state":"active","ping":106},{"user_id":83,"name":"branflakess","steam_id":76561198115832989,"connected_time":513000000000,"state":"active","ping":85},{"user_id":59,"name":"johan","steam_id":76561198881144114,"connected_time":1794000000000,"state":"active","ping":46},{"user_id":56,"name":"Motto tsuyoku, Ani-san","steam_id":76561198851421641,"connected_time":2500000000000,"state":"active","ping":55},{"user_id":8,"name":"lug nut larry","steam_id":76561198170643378,"connected_time":4631000000000,"state":"active","ping":81},{"user_id":74,"name":"MayKaye","steam_id":76561199016092265,"connected_time":1010000000000,"state":"active","ping":95},{"user_id":10,"name":"mub","steam_id":76561197961943948,"connected_time":4627000000000,"state":"active","ping":46},{"user_id":79,"name":"The Goblin!","steam_id":76561199015195397,"connected_time":898000000000,"state":"active","ping":96},{"user_id":57,"name":"Jose THE MAN (the man)","steam_id":76561199133395169,"connected_time":2477000000000,"state":"active","ping":130},{"user_id":13,"name":"Mapachito Lindo","steam_id":76561198031359995,"connected_time":4612000000000,"state":"active","ping":45},{"user_id":81,"name":"JSHERIFF187","steam_id":76561199427900685,"connected_time":795000000000,"state":"active","ping":96},{"user_id":70,"name":"GudeGuy","steam_id":76561198011801747,"connected_time":1098000000000,"state":"active","ping":64},{"user_id":17,"name":"Aesthetix","steam_id":76561197995511642,"connected_time":4551000000000,"state":"active","ping":62},{"user_id":84,"name":"Salty","steam_id":76561198044750949,"connected_time":295000000000,"state":"active","ping":56},{"user_id":71,"name":"onionman0106","steam_id":76561199067766868,"connected_time":1047000000000,"state":"active","ping":48},{"user_id":48,"name":"Mii Guest C, From Wii Sports","steam_id":76561198197964803,"connected_time":2808000000000,"state":"active","ping":65},{"user_id":80,"name":"Magic Sam","steam_id":76561198089426224,"connected_time":849000000000,"state":"active","ping":61},{"user_id":53,"name":"Misfit","steam_id":76561198044561021,"connected_time":2730000000000,"state":"active","ping":124},{"user_id":62,"name":"xLeoparrd","steam_id":76561198940657194,"connected_time":1719000000000,"state":"active","ping":100},{"user_id":61,"name":"Delλyed (FamOuZ)😻","steam_id":76561198290147935,"connected_time":1749000000000,"state":"active","ping":118},{"user_id":66,"name":"2 Point Tom","steam_id":76561198087617008,"connected_time":1408000000000,"state":"active","ping":52},{"user_id":29,"name":"Outlier","steam_id":76561199093787770,"connected_time":4384000000000,"state":"active","ping":132},{"user_id":52,"name":"sora","steam_id":76561198094256973,"connected_time":2785000000000,"state":"active","ping":74}]},{"server_id":406,"name":"Uncletopia | Seattle | 3 | Stopwatch Beta","name_short":"sea-3","host":"sea-1.us.uncletopia.com","port":27035,"enabled":true,"region":"us-west","cc":"us","latitude":47.608013,"longitude":-122.33517,"reserved":0,"last_update":"0001-01-01T00:00:00Z","name_a2s":"Uncletopia | Seattle | 3 | Stopwatch Beta","protocol":17,"map":"workshop/koth_bagel_rc6.ugc2514036946","folder":"tf","game":"Team Fortress","app_id":440,"player_count":5,"max_players":24,"Bots":0,"server_type":"Dedicated","server_os":"Linux","password":true,"vac":true,"version":"7961495","steam_id":85568392924515217,"keywords":["cp","nocrits","nodmgspread","uncletopia"],"game_id":440,"stv_port":27036,"stv_name":"Uncletopia | Seattle | 3 | Stopwatch Beta | STV","players":[{"user_id":6,"name":"raspy","steam_id":76561198027298961,"connected_time":2488000000000,"state":"active","ping":100},{"user_id":7,"name":"090-nsalih","steam_id":76561199467467873,"connected_time":2249000000000,"state":"active","ping":245},{"user_id":12,"name":"Cheezbeargur","steam_id":76561198164702899,"connected_time":1081000000000,"state":"active","ping":63},{"user_id":14,"name":"cracky","steam_id":76561197971365444,"connected_time":49000000000,"state":"active","ping":53},{"user_id":10,"name":"Cohobast (They/Them)","steam_id":76561198040566483,"connected_time":1813000000000,"state":"active","ping":53}]},{"server_id":17,"name":"Uncletopia | San Francisco | 1 | All Maps","name_short":"sfo-1","host":"sfo-1.us.uncletopia.com","port":27015,"enabled":true,"region":"us-west","cc":"us","latitude":37.77397,"longitude":-122.4313,"reserved":0,"last_update":"0001-01-01T00:00:00Z","name_a2s":"Uncletopia | San Francisco | 1 | All Maps","protocol":17,"map":"pl_thundermountain","folder":"tf","game":"Team Fortress","app_id":440,"player_count":24,"max_players":24,"Bots":0,"server_type":"Dedicated","server_os":"Linux","password":true,"vac":true,"version":"7961495","steam_id":85568392924469999,"keywords":["nocrits","nodmgspread","payload","uncletopia"],"game_id":440,"stv_port":27016,"stv_name":"Uncletopia | San Francisco | 1 | All Maps | STV","players":[{"user_id":375,"name":"✪ Jam","steam_id":76561198101672564,"connected_time":1315000000000,"state":"active","ping":45},{"user_id":383,"name":"Cute Twink","steam_id":76561198867798847,"connected_time":865000000000,"state":"active","ping":46},{"user_id":324,"name":"ExpertScabPicker","steam_id":76561198081961642,"connected_time":5260000000000,"state":"active","ping":74},{"user_id":371,"name":"Caspian","steam_id":76561199041466962,"connected_time":1583000000000,"state":"active","ping":51},{"user_id":342,"name":"The Smell of Jazz","steam_id":76561198005860388,"connected_time":4156000000000,"state":"active","ping":56},{"user_id":382,"name":"Demomann","steam_id":76561199112000229,"connected_time":892000000000,"state":"active","ping":63},{"user_id":379,"name":"Black Bear.","steam_id":76561198806203328,"connected_time":1113000000000,"state":"active","ping":65},{"user_id":385,"name":"Manila Folders","steam_id":76561198212083128,"connected_time":570000000000,"state":"active","ping":107},{"user_id":376,"name":"PotatMun","steam_id":76561198031448999,"connected_time":1296000000000,"state":"active","ping":69},{"user_id":350,"name":"summer ant","steam_id":76561198340389876,"connected_time":2817000000000,"state":"active","ping":73},{"user_id":351,"name":"NoelMisspelled","steam_id":76561199227084650,"connected_time":2811000000000,"state":"active","ping":55},{"user_id":377,"name":"Villchip","steam_id":76561198198599982,"connected_time":1143000000000,"state":"active","ping":70},{"user_id":378,"name":"EduardoLopez2005","steam_id":76561198188481309,"connected_time":1135000000000,"state":"active","ping":55},{"user_id":334,"name":"Funkmaster yee","steam_id":76561198037738918,"connected_time":4944000000000,"state":"active","ping":61},{"user_id":380,"name":"Major_Pippy","steam_id":76561198004482878,"connected_time":1110000000000,"state":"active","ping":68},{"user_id":355,"name":"Scrampled Aigs","steam_id":76561198014526583,"connected_time":2749000000000,"state":"active","ping":103},{"user_id":370,"name":"mwee machine","steam_id":76561198047126327,"connected_time":1974000000000,"state":"active","ping":77},{"user_id":386,"name":"Smitty Werbenjagermanjensen","steam_id":76561198065782439,"connected_time":468000000000,"state":"active","ping":103},{"user_id":361,"name":"thorn648","steam_id":76561198012565777,"connected_time":2545000000000,"state":"active","ping":100},{"user_id":381,"name":"allahsdroptop","steam_id":76561198133195238,"connected_time":1090000000000,"state":"active","ping":65},{"user_id":344,"name":"Igrium","steam_id":76561198119549811,"connected_time":3587000000000,"state":"active","ping":60},{"user_id":329,"name":"ISEEU456","steam_id":76561198069648430,"connected_time":5117000000000,"state":"active","ping":83},{"user_id":363,"name":"ふわふわ毛布","steam_id":76561198088403016,"connected_time":2528000000000,"state":"active","ping":150},{"user_id":364,"name":"Ian","steam_id":76561198159334435,"connected_time":2525000000000,"state":"active","ping":169}]},{"server_id":18,"name":"Uncletopia | San Francisco | 2 | All Maps","name_short":"sfo-2","host":"sfo-1.us.uncletopia.com","port":27025,"enabled":true,"region":"us-west","cc":"us","latitude":37.77397,"longitude":-122.4313,"reserved":0,"last_update":"0001-01-01T00:00:00Z","name_a2s":"Uncletopia | San Francisco | 2 | All Maps","protocol":17,"map":"pl_pier","folder":"tf","game":"Team Fortress","app_id":440,"player_count":22,"max_players":24,"Bots":0,"server_type":"Dedicated","server_os":"Linux","password":true,"vac":true,"version":"7961495","steam_id":85568392924470000,"keywords":["nocrits","nodmgspread","payload","uncletopia"],"game_id":440,"stv_port":27026,"stv_name":"Uncletopia | San Francisco | 2 | All Maps | STV","players":[{"user_id":806,"name":"CRYHAV0C","steam_id":76561199129350925,"connected_time":931000000000,"state":"active","ping":86},{"user_id":798,"name":"Stick","steam_id":76561198001509374,"connected_time":1306000000000,"state":"active","ping":75},{"user_id":807,"name":"LeoXG72","steam_id":76561199018385453,"connected_time":682000000000,"state":"active","ping":91},{"user_id":782,"name":"supcupman","steam_id":76561198051513866,"connected_time":2935000000000,"state":"active","ping":60},{"user_id":811,"name":"Chap","steam_id":76561198294226443,"connected_time":62000000000,"state":"active","ping":65},{"user_id":729,"name":"YouAreReadingThis","steam_id":76561198367831600,"connected_time":7492000000000,"state":"active","ping":71},{"user_id":748,"name":"krcwettg3","steam_id":76561198811015090,"connected_time":5955000000000,"state":"active","ping":119},{"user_id":800,"name":"M","steam_id":76561198255827013,"connected_time":1223000000000,"state":"active","ping":88},{"user_id":754,"name":"Ice cream sandwich","steam_id":76561198172748357,"connected_time":5728000000000,"state":"active","ping":62},{"user_id":808,"name":"Drapph","steam_id":76561199384213314,"connected_time":481000000000,"state":"active","ping":221},{"user_id":795,"name":"papi Chulo","steam_id":76561198126274984,"connected_time":1415000000000,"state":"active","ping":85},{"user_id":813,"name":"buhn","steam_id":76561198106117196,"connected_time":4000000000,"state":"spawning","ping":57},{"user_id":812,"name":"intek","steam_id":76561198052705291,"connected_time":22000000000,"state":"active","ping":85},{"user_id":767,"name":"queer latinx pmc contractor","steam_id":76561198058617608,"connected_time":3614000000000,"state":"active","ping":66},{"user_id":783,"name":"Xyn","steam_id":76561198155207727,"connected_time":2693000000000,"state":"active","ping":77},{"user_id":799,"name":"Cypress [ +/- ] ✔","steam_id":76561198067164431,"connected_time":1298000000000,"state":"active","ping":46},{"user_id":801,"name":"Lucas","steam_id":76561198399704604,"connected_time":1217000000000,"state":"active","ping":65},{"user_id":746,"name":"JaM724","steam_id":76561199077582671,"connected_time":5973000000000,"state":"active","ping":116},{"user_id":789,"name":"Ahzain","steam_id":76561198035894333,"connected_time":2252000000000,"state":"active","ping":99},{"user_id":771,"name":"Amogous Supreme","steam_id":76561198025476774,"connected_time":3559000000000,"state":"active","ping":60},{"user_id":802,"name":"mac_cheese","steam_id":76561198071334162,"connected_time":1214000000000,"state":"active","ping":65},{"user_id":810,"name":"pl_chicago","steam_id":76561198055626638,"connected_time":284000000000,"state":"active","ping":149}]},{"server_id":19,"name":"Uncletopia | San Francisco | 3 | Stopwatch Beta","name_short":"sfo-3","host":"sfo-1.us.uncletopia.com","port":27035,"enabled":true,"region":"us-west","cc":"us","latitude":37.77397,"longitude":-122.4313,"reserved":0,"last_update":"0001-01-01T00:00:00Z","name_a2s":"Uncletopia | San Francisco | 3 | Stopwatch Beta","protocol":17,"map":"workshop/koth_bagel_rc6.ugc2514036946","folder":"tf","game":"Team Fortress","app_id":440,"player_count":0,"max_players":24,"Bots":0,"server_type":"Dedicated","server_os":"Linux","password":true,"vac":true,"version":"7961495","steam_id":85568392924742824,"keywords":["cp","nocrits","nodmgspread","uncletopia"],"game_id":440,"stv_port":27036,"stv_name":"Uncletopia | San Francisco | 3 | Stopwatch Beta | STV","players":null},{"server_id":20,"name":"Uncletopia | San Francisco | 4 | Community","name_short":"sfo-4","host":"sfo-1.us.uncletopia.com","port":27045,"enabled":true,"region":"us-west","cc":"us","latitude":37.77397,"longitude":-122.4313,"reserved":0,"last_update":"0001-01-01T00:00:00Z","name_a2s":"Uncletopia | San Francisco | 4 | Community","protocol":17,"map":"koth_viaduct","folder":"tf","game":"Team Fortress","app_id":440,"player_count":0,"max_players":24,"Bots":0,"server_type":"Dedicated","server_os":"Linux","password":true,"vac":true,"version":"7961495","steam_id":85568392924742826,"keywords":["cp","nocrits","nodmgspread","uncletopia"],"game_id":440,"stv_port":27046,"stv_name":"Uncletopia | San Francisco | 4 | Community | STV","players":null},{"server_id":141,"name":"Uncletopia | Sydney | 1 | All Maps","name_short":"syd-1","host":"syd-1.au.uncletopia.com","port":27015,"enabled":true,"region":"au","cc":"au","latitude":-33.865143,"longitude":151.2099,"reserved":0,"last_update":"0001-01-01T00:00:00Z","name_a2s":"Uncletopia | Sydney | 1 | All Maps","protocol":17,"map":"pl_barnblitz","folder":"tf","game":"Team Fortress","app_id":440,"player_count":24,"max_players":24,"Bots":0,"server_type":"Dedicated","server_os":"Linux","password":true,"vac":true,"version":"7961495","steam_id":85568392924470001,"keywords":["nocrits","nodmgspread","payload","uncletopia"],"game_id":440,"stv_port":27016,"stv_name":"Uncletopia | Sydney | 1 | All Maps | STV","players":[{"user_id":257,"name":"Medieval Cucumber Sorcerer","steam_id":76561198972095766,"connected_time":15000000000,"state":"active","ping":33},{"user_id":252,"name":"CypressFluff (She/Her)","steam_id":76561198174667818,"connected_time":185000000000,"state":"active","ping":62},{"user_id":211,"name":"mc.sleek","steam_id":76561198057602720,"connected_time":2548000000000,"state":"active","ping":72},{"user_id":219,"name":"Commando :3","steam_id":76561198044347773,"connected_time":2376000000000,"state":"active","ping":62},{"user_id":229,"name":"whiteshaq","steam_id":76561198131988811,"connected_time":1451000000000,"state":"active","ping":82},{"user_id":234,"name":"Mice master","steam_id":76561199135097296,"connected_time":1417000000000,"state":"active","ping":69},{"user_id":258,"name":"(ANTIFA) Nando!","steam_id":76561197997196934,"connected_time":12000000000,"state":"spawning","ping":60},{"user_id":248,"name":"xenon445","steam_id":76561198218867065,"connected_time":509000000000,"state":"active","ping":74},{"user_id":213,"name":"Stab Calloway","steam_id":76561198027827983,"connected_time":2536000000000,"state":"active","ping":40},{"user_id":245,"name":"emo tom.","steam_id":76561198332850708,"connected_time":805000000000,"state":"active","ping":74},{"user_id":242,"name":"Jeternal","steam_id":76561198016514233,"connected_time":879000000000,"state":"active","ping":63},{"user_id":231,"name":"pigeon","steam_id":76561198135180841,"connected_time":1444000000000,"state":"active","ping":45},{"user_id":249,"name":"Sover blw.tf","steam_id":76561198136347837,"connected_time":381000000000,"state":"active","ping":129},{"user_id":217,"name":"Kojima","steam_id":76561198288970258,"connected_time":2422000000000,"state":"active","ping":48},{"user_id":250,"name":"Spikey","steam_id":76561198037232687,"connected_time":373000000000,"state":"active","ping":58},{"user_id":207,"name":"Mooty","steam_id":76561198301293435,"connected_time":2741000000000,"state":"active","ping":52},{"user_id":162,"name":"perturb (feed/seed)","steam_id":76561198085124297,"connected_time":6182000000000,"state":"active","ping":57},{"user_id":208,"name":"Untitled","steam_id":76561199247213153,"connected_time":2730000000000,"state":"active","ping":60},{"user_id":244,"name":"my cool dachshund","steam_id":76561198305379892,"connected_time":821000000000,"state":"active","ping":60},{"user_id":239,"name":"Phibs","steam_id":76561199323730865,"connected_time":1138000000000,"state":"active","ping":41},{"user_id":251,"name":"TZEI","steam_id":76561198045566851,"connected_time":329000000000,"state":"active","ping":97},{"user_id":254,"name":"Wampy","steam_id":76561199211235248,"connected_time":166000000000,"state":"active","ping":46},{"user_id":259,"name":"myyyth #MoreDM","steam_id":76561198241303512,"connected_time":0,"state":"spawning","ping":0},{"user_id":238,"name":"42","steam_id":76561198184593855,"connected_time":1369000000000,"state":"active","ping":45}]},{"server_id":123,"name":"Uncletopia | Sydney | 2 | All Maps","name_short":"syd-2","host":"syd-1.au.uncletopia.com","port":27025,"enabled":true,"region":"au","cc":"au","latitude":-33.865143,"longitude":151.2099,"reserved":0,"last_update":"0001-01-01T00:00:00Z","name_a2s":"Uncletopia | Sydney | 2 | All Maps","protocol":17,"map":"koth_harvest_final","folder":"tf","game":"Team Fortress","app_id":440,"player_count":15,"max_players":24,"Bots":0,"server_type":"Dedicated","server_os":"Linux","password":true,"vac":true,"version":"7961495","steam_id":85568392924470002,"keywords":["cp","nocrits","nodmgspread","uncletopia"],"game_id":440,"stv_port":27026,"stv_name":"Uncletopia | Sydney | 2 | All Maps | STV","players":[{"user_id":19,"name":"Empolé","steam_id":76561198363939040,"connected_time":4538000000000,"state":"active","ping":153},{"user_id":20,"name":"HJGuard","steam_id":76561199275636067,"connected_time":4039000000000,"state":"active","ping":69},{"user_id":23,"name":"Mildly Explosive","steam_id":76561199396024219,"connected_time":2582000000000,"state":"active","ping":69},{"user_id":54,"name":"Killing","steam_id":76561198107392931,"connected_time":942000000000,"state":"active","ping":58},{"user_id":41,"name":"Beangodhiann","steam_id":76561198189663681,"connected_time":1418000000000,"state":"active","ping":62},{"user_id":28,"name":"Circumcision survivor","steam_id":76561198103271896,"connected_time":1924000000000,"state":"active","ping":69},{"user_id":29,"name":"billybumbum????????","steam_id":76561199113553211,"connected_time":1880000000000,"state":"active","ping":31},{"user_id":43,"name":"yoga","steam_id":76561199163801558,"connected_time":1344000000000,"state":"active","ping":45},{"user_id":52,"name":"Jacob","steam_id":76561198059341907,"connected_time":1045000000000,"state":"active","ping":36},{"user_id":64,"name":"BigLadBoyga","steam_id":76561198985263763,"connected_time":222000000000,"state":"active","ping":72},{"user_id":44,"name":"yooj","steam_id":76561197999718328,"connected_time":1335000000000,"state":"active","ping":72},{"user_id":38,"name":"Ducky Carlos","steam_id":76561198144440845,"connected_time":1487000000000,"state":"active","ping":69},{"user_id":39,"name":"Mayonnaise Gargler","steam_id":76561199030560226,"connected_time":1476000000000,"state":"active","ping":68},{"user_id":59,"name":"bread","steam_id":76561199405764106,"connected_time":714000000000,"state":"active","ping":36},{"user_id":57,"name":"sweet","steam_id":76561198075311236,"connected_time":879000000000,"state":"active","ping":45}]},{"server_id":395,"name":"Uncletopia | Sydney | 3 | All Maps","name_short":"syd-3","host":"syd-1.au.uncletopia.com","port":27035,"enabled":true,"region":"au","cc":"au","latitude":-33.865143,"longitude":151.2099,"reserved":0,"last_update":"0001-01-01T00:00:00Z","name_a2s":"Uncletopia | Sydney | 3 | All Maps","protocol":17,"map":"koth_highpass","folder":"tf","game":"Team Fortress","app_id":440,"player_count":0,"max_players":24,"Bots":0,"server_type":"Dedicated","server_os":"Linux","password":true,"vac":true,"version":"7961495","steam_id":85568392925194467,"keywords":["cp","nocrits","nodmgspread","uncletopia"],"game_id":440,"stv_port":27036,"stv_name":"Uncletopia | Sydney | 3 | All Maps | STV","players":null},{"server_id":396,"name":"Uncletopia | Sydney | 4 | All Maps","name_short":"syd-4","host":"syd-1.au.uncletopia.com","port":27045,"enabled":true,"region":"au","cc":"au","latitude":-33.865143,"longitude":151.2099,"reserved":0,"last_update":"0001-01-01T00:00:00Z","name_a2s":"Uncletopia | Sydney | 4 | All Maps","protocol":17,"map":"cp_dustbowl","folder":"tf","game":"Team Fortress","app_id":440,"player_count":5,"max_players":24,"Bots":0,"server_type":"Dedicated","server_os":"Linux","password":true,"vac":true,"version":"7961495","steam_id":85568392925397958,"keywords":["cp","nocrits","nodmgspread","uncletopia"],"game_id":440,"stv_port":27046,"stv_name":"Uncletopia | Sydney | 4 | All Maps | STV","players":[{"user_id":64,"name":"Ᵽ𐌄Ť𐌄Ұ","steam_id":76561199140764838,"connected_time":873000000000,"state":"active","ping":68},{"user_id":62,"name":"SeanVerse","steam_id":76561199155475738,"connected_time":1551000000000,"state":"active","ping":58},{"user_id":65,"name":"Squark","steam_id":76561199117672518,"connected_time":871000000000,"state":"active","ping":48},{"user_id":67,"name":"moosemeow","steam_id":76561198849004573,"connected_time":561000000000,"state":"active","ping":49},{"user_id":68,"name":"Jeshī","steam_id":76561198105982416,"connected_time":489000000000,"state":"active","ping":47}]},{"server_id":58,"name":"Uncletopia | Sydney | 5 | Stopwatch Beta","name_short":"syd-5","host":"syd-1.au.uncletopia.com","port":27055,"enabled":true,"region":"au","cc":"au","latitude":-33.865143,"longitude":151.2099,"reserved":0,"last_update":"0001-01-01T00:00:00Z","name_a2s":"Uncletopia | Sydney | 5 | Stopwatch Beta","protocol":17,"map":"koth_viaduct","folder":"tf","game":"Team Fortress","app_id":440,"player_count":0,"max_players":24,"Bots":0,"server_type":"Dedicated","server_os":"Linux","password":true,"vac":true,"version":"7961495","steam_id":85568392925397959,"keywords":["cp","nocrits","nodmgspread","uncletopia"],"game_id":440,"stv_port":27056,"stv_name":"Uncletopia | Sydney | 5 | Stopwatch Beta | STV","players":null},{"server_id":59,"name":"Uncletopia | Sydney | 6 | Community","name_short":"syd-6","host":"syd-1.au.uncletopia.com","port":27065,"enabled":true,"region":"au","cc":"au","latitude":-33.865143,"longitude":151.2099,"reserved":0,"last_update":"0001-01-01T00:00:00Z","name_a2s":"Uncletopia | Sydney | 6 | Community","protocol":17,"map":"koth_cascade","folder":"tf","game":"Team Fortress","app_id":440,"player_count":0,"max_players":24,"Bots":0,"server_type":"Dedicated","server_os":"Linux","password":true,"vac":true,"version":"7961495","steam_id":85568392925397960,"keywords":["cp","nocrits","nodmgspread","uncletopia"],"game_id":440,"stv_port":27066,"stv_name":"Uncletopia | Sydney | 6 | Community | STV","players":null},{"server_id":49,"name":"Uncletopia | Warsaw | 1 | All Maps","name_short":"waw-1","host":"waw-1.pl.uncletopia.com","port":27015,"enabled":true,"region":"eu","cc":"pl","latitude":52.2297,"longitude":21.017532,"reserved":0,"last_update":"0001-01-01T00:00:00Z","name_a2s":"Uncletopia | Warsaw | 1 | All Maps","protocol":17,"map":"pl_swiftwater_final1","folder":"tf","game":"Team Fortress","app_id":440,"player_count":0,"max_players":24,"Bots":0,"server_type":"Dedicated","server_os":"Linux","password":true,"vac":true,"version":"7961495","steam_id":85568392925397850,"keywords":["nocrits","nodmgspread","payload","uncletopia"],"game_id":440,"stv_port":27016,"stv_name":"Uncletopia | Warsaw | 1 | All Maps | STV","players":null},{"server_id":50,"name":"Uncletopia | Warsaw | 2 | All Maps","name_short":"waw-2","host":"waw-1.pl.uncletopia.com","port":27025,"enabled":true,"region":"eu","cc":"pl","latitude":52.2297,"longitude":21.017532,"reserved":0,"last_update":"0001-01-01T00:00:00Z","name_a2s":"Uncletopia | Warsaw | 2 | All Maps","protocol":17,"map":"cp_dustbowl","folder":"tf","game":"Team Fortress","app_id":440,"player_count":0,"max_players":24,"Bots":0,"server_type":"Dedicated","server_os":"Linux","password":true,"vac":true,"version":"7961495","steam_id":85568392925397851,"keywords":["cp","nocrits","nodmgspread","uncletopia"],"game_id":440,"stv_port":27026,"stv_name":"Uncletopia | Warsaw | 2 | All Maps | STV","players":null},{"server_id":51,"name":"Uncletopia | Warsaw | 3 | All Maps","name_short":"waw-3","host":"waw-1.pl.uncletopia.com","port":27035,"enabled":true,"region":"eu","cc":"pl","latitude":52.2297,"longitude":21.017532,"reserved":0,"last_update":"0001-01-01T00:00:00Z","name_a2s":"Uncletopia | Warsaw | 3 | All Maps","protocol":17,"map":"pl_upward","folder":"tf","game":"Team Fortress","app_id":440,"player_count":0,"max_players":24,"Bots":0,"server_type":"Dedicated","server_os":"Linux","password":true,"vac":true,"version":"7961495","steam_id":85568392925397852,"keywords":["nocrits","nodmgspread","payload","uncletopia"],"game_id":440,"stv_port":27036,"stv_name":"Uncletopia | Warsaw | 3 | All Maps | STV","players":null},{"server_id":52,"name":"Uncletopia | Warsaw | 4 | All Maps","name_short":"waw-4","host":"waw-1.pl.uncletopia.com","port":27045,"enabled":true,"region":"eu","cc":"pl","latitude":52.2297,"longitude":21.017532,"reserved":0,"last_update":"0001-01-01T00:00:00Z","name_a2s":"Uncletopia | Warsaw | 4 | All Maps","protocol":17,"map":"koth_viaduct","folder":"tf","game":"Team Fortress","app_id":440,"player_count":0,"max_players":24,"Bots":0,"server_type":"Dedicated","server_os":"Linux","password":true,"vac":true,"version":"7961495","steam_id":85568392925397853,"keywords":["cp","nocrits","nodmgspread","uncletopia"],"game_id":440,"stv_port":27046,"stv_name":"Uncletopia | Warsaw | 4 | All Maps | STV","players":null},{"server_id":53,"name":"Uncletopia | Warsaw | 5 | Stopwatch Beta","name_short":"waw-5","host":"waw-1.pl.uncletopia.com","port":27055,"enabled":true,"region":"eu","cc":"pl","latitude":52.2297,"longitude":21.017532,"reserved":0,"last_update":"0001-01-01T00:00:00Z","name_a2s":"Uncletopia | Warsaw | 5 | Stopwatch Beta","protocol":17,"map":"cp_snakewater_final1","folder":"tf","game":"Team Fortress","app_id":440,"player_count":0,"max_players":24,"Bots":0,"server_type":"Dedicated","server_os":"Linux","password":true,"vac":true,"version":"7961495","steam_id":85568392925397854,"keywords":["cp","nocrits","nodmgspread","uncletopia"],"game_id":440,"stv_port":27056,"stv_name":"Uncletopia | Warsaw | 5 | Stopwatch Beta | STV","players":null},{"server_id":54,"name":"Uncletopia | Warsaw | 6 | Community","name_short":"waw-6","host":"waw-1.pl.uncletopia.com","port":27065,"enabled":true,"region":"eu","cc":"pl","latitude":52.2297,"longitude":21.017532,"reserved":0,"last_update":"0001-01-01T00:00:00Z","name_a2s":"Uncletopia | Warsaw | 6 | Community","protocol":17,"map":"cp_mountainlab","folder":"tf","game":"Team Fortress","app_id":440,"player_count":0,"max_players":24,"Bots":0,"server_type":"Dedicated","server_os":"Linux","password":true,"vac":true,"version":"7961495","steam_id":85568392925397856,"keywords":["cp","nocrits","nodmgspread","uncletopia"],"game_id":440,"stv_port":27066,"stv_name":"Uncletopia | Warsaw | 6 | Community | STV","players":null}]}