{"status":true,"message":"","result":[{"server_id":9,"name":"Uncletopia | Atlanta | 1 | All Maps","name_short":"atl-1","host":"atl-1.us.uncletopia.com","port":27015,"enabled":true,"region":"us-east","cc":"us","latitude":33.753746,"longitude":-84.38633,"reserved":0,"last_update":"0001-01-01T00:00:00Z","name_a2s":"Uncletopia | Atlanta | 1 | All Maps","protocol":17,"map":"pl_upward","folder":"tf","game":"Team Fortress","app_id":440,"player_count":24,"max_players":24,"Bots":0,"server_type":"Dedicated","server_os":"Linux","password":true,"vac":true,"version":"7961495","steam_id":85568392924469982,"keywords":["nocrits","nodmgspread","payload","uncletopia"],"game_id":440,"stv_port":27016,"stv_name":"Uncletopia | Atlanta | 1 | All Maps | STV","players":null},{"server_id":104,"name":"Uncletopia | Atlanta | 2 | All Maps","name_short":"atl-2","host":"atl-1.us.uncletopia.com","port":27025,"enabled":true,"region":"us-east","cc":"us","latitude":33.753746,"longitude":-84.38633,"reserved":0,"last_update":"0001-01-01T00:00:00Z","name_a2s":"Uncletopia | Atlanta | 2 | All Maps","protocol":17,"map":"cp_altitude","folder":"tf","game":"Team Fortress","app_id":440,"player_count":24,"max_players":24,"Bots":0,"server_type":"Dedicated","server_os":"Linux","password":true,"vac":true,"version":"7961495","steam_id":85568392924469983,"keywords":["cp","nocrits","nodmgspread","uncletopia"],"game_id":440,"stv_port":27026,"stv_name":"Uncletopia | Atlanta | 2 | All Maps | STV","players":null},{"server_id":400,"name":"Uncletopia | Atlanta | 3 | Stopwatch","name_short":"atl-3","host":"atl-1.us.uncletopia.com","port":27035,"enabled":true,"region":"us-east","cc":"us","latitude":33.753746,"longitude":-84.38633,"reserved":0,"last_update":"0001-01-01T00:00:00Z","name_a2s":"Uncletopia | Atlanta | 3 | Stopwatch","protocol":17,"map":"koth_ramjam_rc1","folder":"tf","game":"Team Fortress","app_id":440,"player_count":15,"max_players":24,"Bots":0,"server_type":"Dedicated","server_os":"Linux","password":true,"vac":true,"version":"7961495","steam_id":85568392924515187,"keywords":["cp","nocrits","nodmgspread","uncletopia"],"game_id":440,"stv_port":27036,"stv_name":"Uncletopia | Atlanta | 3 | Stopwatch | STV","players":null},{"server_id":401,"name":"Uncletopia | Atlanta | 4 | Community","name_short":"atl-4","host":"atl-1.us.uncletopia.com","port":27045,"enabled":true,"region":"us-east","cc":"us","latitude":33.753746,"longitude":-84.38633,"reserved":0,"last_update":"0001-01-01T00:00:00Z","name_a2s":"Uncletopia | Atlanta | 4 | Community","protocol":17,"map":"pl_vigil_rc10","folder":"tf","game":"Team Fortress","app_id":440,"player_count":0,"max_players":24,"Bots":0,"server_type":"Dedicated","server_os":"Linux","password":true,"vac":true,"version":"7961495","steam_id":85568392924515188,"keywords":["nocrits","nodmgspread","payload","uncletopia"],"game_id":440,"stv_port":27046,"stv_name":"Uncletopia | Atlanta | 4 | Community | STV","players":null},{"server_id":2,"name":"Uncletopia | Chicago | 1 | All Maps","name_short":"chi-1","host":"chi-1.us.uncletopia.com","port":27015,"enabled":true,"region":"us-central","cc":"us","latitude":41.881832,"longitude":-87.62318,"reserved":0,"last_update":"0001-01-01T00:00:00Z","name_a2s":"Uncletopia | Chicago | 1 | All Maps","protocol":17,"map":"pl_barnblitz","folder":"tf","game":"Team Fortress","app_id":440,"player_count":24,"max_players":24,"Bots":0,"server_type":"Dedicated","server_os":"Linux","password":true,"vac":true,"version":"7961495","steam_id":85568392924469984,"keywords":["nocrits","nodmgspread","payload","uncletopia"],"game_id":440,"stv_port":27016,"stv_name":"Uncletopia | Chicago | 1 | All Maps | STV","players":[{"user_id":443,"name":"ComradeofSucc","steam_id":76561198076025718,"connected_time":2946000000000,"state":"active","ping":100},{"user_id":464,"name":"The new day","steam_id":76561198855144603,"connected_time":365000000000,"state":"active","ping":69},{"user_id":449,"name":"BookBurner23","steam_id":76561198034771185,"connected_time":2738000000000,"state":"active","ping":67},{"user_id":447,"name":"Meat Dragon","steam_id":76561198120319256,"connected_time":2789000000000,"state":"active","ping":46},{"user_id":429,"name":"CheeseCake488","steam_id":76561199407617942,"connected_time":4119000000000,"state":"active","ping":151},{"user_id":469,"name":"Mr. Call You Back","steam_id":76561198025172811,"connected_time":185000000000,"state":"active","ping":58},{"user_id":468,"name":"Snom","steam_id":76561198333827920,"connected_time":189000000000,"state":"active","ping":92},{"user_id":397,"name":"Milkmur","steam_id":76561198210043821,"connected_time":5991000000000,"state":"active","ping":68},{"user_id":458,"name":"Astoriae!","steam_id":76561199090168858,"connected_time":1479000000000,"state":"active","ping":67},{"user_id":451,"name":"♥Bunny♥Slut♥","steam_id":76561198206376851,"connected_time":2656000000000,"state":"active","ping":123},{"user_id":465,"name":"Chaos","steam_id":76561199068325065,"connected_time":212000000000,"state":"active","ping":93},{"user_id":456,"name":"LCGPhantom","steam_id":76561199052145044,"connected_time":2527000000000,"state":"active","ping":78},{"user_id":470,"name":"Steen","steam_id":76561198122992510,"connected_time":182000000000,"state":"active","ping":146},{"user_id":462,"name":"localmeat.gov","steam_id":76561198079178866,"connected_time":1196000000000,"state":"active","ping":61},{"user_id":473,"name":"captain red","steam_id":76561198191587983,"connected_time":158000000000,"state":"active","ping":81},{"user_id":471,"name":"General incompetence","steam_id":76561198967694381,"connected_time":180000000000,"state":"active","ping":71},{"user_id":459,"name":"a","steam_id":76561198040561757,"connected_time":1448000000000,"state":"active","ping":46},{"user_id":475,"name":"loser","steam_id":76561198259380127,"connected_time":56000000000,"state":"active","ping":59},{"user_id":463,"name":"Dirtbike rider","steam_id":76561198030457066,"connected_time":1113000000000,"state":"active","ping":86},{"user_id":425,"name":"Ata","steam_id":76561198349085545,"connected_time":4616000000000,"state":"active","ping":86},{"user_id":444,"name":"deimos","steam_id":76561198148357768,"connected_time":2900000000000,"state":"active","ping":62},{"user_id":477,"name":"Dry Bones","steam_id":76561198341537452,"connected_time":28000000000,"state":"active","ping":76},{"user_id":406,"name":"cart","steam_id":76561198253731826,"connected_time":5453000000000,"state":"active","ping":62},{"user_id":457,"name":"ExpandedCuber","steam_id":76561198970140709,"connected_time":1933000000000,"state":"active","ping":59}]},{"server_id":106,"name":"Uncletopia | Chicago | 2 | All Maps","name_short":"chi-2","host":"chi-1.us.uncletopia.com","port":27025,"enabled":true,"region":"us-central","cc":"us","latitude":41.881832,"longitude":-87.62318,"reserved":0,"last_update":"0001-01-01T00:00:00Z","name_a2s":"Uncletopia | Chicago | 2 | All Maps","protocol":17,"map":"cp_altitude","folder":"tf","game":"Team Fortress","app_id":440,"player_count":24,"max_players":24,"Bots":0,"server_type":"Dedicated","server_os":"Linux","password":true,"vac":true,"version":"7961495","steam_id":85568392924469985,"keywords":["cp","nocrits","nodmgspread","uncletopia"],"game_id":440,"stv_port":27026,"stv_name":"Uncletopia | Chicago | 2 | All Maps | STV","players":[{"user_id":575,"name":"Walmart Employee","steam_id":76561198840373909,"connected_time":816000000000,"state":"active","ping":89},{"user_id":567,"name":"food poisoning","steam_id":76561199094292465,"connected_time":1020000000000,"state":"active","ping":98},{"user_id":568,"name":"Papahemmy","steam_id":76561198155470810,"connected_time":966000000000,"state":"active","ping":63},{"user_id":540,"name":"X-7","steam_id":76561198127217378,"connected_time":2920000000000,"state":"active","ping":66},{"user_id":541,"name":"Hawkborne","steam_id":76561198107249245,"connected_time":2917000000000,"state":"active","ping":83},{"user_id":570,"name":"Owl Pacino","steam_id":76561197979970666,"connected_time":923000000000,"state":"active","ping":55},{"user_id":565,"name":"Necrophage#SaveTF2","steam_id":76561198861595622,"connected_time":1223000000000,"state":"active","ping":104},{"user_id":449,"name":"Peepster","steam_id":76561198297854733,"connected_time":8077000000000,"state":"active","ping":69},{"user_id":571,"name":"Sicko Mode (Chris Pratt Cover)","steam_id":76561198315786174,"connected_time":922000000000,"state":"active","ping":76},{"user_id":523,"name":"Gnome Tank","steam_id":76561198984179092,"connected_time":3837000000000,"state":"active","ping":76},{"user_id":576,"name":"ChaingunnerFails","steam_id":76561198963075967,"connected_time":814000000000,"state":"active","ping":106},{"user_id":516,"name":"{[Jax]}","steam_id":76561199468162789,"connected_time":4305000000000,"state":"active","ping":74},{"user_id":451,"name":"Gwuf","steam_id":76561198091503282,"connected_time":8063000000000,"state":"active","ping":131},{"user_id":554,"name":"Torensz64(But weezer)","steam_id":76561198239036482,"connected_time":2481000000000,"state":"active","ping":53},{"user_id":475,"name":"Jedediah Smurm","steam_id":76561198847209882,"connected_time":6656000000000,"state":"active","ping":60},{"user_id":573,"name":"meme_lad21","steam_id":76561199229567068,"connected_time":901000000000,"state":"active","ping":83},{"user_id":577,"name":"demoknight tf2","steam_id":76561198070393998,"connected_time":802000000000,"state":"active","ping":66},{"user_id":574,"name":"Skeledoor","steam_id":76561199181411466,"connected_time":896000000000,"state":"active","ping":75},{"user_id":559,"name":"@TV.FUN hyaZzZaZa","steam_id":76561199100342013,"connected_time":1927000000000,"state":"active","ping":90},{"user_id":579,"name":"Phos","steam_id":76561198122339506,"connected_time":527000000000,"state":"active","ping":76},{"user_id":563,"name":"anonpain","steam_id":76561198081317092,"connected_time":1388000000000,"state":"active","ping":47},{"user_id":560,"name":"Michaelpc1","steam_id":76561198088365519,"connected_time":1903000000000,"state":"active","ping":45},{"user_id":562,"name":"Mocha","steam_id":76561198221986284,"connected_time":1695000000000,"state":"active","ping":71},{"user_id":536,"name":"ElChuchoXf","steam_id":76561199235124146,"connected_time":3094000000000,"state":"active","ping":148}]},{"server_id":402,"name":"Uncletopia | Chicago | 3 | All Maps","name_short":"chi-3","host":"chi-1.us.uncletopia.com","port":27035,"enabled":true,"region":"us-central","cc":"us","latitude":41.881832,"longitude":-87.62318,"reserved":0,"last_update":"0001-01-01T00:00:00Z","name_a2s":"Uncletopia | Chicago | 3 | All Maps","protocol":17,"map":"pl_upward","folder":"tf","game":"Team Fortress","app_id":440,"player_count":24,"max_players":24,"Bots":0,"server_type":"Dedicated","server_os":"Linux","password":true,"vac":true,"version":"7961495","steam_id":85568392924515191,"keywords":["nocrits","nodmgspread","payload","uncletopia"],"game_id":440,"stv_port":27036,"stv_name":"Uncletopia | Chicago | 3 | All Maps | STV","players":[{"user_id":162,"name":"󠁳 ⁧Argo","steam_id":76561198353725622,"connected_time":3474000000000,"state":"active","ping":80},{"user_id":152,"name":"woah","steam_id":76561198301264312,"connected_time":4271000000000,"state":"active","ping":59},{"user_id":148,"name":"DinkleBerg","steam_id":76561198891626233,"connected_time":4465000000000,"state":"active","ping":63},{"user_id":190,"name":"Jessicamustdie","steam_id":76561198045230921,"connected_time":1076000000000,"state":"active","ping":60},{"user_id":80,"name":"Lia_Rein","steam_id":76561198151569597,"connected_time":12512000000000,"state":"active","ping":146},{"user_id":195,"name":"TrashPanda (she/her)","steam_id":76561198447864095,"connected_time":806000000000,"state":"active","ping":87},{"user_id":176,"name":"Sucks-At-Aiming","steam_id":76561198027487285,"connected_time":2271000000000,"state":"active","ping":123},{"user_id":200,"name":"rickyrickyricky","steam_id":76561198041765918,"connected_time":316000000000,"state":"active","ping":88},{"user_id":177,"name":"TheElderFrog","steam_id":76561197985743135,"connected_time":2269000000000,"state":"active","ping":76},{"user_id":196,"name":"Shalom","steam_id":76561198410005222,"connected_time":775000000000,"state":"active","ping":62},{"user_id":202,"name":"Robzilla","steam_id":76561198035236155,"connected_time":225000000000,"state":"active","ping":85},{"user_id":186,"name":"Smiles","steam_id":76561198107197973,"connected_time":1413000000000,"state":"active","ping":59},{"user_id":178,"name":"NERV","steam_id":76561198111023744,"connected_time":2258000000000,"state":"active","ping":70},{"user_id":183,"name":"SandHanitizer","steam_id":76561198234676500,"connected_time":2060000000000,"state":"active","ping":72},{"user_id":199,"name":"duct tape ass fart cure","steam_id":76561198057076267,"connected_time":535000000000,"state":"active","ping":77},{"user_id":175,"name":"Crunchy","steam_id":76561198060342804,"connected_time":2313000000000,"state":"active","ping":75},{"user_id":187,"name":"Thundermonkey (SMOKE)","steam_id":76561198017631728,"connected_time":1188000000000,"state":"active","ping":52},{"user_id":203,"name":"TheKyleB","steam_id":76561198202515104,"connected_time":48000000000,"state":"active","ping":34},{"user_id":193,"name":"Wulf","steam_id":76561198006072568,"connected_time":1037000000000,"state":"active","ping":104},{"user_id":133,"name":"TheOneZoot","steam_id":76561198121944243,"connected_time":5517000000000,"state":"active","ping":79},{"user_id":197,"name":"rudy","steam_id":76561198088712799,"connected_time":676000000000,"state":"active","ping":87},{"user_id":180,"name":"totoro","steam_id":76561198210420871,"connected_time":2231000000000,"state":"active","ping":46},{"user_id":198,"name":"Hooked","steam_id":76561198007302139,"connected_time":672000000000,"state":"active","ping":77},{"user_id":188,"name":"The local hobo","steam_id":76561198289650060,"connected_time":1181000000000,"state":"active","ping":91}]},{"server_id":403,"name":"Uncletopia | Chicago | 4 | All Maps","name_short":"chi-4","host":"chi-1.us.uncletopia.com","port":27045,"enabled":true,"region":"us-central","cc":"us","latitude":41.881832,"longitude":-87.62318,"reserved":0,"last_update":"0001-01-01T00:00:00Z","name_a2s":"Uncletopia | Chicago | 4 | All Maps","protocol":17,"map":"pl_frontier_final","folder":"tf","game":"Team Fortress","app_id":440,"player_count":24,"max_players":24,"Bots":0,"server_type":"Dedicated","server_os":"Linux","password":true,"vac":true,"version":"7961495","steam_id":85568392924515193,"keywords":["nocrits","nodmgspread","payload","uncletopia"],"game_id":440,"stv_port":27046,"stv_name":"Uncletopia | Chicago | 4 | All Maps | STV","players":[{"user_id":562,"name":"hatsune miku","steam_id":76561199445009981,"connected_time":308000000000,"state":"active","ping":98},{"user_id":531,"name":"Mikeyb_03","steam_id":76561198409357944,"connected_time":1598000000000,"state":"active","ping":44},{"user_id":560,"name":"Pawn Cushman","steam_id":76561198221635676,"connected_time":360000000000,"state":"active","ping":65},{"user_id":529,"name":"frenemy","steam_id":76561198011363677,"connected_time":1609000000000,"state":"active","ping":48},{"user_id":522,"name":"Urbanzpinapple","steam_id":76561198115426938,"connected_time":2455000000000,"state":"active","ping":58},{"user_id":464,"name":"Smelly","steam_id":76561198380507370,"connected_time":4874000000000,"state":"active","ping":76},{"user_id":520,"name":"chikmslaad","steam_id":76561198871478705,"connected_time":2684000000000,"state":"active","ping":71},{"user_id":538,"name":"fish (2:3)","steam_id":76561198134331073,"connected_time":1276000000000,"state":"active","ping":103},{"user_id":555,"name":"WM1 PYRO","steam_id":76561198045893896,"connected_time":569000000000,"state":"active","ping":101},{"user_id":549,"name":"!cav","steam_id":76561198041535102,"connected_time":653000000000,"state":"active","ping":62},{"user_id":565,"name":"Gaston","steam_id":76561198050099666,"connected_time":71000000000,"state":"active","ping":86},{"user_id":546,"name":"pl_chicago","steam_id":76561198055626638,"connected_time":842000000000,"state":"active","ping":91},{"user_id":501,"name":"Ephemeral-chan","steam_id":76561197996001672,"connected_time":3386000000000,"state":"active","ping":102},{"user_id":564,"name":"Astrocircuit","steam_id":76561198014437544,"connected_time":124000000000,"state":"active","ping":66},{"user_id":553,"name":"guh","steam_id":76561197972342286,"connected_time":575000000000,"state":"active","ping":70},{"user_id":507,"name":"Zhong Xina","steam_id":76561198048157121,"connected_time":3201000000000,"state":"active","ping":86},{"user_id":554,"name":"Rated_C","steam_id":76561199226478414,"connected_time":571000000000,"state":"active","ping":119},{"user_id":545,"name":"wepry","steam_id":76561198114091417,"connected_time":911000000000,"state":"active","ping":55},{"user_id":557,"name":"schnedwob","steam_id":76561197999146588,"connected_time":555000000000,"state":"active","ping":71},{"user_id":458,"name":"CDBeans","steam_id":76561198046990367,"connected_time":5191000000000,"state":"active","ping":98},{"user_id":558,"name":"Irabbit75","steam_id":76561197994852500,"connected_time":553000000000,"state":"active","ping":120},{"user_id":511,"name":"lexi","steam_id":76561198176299759,"connected_time":3069000000000,"state":"active","ping":79},{"user_id":550,"name":"ultralisk52","steam_id":76561198051666604,"connected_time":646000000000,"state":"active","ping":66},{"user_id":561,"name":"PumpkinThink","steam_id":76561198393830529,"connected_time":359000000000,"state":"active","ping":117}]},{"server_id":36,"name":"Uncletopia | Chicago | 5 | All Maps","name_short":"chi-5","host":"chi-2.us.uncletopia.com","port":27015,"enabled":true,"region":"us-central","cc":"us","latitude":41.881832,"longitude":-87.62318,"reserved":0,"last_update":"0001-01-01T00:00:00Z","name_a2s":"Uncletopia | Chicago | 5 | All Maps","protocol":17,"map":"plr_hightower","folder":"tf","game":"Team Fortress","app_id":440,"player_count":0,"max_players":24,"Bots":0,"server_type":"Dedicated","server_os":"Linux","password":true,"vac":true,"version":"7961495","steam_id":85568392924866362,"keywords":["nocrits","nodmgspread","payload","uncletopia"],"game_id":440,"stv_port":27016,"stv_name":"Uncletopia | Chicago | 5 | All Maps | STV","players":null},{"server_id":37,"name":"Uncletopia | Chicago | 6 | All Maps","name_short":"chi-6","host":"chi-2.us.uncletopia.com","port":27025,"enabled":true,"region":"us-central","cc":"us","latitude":41.881832,"longitude":-87.62318,"reserved":0,"last_update":"0001-01-01T00:00:00Z","name_a2s":"Uncletopia | Chicago | 6 | All Maps","protocol":17,"map":"pl_frontier_final","folder":"tf","game":"Team Fortress","app_id":440,"player_count":24,"max_players":24,"Bots":0,"server_type":"Dedicated","server_os":"Linux","password":true,"vac":true,"version":"7961495","steam_id":85568392924866363,"keywords":["nocrits","nodmgspread","payload","uncletopia"],"game_id":440,"stv_port":27026,"stv_name":"Uncletopia | Chicago | 6 | All Maps | STV","players":[{"user_id":305,"name":"Architect","steam_id":76561198015242016,"connected_time":427000000000,"state":"active","ping":46},{"user_id":295,"name":"Cat in Your Backyard","steam_id":76561197979078330,"connected_time":857000000000,"state":"active","ping":61},{"user_id":298,"name":"Space360","steam_id":76561198106743284,"connected_time":783000000000,"state":"active","ping":100},{"user_id":307,"name":"BluCoffee","steam_id":76561198214995967,"connected_time":320000000000,"state":"active","ping":67},{"user_id":303,"name":"Beyblade","steam_id":76561198893358191,"connected_time":572000000000,"state":"active","ping":96},{"user_id":284,"name":"Quilfus Scrofel","steam_id":76561198160308375,"connected_time":1416000000000,"state":"active","ping":63},{"user_id":222,"name":"doro","steam_id":76561198099041747,"connected_time":5187000000000,"state":"active","ping":99},{"user_id":268,"name":"bambithedj","steam_id":76561199224897581,"connected_time":2611000000000,"state":"active","ping":83},{"user_id":296,"name":"Tunac","steam_id":76561198115533350,"connected_time":857000000000,"state":"active","ping":48},{"user_id":285,"name":"Null","steam_id":76561198062791227,"connected_time":1397000000000,"state":"active","ping":67},{"user_id":297,"name":"Y O S H A","steam_id":76561197981812788,"connected_time":813000000000,"state":"active","ping":72},{"user_id":288,"name":"LORDO","steam_id":76561198044824675,"connected_time":1307000000000,"state":"active","ping":76},{"user_id":280,"name":"Golden Lime Boi","steam_id":76561198027779564,"connected_time":2102000000000,"state":"active","ping":59},{"user_id":291,"name":"Goop","steam_id":76561198141671765,"connected_time":927000000000,"state":"active","ping":81},{"user_id":278,"name":"Pyroshark","steam_id":76561198133599422,"connected_time":2355000000000,"state":"active","ping":73},{"user_id":211,"name":"pestilence007","steam_id":76561199068623664,"connected_time":5604000000000,"state":"active","ping":110},{"user_id":299,"name":"InMyThinkingCapThinkingCap","steam_id":76561198074678273,"connected_time":742000000000,"state":"active","ping":55},{"user_id":276,"name":"HOOPLA","steam_id":76561198993451858,"connected_time":2392000000000,"state":"active","ping":74},{"user_id":269,"name":"Mint Jelly","steam_id":76561197991286751,"connected_time":2610000000000,"state":"active","ping":49},{"user_id":263,"name":"BoxesOnCheetahs","steam_id":76561198213080323,"connected_time":3303000000000,"state":"active","ping":71},{"user_id":275,"name":"Crisp","steam_id":76561198132644084,"connected_time":2520000000000,"state":"active","ping":71},{"user_id":281,"name":"Howard Hamlin","steam_id":76561198881039861,"connected_time":2063000000000,"state":"active","ping":48},{"user_id":300,"name":"Just washed","steam_id":76561199030160932,"connected_time":709000000000,"state":"active","ping":80},{"user_id":306,"name":"Dalburgh","steam_id":76561198044331017,"connected_time":396000000000,"state":"active","ping":75}]},{"server_id":38,"name":"Uncletopia | Chicago | 7 | Stopwatch","name_short":"chi-7","host":"chi-2.us.uncletopia.com","port":27035,"enabled":true,"region":"us-central","cc":"us","latitude":41.881832,"longitude":-87.62318,"reserved":0,"last_update":"0001-01-01T00:00:00Z","name_a2s":"Uncletopia | Chicago | 7 | Stopwatch","protocol":17,"map":"workshop/koth_product_final.ugc454272353","folder":"tf","game":"Team Fortress","app_id":440,"player_count":0,"max_players":24,"Bots":0,"server_type":"Dedicated","server_os":"Linux","password":true,"vac":true,"version":"7961495","steam_id":85568392924866364,"keywords":["cp","nocrits","nodmgspread","uncletopia"],"game_id":440,"stv_port":27036,"stv_name":"Uncletopia | Chicago | 7 | Stopwatch | STV","players":null},{"server_id":39,"name":"Uncletopia | Chicago | 8 | Community","name_short":"chi-8","host":"chi-2.us.uncletopia.com","port":27045,"enabled":true,"region":"us-central","cc":"us","latitude":41.881832,"longitude":-87.62318,"reserved":0,"last_update":"0001-01-01T00:00:00Z","name_a2s":"Uncletopia | Chicago | 8 | Community","protocol":17,"map":"workshop/cp_reckoner_rc6.ugc674719999","folder":"tf","game":"Team Fortress","app_id":440,"player_count":0,"max_players":24,"Bots":0,"server_type":"Dedicated","server_os":"Linux","password":true,"vac":true,"version":"7961495","steam_id":85568392924866365,"keywords":["cp","nocrits","nodmgspread","uncletopia"],"game_id":440,"stv_port":27046,"stv_name":"Uncletopia | Chicago | 8 | Community | STV","players":null},{"server_id":8,"name":"Uncletopia | Dallas | 1 | All Maps","name_short":"dal-1","host":"dal-1.us.uncletopia.com","port":27015,"enabled":true,"region":"us-central","cc":"us","latitude":32.779167,"longitude":-96.80889,"reserved":0,"last_update":"0001-01-01T00:00:00Z","name_a2s":"Uncletopia | Dallas | 1 | All Maps","protocol":17,"map":"pl_enclosure_final","folder":"tf","game":"Team Fortress","app_id":440,"player_count":24,"max_players":24,"Bots":0,"server_type":"Dedicated","server_os":"Linux","password":true,"vac":true,"version":"7961495","steam_id":85568392924469986,"keywords":["nocrits","nodmgspread","payload","uncletopia"],"game_id":440,"stv_port":27016,"stv_name":"Uncletopia | Dallas | 1 | All Maps | STV","players":[{"user_id":409,"name":"Jerk Tryhard (roleplay)","steam_id":76561199470538309,"connected_time":1391000000000,"state":"active","ping":77},{"user_id":424,"name":"Failafel","steam_id":76561199111552786,"connected_time":696000000000,"state":"active","ping":156},{"user_id":416,"name":"Big Sauce","steam_id":76561198046654750,"connected_time":1008000000000,"state":"active","ping":87},{"user_id":323,"name":"Rob","steam_id":76561199187786660,"connected_time":7614000000000,"state":"active","ping":44},{"user_id":378,"name":"NoLights!","steam_id":76561197981106761,"connected_time":3383000000000,"state":"active","ping":94},{"user_id":429,"name":"FanaticSalt","steam_id":76561199380123059,"connected_time":64000000000,"state":"spawning","ping":44},{"user_id":381,"name":"Vorpas Jabwak","steam_id":76561198112186064,"connected_time":3319000000000,"state":"active","ping":74},{"user_id":417,"name":"Eomy","steam_id":76561198297783627,"connected_time":1006000000000,"state":"active","ping":88},{"user_id":402,"name":"OwningTundra2","steam_id":76561198936893224,"connected_time":2137000000000,"state":"active","ping":57},{"user_id":412,"name":"RusticCarp42989","steam_id":76561198361151865,"connected_time":1169000000000,"state":"active","ping":100},{"user_id":418,"name":"card carrying member","steam_id":76561198043558709,"connected_time":980000000000,"state":"active","ping":93},{"user_id":406,"name":"qwerty clan member","steam_id":76561199497627611,"connected_time":1799000000000,"state":"active","ping":88},{"user_id":293,"name":"Glaceon","steam_id":76561198177715869,"connected_time":9541000000000,"state":"active","ping":61},{"user_id":427,"name":"A_Random_N3rd","steam_id":76561198052786104,"connected_time":280000000000,"state":"active","ping":95},{"user_id":387,"name":"Karma","steam_id":76561198320530905,"connected_time":3112000000000,"state":"active","ping":47},{"user_id":407,"name":"La Bomba","steam_id":76561198069948353,"connected_time":1743000000000,"state":"active","ping":75},{"user_id":415,"name":"willangpat","steam_id":76561199106970878,"connected_time":1051000000000,"state":"active","ping":112},{"user_id":404,"name":"flippercurve","steam_id":76561199238295034,"connected_time":1910000000000,"state":"active","ping":71},{"user_id":428,"name":"The Noise","steam_id":76561199390353195,"connected_time":82000000000,"state":"active","ping":90},{"user_id":414,"name":"Hernandez$","steam_id":76561198019324588,"connected_time":1120000000000,"state":"active","ping":64},{"user_id":272,"name":"RacoonGamer","steam_id":76561198100907657,"connected_time":10572000000000,"state":"active","ping":103},{"user_id":421,"name":"Mundra","steam_id":76561198353777352,"connected_time":931000000000,"state":"active","ping":105},{"user_id":426,"name":"SiltyStar85","steam_id":76561198309175923,"connected_time":419000000000,"state":"active","ping":118},{"user_id":430,"name":"Greg Boberton 2012","steam_id":76561198983566026,"connected_time":64000000000,"state":"active","ping":84}]},{"server_id":108,"name":"Uncletopia | Dallas | 2 | All Maps","name_short":"dal-2","host":"dal-1.us.uncletopia.com","port":27025,"enabled":true,"region":"us-central","cc":"us","latitude":32.779167,"longitude":-96.80889,"reserved":0,"last_update":"0001-01-01T00:00:00Z","name_a2s":"Uncletopia | Dallas | 2 | All Maps","protocol":17,"map":"pl_barnblitz","folder":"tf","game":"Team Fortress","app_id":440,"player_count":24,"max_players":24,"Bots":0,"server_type":"Dedicated","server_os":"Linux","password":true,"vac":true,"version":"7961495","steam_id":85568392924469988,"keywords":["nocrits","nodmgspread","payload","uncletopia"],"game_id":440,"stv_port":27026,"stv_name":"Uncletopia | Dallas | 2 | All Maps | STV","players":[{"user_id":302,"name":"imng","steam_id":76561198014988031,"connected_time":1219000000000,"state":"active","ping":72},{"user_id":285,"name":"Papillon","steam_id":76561198049725849,"connected_time":2489000000000,"state":"active","ping":93},{"user_id":308,"name":"Rob Deerdick","steam_id":76561198138006907,"connected_time":1150000000000,"state":"active","ping":109},{"user_id":235,"name":"Gelliterate","steam_id":76561198107233070,"connected_time":6354000000000,"state":"active","ping":50},{"user_id":228,"name":"GJDon","steam_id":76561199026755019,"connected_time":6599000000000,"state":"active","ping":129},{"user_id":296,"name":"Rhutebeer","steam_id":76561198018302761,"connected_time":1882000000000,"state":"active","ping":71},{"user_id":281,"name":"Chub","steam_id":76561198380637611,"connected_time":2993000000000,"state":"active","ping":98},{"user_id":303,"name":"François Viète","steam_id":76561198072975518,"connected_time":1212000000000,"state":"active","ping":74},{"user_id":273,"name":"Your Dad™","steam_id":76561198254739340,"connected_time":3337000000000,"state":"active","ping":96},{"user_id":271,"name":"SharpStabbyThing","steam_id":76561199059465912,"connected_time":3404000000000,"state":"active","ping":99},{"user_id":292,"name":"StarB","steam_id":76561198149605368,"connected_time":1983000000000,"state":"active","ping":66},{"user_id":311,"name":"JtsRes","steam_id":76561197994809241,"connected_time":182000000000,"state":"active","ping":60},{"user_id":287,"name":"solveig","steam_id":76561198271713106,"connected_time":2445000000000,"state":"active","ping":102},{"user_id":222,"name":"Kenku","steam_id":76561199086762926,"connected_time":7227000000000,"state":"active","ping":75},{"user_id":299,"name":"Mocha Josie","steam_id":76561198066452726,"connected_time":1402000000000,"state":"active","ping":80},{"user_id":286,"name":"Liebesträume","steam_id":76561198038862034,"connected_time":2486000000000,"state":"active","ping":74},{"user_id":304,"name":"derb","steam_id":76561198110369487,"connected_time":1185000000000,"state":"active","ping":74},{"user_id":310,"name":"Satchamo","steam_id":76561198012968239,"connected_time":460000000000,"state":"active","ping":93},{"user_id":306,"name":"BurnN8or101","steam_id":76561198132668224,"connected_time":1177000000000,"state":"active","ping":71},{"user_id":267,"name":"Pearez","steam_id":76561198158141878,"connected_time":3459000000000,"state":"active","ping":87},{"user_id":307,"name":"Gigacheat","steam_id":76561198862843572,"connected_time":1176000000000,"state":"active","ping":91},{"user_id":269,"name":"Liver stealer","steam_id":76561199029954287,"connected_time":3433000000000,"state":"active","ping":148},{"user_id":231,"name":"Niko","steam_id":76561198185806553,"connected_time":6455000000000,"state":"active","ping":56},{"user_id":300,"name":"jubanya","steam_id":76561198830921046,"connected_time":1358000000000,"state":"active","ping":87}]},{"server_id":404,"name":"Uncletopia | Dallas | 3 | All Maps","name_short":"dal-3","host":"dal-1.us.uncletopia.com","port":27035,"enabled":true,"region":"us-central","cc":"us","latitude":32.779167,"longitude":-96.80889,"reserved":0,"last_update":"0001-01-01T00:00:00Z","name_a2s":"Uncletopia | Dallas | 3 | All Maps","protocol":17,"map":"pl_frontier_final","folder":"tf","game":"Team Fortress","app_id":440,"player_count":24,"max_players":24,"Bots":0,"server_type":"Dedicated","server_os":"Linux","password":true,"vac":true,"version":"7961495","steam_id":85568392924515219,"keywords":["nocrits","nodmgspread","payload","uncletopia"],"game_id":440,"stv_port":27036,"stv_name":"Uncletopia | Dallas | 3 | All Maps | STV","players":[{"user_id":13,"name":"AttentionDeficitDad","steam_id":76561199093919121,"connected_time":3957000000000,"state":"active","ping":100},{"user_id":57,"name":"never good enoguh","steam_id":76561198167207112,"connected_time":528000000000,"state":"active","ping":70},{"user_id":19,"name":"pato","steam_id":76561199060058326,"connected_time":2450000000000,"state":"active","ping":91},{"user_id":16,"name":"Average Londoner","steam_id":76561198324598029,"connected_time":2917000000000,"state":"active","ping":61},{"user_id":20,"name":"[cf] Captain Terror","steam_id":76561198028034742,"connected_time":2358000000000,"state":"active","ping":105},{"user_id":21,"name":"EndurusPrime","steam_id":76561198799595277,"connected_time":2307000000000,"state":"active","ping":56},{"user_id":22,"name":"bookreader","steam_id":76561198978568007,"connected_time":1984000000000,"state":"active","ping":76},{"user_id":28,"name":"Eris.","steam_id":76561198938073286,"connected_time":1858000000000,"state":"active","ping":82},{"user_id":30,"name":"NANI","steam_id":76561198880986922,"connected_time":1786000000000,"state":"active","ping":116},{"user_id":26,"name":"Squid","steam_id":76561198371891344,"connected_time":1894000000000,"state":"active","ping":71},{"user_id":52,"name":"shrimpy dimpy","steam_id":76561198367735460,"connected_time":714000000000,"state":"active","ping":52},{"user_id":53,"name":"The Incredible Fem Boy","steam_id":76561198355754259,"connected_time":630000000000,"state":"active","ping":96},{"user_id":37,"name":"Tags3","steam_id":76561198115926329,"connected_time":1670000000000,"state":"active","ping":76},{"user_id":33,"name":"TechnoBear2099","steam_id":76561198238863596,"connected_time":1718000000000,"state":"active","ping":52},{"user_id":34,"name":"CeLeb144","steam_id":76561199089907740,"connected_time":1716000000000,"state":"active","ping":70},{"user_id":54,"name":"2spooky","steam_id":76561198094747637,"connected_time":618000000000,"state":"active","ping":113},{"user_id":46,"name":"runicarc","steam_id":76561199209277380,"connected_time":1238000000000,"state":"active","ping":101},{"user_id":55,"name":"7\\lberto Balsalm","steam_id":76561198278226212,"connected_time":614000000000,"state":"active","ping":107},{"user_id":40,"name":"Booze bonzo","steam_id":76561198189330642,"connected_time":1508000000000,"state":"active","ping":80},{"user_id":41,"name":"[DATS➡] Sugar Meowth","steam_id":76561197995251793,"connected_time":1506000000000,"state":"active","ping":92},{"user_id":42,"name":"\"I did a thing in a game wow\"","steam_id":76561199433948284,"connected_time":1505000000000,"state":"active","ping":81},{"user_id":50,"name":"tsz","steam_id":76561199246231090,"connected_time":804000000000,"state":"active","ping":82},{"user_id":47,"name":"Doc{MDW}","steam_id":76561198075049640,"connected_time":1230000000000,"state":"active","ping":67},{"user_id":49,"name":"WickedRV","steam_id":76561198889591503,"connected_time":1121000000000,"state":"active","ping":125}]},{"server_id":405,"name":"Uncletopia | Dallas | 4 | Community","name_short":"dal-4","host":"dal-1.us.uncletopia.com","port":27045,"enabled":true,"region":"us-central","cc":"us","latitude":32.779167,"longitude":-96.80889,"reserved":0,"last_update":"0001-01-01T00:00:00Z","name_a2s":"Uncletopia | Dallas | 4 | Community","protocol":17,"map":"workshop/koth_ashville_final.ugc2130459942","folder":"tf","game":"Team Fortress","app_id":440,"player_count":0,"max_players":24,"Bots":0,"server_type":"Dedicated","server_os":"Linux","password":true,"vac":true,"version":"7961495","steam_id":85568392924515220,"keywords":["cp","nocrits","nodmgspread","uncletopia"],"game_id":440,"stv_port":27046,"stv_name":"Uncletopia | Dallas | 4 | Community | STV","players":null},{"server_id":5,"name":"Uncletopia | Frankfurt | 1 | All Maps","name_short":"frk-1","host":"frk-1.de.uncletopia.com","port":27015,"enabled":true,"region":"eu","cc":"de","latitude":50.110924,"longitude":8.682127,"reserved":0,"last_update":"0001-01-01T00:00:00Z","name_a2s":"Uncletopia | Frankfurt | 1 | All Maps","protocol":17,"map":"cp_process_final","folder":"tf","game":"Team Fortress","app_id":440,"player_count":24,"max_players":24,"Bots":0,"server_type":"Dedicated","server_os":"Linux","password":true,"vac":true,"version":"7961495","steam_id":85568392924469989,"keywords":["cp","nocrits","nodmgspread","uncletopia"],"game_id":440,"stv_port":27016,"stv_name":"Uncletopia | Frankfurt | 1 | All Maps | STV","players":[{"user_id":748,"name":"Pointer LF","steam_id":76561198054572570,"connected_time":171000000000,"state":"active","ping":64},{"user_id":739,"name":"Topool45","steam_id":76561199161389847,"connected_time":1068000000000,"state":"active","ping":84},{"user_id":670,"name":"Onbeheerde Jongeheer","steam_id":76561198051685232,"connected_time":4525000000000,"state":"active","ping":56},{"user_id":749,"name":"Gooner","steam_id":76561198087035309,"connected_time":48000000000,"state":"active","ping":44},{"user_id":722,"name":"gatorade","steam_id":76561198135519881,"connected_time":2207000000000,"state":"active","ping":61},{"user_id":673,"name":"Arsonist","steam_id":76561199087953833,"connected_time":4418000000000,"state":"active","ping":98},{"user_id":734,"name":"bin","steam_id":76561198085163975,"connected_time":1575000000000,"state":"active","ping":58},{"user_id":669,"name":"Rarky","steam_id":76561198054398642,"connected_time":4703000000000,"state":"active","ping":50},{"user_id":665,"name":"I AM SUMMER SLAYCATION","steam_id":76561198179339326,"connected_time":5388000000000,"state":"active","ping":75},{"user_id":745,"name":"JujuBalu","steam_id":76561198207253071,"connected_time":538000000000,"state":"active","ping":46},{"user_id":726,"name":"emkoç","steam_id":76561198846782346,"connected_time":2008000000000,"state":"active","ping":106},{"user_id":725,"name":"ay","steam_id":76561198033695429,"connected_time":2084000000000,"state":"active","ping":60},{"user_id":740,"name":"Luxotrics","steam_id":76561198053455161,"connected_time":1068000000000,"state":"active","ping":85},{"user_id":712,"name":"Dude™","steam_id":76561198082099161,"connected_time":2573000000000,"state":"active","ping":87},{"user_id":727,"name":"[T]aKer","steam_id":76561198001778013,"connected_time":1995000000000,"state":"active","ping":47},{"user_id":732,"name":"Ash","steam_id":76561198148738525,"connected_time":1656000000000,"state":"active","ping":101},{"user_id":728,"name":"KAIOKEN X10","steam_id":76561198147173457,"connected_time":1941000000000,"state":"active","ping":68},{"user_id":666,"name":"xavier","steam_id":76561198076494034,"connected_time":5376000000000,"state":"active","ping":56},{"user_id":730,"name":"Lumi","steam_id":76561198127137036,"connected_time":1902000000000,"state":"active","ping":65},{"user_id":741,"name":"3_BD0","steam_id":76561199084759424,"connected_time":1011000000000,"state":"active","ping":181},{"user_id":667,"name":"Vershal Smershal","steam_id":76561198116223995,"connected_time":5332000000000,"state":"active","ping":59},{"user_id":744,"name":"gatl","steam_id":76561198116926545,"connected_time":967000000000,"state":"active","ping":68},{"user_id":716,"name":"a regular cat","steam_id":76561198164675078,"connected_time":2481000000000,"state":"active","ping":70},{"user_id":747,"name":"debil","steam_id":76561198160047415,"connected_time":310000000000,"state":"active","ping":83}]},{"server_id":110,"name":"Uncletopia | Frankfurt | 2 | All Maps","name_short":"frk-2","host":"frk-1.de.uncletopia.com","port":27025,"enabled":true,"region":"eu","cc":"de","latitude":50.110924,"longitude":8.682127,"reserved":0,"last_update":"0001-01-01T00:00:00Z","name_a2s":"Uncletopia | Frankfurt | 2 | All Maps","protocol":17,"map":"koth_highpass","folder":"tf","game":"Team Fortress","app_id":440,"player_count":0,"max_players":24,"Bots":0,"server_type":"Dedicated","server_os":"Linux","password":true,"vac":true,"version":"7961495","steam_id":85568392924469990,"keywords":["cp","nocrits","nodmgspread","uncletopia"],"game_id":440,"stv_port":27026,"stv_name":"Uncletopia | Frankfurt | 2 | All Maps | STV","players":null},{"server_id":308,"name":"Uncletopia | Frankfurt | 3 | All Maps","name_short":"frk-3","host":"frk-1.de.uncletopia.com","port":27035,"enabled":true,"region":"eu","cc":"de","latitude":50.110924,"longitude":8.682127,"reserved":0,"last_update":"0001-01-01T00:00:00Z","name_a2s":"Uncletopia | Frankfurt | 3 | All Maps","protocol":17,"map":"koth_lakeside_final","folder":"tf","game":"Team Fortress","app_id":440,"player_count":0,"max_players":24,"Bots":0,"server_type":"Dedicated","server_os":"Linux","password":true,"vac":true,"version":"7961495","steam_id":85568392924504274,"keywords":["cp","nocrits","nodmgspread","uncletopia"],"game_id":440,"stv_port":27036,"stv_name":"Uncletopia | Frankfurt | 3 | All Maps | STV","players":null},{"server_id":309,"name":"Uncletopia | Frankfurt | 4 | All Maps","name_short":"frk-4","host":"frk-1.de.uncletopia.com","port":27045,"enabled":true,"region":"eu","cc":"de","latitude":50.110924,"longitude":8.682127,"reserved":0,"last_update":"0001-01-01T00:00:00Z","name_a2s":"Uncletopia | Frankfurt | 4 | All Maps","protocol":17,"map":"koth_cascade","folder":"tf","game":"Team Fortress","app_id":440,"player_count":0,"max_players":24,"Bots":0,"server_type":"Dedicated","server_os":"Linux","password":true,"vac":true,"version":"7961495","steam_id":85568392924504275,"keywords":["cp","nocrits","nodmgspread","uncletopia"],"game_id":440,"stv_port":27046,"stv_name":"Uncletopia | Frankfurt | 4 | All Maps | STV","players":null},{"server_id":310,"name":"Uncletopia | Frankfurt | 5 | All Maps","name_short":"frk-5","host":"frk-1.de.uncletopia.com","port":27055,"enabled":true,"region":"eu","cc":"de","latitude":50.110924,"longitude":8.682127,"reserved":0,"last_update":"0001-01-01T00:00:00Z","name_a2s":"Uncletopia | Frankfurt | 5 | All Maps","protocol":17,"map":"koth_viaduct","folder":"tf","game":"Team Fortress","app_id":440,"player_count":0,"max_players":24,"Bots":0,"server_type":"Dedicated","server_os":"Linux","password":true,"vac":true,"version":"7961495","steam_id":85568392924504277,"keywords":["cp","nocrits","nodmgspread","uncletopia"],"game_id":440,"stv_port":27056,"stv_name":"Uncletopia | Frankfurt | 5 | All Maps | STV","players":null},{"server_id":311,"name":"Uncletopia | Frankfurt | 6 | All Maps","name_short":"frk-6","host":"frk-1.de.uncletopia.com","port":27065,"enabled":true,"region":"eu","cc":"de","latitude":50.110924,"longitude":8.682127,"reserved":0,"last_update":"0001-01-01T00:00:00Z","name_a2s":"Uncletopia | Frankfurt | 6 | All Maps","protocol":17,"map":"koth_viaduct","folder":"tf","game":"Team Fortress","app_id":440,"player_count":0,"max_players":24,"Bots":0,"server_type":"Dedicated","server_os":"Linux","password":true,"vac":true,"version":"7961495","steam_id":85568392924504278,"keywords":["cp","nocrits","nodmgspread","uncletopia"],"game_id":440,"stv_port":27066,"stv_name":"Uncletopia | Frankfurt | 6 | All Maps | STV","players":null},{"server_id":23,"name":"Uncletopia | Frankfurt | 7 | Stopwatch","name_short":"frk-7","host":"frk-1.de.uncletopia.com","port":27075,"enabled":true,"region":"eu","cc":"de","latitude":50.110924,"longitude":8.682127,"reserved":0,"last_update":"0001-01-01T00:00:00Z","name_a2s":"Uncletopia | Frankfurt | 7 | Stopwatch","protocol":17,"map":"workshop/koth_product_final.ugc454272353","folder":"tf","game":"Team Fortress","app_id":440,"player_count":0,"max_players":24,"Bots":0,"server_type":"Dedicated","server_os":"Linux","password":true,"vac":true,"version":"7961495","steam_id":85568392924742827,"keywords":["cp","nocrits","nodmgspread","uncletopia"],"game_id":440,"stv_port":27076,"stv_name":"Uncletopia | Frankfurt | 7 | Stopwatch | STV","players":null},{"server_id":24,"name":"Uncletopia | Frankfurt | 8 | Community","name_short":"frk-8","host":"frk-1.de.uncletopia.com","port":27085,"enabled":true,"region":"eu","cc":"de","latitude":50.110924,"longitude":8.682127,"reserved":0,"last_update":"0001-01-01T00:00:00Z","name_a2s":"Uncletopia | Frankfurt | 8 | Community","protocol":17,"map":"workshop/koth_trenchfoot_b1a.ugc731436616","folder":"tf","game":"Team Fortress","app_id":440,"player_count":0,"max_players":24,"Bots":0,"server_type":"Dedicated","server_os":"Linux","password":true,"vac":true,"version":"7961495","steam_id":85568392924742828,"keywords":["cp","nocrits","nodmgspread","uncletopia"],"game_id":440,"stv_port":27086,"stv_name":"Uncletopia | Frankfurt | 8 | Community | STV","players":null},{"server_id":202,"name":"Uncletopia | Hong Kong | 1 | All Maps","name_short":"hgk-1","host":"hgk-1.hk.uncletopia.com","port":27015,"enabled":true,"region":"asia","cc":"hk","latitude":22.302711,"longitude":114.177216,"reserved":0,"last_update":"0001-01-01T00:00:00Z","name_a2s":"Uncletopia | Hong Kong | 1 | All Maps","protocol":17,"map":"pl_frontier_final","folder":"tf","game":"Team Fortress","app_id":440,"player_count":0,"max_players":24,"Bots":0,"server_type":"Dedicated","server_os":"Linux","password":true,"vac":true,"version":"7961495","steam_id":85568392924494504,"keywords":["nocrits","nodmgspread","payload","uncletopia"],"game_id":440,"stv_port":27016,"stv_name":"Uncletopia | Hong Kong | 1 | All Maps | STV","players":null},{"server_id":1,"name":"Uncletopia | Los Angeles | 1 | All Maps","name_short":"lax-1","host":"lax-1.us.uncletopia.com","port":27015,"enabled":true,"region":"us-west","cc":"us","latitude":33.94279,"longitude":-118.41004,"reserved":0,"last_update":"0001-01-01T00:00:00Z","name_a2s":"Uncletopia | Los Angeles | 1 | All Maps","protocol":17,"map":"cp_dustbowl","folder":"tf","game":"Team Fortress","app_id":440,"player_count":23,"max_players":24,"Bots":0,"server_type":"Dedicated","server_os":"Linux","password":true,"vac":true,"version":"7961495","steam_id":85568392924469991,"keywords":["cp","nocrits","nodmgspread","uncletopia"],"game_id":440,"stv_port":27016,"stv_name":"Uncletopia | Los Angeles | 1 | All Maps | STV","players":[{"user_id":131,"name":"a chicken","steam_id":76561198313121580,"connected_time":1116000000000,"state":"active","ping":44},{"user_id":107,"name":"jeff__100","steam_id":76561198080870439,"connected_time":3093000000000,"state":"active","ping":99},{"user_id":42,"name":"MORE BOUNCE TO THE OUNCE","steam_id":76561198243399336,"connected_time":8429000000000,"state":"active","ping":69},{"user_id":138,"name":"RocketofPanda","steam_id":76561198133133187,"connected_time":207000000000,"state":"active","ping":60},{"user_id":140,"name":"Red hoodie","steam_id":76561198317820055,"connected_time":33000000000,"state":"active","ping":61},{"user_id":129,"name":"Papes","steam_id":76561198174593497,"connected_time":1341000000000,"state":"active","ping":90},{"user_id":132,"name":"I be rolling and candy flipping","steam_id":76561198448055417,"connected_time":861000000000,"state":"active","ping":43},{"user_id":108,"name":"Boxcars","steam_id":76561198120978767,"connected_time":3066000000000,"state":"active","ping":60},{"user_id":84,"name":"vvitch","steam_id":76561198279661941,"connected_time":5890000000000,"state":"active","ping":44},{"user_id":136,"name":"Mania13","steam_id":76561198334886955,"connected_time":230000000000,"state":"active","ping":76},{"user_id":141,"name":"caberknight tf2  (f2p-ish)","steam_id":76561199273882768,"connected_time":21000000000,"state":"active","ping":101},{"user_id":109,"name":"Hugs","steam_id":76561198214584133,"connected_time":3066000000000,"state":"active","ping":62},{"user_id":139,"name":"NotAWeeb","steam_id":76561198165530739,"connected_time":127000000000,"state":"active","ping":47},{"user_id":106,"name":"Action-Flash","steam_id":76561198042438122,"connected_time":3161000000000,"state":"active","ping":123},{"user_id":115,"name":"[EASY] Necie","steam_id":76561198193908728,"connected_time":2313000000000,"state":"active","ping":60},{"user_id":142,"name":"joeyyfan2011","steam_id":76561199014715203,"connected_time":10000000000,"state":"spawning","ping":73},{"user_id":92,"name":"hog cranker","steam_id":76561198073587145,"connected_time":4993000000000,"state":"active","ping":92},{"user_id":125,"name":"poopweed24","steam_id":76561198338739253,"connected_time":1434000000000,"state":"active","ping":54},{"user_id":90,"name":"roach","steam_id":76561198354811369,"connected_time":5425000000000,"state":"active","ping":46},{"user_id":126,"name":"CorsaireCruiser","steam_id":76561199471511497,"connected_time":1432000000000,"state":"active","ping":61},{"user_id":135,"name":"spherewithahat","steam_id":76561199122192660,"connected_time":285000000000,"state":"active","ping":123},{"user_id":137,"name":"nonagon infinity","steam_id":76561198397662124,"connected_time":209000000000,"state":"active","ping":92},{"user_id":130,"name":"2","steam_id":76561198037332418,"connected_time":1292000000000,"state":"active","ping":60}]},{"server_id":112,"name":"Uncletopia | Los Angeles | 2 | All Maps","name_short":"lax-2","host":"lax-1.us.uncletopia.com","port":27025,"enabled":true,"region":"us-west","cc":"us","latitude":33.94279,"longitude":-118.41004,"reserved":0,"last_update":"0001-01-01T00:00:00Z","name_a2s":"Uncletopia | Los Angeles | 2 | All Maps","protocol":17,"map":"koth_cascade","folder":"tf","game":"Team Fortress","app_id":440,"player_count":0,"max_players":24,"Bots":0,"server_type":"Dedicated","server_os":"Linux","password":true,"vac":true,"version":"7961495","steam_id":85568392924469992,"keywords":["cp","nocrits","nodmgspread","uncletopia"],"game_id":440,"stv_port":27026,"stv_name":"Uncletopia | Los Angeles | 2 | All Maps | STV","players":null},{"server_id":324,"name":"Uncletopia | Los Angeles | 3 | All Maps","name_short":"lax-3","host":"lax-1.us.uncletopia.com","port":27035,"enabled":true,"region":"us-west","cc":"us","latitude":33.94279,"longitude":-118.41004,"reserved":0,"last_update":"0001-01-01T00:00:00Z","name_a2s":"Uncletopia | Los Angeles | 3 | All Maps","protocol":17,"map":"pl_swiftwater_final1","folder":"tf","game":"Team Fortress","app_id":440,"player_count":24,"max_players":24,"Bots":0,"server_type":"Dedicated","server_os":"Linux","password":true,"vac":true,"version":"7961495","steam_id":85568392924510198,"keywords":["nocrits","nodmgspread","payload","uncletopia"],"game_id":440,"stv_port":27036,"stv_name":"Uncletopia | Los Angeles | 3 | All Maps | STV","players":[{"user_id":41,"name":"Fish Lambert","steam_id":76561198098279668,"connected_time":1958000000000,"state":"active","ping":52},{"user_id":53,"name":"Dan","steam_id":76561199236719411,"connected_time":557000000000,"state":"active","ping":119},{"user_id":60,"name":"Five","steam_id":76561198026640473,"connected_time":238000000000,"state":"active","ping":68},{"user_id":28,"name":"yogi","steam_id":76561198067986753,"connected_time":2412000000000,"state":"active","ping":43},{"user_id":12,"name":"A UsedNom","steam_id":76561198402832756,"connected_time":3373000000000,"state":"active","ping":51},{"user_id":44,"name":"wheresgeorge","steam_id":76561198986281248,"connected_time":1605000000000,"state":"active","ping":119},{"user_id":16,"name":"Grassman (Cc)","steam_id":76561198026488532,"connected_time":3128000000000,"state":"active","ping":59},{"user_id":17,"name":"Kiradias777","steam_id":76561198067176309,"connected_time":3053000000000,"state":"active","ping":122},{"user_id":19,"name":"Mi cara","steam_id":76561198190771759,"connected_time":2988000000000,"state":"active","ping":77},{"user_id":20,"name":"Trav_YEET","steam_id":76561198960813580,"connected_time":2940000000000,"state":"active","ping":114},{"user_id":21,"name":"Knavish","steam_id":76561198073434372,"connected_time":2910000000000,"state":"active","ping":59},{"user_id":22,"name":"Ockulus","steam_id":76561199069638460,"connected_time":2890000000000,"state":"active","ping":59},{"user_id":23,"name":"Alchemist","steam_id":76561198094238189,"connected_time":2767000000000,"state":"active","ping":59},{"user_id":46,"name":"Cartman","steam_id":76561198264777865,"connected_time":1479000000000,"state":"active","ping":73},{"user_id":29,"name":"Rohigi","steam_id":76561198261890023,"connected_time":2390000000000,"state":"active","ping":52},{"user_id":30,"name":"dabeed","steam_id":76561198140596499,"connected_time":2384000000000,"state":"active","ping":68},{"user_id":52,"name":"Main Opp","steam_id":76561198124910662,"connected_time":667000000000,"state":"active","ping":66},{"user_id":33,"name":"A Loaf Of Fetus","steam_id":76561198058016214,"connected_time":2112000000000,"state":"active","ping":64},{"user_id":34,"name":"cornballer","steam_id":76561199006886644,"connected_time":2108000000000,"state":"active","ping":62},{"user_id":59,"name":"ligmamindset","steam_id":76561198067107241,"connected_time":320000000000,"state":"active","ping":68},{"user_id":50,"name":"heyCharn","steam_id":76561198058641350,"connected_time":1147000000000,"state":"active","ping":55},{"user_id":43,"name":"nav","steam_id":76561198872608266,"connected_time":1819000000000,"state":"active","ping":118},{"user_id":38,"name":"Mana \u003c3","steam_id":76561198804360021,"connected_time":2073000000000,"state":"active","ping":91},{"user_id":57,"name":"A funni crow","steam_id":76561198162041422,"connected_time":432000000000,"state":"active","ping":103}]},{"server_id":25,"name":"Uncletopia | Los Angeles | 4 | Stopwatch","name_short":"lax-4","host":"lax-1.us.uncletopia.com","port":27045,"enabled":true,"region":"us-west","cc":"us","latitude":33.94279,"longitude":-118.41004,"reserved":0,"last_update":"0001-01-01T00:00:00Z","name_a2s":"Uncletopia | Los Angeles | 4 | Stopwatch","protocol":17,"map":"cp_process_final","folder":"tf","game":"Team Fortress","app_id":440,"player_count":0,"max_players":24,"Bots":0,"server_type":"Dedicated","server_os":"Linux","password":true,"vac":true,"version":"7961495","steam_id":85568392924510199,"keywords":["cp","nocrits","nodmgspread","uncletopia"],"game_id":440,"stv_port":27046,"stv_name":"Uncletopia | Los Angeles | 4 | Stopwatch | STV","players":null},{"server_id":11,"name":"Uncletopia | London | 1 | All Maps","name_short":"lon-1","host":"lon-1.uk.uncletopia.com","port":27015,"enabled":true,"region":"eu","cc":"gb","latitude":51.509865,"longitude":-0.118092,"reserved":0,"last_update":"0001-01-01T00:00:00Z","name_a2s":"Uncletopia | London | 1 | All Maps","protocol":17,"map":"pl_badwater","folder":"tf","game":"Team Fortress","app_id":440,"player_count":24,"max_players":24,"Bots":0,"server_type":"Dedicated","server_os":"Linux","password":true,"vac":true,"version":"7961495","steam_id":85568392924367362,"keywords":["nocrits","nodmgspread","payload","uncletopia"],"game_id":440,"stv_port":27016,"stv_name":"Uncletopia | London | 1 | All Maps | STV","players":[{"user_id":681,"name":"thekoolest88","steam_id":76561199022415672,"connected_time":163000000000,"state":"active","ping":136},{"user_id":659,"name":"High School Nudical","steam_id":76561198172120615,"connected_time":3487000000000,"state":"active","ping":103},{"user_id":674,"name":"Pantroglodytestherapy","steam_id":76561198236015392,"connected_time":898000000000,"state":"active","ping":118},{"user_id":640,"name":"xva","steam_id":76561198969286813,"connected_time":4883000000000,"state":"active","ping":74},{"user_id":680,"name":"cynosure","steam_id":76561198121286517,"connected_time":215000000000,"state":"active","ping":30},{"user_id":671,"name":"Gioni","steam_id":76561198395912581,"connected_time":2108000000000,"state":"active","ping":105},{"user_id":650,"name":"♥Medical student♥","steam_id":76561199119401415,"connected_time":3961000000000,"state":"active","ping":122},{"user_id":662,"name":"Wiverny","steam_id":76561198061954999,"connected_time":2963000000000,"state":"active","ping":45},{"user_id":675,"name":"rez777ka","steam_id":76561198107605938,"connected_time":753000000000,"state":"active","ping":91},{"user_id":625,"name":"Smithex","steam_id":76561198882520378,"connected_time":5989000000000,"state":"active","ping":164},{"user_id":579,"name":"sora","steam_id":76561198096547662,"connected_time":9850000000000,"state":"active","ping":48},{"user_id":670,"name":"rajAs | Aoeitalia.com","steam_id":76561198035928111,"connected_time":2127000000000,"state":"active","ping":85},{"user_id":676,"name":"☁ Lou1smeister ☁","steam_id":76561198004032968,"connected_time":731000000000,"state":"active","ping":60},{"user_id":666,"name":"BenteBent","steam_id":76561198297920637,"connected_time":2895000000000,"state":"active","ping":37},{"user_id":628,"name":"Vexu","steam_id":76561198113145846,"connected_time":5931000000000,"state":"active","ping":91},{"user_id":658,"name":"cora","steam_id":76561199474154775,"connected_time":3499000000000,"state":"active","ping":57},{"user_id":618,"name":"Swaifa da Skwai Dwagon","steam_id":76561198062255803,"connected_time":6178000000000,"state":"active","ping":73},{"user_id":647,"name":"teddy","steam_id":76561198007436837,"connected_time":4292000000000,"state":"active","ping":45},{"user_id":596,"name":"beebo","steam_id":76561199120277007,"connected_time":7776000000000,"state":"active","ping":48},{"user_id":679,"name":"a chimp with a keyboard","steam_id":76561198060270322,"connected_time":238000000000,"state":"active","ping":90},{"user_id":668,"name":"⚜︎ LoGaN ⚜","steam_id":76561198300678500,"connected_time":2555000000000,"state":"active","ping":70},{"user_id":673,"name":"Son Goku","steam_id":76561199383437138,"connected_time":1570000000000,"state":"active","ping":121},{"user_id":638,"name":"Purps","steam_id":76561198053886680,"connected_time":5102000000000,"state":"active","ping":37},{"user_id":611,"name":"PootisLovesDispenser","steam_id":76561199184100727,"connected_time":6467000000000,"state":"active","ping":78}]},{"server_id":114,"name":"Uncletopia | London | 2 | All Maps","name_short":"lon-2","host":"lon-1.uk.uncletopia.com","port":27025,"enabled":true,"region":"eu","cc":"gb","latitude":51.509865,"longitude":-0.118092,"reserved":0,"last_update":"0001-01-01T00:00:00Z","name_a2s":"Uncletopia | London | 2 | All Maps","protocol":17,"map":"pl_badwater","folder":"tf","game":"Team Fortress","app_id":440,"player_count":24,"max_players":24,"Bots":0,"server_type":"Dedicated","server_os":"Linux","password":true,"vac":true,"version":"7961495","steam_id":85568392924470941,"keywords":["nocrits","nodmgspread","payload","uncletopia"],"game_id":440,"stv_port":27026,"stv_name":"Uncletopia | London | 2 | All Maps | STV","players":[{"user_id":631,"name":"bENtO","steam_id":76561198082076676,"connected_time":2619000000000,"state":"active","ping":45},{"user_id":629,"name":"Deformed Gollum","steam_id":76561198155563589,"connected_time":2755000000000,"state":"active","ping":48},{"user_id":640,"name":"Mébh Óg MacTíre","steam_id":76561198346399624,"connected_time":1416000000000,"state":"active","ping":72},{"user_id":615,"name":"cansado","steam_id":76561198003898089,"connected_time":4107000000000,"state":"active","ping":70},{"user_id":632,"name":"Level 1 Noob","steam_id":76561198088586340,"connected_time":2578000000000,"state":"active","ping":51},{"user_id":641,"name":"Mr_Pulse_","steam_id":76561198095001602,"connected_time":1362000000000,"state":"active","ping":109},{"user_id":660,"name":"ack","steam_id":76561198139796077,"connected_time":79000000000,"state":"active","ping":53},{"user_id":642,"name":"Skidge","steam_id":76561198089624697,"connected_time":1239000000000,"state":"active","ping":89},{"user_id":654,"name":"Refurbished Boy","steam_id":76561197995834697,"connected_time":525000000000,"state":"active","ping":102},{"user_id":639,"name":"Gooby","steam_id":76561198383937031,"connected_time":1460000000000,"state":"active","ping":48},{"user_id":655,"name":"Eltonius","steam_id":76561198157560715,"connected_time":517000000000,"state":"active","ping":86},{"user_id":644,"name":"Rayth","steam_id":76561198236993168,"connected_time":1218000000000,"state":"active","ping":68},{"user_id":661,"name":"pabbott123110","steam_id":76561199231739796,"connected_time":75000000000,"state":"active","ping":137},{"user_id":645,"name":"Jackson Broccoli","steam_id":76561198080647257,"connected_time":1207000000000,"state":"active","ping":52},{"user_id":657,"name":"wG Domo","steam_id":76561198056790920,"connected_time":441000000000,"state":"active","ping":52},{"user_id":587,"name":"top 10 turnips","steam_id":76561198069649097,"connected_time":5926000000000,"state":"active","ping":65},{"user_id":648,"name":"starlightartist","steam_id":76561198050608456,"connected_time":1090000000000,"state":"active","ping":33},{"user_id":650,"name":"Geoff the Oracle","steam_id":76561198053759965,"connected_time":901000000000,"state":"active","ping":56},{"user_id":652,"name":"please do not the cat","steam_id":76561198089003514,"connected_time":823000000000,"state":"active","ping":45},{"user_id":653,"name":"zayd","steam_id":76561198895235231,"connected_time":772000000000,"state":"active","ping":46},{"user_id":637,"name":"Champi","steam_id":76561198830002766,"connected_time":1982000000000,"state":"active","ping":64},{"user_id":578,"name":"remi, she wrote.","steam_id":76561198044045655,"connected_time":6455000000000,"state":"active","ping":70},{"user_id":656,"name":"The Mighty Bob","steam_id":76561198085269574,"connected_time":500000000000,"state":"active","ping":54},{"user_id":659,"name":"dirty rascal","steam_id":76561198000871038,"connected_time":109000000000,"state":"active","ping":45}]},{"server_id":320,"name":"Uncletopia | London | 3 | All Maps","name_short":"lon-3","host":"lon-1.uk.uncletopia.com","port":27035,"enabled":true,"region":"eu","cc":"gb","latitude":51.509865,"longitude":-0.118092,"reserved":0,"last_update":"0001-01-01T00:00:00Z","name_a2s":"Uncletopia | London | 3 | All Maps","protocol":17,"map":"koth_cascade","folder":"tf","game":"Team Fortress","app_id":440,"player_count":0,"max_players":24,"Bots":0,"server_type":"Dedicated","server_os":"Linux","password":true,"vac":true,"version":"7961495","steam_id":85568392924510192,"keywords":["cp","nocrits","nodmgspread","uncletopia"],"game_id":440,"stv_port":27036,"stv_name":"Uncletopia | London | 3 | All Maps | STV","players":null},{"server_id":321,"name":"Uncletopia | London | 4 | All Maps","name_short":"lon-4","host":"lon-1.uk.uncletopia.com","port":27045,"enabled":true,"region":"eu","cc":"gb","latitude":51.509865,"longitude":-0.118092,"reserved":0,"last_update":"0001-01-01T00:00:00Z","name_a2s":"Uncletopia | London | 4 | All Maps","protocol":17,"map":"koth_viaduct","folder":"tf","game":"Team Fortress","app_id":440,"player_count":5,"max_players":24,"Bots":0,"server_type":"Dedicated","server_os":"Linux","password":true,"vac":true,"version":"7961495","steam_id":85568392924510193,"keywords":["cp","nocrits","nodmgspread","uncletopia"],"game_id":440,"stv_port":27046,"stv_name":"Uncletopia | London | 4 | All Maps | STV","players":[{"user_id":275,"name":"Monday","steam_id":76561198348366085,"connected_time":904000000000,"state":"active","ping":78},{"user_id":276,"name":"Kiz","steam_id":76561198811732820,"connected_time":896000000000,"state":"active","ping":68},{"user_id":279,"name":"A_GingerIdiot","steam_id":76561198313306026,"connected_time":192000000000,"state":"active","ping":46},{"user_id":281,"name":"pezza","steam_id":76561197995173247,"connected_time":75000000000,"state":"active","ping":59},{"user_id":282,"name":"Mr. Fox","steam_id":76561198803610709,"connected_time":72000000000,"state":"active","ping":100}]},{"server_id":21,"name":"Uncletopia | London | 5 | All Maps","name_short":"lon-5","host":"lon-1.uk.uncletopia.com","port":27055,"enabled":true,"region":"eu","cc":"gb","latitude":51.509865,"longitude":-0.118092,"reserved":0,"last_update":"0001-01-01T00:00:00Z","name_a2s":"Uncletopia | London | 5 | All Maps","protocol":17,"map":"cp_snakewater_final1","folder":"tf","game":"Team Fortress","app_id":440,"player_count":0,"max_players":24,"Bots":0,"server_type":"Dedicated","server_os":"Linux","password":true,"vac":true,"version":"7961495","steam_id":85568392924742829,"keywords":["cp","nocrits","nodmgspread","uncletopia"],"game_id":440,"stv_port":27056,"stv_name":"Uncletopia | London | 5 | All Maps | STV","players":null},{"server_id":22,"name":"Uncletopia | London | 6 | All Maps","name_short":"lon-6","host":"lon-1.uk.uncletopia.com","port":27065,"enabled":true,"region":"eu","cc":"gb","latitude":51.509865,"longitude":-0.118092,"reserved":0,"last_update":"0001-01-01T00:00:00Z","name_a2s":"Uncletopia | London | 6 | All Maps","protocol":17,"map":"pl_barnblitz","folder":"tf","game":"Team Fortress","app_id":440,"player_count":0,"max_players":24,"Bots":0,"server_type":"Dedicated","server_os":"Linux","password":true,"vac":true,"version":"7961495","steam_id":85568392924742830,"keywords":["nocrits","nodmgspread","payload","uncletopia"],"game_id":440,"stv_port":27066,"stv_name":"Uncletopia | London | 6 | All Maps | STV","players":null},{"server_id":40,"name":"Uncletopia | London | 7 | Stopwatch","name_short":"lon-7","host":"lon-1.uk.uncletopia.com","port":27075,"enabled":true,"region":"eu","cc":"gb","latitude":51.509865,"longitude":-0.118092,"reserved":0,"last_update":"0001-01-01T00:00:00Z","name_a2s":"Uncletopia | London | 7 | Stopwatch","protocol":17,"map":"workshop/koth_bagel_rc6.ugc2514036946","folder":"tf","game":"Team Fortress","app_id":440,"player_count":0,"max_players":24,"Bots":0,"server_type":"Dedicated","server_os":"Linux","password":true,"vac":true,"version":"7961495","steam_id":85568392924964314,"keywords":["cp","nocrits","nodmgspread","uncletopia"],"game_id":440,"stv_port":27076,"stv_name":"Uncletopia | London | 7 | Stopwatch | STV","players":null},{"server_id":41,"name":"Uncletopia | London | 8 | Community","name_short":"lon-8","host":"lon-1.uk.uncletopia.com","port":27085,"enabled":true,"region":"eu","cc":"gb","latitude":51.509865,"longitude":-0.118092,"reserved":0,"last_update":"0001-01-01T00:00:00Z","name_a2s":"Uncletopia | London | 8 | Community","protocol":17,"map":"workshop/cp_propaganda_b18.ugc1603743849","folder":"tf","game":"Team Fortress","app_id":440,"player_count":0,"max_players":24,"Bots":0,"server_type":"Dedicated","server_os":"Linux","password":true,"vac":true,"version":"7961495","steam_id":85568392924964315,"keywords":["cp","nocrits","nodmgspread","uncletopia"],"game_id":440,"stv_port":27086,"stv_name":"Uncletopia | London | 8 | Community | STV","players":null},{"server_id":300,"name":"Uncletopia | Montréal | 1 | All Maps","name_short":"mtl-1","host":"mtl-1.ca.uncletopia.com","port":27015,"enabled":true,"region":"us-east","cc":"ca","latitude":45.50889,"longitude":-73.56167,"reserved":0,"last_update":"0001-01-01T00:00:00Z","name_a2s":"","protocol":0,"map":"","folder":"","game":"","app_id":0,"player_count":0,"max_players":0,"Bots":0,"server_type":"","server_os":"","password":false,"vac":false,"version":"","steam_id":0,"keywords":null,"game_id":0,"stv_port":0,"stv_name":"","players":null},{"server_id":301,"name":"Uncletopia | Montréal | 2 | One Thousand Uncles","name_short":"mtl-2","host":"mtl-1.ca.uncletopia.com","port":27025,"enabled":true,"region":"us-east","cc":"ca","latitude":45.50889,"longitude":-73.56167,"reserved":0,"last_update":"0001-01-01T00:00:00Z","name_a2s":"","protocol":0,"map":"","folder":"","game":"","app_id":0,"player_count":15,"max_players":0,"Bots":0,"server_type":"","server_os":"","password":false,"vac":false,"version":"","steam_id":0,"keywords":null,"game_id":0,"stv_port":0,"stv_name":"","players":[{"user_id":2,"name":"ุ","steam_id":76561198084134025,"connected_time":9224000000000,"state":"active","ping":93},{"user_id":3,"name":"I just joined","steam_id":76561198057999536,"connected_time":9224000000000,"state":"active","ping":113},{"user_id":88,"name":"kale rarely","steam_id":76561197993458626,"connected_time":3764000000000,"state":"active","ping":52},{"user_id":82,"name":"Andallfor","steam_id":76561198350143349,"connected_time":4890000000000,"state":"active","ping":69},{"user_id":162,"name":"TheGrassMan (He/Him)","steam_id":76561198118984048,"connected_time":915000000000,"state":"active","ping":49},{"user_id":143,"name":"Adam Sandler from grown ups 2","steam_id":76561199480087227,"connected_time":2471000000000,"state":"active","ping":82},{"user_id":85,"name":"Blue⛧Melon","steam_id":76561197970926435,"connected_time":4081000000000,"state":"active","ping":48},{"user_id":145,"name":"Ghetto Smosh Fan","steam_id":76561198097272509,"connected_time":989000000000,"state":"active","ping":60},{"user_id":124,"name":"Vincent Van Bro","steam_id":76561197966919802,"connected_time":2687000000000,"state":"active","ping":111},{"user_id":170,"name":"Unnamed Extra","steam_id":76561198818211536,"connected_time":103000000000,"state":"active","ping":122},{"user_id":100,"name":"1-800-GHOST-DANCE","steam_id":76561198835430429,"connected_time":3469000000000,"state":"active","ping":82},{"user_id":165,"name":"BL4Z3RU22ER","steam_id":76561199495737715,"connected_time":565000000000,"state":"active","ping":35},{"user_id":142,"name":"larguu","steam_id":76561197994336210,"connected_time":2624000000000,"state":"active","ping":54},{"user_id":168,"name":"Skiddy","steam_id":76561198125942665,"connected_time":272000000000,"state":"active","ping":110},{"user_id":84,"name":"aqua","steam_id":76561199407709552,"connected_time":4385000000000,"state":"active","ping":67}]},{"server_id":13,"name":"Uncletopia | New York City | 1 | All Maps","name_short":"nyc-1","host":"nyc-1.us.uncletopia.com","port":27015,"enabled":true,"region":"us-east","cc":"us","latitude":40.73061,"longitude":-73.93524,"reserved":0,"last_update":"0001-01-01T00:00:00Z","name_a2s":"Uncletopia | New York City | 1 | All Maps","protocol":17,"map":"pl_borneo","folder":"tf","game":"Team Fortress","app_id":440,"player_count":24,"max_players":24,"Bots":0,"server_type":"Dedicated","server_os":"Linux","password":true,"vac":true,"version":"7961495","steam_id":85568392924469993,"keywords":["nocrits","nodmgspread","payload","uncletopia"],"game_id":440,"stv_port":27016,"stv_name":"Uncletopia | New York City | 1 | All Maps | STV","players":[{"user_id":217,"name":"hi :D","steam_id":76561198042085959,"connected_time":1396000000000,"state":"active","ping":151},{"user_id":218,"name":"Yato","steam_id":76561198084100335,"connected_time":1395000000000,"state":"active","ping":77},{"user_id":229,"name":"Bob The Insult Comic Skeleton","steam_id":76561198049945735,"connected_time":985000000000,"state":"active","ping":59},{"user_id":225,"name":"Paddy","steam_id":76561198037001457,"connected_time":1183000000000,"state":"active","ping":54},{"user_id":236,"name":"cdn :3","steam_id":76561198862735659,"connected_time":842000000000,"state":"active","ping":69},{"user_id":201,"name":"why?","steam_id":76561198170390298,"connected_time":1871000000000,"state":"active","ping":85},{"user_id":215,"name":"SpaceSanctum","steam_id":76561198805242305,"connected_time":1427000000000,"state":"active","ping":44},{"user_id":216,"name":"googa","steam_id":76561198133130452,"connected_time":1425000000000,"state":"active","ping":45},{"user_id":212,"name":"Reza The Cool","steam_id":76561198372285506,"connected_time":1505000000000,"state":"active","ping":67},{"user_id":219,"name":"BlitzThatGuy","steam_id":76561198079528804,"connected_time":1366000000000,"state":"active","ping":49},{"user_id":242,"name":"Powered","steam_id":76561199298693128,"connected_time":278000000000,"state":"active","ping":49},{"user_id":241,"name":"kofji(but worse)","steam_id":76561198344147285,"connected_time":279000000000,"state":"active","ping":127},{"user_id":220,"name":"Philo","steam_id":76561198061873341,"connected_time":1365000000000,"state":"active","ping":87},{"user_id":239,"name":"BlueChinchompa","steam_id":76561199226988297,"connected_time":649000000000,"state":"active","ping":46},{"user_id":244,"name":"scaring the hoes","steam_id":76561198332519926,"connected_time":247000000000,"state":"active","ping":84},{"user_id":240,"name":"Oopsie Daisy ❋","steam_id":76561198042144492,"connected_time":641000000000,"state":"active","ping":75},{"user_id":222,"name":"Vomahow","steam_id":76561198396860873,"connected_time":1334000000000,"state":"active","ping":71},{"user_id":223,"name":"Keymaster","steam_id":76561198881514228,"connected_time":1327000000000,"state":"active","ping":59},{"user_id":243,"name":"BubbyBoy27","steam_id":76561199102009679,"connected_time":272000000000,"state":"active","ping":78},{"user_id":224,"name":"hoos","steam_id":76561198045985910,"connected_time":1308000000000,"state":"active","ping":73},{"user_id":227,"name":"Pizza Party","steam_id":76561198165730754,"connected_time":1172000000000,"state":"active","ping":67},{"user_id":228,"name":"M249 | Spectre","steam_id":76561198118334485,"connected_time":1135000000000,"state":"active","ping":58},{"user_id":232,"name":"sloth (be nice im cringe)","steam_id":76561198047098172,"connected_time":969000000000,"state":"active","ping":67},{"user_id":235,"name":"rodafy","steam_id":76561198071093393,"connected_time":873000000000,"state":"active","ping":126}]},{"server_id":14,"name":"Uncletopia | New York City | 2 | All Maps","name_short":"nyc-2","host":"nyc-1.us.uncletopia.com","port":27025,"enabled":true,"region":"us-east","cc":"us","latitude":40.73061,"longitude":-73.93524,"reserved":0,"last_update":"0001-01-01T00:00:00Z","name_a2s":"Uncletopia | New York City | 2 | All Maps","protocol":17,"map":"cp_dustbowl","folder":"tf","game":"Team Fortress","app_id":440,"player_count":24,"max_players":24,"Bots":0,"server_type":"Dedicated","server_os":"Linux","password":true,"vac":true,"version":"7961495","steam_id":85568392924469994,"keywords":["cp","nocrits","nodmgspread","uncletopia"],"game_id":440,"stv_port":27026,"stv_name":"Uncletopia | New York City | 2 | All Maps | STV","players":[{"user_id":555,"name":"ADRIEN BRODY","steam_id":76561198009299473,"connected_time":610000000000,"state":"active","ping":50},{"user_id":520,"name":"NYC APPA YIP YIP","steam_id":76561198112929942,"connected_time":3261000000000,"state":"active","ping":55},{"user_id":548,"name":"the brave little toaster","steam_id":76561199403298146,"connected_time":1198000000000,"state":"active","ping":119},{"user_id":521,"name":"Chernov","steam_id":76561198014463424,"connected_time":3227000000000,"state":"active","ping":44},{"user_id":562,"name":"Mecha","steam_id":76561198014927379,"connected_time":65000000000,"state":"active","ping":71},{"user_id":541,"name":"Feces","steam_id":76561198380219187,"connected_time":1575000000000,"state":"active","ping":71},{"user_id":546,"name":"breathingtrees","steam_id":76561198118931690,"connected_time":1389000000000,"state":"active","ping":55},{"user_id":561,"name":"DrippySloth","steam_id":76561198199083811,"connected_time":81000000000,"state":"active","ping":71},{"user_id":473,"name":"Gentoo Linux Gaming","steam_id":76561197999657118,"connected_time":5860000000000,"state":"active","ping":70},{"user_id":537,"name":"Normalux","steam_id":76561198293891426,"connected_time":1887000000000,"state":"active","ping":92},{"user_id":557,"name":"kofji(but better)","steam_id":76561198021224745,"connected_time":537000000000,"state":"active","ping":45},{"user_id":556,"name":"banjo","steam_id":76561199263719064,"connected_time":571000000000,"state":"active","ping":59},{"user_id":549,"name":"wusta sauce in ma cornflakes","steam_id":76561198353096483,"connected_time":1141000000000,"state":"active","ping":110},{"user_id":533,"name":"catface","steam_id":76561198096347625,"connected_time":2222000000000,"state":"active","ping":71},{"user_id":552,"name":"stupid haver 2","steam_id":76561198044443985,"connected_time":850000000000,"state":"active","ping":95},{"user_id":538,"name":"kjc105","steam_id":76561198880364422,"connected_time":1760000000000,"state":"active","ping":81},{"user_id":527,"name":"Capzlockz3","steam_id":76561198310863739,"connected_time":2559000000000,"state":"active","ping":51},{"user_id":532,"name":"Captain, Sir","steam_id":76561198874804989,"connected_time":2236000000000,"state":"active","ping":136},{"user_id":544,"name":"franc | montuga;com","steam_id":76561198417807155,"connected_time":1540000000000,"state":"active","ping":47},{"user_id":545,"name":"PK","steam_id":76561198368722500,"connected_time":1408000000000,"state":"active","ping":74},{"user_id":563,"name":"Sqooky","steam_id":76561198838054669,"connected_time":59000000000,"state":"active","ping":51},{"user_id":526,"name":"Top Frog","steam_id":76561198072793446,"connected_time":2706000000000,"state":"active","ping":85},{"user_id":501,"name":"Elena Manetta","steam_id":76561197998344054,"connected_time":3969000000000,"state":"active","ping":45},{"user_id":515,"name":"r1bbit","steam_id":76561198149212502,"connected_time":3500000000000,"state":"active","ping":83}]},{"server_id":15,"name":"Uncletopia | New York City | 3 | Stopwatch","name_short":"nyc-3","host":"nyc-1.us.uncletopia.com","port":27035,"enabled":true,"region":"us-east","cc":"us","latitude":40.73061,"longitude":-73.93524,"reserved":0,"last_update":"0001-01-01T00:00:00Z","name_a2s":"Uncletopia | New York City | 3 | Stopwatch","protocol":17,"map":"cp_process_final","folder":"tf","game":"Team Fortress","app_id":440,"player_count":24,"max_players":24,"Bots":0,"server_type":"Dedicated","server_os":"Linux","password":true,"vac":true,"version":"7961495","steam_id":85568392924742820,"keywords":["cp","nocrits","nodmgspread","uncletopia"],"game_id":440,"stv_port":27036,"stv_name":"Uncletopia | New York City | 3 | Stopwatch | STV","players":[{"user_id":96,"name":"✪ dSaner -iwnl-","steam_id":76561198082291174,"connected_time":2887000000000,"state":"active","ping":90},{"user_id":55,"name":"Capn. Wing Ding","steam_id":76561198076068424,"connected_time":5242000000000,"state":"active","ping":65},{"user_id":118,"name":"phone","steam_id":76561198029268743,"connected_time":2023000000000,"state":"active","ping":61},{"user_id":121,"name":"box","steam_id":76561198049531483,"connected_time":1548000000000,"state":"active","ping":82},{"user_id":123,"name":"0","steam_id":76561198077882008,"connected_time":1451000000000,"state":"active","ping":54},{"user_id":72,"name":"SilverLife25","steam_id":76561198392015722,"connected_time":4128000000000,"state":"active","ping":98},{"user_id":108,"name":"BLANK3T [They/He femboy on THC]","steam_id":76561198028875624,"connected_time":2506000000000,"state":"active","ping":113},{"user_id":130,"name":"Operation_SeaLion","steam_id":76561198048726691,"connected_time":962000000000,"state":"active","ping":41},{"user_id":126,"name":"Mac-A-War","steam_id":76561198399086461,"connected_time":1282000000000,"state":"active","ping":57},{"user_id":98,"name":"the creamer","steam_id":76561198400486883,"connected_time":2712000000000,"state":"active","ping":46},{"user_id":119,"name":"market","steam_id":76561198056871257,"connected_time":1970000000000,"state":"active","ping":45},{"user_id":104,"name":"Spaghettios","steam_id":76561198070323656,"connected_time":2634000000000,"state":"active","ping":76},{"user_id":138,"name":"Primordial pouch","steam_id":76561198077993687,"connected_time":189000000000,"state":"active","ping":59},{"user_id":129,"name":"Red","steam_id":76561198001939529,"connected_time":1139000000000,"state":"active","ping":125},{"user_id":134,"name":"dansal","steam_id":76561197997042510,"connected_time":757000000000,"state":"active","ping":98},{"user_id":101,"name":"cpg","steam_id":76561198853515541,"connected_time":2702000000000,"state":"active","ping":87},{"user_id":80,"name":"Sableye","steam_id":76561198061247147,"connected_time":4039000000000,"state":"active","ping":76},{"user_id":114,"name":"IanTheAwsm","steam_id":76561198093031738,"connected_time":2288000000000,"state":"active","ping":75},{"user_id":88,"name":"uufyfuu","steam_id":76561198142787212,"connected_time":3812000000000,"state":"active","ping":103},{"user_id":136,"name":"ark","steam_id":76561198041066271,"connected_time":668000000000,"state":"active","ping":90},{"user_id":120,"name":"MEATBALL","steam_id":76561198028499312,"connected_time":1879000000000,"state":"active","ping":45},{"user_id":125,"name":"bakkhertz","steam_id":76561198046745579,"connected_time":1422000000000,"state":"active","ping":112},{"user_id":117,"name":"A 2008 Laptop.","steam_id":76561198860068961,"connected_time":2155000000000,"state":"active","ping":45},{"user_id":135,"name":"nhbiker","steam_id":76561198081277675,"connected_time":722000000000,"state":"active","ping":45}]},{"server_id":16,"name":"Uncletopia | New York City | 4 | Community","name_short":"nyc-4","host":"nyc-1.us.uncletopia.com","port":27045,"enabled":true,"region":"us-east","cc":"us","latitude":40.73061,"longitude":-73.93524,"reserved":0,"last_update":"0001-01-01T00:00:00Z","name_a2s":"Uncletopia | New York City | 4 | Community","protocol":17,"map":"workshop/cp_reckoner_rc6.ugc674719999","folder":"tf","game":"Team Fortress","app_id":440,"player_count":2,"max_players":24,"Bots":0,"server_type":"Dedicated","server_os":"Linux","password":true,"vac":true,"version":"7961495","steam_id":85568392924742821,"keywords":["cp","nocrits","nodmgspread","uncletopia"],"game_id":440,"stv_port":27046,"stv_name":"Uncletopia | New York City | 4 | Community | STV","players":[{"user_id":38,"name":"LeenBeen","steam_id":76561199251065660,"connected_time":1834000000000,"state":"active","ping":47},{"user_id":45,"name":"carforcar1940","steam_id":76561199474572231,"connected_time":1370000000000,"state":"active","ping":82}]},{"server_id":142,"name":"Uncletopia | São Paulo | 1 | All Maps","name_short":"sao-1","host":"sao-1.br.uncletopia.com","port":27015,"enabled":true,"region":"sa","cc":"br","latitude":-23.533773,"longitude":-46.62529,"reserved":0,"last_update":"0001-01-01T00:00:00Z","name_a2s":"Uncletopia | São Paulo | 1 | All Maps","protocol":17,"map":"koth_harvest_final","folder":"tf","game":"Team Fortress","app_id":440,"player_count":0,"max_players":24,"Bots":0,"server_type":"Dedicated","server_os":"Linux","password":true,"vac":true,"version":"7961495","steam_id":85568392924469996,"keywords":["cp","nocrits","nodmgspread","uncletopia"],"game_id":440,"stv_port":27016,"stv_name":"Uncletopia | São Paulo | 1 | All Maps | STV","players":null},{"server_id":143,"name":"Uncletopia | São Paulo | 2 | Community","name_short":"sao-2","host":"sao-2.br.uncletopia.com","port":27015,"enabled":true,"region":"sa","cc":"br","latitude":-23.533773,"longitude":-46.62529,"reserved":0,"last_update":"0001-01-01T00:00:00Z","name_a2s":"Uncletopia | São Paulo | 2 | Community","protocol":17,"map":"workshop/pl_cactuscanyon_redux_final2.ugc2579644293","folder":"tf","game":"Team Fortress","app_id":440,"player_count":0,"max_players":24,"Bots":0,"server_type":"Dedicated","server_os":"Linux","password":true,"vac":true,"version":"7961495","steam_id":85568392924485349,"keywords":["nocrits","nodmgspread","payload","uncletopia"],"game_id":440,"stv_port":27016,"stv_name":"Uncletopia | São Paulo | 2 | Community | STV","players":null},{"server_id":7,"name":"Uncletopia | Seattle | 1 | All Maps","name_short":"sea-1","host":"sea-1.us.uncletopia.com","port":27015,"enabled":true,"region":"us-west","cc":"us","latitude":47.608013,"longitude":-122.33517,"reserved":0,"last_update":"0001-01-01T00:00:00Z","name_a2s":"Uncletopia | Seattle | 1 | All Maps","protocol":17,"map":"pl_upward","folder":"tf","game":"Team Fortress","app_id":440,"player_count":24,"max_players":24,"Bots":0,"server_type":"Dedicated","server_os":"Linux","password":true,"vac":true,"version":"7961495","steam_id":85568392924469997,"keywords":["nocrits","nodmgspread","payload","uncletopia"],"game_id":440,"stv_port":27016,"stv_name":"Uncletopia | Seattle | 1 | All Maps | STV","players":[{"user_id":386,"name":"green bean","steam_id":76561198113099204,"connected_time":921000000000,"state":"active","ping":54},{"user_id":377,"name":"SAVECASEY","steam_id":76561198857896847,"connected_time":2509000000000,"state":"active","ping":75},{"user_id":355,"name":"piipy :))","steam_id":76561198450073779,"connected_time":3764000000000,"state":"active","ping":44},{"user_id":395,"name":"dust | it/she","steam_id":76561198045218909,"connected_time":28000000000,"state":"active","ping":33},{"user_id":379,"name":"gugcat","steam_id":76561198129822860,"connected_time":2472000000000,"state":"active","ping":43},{"user_id":360,"name":"MonteJT","steam_id":76561198055409360,"connected_time":3563000000000,"state":"active","ping":32},{"user_id":380,"name":"Keebler","steam_id":76561199465040669,"connected_time":2469000000000,"state":"active","ping":46},{"user_id":361,"name":"Layeshi (they/them)","steam_id":76561198027321950,"connected_time":3541000000000,"state":"active","ping":42},{"user_id":382,"name":"MrYadaization","steam_id":76561198050770818,"connected_time":1837000000000,"state":"active","ping":77},{"user_id":391,"name":"Lucas","steam_id":76561198399704604,"connected_time":741000000000,"state":"active","ping":64},{"user_id":385,"name":"?","steam_id":76561198209880837,"connected_time":1109000000000,"state":"active","ping":47},{"user_id":276,"name":"greens beans","steam_id":76561198153611491,"connected_time":9453000000000,"state":"active","ping":44},{"user_id":352,"name":"bear1boss fan","steam_id":76561198047850813,"connected_time":4152000000000,"state":"active","ping":49},{"user_id":350,"name":"BeepieSheepie","steam_id":76561198106327537,"connected_time":4393000000000,"state":"active","ping":111},{"user_id":340,"name":"mine diam","steam_id":76561198119123981,"connected_time":5300000000000,"state":"active","ping":48},{"user_id":387,"name":"=Silver=","steam_id":76561198292307127,"connected_time":902000000000,"state":"active","ping":73},{"user_id":392,"name":"skrill issue","steam_id":76561198104086771,"connected_time":639000000000,"state":"active","ping":73},{"user_id":389,"name":"c0wmanglr","steam_id":76561198025342064,"connected_time":852000000000,"state":"active","ping":89},{"user_id":384,"name":"steezy","steam_id":76561198263134652,"connected_time":1406000000000,"state":"active","ping":60},{"user_id":347,"name":"Fluffy","steam_id":76561198115952540,"connected_time":4711000000000,"state":"active","ping":44},{"user_id":393,"name":"TinCanDim","steam_id":76561198184039682,"connected_time":240000000000,"state":"active","ping":48},{"user_id":381,"name":"Klone","steam_id":76561198854485605,"connected_time":2314000000000,"state":"active","ping":120},{"user_id":394,"name":"Jshoe","steam_id":76561198128252048,"connected_time":59000000000,"state":"active","ping":62},{"user_id":372,"name":"Bocchi the Rock Johnson","steam_id":76561198216017952,"connected_time":3053000000000,"state":"active","ping":71}]},{"server_id":119,"name":"Uncletopia | Seattle | 2 | All Maps","name_short":"sea-2","host":"sea-1.us.uncletopia.com","port":27025,"enabled":true,"region":"us-west","cc":"us","latitude":47.608013,"longitude":-122.33517,"reserved":0,"last_update":"0001-01-01T00:00:00Z","name_a2s":"Uncletopia | Seattle | 2 | All Maps","protocol":17,"map":"koth_cascade","folder":"tf","game":"Team Fortress","app_id":440,"player_count":0,"max_players":24,"Bots":0,"server_type":"Dedicated","server_os":"Linux","password":true,"vac":true,"version":"7961495","steam_id":85568392924469998,"keywords":["cp","nocrits","nodmgspread","uncletopia"],"game_id":440,"stv_port":27026,"stv_name":"Uncletopia | Seattle | 2 | All Maps | STV","players":null},{"server_id":406,"name":"Uncletopia | Seattle | 3 | Stopwatch","name_short":"sea-3","host":"sea-1.us.uncletopia.com","port":27035,"enabled":true,"region":"us-west","cc":"us","latitude":47.608013,"longitude":-122.33517,"reserved":0,"last_update":"0001-01-01T00:00:00Z","name_a2s":"Uncletopia | Seattle | 3 | Stopwatch","protocol":17,"map":"workshop/pl_badwater_pro_v12.ugc2142942074","folder":"tf","game":"Team Fortress","app_id":440,"player_count":0,"max_players":24,"Bots":0,"server_type":"Dedicated","server_os":"Linux","password":true,"vac":true,"version":"7961495","steam_id":85568392924515217,"keywords":["nocrits","nodmgspread","payload","uncletopia"],"game_id":440,"stv_port":27036,"stv_name":"Uncletopia | Seattle | 3 | Stopwatch | STV","players":null},{"server_id":17,"name":"Uncletopia | San Francisco | 1 | All Maps","name_short":"sfo-1","host":"sfo-1.us.uncletopia.com","port":27015,"enabled":true,"region":"us-west","cc":"us","latitude":37.77397,"longitude":-122.4313,"reserved":0,"last_update":"0001-01-01T00:00:00Z","name_a2s":"Uncletopia | San Francisco | 1 | All Maps","protocol":17,"map":"koth_cascade","folder":"tf","game":"Team Fortress","app_id":440,"player_count":0,"max_players":24,"Bots":0,"server_type":"Dedicated","server_os":"Linux","password":true,"vac":true,"version":"7961495","steam_id":85568392924469999,"keywords":["cp","nocrits","nodmgspread","uncletopia"],"game_id":440,"stv_port":27016,"stv_name":"Uncletopia | San Francisco | 1 | All Maps | STV","players":null},{"server_id":18,"name":"Uncletopia | San Francisco | 2 | All Maps","name_short":"sfo-2","host":"sfo-1.us.uncletopia.com","port":27025,"enabled":true,"region":"us-west","cc":"us","latitude":37.77397,"longitude":-122.4313,"reserved":0,"last_update":"0001-01-01T00:00:00Z","name_a2s":"Uncletopia | San Francisco | 2 | All Maps","protocol":17,"map":"pl_snowycoast","folder":"tf","game":"Team Fortress","app_id":440,"player_count":0,"max_players":24,"Bots":0,"server_type":"Dedicated","server_os":"Linux","password":true,"vac":true,"version":"7961495","steam_id":85568392924470000,"keywords":["nocrits","nodmgspread","payload","uncletopia"],"game_id":440,"stv_port":27026,"stv_name":"Uncletopia | San Francisco | 2 | All Maps | STV","players":null},{"server_id":19,"name":"Uncletopia | San Francisco | 3 | Stopwatch","name_short":"sfo-3","host":"sfo-1.us.uncletopia.com","port":27035,"enabled":true,"region":"us-west","cc":"us","latitude":37.77397,"longitude":-122.4313,"reserved":0,"last_update":"0001-01-01T00:00:00Z","name_a2s":"Uncletopia | San Francisco | 3 | Stopwatch","protocol":17,"map":"pl_pier","folder":"tf","game":"Team Fortress","app_id":440,"player_count":0,"max_players":24,"Bots":0,"server_type":"Dedicated","server_os":"Linux","password":true,"vac":true,"version":"7961495","steam_id":85568392924742824,"keywords":["nocrits","nodmgspread","payload","uncletopia"],"game_id":440,"stv_port":27036,"stv_name":"Uncletopia | San Francisco | 3 | Stopwatch | STV","players":null},{"server_id":20,"name":"Uncletopia | San Francisco | 4 | Community","name_short":"sfo-4","host":"sfo-1.us.uncletopia.com","port":27045,"enabled":true,"region":"us-west","cc":"us","latitude":37.77397,"longitude":-122.4313,"reserved":0,"last_update":"0001-01-01T00:00:00Z","name_a2s":"Uncletopia | San Francisco | 4 | Community","protocol":17,"map":"workshop/pl_boundary_final1.ugc456799153","folder":"tf","game":"Team Fortress","app_id":440,"player_count":0,"max_players":24,"Bots":0,"server_type":"Dedicated","server_os":"Linux","password":true,"vac":true,"version":"7961495","steam_id":85568392924742826,"keywords":["nocrits","nodmgspread","payload","uncletopia"],"game_id":440,"stv_port":27046,"stv_name":"Uncletopia | San Francisco | 4 | Community | STV","players":null},{"server_id":141,"name":"Uncletopia | Sydney | 1 | All Maps","name_short":"syd-1","host":"syd-1.au.uncletopia.com","port":27015,"enabled":true,"region":"au","cc":"au","latitude":-33.865143,"longitude":151.2099,"reserved":0,"last_update":"0001-01-01T00:00:00Z","name_a2s":"Uncletopia | Sydney | 1 | All Maps","protocol":17,"map":"koth_viaduct","folder":"tf","game":"Team Fortress","app_id":440,"player_count":0,"max_players":24,"Bots":0,"server_type":"Dedicated","server_os":"Linux","password":true,"vac":true,"version":"7961495","steam_id":85568392924470001,"keywords":["cp","nocrits","nodmgspread","uncletopia"],"game_id":440,"stv_port":27016,"stv_name":"Uncletopia | Sydney | 1 | All Maps | STV","players":null},{"server_id":123,"name":"Uncletopia | Sydney | 2 | All Maps","name_short":"syd-2","host":"syd-1.au.uncletopia.com","port":27025,"enabled":true,"region":"au","cc":"au","latitude":-33.865143,"longitude":151.2099,"reserved":0,"last_update":"0001-01-01T00:00:00Z","name_a2s":"Uncletopia | Sydney | 2 | All Maps","protocol":17,"map":"koth_lakeside_final","folder":"tf","game":"Team Fortress","app_id":440,"player_count":0,"max_players":24,"Bots":0,"server_type":"Dedicated","server_os":"Linux","password":true,"vac":true,"version":"7961495","steam_id":85568392924470002,"keywords":["cp","nocrits","nodmgspread","uncletopia"],"game_id":440,"stv_port":27026,"stv_name":"Uncletopia | Sydney | 2 | All Maps | STV","players":null},{"server_id":395,"name":"Uncletopia | Sydney | 3 | All Maps","name_short":"syd-3","host":"syd-1.au.uncletopia.com","port":27035,"enabled":true,"region":"au","cc":"au","latitude":-33.865143,"longitude":151.2099,"reserved":0,"last_update":"0001-01-01T00:00:00Z","name_a2s":"Uncletopia | Sydney | 3 | All Maps","protocol":17,"map":"pl_frontier_final","folder":"tf","game":"Team Fortress","app_id":440,"player_count":0,"max_players":24,"Bots":0,"server_type":"Dedicated","server_os":"Linux","password":true,"vac":true,"version":"7961495","steam_id":85568392925194467,"keywords":["nocrits","nodmgspread","payload","uncletopia"],"game_id":440,"stv_port":27036,"stv_name":"Uncletopia | Sydney | 3 | All Maps | STV","players":null},{"server_id":396,"name":"Uncletopia | Sydney | 4 | All Maps","name_short":"syd-4","host":"syd-1.au.uncletopia.com","port":27045,"enabled":true,"region":"au","cc":"au","latitude":-33.865143,"longitude":151.2099,"reserved":0,"last_update":"0001-01-01T00:00:00Z","name_a2s":"Uncletopia | Sydney | 4 | All Maps","protocol":17,"map":"pl_upward","folder":"tf","game":"Team Fortress","app_id":440,"player_count":0,"max_players":24,"Bots":0,"server_type":"Dedicated","server_os":"Linux","password":true,"vac":true,"version":"7961495","steam_id":85568392925397958,"keywords":["nocrits","nodmgspread","payload","uncletopia"],"game_id":440,"stv_port":27046,"stv_name":"Uncletopia | Sydney | 4 | All Maps | STV","players":null},{"server_id":58,"name":"Uncletopia | Sydney | 5 | Stopwatch","name_short":"syd-5","host":"syd-1.au.uncletopia.com","port":27055,"enabled":true,"region":"au","cc":"au","latitude":-33.865143,"longitude":151.2099,"reserved":0,"last_update":"0001-01-01T00:00:00Z","name_a2s":"Uncletopia | Sydney | 5 | Stopwatch","protocol":17,"map":"pl_frontier_final","folder":"tf","game":"Team Fortress","app_id":440,"player_count":0,"max_players":24,"Bots":0,"server_type":"Dedicated","server_os":"Linux","password":true,"vac":true,"version":"7961495","steam_id":85568392925397959,"keywords":["nocrits","nodmgspread","payload","uncletopia"],"game_id":440,"stv_port":27056,"stv_name":"Uncletopia | Sydney | 5 | Stopwatch | STV","players":null},{"server_id":59,"name":"Uncletopia | Sydney | 6 | Community","name_short":"syd-6","host":"syd-1.au.uncletopia.com","port":27065,"enabled":true,"region":"au","cc":"au","latitude":-33.865143,"longitude":151.2099,"reserved":0,"last_update":"0001-01-01T00:00:00Z","name_a2s":"Uncletopia | Sydney | 6 | Community","protocol":17,"map":"cp_sunshine","folder":"tf","game":"Team Fortress","app_id":440,"player_count":0,"max_players":24,"Bots":0,"server_type":"Dedicated","server_os":"Linux","password":true,"vac":true,"version":"7961495","steam_id":85568392925397960,"keywords":["cp","nocrits","nodmgspread","uncletopia"],"game_id":440,"stv_port":27066,"stv_name":"Uncletopia | Sydney | 6 | Community | STV","players":null},{"server_id":49,"name":"Uncletopia | Warsaw | 1 | All Maps","name_short":"waw-1","host":"waw-1.pl.uncletopia.com","port":27015,"enabled":true,"region":"eu","cc":"pl","latitude":52.2297,"longitude":21.017532,"reserved":0,"last_update":"0001-01-01T00:00:00Z","name_a2s":"Uncletopia | Warsaw | 1 | All Maps","protocol":17,"map":"koth_lakeside_final","folder":"tf","game":"Team Fortress","app_id":440,"player_count":0,"max_players":24,"Bots":0,"server_type":"Dedicated","server_os":"Linux","password":true,"vac":true,"version":"7961495","steam_id":85568392925397850,"keywords":["cp","nocrits","nodmgspread","uncletopia"],"game_id":440,"stv_port":27016,"stv_name":"Uncletopia | Warsaw | 1 | All Maps | STV","players":null},{"server_id":50,"name":"Uncletopia | Warsaw | 2 | All Maps","name_short":"waw-2","host":"waw-1.pl.uncletopia.com","port":27025,"enabled":true,"region":"eu","cc":"pl","latitude":52.2297,"longitude":21.017532,"reserved":0,"last_update":"0001-01-01T00:00:00Z","name_a2s":"Uncletopia | Warsaw | 2 | All Maps","protocol":17,"map":"koth_highpass","folder":"tf","game":"Team Fortress","app_id":440,"player_count":0,"max_players":24,"Bots":0,"server_type":"Dedicated","server_os":"Linux","password":true,"vac":true,"version":"7961495","steam_id":85568392925397851,"keywords":["cp","nocrits","nodmgspread","uncletopia"],"game_id":440,"stv_port":27026,"stv_name":"Uncletopia | Warsaw | 2 | All Maps | STV","players":null},{"server_id":51,"name":"Uncletopia | Warsaw | 3 | All Maps","name_short":"waw-3","host":"waw-1.pl.uncletopia.com","port":27035,"enabled":true,"region":"eu","cc":"pl","latitude":52.2297,"longitude":21.017532,"reserved":0,"last_update":"0001-01-01T00:00:00Z","name_a2s":"Uncletopia | Warsaw | 3 | All Maps","protocol":17,"map":"pl_badwater","folder":"tf","game":"Team Fortress","app_id":440,"player_count":0,"max_players":24,"Bots":0,"server_type":"Dedicated","server_os":"Linux","password":true,"vac":true,"version":"7961495","steam_id":85568392925397852,"keywords":["nocrits","nodmgspread","payload","uncletopia"],"game_id":440,"stv_port":27036,"stv_name":"Uncletopia | Warsaw | 3 | All Maps | STV","players":null},{"server_id":52,"name":"Uncletopia | Warsaw | 4 | All Maps","name_short":"waw-4","host":"waw-1.pl.uncletopia.com","port":27045,"enabled":true,"region":"eu","cc":"pl","latitude":52.2297,"longitude":21.017532,"reserved":0,"last_update":"0001-01-01T00:00:00Z","name_a2s":"Uncletopia | Warsaw | 4 | All Maps","protocol":17,"map":"cp_dustbowl","folder":"tf","game":"Team Fortress","app_id":440,"player_count":0,"max_players":24,"Bots":0,"server_type":"Dedicated","server_os":"Linux","password":true,"vac":true,"version":"7961495","steam_id":85568392925397853,"keywords":["cp","nocrits","nodmgspread","uncletopia"],"game_id":440,"stv_port":27046,"stv_name":"Uncletopia | Warsaw | 4 | All Maps | STV","players":null},{"server_id":53,"name":"Uncletopia | Warsaw | 5 | Stopwatch","name_short":"waw-5","host":"waw-1.pl.uncletopia.com","port":27055,"enabled":true,"region":"eu","cc":"pl","latitude":52.2297,"longitude":21.017532,"reserved":0,"last_update":"0001-01-01T00:00:00Z","name_a2s":"Uncletopia | Warsaw | 5 | Stopwatch","protocol":17,"map":"workshop/koth_ramjam_rc1.ugc459778887","folder":"tf","game":"Team Fortress","app_id":440,"player_count":0,"max_players":24,"Bots":0,"server_type":"Dedicated","server_os":"Linux","password":true,"vac":true,"version":"7961495","steam_id":85568392925397854,"keywords":["cp","nocrits","nodmgspread","uncletopia"],"game_id":440,"stv_port":27056,"stv_name":"Uncletopia | Warsaw | 5 | Stopwatch | STV","players":null},{"server_id":54,"name":"Uncletopia | Warsaw | 6 | Community","name_short":"waw-6","host":"waw-1.pl.uncletopia.com","port":27065,"enabled":true,"region":"eu","cc":"pl","latitude":52.2297,"longitude":21.017532,"reserved":0,"last_update":"0001-01-01T00:00:00Z","name_a2s":"Uncletopia | Warsaw | 6 | Community","protocol":17,"map":"workshop/pl_emerge_rc2.ugc888027758","folder":"tf","game":"Team Fortress","app_id":440,"player_count":0,"max_players":24,"Bots":0,"server_type":"Dedicated","server_os":"Linux","password":true,"vac":true,"version":"7961495","steam_id":85568392925397856,"keywords":["nocrits","nodmgspread","payload","uncletopia"],"game_id":440,"stv_port":27066,"stv_name":"Uncletopia | Warsaw | 6 | Community | STV","players":null}]}