{"status":true,"message":"","result":[{"server_id":9,"name":"Uncletopia | Atlanta | 1 | All Maps","name_short":"atl-1","host":"atl-1.us.uncletopia.com","port":27015,"enabled":true,"region":"us-east","cc":"us","latitude":33.753746,"longitude":-84.38633,"reserved":0,"last_update":"0001-01-01T00:00:00Z","name_a2s":"Uncletopia | Atlanta | 1 | All Maps","protocol":17,"map":"pl_badwater","folder":"tf","game":"Team Fortress","app_id":440,"player_count":24,"max_players":24,"Bots":0,"server_type":"Dedicated","server_os":"Linux","password":true,"vac":true,"version":"7757534","steam_id":85568392924469982,"keywords":["nocrits","nodmgspread","payload","uncletopia"],"game_id":440,"stv_port":27016,"stv_name":"Uncletopia | Atlanta | 1 | All Maps | STV","players":[{"user_id":501,"name":"Roberto Del Fuego","steam_id":76561198043458554,"connected_time":2285000000000,"state":"active","ping":73},{"user_id":436,"name":"ATL 1 | Save your wifi","steam_id":76561198286147372,"connected_time":8759000000000,"state":"active","ping":58},{"user_id":504,"name":"Sm0ky","steam_id":76561198418262145,"connected_time":1020000000000,"state":"active","ping":98},{"user_id":493,"name":"Monkey Mode","steam_id":76561197961267543,"connected_time":3433000000000,"state":"active","ping":57},{"user_id":465,"name":"Motreir","steam_id":76561198151717946,"connected_time":6141000000000,"state":"active","ping":76},{"user_id":505,"name":"benito","steam_id":76561199098569869,"connected_time":950000000000,"state":"active","ping":79},{"user_id":487,"name":"MyamE","steam_id":76561198133278462,"connected_time":4423000000000,"state":"active","ping":69},{"user_id":509,"name":"The Colonel","steam_id":76561198004147927,"connected_time":159000000000,"state":"active","ping":89},{"user_id":495,"name":"lil hog","steam_id":76561199230929836,"connected_time":3231000000000,"state":"active","ping":79},{"user_id":429,"name":"cola","steam_id":76561198374390458,"connected_time":8913000000000,"state":"active","ping":59},{"user_id":412,"name":"cheeks","steam_id":76561197993371179,"connected_time":9491000000000,"state":"active","ping":47},{"user_id":510,"name":"Spiee","steam_id":76561199032011974,"connected_time":138000000000,"state":"active","ping":84},{"user_id":376,"name":"melancholy","steam_id":76561198024301465,"connected_time":13501000000000,"state":"active","ping":45},{"user_id":507,"name":"stink","steam_id":76561198099318923,"connected_time":922000000000,"state":"active","ping":77},{"user_id":483,"name":"Momki","steam_id":76561198072944509,"connected_time":4742000000000,"state":"active","ping":86},{"user_id":479,"name":"Cherry Coke","steam_id":76561198178233006,"connected_time":4961000000000,"state":"active","ping":85},{"user_id":343,"name":"eish","steam_id":76561198089463603,"connected_time":17088000000000,"state":"active","ping":124},{"user_id":503,"name":"M√°tame","steam_id":76561198060680045,"connected_time":2011000000000,"state":"active","ping":83},{"user_id":458,"name":"Onyx","steam_id":76561198275349640,"connected_time":6972000000000,"state":"active","ping":74},{"user_id":511,"name":"The Cop Fentanyl Debuff","steam_id":76561197991817974,"connected_time":133000000000,"state":"active","ping":112},{"user_id":494,"name":"BIG HOG","steam_id":76561198079923652,"connected_time":3295000000000,"state":"active","ping":73},{"user_id":485,"name":"O'Keearns","steam_id":76561198042213797,"connected_time":4695000000000,"state":"active","ping":53},{"user_id":492,"name":"Lost (15)","steam_id":76561198093713427,"connected_time":3540000000000,"state":"active","ping":87},{"user_id":499,"name":"bovvle","steam_id":76561198259113008,"connected_time":2795000000000,"state":"active","ping":77}]},{"server_id":400,"name":"Uncletopia | Atlanta | 3 | Community","name_short":"atl-3","host":"atl-1.us.uncletopia.com","port":27035,"enabled":true,"region":"us-east","cc":"us","latitude":33.753746,"longitude":-84.38633,"reserved":0,"last_update":"0001-01-01T00:00:00Z","name_a2s":"Uncletopia | Atlanta | 3 | Community","protocol":17,"map":"workshop/koth_ramjam_rc1.ugc459778887","folder":"tf","game":"Team Fortress","app_id":440,"player_count":0,"max_players":24,"Bots":0,"server_type":"Dedicated","server_os":"Linux","password":true,"vac":true,"version":"7757534","steam_id":85568392924515187,"keywords":["cp","nocrits","nodmgspread","uncletopia"],"game_id":440,"stv_port":27036,"stv_name":"Uncletopia | Atlanta | 3 | Community | STV","players":null},{"server_id":401,"name":"Uncletopia | Atlanta | 4 | No Payload","name_short":"atl-4","host":"atl-1.us.uncletopia.com","port":27045,"enabled":true,"region":"us-east","cc":"us","latitude":33.753746,"longitude":-84.38633,"reserved":0,"last_update":"0001-01-01T00:00:00Z","name_a2s":"","protocol":0,"map":"","folder":"","game":"","app_id":0,"player_count":0,"max_players":0,"Bots":0,"server_type":"","server_os":"","password":false,"vac":false,"version":"","steam_id":0,"keywords":null,"game_id":0,"stv_port":0,"stv_name":"","players":null},{"server_id":2,"name":"Uncletopia | Chicago | 1 | All Maps","name_short":"chi-1","host":"chi-1.us.uncletopia.com","port":27015,"enabled":true,"region":"us-central","cc":"us","latitude":41.881832,"longitude":-87.62318,"reserved":0,"last_update":"0001-01-01T00:00:00Z","name_a2s":"Uncletopia | Chicago | 1 | All Maps","protocol":17,"map":"pl_frontier_final","folder":"tf","game":"Team Fortress","app_id":440,"player_count":24,"max_players":24,"Bots":0,"server_type":"Dedicated","server_os":"Linux","password":true,"vac":true,"version":"7757534","steam_id":85568392924469984,"keywords":["nocrits","nodmgspread","payload","uncletopia"],"game_id":440,"stv_port":27016,"stv_name":"Uncletopia | Chicago | 1 | All Maps | STV","players":[{"user_id":744,"name":"moistwalnut1967","steam_id":76561198044489449,"connected_time":9376000000000,"state":"active","ping":50},{"user_id":766,"name":"you are loved","steam_id":76561198108524571,"connected_time":7243000000000,"state":"active","ping":67},{"user_id":800,"name":"Funkadilla","steam_id":76561198420639264,"connected_time":3630000000000,"state":"active","ping":80},{"user_id":796,"name":"spooky kabuki","steam_id":76561198030361635,"connected_time":3789000000000,"state":"active","ping":46},{"user_id":828,"name":"goober","steam_id":76561199014881883,"connected_time":592000000000,"state":"active","ping":73},{"user_id":774,"name":"Tony Hawk Underground 2 for PSP","steam_id":76561197999901620,"connected_time":5960000000000,"state":"active","ping":59},{"user_id":823,"name":"Enron Hubbard","steam_id":76561198012951411,"connected_time":838000000000,"state":"active","ping":57},{"user_id":798,"name":"kairOs.fk","steam_id":76561197972421260,"connected_time":3777000000000,"state":"active","ping":60},{"user_id":770,"name":"Baka!‚ë®‚ë®‚ë®‚ë®","steam_id":76561198152948254,"connected_time":6681000000000,"state":"active","ping":65},{"user_id":816,"name":"mario,","steam_id":76561198068947832,"connected_time":2268000000000,"state":"active","ping":72},{"user_id":827,"name":"Heckolo","steam_id":76561198168010993,"connected_time":820000000000,"state":"active","ping":102},{"user_id":832,"name":"Purgatory","steam_id":76561198374795958,"connected_time":36000000000,"state":"active","ping":96},{"user_id":780,"name":"Coupon","steam_id":76561198111947598,"connected_time":5690000000000,"state":"active","ping":89},{"user_id":831,"name":"Mlangerud","steam_id":76561198838064252,"connected_time":290000000000,"state":"active","ping":72},{"user_id":783,"name":"Squirt Reynolds","steam_id":76561197999753555,"connected_time":5005000000000,"state":"active","ping":55},{"user_id":761,"name":"mae","steam_id":76561198425739511,"connected_time":8235000000000,"state":"active","ping":73},{"user_id":817,"name":"deadpixel","steam_id":76561198150249843,"connected_time":1761000000000,"state":"active","ping":57},{"user_id":716,"name":"blob","steam_id":76561198122375328,"connected_time":11291000000000,"state":"active","ping":66},{"user_id":824,"name":"Miserable Little Pile of Secret","steam_id":76561198007696932,"connected_time":834000000000,"state":"active","ping":103},{"user_id":825,"name":"ancient :3 rizz","steam_id":76561198042518244,"connected_time":834000000000,"state":"active","ping":96},{"user_id":818,"name":"Big Phony","steam_id":76561199092395311,"connected_time":1484000000000,"state":"active","ping":63},{"user_id":820,"name":"Phil Collins","steam_id":76561198068868644,"connected_time":853000000000,"state":"active","ping":104},{"user_id":801,"name":"bingus","steam_id":76561198283992686,"connected_time":3622000000000,"state":"active","ping":74},{"user_id":826,"name":"Maverick","steam_id":76561198447100051,"connected_time":828000000000,"state":"active","ping":71}]},{"server_id":106,"name":"Uncletopia | Chicago | 2 | All Maps","name_short":"chi-2","host":"chi-1.us.uncletopia.com","port":27025,"enabled":true,"region":"us-central","cc":"us","latitude":41.881832,"longitude":-87.62318,"reserved":0,"last_update":"0001-01-01T00:00:00Z","name_a2s":"Uncletopia | Chicago | 2 | All Maps","protocol":17,"map":"pl_snowycoast","folder":"tf","game":"Team Fortress","app_id":440,"player_count":24,"max_players":24,"Bots":0,"server_type":"Dedicated","server_os":"Linux","password":true,"vac":true,"version":"7757534","steam_id":85568392924469985,"keywords":["nocrits","nodmgspread","payload","uncletopia"],"game_id":440,"stv_port":27026,"stv_name":"Uncletopia | Chicago | 2 | All Maps | STV","players":[{"user_id":674,"name":"Convict Police Officers","steam_id":76561197993527275,"connected_time":167000000000,"state":"active","ping":56},{"user_id":641,"name":".Thomas","steam_id":76561198162759004,"connected_time":1892000000000,"state":"active","ping":75},{"user_id":667,"name":"Excalahave","steam_id":76561198072622946,"connected_time":579000000000,"state":"active","ping":55},{"user_id":658,"name":"gyozaking","steam_id":76561197972312696,"connected_time":1219000000000,"state":"active","ping":43},{"user_id":672,"name":"ratie","steam_id":76561198059399661,"connected_time":204000000000,"state":"active","ping":78},{"user_id":647,"name":"hansi k√ºrsch","steam_id":76561198046650995,"connected_time":1569000000000,"state":"active","ping":87},{"user_id":660,"name":"jubattz","steam_id":76561198044874072,"connected_time":1190000000000,"state":"active","ping":57},{"user_id":670,"name":"Mysteryred12","steam_id":76561199206772814,"connected_time":388000000000,"state":"active","ping":91},{"user_id":675,"name":"üÖúüÖîüÖîüÖöüÖ¢üÖ£üÖî\ufffd\ufffd\ufffd","steam_id":76561197999748343,"connected_time":158000000000,"state":"active","ping":69},{"user_id":673,"name":"Aeront","steam_id":76561198072032723,"connected_time":198000000000,"state":"active","ping":89},{"user_id":681,"name":"‚ñ≥","steam_id":76561198060642242,"connected_time":80000000000,"state":"active","ping":83},{"user_id":676,"name":"Blitzy","steam_id":76561198149472890,"connected_time":157000000000,"state":"active","ping":74},{"user_id":635,"name":"caption cool","steam_id":76561197990612056,"connected_time":2760000000000,"state":"active","ping":46},{"user_id":653,"name":"Banana Shit Sandwich","steam_id":76561198190962742,"connected_time":1468000000000,"state":"active","ping":71},{"user_id":662,"name":"Faraday","steam_id":76561198089928357,"connected_time":1119000000000,"state":"active","ping":74},{"user_id":677,"name":"Thequirka","steam_id":76561198968058652,"connected_time":130000000000,"state":"active","ping":85},{"user_id":642,"name":"HumFreY","steam_id":76561198076639682,"connected_time":1882000000000,"state":"active","ping":76},{"user_id":646,"name":"Carbonated Knightquill","steam_id":76561198044362988,"connected_time":1630000000000,"state":"active","ping":57},{"user_id":678,"name":"Œª","steam_id":76561198120426683,"connected_time":110000000000,"state":"active","ping":111},{"user_id":669,"name":"WhateverNut614","steam_id":76561198317592815,"connected_time":397000000000,"state":"active","ping":111},{"user_id":671,"name":"admiralmonk","steam_id":76561198845021470,"connected_time":273000000000,"state":"active","ping":56},{"user_id":680,"name":"TheElderFrog","steam_id":76561197985743135,"connected_time":85000000000,"state":"active","ping":74},{"user_id":632,"name":"Theory-ZaZa","steam_id":76561198116419931,"connected_time":2912000000000,"state":"active","ping":116},{"user_id":682,"name":"come here cupcake","steam_id":76561198877042360,"connected_time":79000000000,"state":"active","ping":107}]},{"server_id":402,"name":"Uncletopia | Chicago | 3 | All Maps","name_short":"chi-3","host":"chi-1.us.uncletopia.com","port":27035,"enabled":true,"region":"us-central","cc":"us","latitude":41.881832,"longitude":-87.62318,"reserved":0,"last_update":"0001-01-01T00:00:00Z","name_a2s":"Uncletopia | Chicago | 3 | All Maps","protocol":17,"map":"cp_mountainlab","folder":"tf","game":"Team Fortress","app_id":440,"player_count":24,"max_players":24,"Bots":0,"server_type":"Dedicated","server_os":"Linux","password":true,"vac":true,"version":"7757534","steam_id":85568392924515191,"keywords":["cp","nocrits","nodmgspread","uncletopia"],"game_id":440,"stv_port":27036,"stv_name":"Uncletopia | Chicago | 3 | All Maps | STV","players":[{"user_id":304,"name":"radioactive mcdonalds","steam_id":76561198316281740,"connected_time":2475000000000,"state":"active","ping":81},{"user_id":326,"name":"Fermenting Kiwi","steam_id":76561198253303497,"connected_time":872000000000,"state":"active","ping":74},{"user_id":311,"name":"Gabinator32","steam_id":76561198872467183,"connected_time":1506000000000,"state":"active","ping":41},{"user_id":303,"name":"MaximumAce","steam_id":76561198359596849,"connected_time":2556000000000,"state":"active","ping":72},{"user_id":308,"name":"GreekGoat_Coffee","steam_id":76561198129331088,"connected_time":2012000000000,"state":"active","ping":43},{"user_id":327,"name":"Your Local NPR Station","steam_id":76561198143830279,"connected_time":832000000000,"state":"active","ping":65},{"user_id":330,"name":"Ben Sadfleck","steam_id":76561198057963508,"connected_time":511000000000,"state":"active","ping":148},{"user_id":323,"name":"hazardous waste disposal","steam_id":76561198393892843,"connected_time":1042000000000,"state":"active","ping":73},{"user_id":333,"name":"FoodzAreGoodz","steam_id":76561198309262052,"connected_time":176000000000,"state":"active","ping":111},{"user_id":325,"name":"big guy","steam_id":76561199179064020,"connected_time":992000000000,"state":"active","ping":97},{"user_id":306,"name":"William","steam_id":76561198140841531,"connected_time":2090000000000,"state":"active","ping":69},{"user_id":315,"name":"Windup Monkey in a Human Suit","steam_id":76561198119501444,"connected_time":1218000000000,"state":"active","ping":104},{"user_id":329,"name":"TheLonliestThelonius","steam_id":76561198097657243,"connected_time":538000000000,"state":"active","ping":76},{"user_id":317,"name":"GRONT","steam_id":76561198040464533,"connected_time":1197000000000,"state":"active","ping":81},{"user_id":286,"name":"Jezzus","steam_id":76561199289676387,"connected_time":3291000000000,"state":"active","ping":85},{"user_id":295,"name":"Toxic Skeleton","steam_id":76561198355612935,"connected_time":2779000000000,"state":"active","ping":82},{"user_id":332,"name":"super","steam_id":76561198800358844,"connected_time":316000000000,"state":"active","ping":81},{"user_id":318,"name":"Captain S. Forrest","steam_id":76561198062463029,"connected_time":1186000000000,"state":"active","ping":79},{"user_id":324,"name":"Boi","steam_id":76561198044501443,"connected_time":1034000000000,"state":"active","ping":53},{"user_id":288,"name":"Poyo Boyo","steam_id":76561198010201227,"connected_time":3280000000000,"state":"active","ping":80},{"user_id":331,"name":"Ruben","steam_id":76561198048508642,"connected_time":490000000000,"state":"active","ping":105},{"user_id":320,"name":"2cats_2curious","steam_id":76561198027143149,"connected_time":1150000000000,"state":"active","ping":45},{"user_id":310,"name":"https://en.wikipedia.org/","steam_id":76561198261326806,"connected_time":1557000000000,"state":"active","ping":97},{"user_id":300,"name":"|AG| Level","steam_id":76561198063633592,"connected_time":2725000000000,"state":"active","ping":83}]},{"server_id":403,"name":"Uncletopia | Chicago | 4 | All Maps","name_short":"chi-4","host":"chi-1.us.uncletopia.com","port":27045,"enabled":true,"region":"us-central","cc":"us","latitude":41.881832,"longitude":-87.62318,"reserved":0,"last_update":"0001-01-01T00:00:00Z","name_a2s":"Uncletopia | Chicago | 4 | All Maps","protocol":17,"map":"koth_suijin","folder":"tf","game":"Team Fortress","app_id":440,"player_count":24,"max_players":24,"Bots":0,"server_type":"Dedicated","server_os":"Linux","password":true,"vac":true,"version":"7757534","steam_id":85568392924515193,"keywords":["cp","nocrits","nodmgspread","uncletopia"],"game_id":440,"stv_port":27046,"stv_name":"Uncletopia | Chicago | 4 | All Maps | STV","players":[{"user_id":430,"name":"laszlo","steam_id":76561198141198352,"connected_time":1150000000000,"state":"active","ping":45},{"user_id":440,"name":"laddie","steam_id":76561198063029230,"connected_time":113000000000,"state":"active","ping":68},{"user_id":360,"name":"Firebug","steam_id":76561198081832157,"connected_time":4142000000000,"state":"active","ping":72},{"user_id":441,"name":"Bee's","steam_id":76561198041888432,"connected_time":76000000000,"state":"active","ping":101},{"user_id":431,"name":"Rein","steam_id":76561198300340427,"connected_time":1001000000000,"state":"active","ping":60},{"user_id":425,"name":"Boongadoonga","steam_id":76561198058525763,"connected_time":1302000000000,"state":"active","ping":75},{"user_id":417,"name":"Severeburrito16","steam_id":76561198353155991,"connected_time":1631000000000,"state":"active","ping":68},{"user_id":436,"name":"sexgaming_","steam_id":76561198245994746,"connected_time":712000000000,"state":"active","ping":42},{"user_id":427,"name":"squash","steam_id":76561198150281353,"connected_time":1215000000000,"state":"active","ping":104},{"user_id":435,"name":"Mixer","steam_id":76561199020200249,"connected_time":746000000000,"state":"active","ping":63},{"user_id":426,"name":"vitaxiong1025","steam_id":76561199125543177,"connected_time":1264000000000,"state":"active","ping":111},{"user_id":438,"name":"Orca?","steam_id":76561198164341099,"connected_time":239000000000,"state":"active","ping":80},{"user_id":418,"name":"Scita","steam_id":76561198066861559,"connected_time":1625000000000,"state":"active","ping":71},{"user_id":439,"name":"Viva Perosa","steam_id":76561198058210457,"connected_time":155000000000,"state":"active","ping":77},{"user_id":434,"name":"‚ô• JUNE ‚ô•","steam_id":76561198975039481,"connected_time":750000000000,"state":"active","ping":59},{"user_id":368,"name":"Sprucelass","steam_id":76561197998391724,"connected_time":4039000000000,"state":"active","ping":50},{"user_id":402,"name":"shadowjango","steam_id":76561198001475833,"connected_time":2724000000000,"state":"active","ping":60},{"user_id":398,"name":"Candy Quill","steam_id":76561198044092009,"connected_time":3455000000000,"state":"active","ping":97},{"user_id":396,"name":"Consentual non-consent","steam_id":76561199013702818,"connected_time":3524000000000,"state":"active","ping":103},{"user_id":399,"name":"wokky bin laddn","steam_id":76561198265200834,"connected_time":3298000000000,"state":"active","ping":80},{"user_id":429,"name":"EmeraldCola","steam_id":76561198066663687,"connected_time":1169000000000,"state":"active","ping":69},{"user_id":437,"name":"SPREAD SPRING GROWTH AND WARMTH","steam_id":76561198800386026,"connected_time":271000000000,"state":"active","ping":100},{"user_id":432,"name":"Torei","steam_id":76561198799229190,"connected_time":1000000000000,"state":"active","ping":63},{"user_id":404,"name":"wheres my drink?","steam_id":76561198031675881,"connected_time":2722000000000,"state":"active","ping":72}]},{"server_id":36,"name":"Uncletopia | Chicago | 5 | All Maps","name_short":"chi-5","host":"chi-2.us.uncletopia.com","port":27015,"enabled":true,"region":"us-central","cc":"us","latitude":41.881832,"longitude":-87.62318,"reserved":0,"last_update":"0001-01-01T00:00:00Z","name_a2s":"Uncletopia | Chicago | 5 | All Maps","protocol":17,"map":"pl_frontier_final","folder":"tf","game":"Team Fortress","app_id":440,"player_count":20,"max_players":24,"Bots":0,"server_type":"Dedicated","server_os":"Linux","password":true,"vac":true,"version":"7757534","steam_id":85568392924866362,"keywords":["nocrits","nodmgspread","payload","uncletopia"],"game_id":440,"stv_port":27016,"stv_name":"Uncletopia | Chicago | 5 | All Maps | STV","players":[{"user_id":556,"name":"JacripspyVulcano","steam_id":76561198966980576,"connected_time":148000000000,"state":"active","ping":51},{"user_id":498,"name":"M-Looskinator","steam_id":76561198135649941,"connected_time":2283000000000,"state":"active","ping":115},{"user_id":549,"name":"Tick","steam_id":76561198184161214,"connected_time":475000000000,"state":"active","ping":35},{"user_id":560,"name":"Wicki","steam_id":76561198122590990,"connected_time":37000000000,"state":"active","ping":84},{"user_id":550,"name":"TF2 need a sex update","steam_id":76561199103964705,"connected_time":468000000000,"state":"active","ping":111},{"user_id":561,"name":"Stapler","steam_id":76561198099295077,"connected_time":30000000000,"state":"active","ping":89},{"user_id":471,"name":"Rond Gong The Dong Machine","steam_id":76561198283349215,"connected_time":3520000000000,"state":"spawning","ping":79},{"user_id":495,"name":"Lore","steam_id":76561198098407538,"connected_time":2437000000000,"state":"active","ping":45},{"user_id":457,"name":"Bel","steam_id":76561198213140033,"connected_time":4291000000000,"state":"active","ping":79},{"user_id":562,"name":"sopmod","steam_id":76561198453203619,"connected_time":22000000000,"state":"active","ping":99},{"user_id":535,"name":"Normalux","steam_id":76561198293891426,"connected_time":933000000000,"state":"active","ping":93},{"user_id":458,"name":"BellGrief","steam_id":76561198453489762,"connected_time":4275000000000,"state":"active","ping":86},{"user_id":500,"name":"SomeScuffedKid","steam_id":76561198086113234,"connected_time":2123000000000,"state":"active","ping":60},{"user_id":563,"name":"Fredrick","steam_id":76561197981419964,"connected_time":22000000000,"state":"active","ping":68},{"user_id":508,"name":"SeniorPigu","steam_id":76561198072001437,"connected_time":1435000000000,"state":"active","ping":70},{"user_id":554,"name":"*****setget","steam_id":76561198118824188,"connected_time":193000000000,"state":"active","ping":120},{"user_id":505,"name":"Helios79","steam_id":76561198198358469,"connected_time":1744000000000,"state":"active","ping":60},{"user_id":559,"name":"The Bone Zone","steam_id":76561199110815433,"connected_time":68000000000,"state":"active","ping":121},{"user_id":548,"name":"seeker","steam_id":76561198001293673,"connected_time":520000000000,"state":"active","ping":77},{"user_id":497,"name":"Trox","steam_id":76561198263581464,"connected_time":2402000000000,"state":"active","ping":106}]},{"server_id":37,"name":"Uncletopia | Chicago | 6 | All Maps","name_short":"chi-6","host":"chi-2.us.uncletopia.com","port":27025,"enabled":true,"region":"us-central","cc":"us","latitude":41.881832,"longitude":-87.62318,"reserved":0,"last_update":"0001-01-01T00:00:00Z","name_a2s":"Uncletopia | Chicago | 6 | All Maps","protocol":17,"map":"koth_cascade","folder":"tf","game":"Team Fortress","app_id":440,"player_count":24,"max_players":24,"Bots":0,"server_type":"Dedicated","server_os":"Linux","password":true,"vac":true,"version":"7757534","steam_id":85568392924866363,"keywords":["cp","nocrits","nodmgspread","uncletopia"],"game_id":440,"stv_port":27026,"stv_name":"Uncletopia | Chicago | 6 | All Maps | STV","players":[{"user_id":188,"name":"Real Demo Man TF2","steam_id":76561199073122406,"connected_time":1998000000000,"state":"active","ping":79},{"user_id":200,"name":"floral green","steam_id":76561198332519926,"connected_time":797000000000,"state":"active","ping":85},{"user_id":118,"name":"Black Hole Sus (Amongus)","steam_id":76561198006261751,"connected_time":8350000000000,"state":"active","ping":45},{"user_id":134,"name":"Razz","steam_id":76561198158027533,"connected_time":7387000000000,"state":"active","ping":45},{"user_id":151,"name":"N√©miscau","steam_id":76561198257979613,"connected_time":4646000000000,"state":"active","ping":94},{"user_id":189,"name":"Cutovercarp","steam_id":76561199065978512,"connected_time":1971000000000,"state":"active","ping":65},{"user_id":152,"name":"foura","steam_id":76561198181972739,"connected_time":4641000000000,"state":"active","ping":103},{"user_id":178,"name":"TATARA","steam_id":76561199098759517,"connected_time":3069000000000,"state":"active","ping":138},{"user_id":177,"name":"IcyGlaciers (She/They)","steam_id":76561198087843846,"connected_time":3175000000000,"state":"active","ping":102},{"user_id":190,"name":"Elizabeth truss","steam_id":76561198058250979,"connected_time":1961000000000,"state":"active","ping":70},{"user_id":201,"name":"riSygneD","steam_id":76561198331618687,"connected_time":779000000000,"state":"active","ping":99},{"user_id":206,"name":"bobletoob","steam_id":76561199184464900,"connected_time":115000000000,"state":"active","ping":116},{"user_id":145,"name":"Gachalover","steam_id":76561199231552074,"connected_time":6602000000000,"state":"active","ping":683},{"user_id":202,"name":"Clout God Usopp","steam_id":76561198415152933,"connected_time":775000000000,"state":"active","ping":90},{"user_id":203,"name":"Dr.KombatPhD.ttv","steam_id":76561198263847667,"connected_time":323000000000,"state":"active","ping":66},{"user_id":187,"name":"chicken joe from surfs up 2","steam_id":76561198060807152,"connected_time":2150000000000,"state":"active","ping":71},{"user_id":159,"name":"nastypass","steam_id":76561198002601054,"connected_time":4435000000000,"state":"active","ping":73},{"user_id":204,"name":"Femboy Hooters","steam_id":76561198333128330,"connected_time":305000000000,"state":"active","ping":47},{"user_id":184,"name":"deech","steam_id":76561198066429444,"connected_time":2817000000000,"state":"active","ping":71},{"user_id":132,"name":"Wilhelmktx","steam_id":76561198158102295,"connected_time":7516000000000,"state":"active","ping":60},{"user_id":162,"name":"Oifey","steam_id":76561198073474038,"connected_time":4392000000000,"state":"active","ping":63},{"user_id":199,"name":"Trolldier 76","steam_id":76561198036504161,"connected_time":814000000000,"state":"active","ping":129},{"user_id":164,"name":"add the 3 stooges to fortnite","steam_id":76561198107343544,"connected_time":4366000000000,"state":"active","ping":93},{"user_id":172,"name":"Ringo x Seiran","steam_id":76561198357437908,"connected_time":3655000000000,"state":"active","ping":65}]},{"server_id":38,"name":"Uncletopia | Chicago | 7 | Stopwatch Beta","name_short":"chi-7","host":"chi-2.us.uncletopia.com","port":27035,"enabled":true,"region":"us-central","cc":"us","latitude":41.881832,"longitude":-87.62318,"reserved":0,"last_update":"0001-01-01T00:00:00Z","name_a2s":"Uncletopia | Chicago | 7 | Stopwatch Beta","protocol":17,"map":"koth_viaduct","folder":"tf","game":"Team Fortress","app_id":440,"player_count":0,"max_players":24,"Bots":0,"server_type":"Dedicated","server_os":"Linux","password":true,"vac":true,"version":"7757534","steam_id":85568392924866364,"keywords":["cp","nocrits","nodmgspread","uncletopia"],"game_id":440,"stv_port":27036,"stv_name":"Uncletopia | Chicago | 7 | Stopwatch Beta | STV","players":null},{"server_id":39,"name":"Uncletopia | Chicago | 8 | Community","name_short":"chi-8","host":"chi-2.us.uncletopia.com","port":27045,"enabled":true,"region":"us-central","cc":"us","latitude":41.881832,"longitude":-87.62318,"reserved":0,"last_update":"0001-01-01T00:00:00Z","name_a2s":"Uncletopia | Chicago | 8 | Community","protocol":17,"map":"workshop/koth_trenchfoot_b1a.ugc731436616","folder":"tf","game":"Team Fortress","app_id":440,"player_count":0,"max_players":24,"Bots":0,"server_type":"Dedicated","server_os":"Linux","password":true,"vac":true,"version":"7757534","steam_id":85568392924866365,"keywords":["cp","nocrits","nodmgspread","uncletopia"],"game_id":440,"stv_port":27046,"stv_name":"Uncletopia | Chicago | 8 | Community | STV","players":null},{"server_id":8,"name":"Uncletopia | Dallas | 1 | All Maps","name_short":"dal-1","host":"dal-1.us.uncletopia.com","port":27015,"enabled":true,"region":"us-central","cc":"us","latitude":32.779167,"longitude":-96.80889,"reserved":0,"last_update":"0001-01-01T00:00:00Z","name_a2s":"Uncletopia | Dallas | 1 | All Maps","protocol":17,"map":"pl_swiftwater_final1","folder":"tf","game":"Team Fortress","app_id":440,"player_count":24,"max_players":24,"Bots":0,"server_type":"Dedicated","server_os":"Linux","password":true,"vac":true,"version":"7757534","steam_id":85568392924469986,"keywords":["nocrits","nodmgspread","payload","uncletopia"],"game_id":440,"stv_port":27016,"stv_name":"Uncletopia | Dallas | 1 | All Maps | STV","players":[{"user_id":509,"name":"c0wmanglr","steam_id":76561198025342064,"connected_time":624000000000,"state":"active","ping":62},{"user_id":506,"name":"SlickStick04","steam_id":76561199016580456,"connected_time":771000000000,"state":"active","ping":84},{"user_id":510,"name":"Pixeled","steam_id":76561198088917077,"connected_time":617000000000,"state":"active","ping":86},{"user_id":496,"name":"CACTUS","steam_id":76561198327863229,"connected_time":3600000000000,"state":"active","ping":86},{"user_id":503,"name":"Muse","steam_id":76561198177715869,"connected_time":1809000000000,"state":"active","ping":56},{"user_id":518,"name":"Arctem","steam_id":76561198012937871,"connected_time":69000000000,"state":"active","ping":60},{"user_id":520,"name":"The Super Mario Bros. Movie","steam_id":76561198871692156,"connected_time":37000000000,"state":"active","ping":93},{"user_id":500,"name":"Epha","steam_id":76561198079379951,"connected_time":2570000000000,"state":"active","ping":84},{"user_id":511,"name":"radtap","steam_id":76561198054060391,"connected_time":589000000000,"state":"active","ping":59},{"user_id":513,"name":"74","steam_id":76561198070923665,"connected_time":211000000000,"state":"active","ping":102},{"user_id":463,"name":"BurningKev","steam_id":76561198057688837,"connected_time":8084000000000,"state":"active","ping":60},{"user_id":515,"name":"BatJet","steam_id":76561198147738441,"connected_time":77000000000,"state":"active","ping":96},{"user_id":516,"name":"Orange","steam_id":76561197960854889,"connected_time":73000000000,"state":"active","ping":96},{"user_id":494,"name":"Gungus Dingaling","steam_id":76561198018270898,"connected_time":3769000000000,"state":"active","ping":54},{"user_id":498,"name":"finger","steam_id":76561198068558572,"connected_time":3131000000000,"state":"active","ping":63},{"user_id":434,"name":"Giselle","steam_id":76561198162593640,"connected_time":9688000000000,"state":"active","ping":103},{"user_id":499,"name":"crumblebungus","steam_id":76561199323707429,"connected_time":3130000000000,"state":"active","ping":90},{"user_id":514,"name":"Dictator Noodle","steam_id":76561198277243768,"connected_time":80000000000,"state":"active","ping":80},{"user_id":478,"name":"Zero","steam_id":76561199383267408,"connected_time":7033000000000,"state":"active","ping":46},{"user_id":481,"name":"iluvtoust","steam_id":76561198869269207,"connected_time":5712000000000,"state":"active","ping":48},{"user_id":517,"name":"56","steam_id":76561199161322235,"connected_time":73000000000,"state":"active","ping":62},{"user_id":519,"name":"Sableye","steam_id":76561198061247147,"connected_time":69000000000,"state":"active","ping":74},{"user_id":230,"name":"SIGMA [BS]","steam_id":76561197962604879,"connected_time":24769000000000,"state":"active","ping":98},{"user_id":369,"name":"Joe Swanson","steam_id":76561199089907740,"connected_time":14486000000000,"state":"active","ping":74}]},{"server_id":108,"name":"Uncletopia | Dallas | 2 | All Maps","name_short":"dal-2","host":"dal-1.us.uncletopia.com","port":27025,"enabled":true,"region":"us-central","cc":"us","latitude":32.779167,"longitude":-96.80889,"reserved":0,"last_update":"0001-01-01T00:00:00Z","name_a2s":"Uncletopia | Dallas | 2 | All Maps","protocol":17,"map":"pl_badwater","folder":"tf","game":"Team Fortress","app_id":440,"player_count":24,"max_players":24,"Bots":0,"server_type":"Dedicated","server_os":"Linux","password":true,"vac":true,"version":"7757534","steam_id":85568392924469988,"keywords":["nocrits","nodmgspread","payload","uncletopia"],"game_id":440,"stv_port":27026,"stv_name":"Uncletopia | Dallas | 2 | All Maps | STV","players":[{"user_id":389,"name":"Pope","steam_id":76561198053768137,"connected_time":4121000000000,"state":"active","ping":48},{"user_id":393,"name":"GenericName","steam_id":76561198104074968,"connected_time":4067000000000,"state":"active","ping":73},{"user_id":446,"name":"Caught a Thundah","steam_id":76561198054495572,"connected_time":830000000000,"state":"active","ping":50},{"user_id":445,"name":"üå∏MelWormüå∏","steam_id":76561198084145814,"connected_time":1034000000000,"state":"active","ping":63},{"user_id":427,"name":"WhackyOrc","steam_id":76561199470020355,"connected_time":2102000000000,"state":"active","ping":84},{"user_id":442,"name":"Jared In Target","steam_id":76561198372449718,"connected_time":1191000000000,"state":"active","ping":54},{"user_id":413,"name":"Tying the knot","steam_id":76561198247794130,"connected_time":3218000000000,"state":"active","ping":62},{"user_id":419,"name":"Farclaimer","steam_id":76561198357355915,"connected_time":3054000000000,"state":"active","ping":105},{"user_id":433,"name":"WARMAIDEN","steam_id":76561198071296526,"connected_time":1959000000000,"state":"active","ping":67},{"user_id":371,"name":"The Ultimate Coomer","steam_id":76561199128833757,"connected_time":6223000000000,"state":"active","ping":49},{"user_id":447,"name":"SmokeyGalaxy","steam_id":76561198118780516,"connected_time":563000000000,"state":"active","ping":59},{"user_id":420,"name":"alcoholic","steam_id":76561199217503417,"connected_time":3053000000000,"state":"active","ping":134},{"user_id":448,"name":"leopardo123atl","steam_id":76561198872648238,"connected_time":505000000000,"state":"active","ping":78},{"user_id":443,"name":"momb","steam_id":76561198142234038,"connected_time":1191000000000,"state":"active","ping":85},{"user_id":434,"name":"See? Bass!","steam_id":76561198207220181,"connected_time":1760000000000,"state":"active","ping":61},{"user_id":429,"name":"The Moose","steam_id":76561199002758063,"connected_time":2071000000000,"state":"active","ping":84},{"user_id":431,"name":"Jon Snuh","steam_id":76561198075298635,"connected_time":2055000000000,"state":"active","ping":81},{"user_id":416,"name":"cardboardwarrior1","steam_id":76561199145044693,"connected_time":3113000000000,"state":"active","ping":161},{"user_id":426,"name":"dont suck me i uber","steam_id":76561198281968441,"connected_time":2475000000000,"state":"active","ping":85},{"user_id":444,"name":"DeathLMAO","steam_id":76561198044542149,"connected_time":1190000000000,"state":"active","ping":76},{"user_id":409,"name":"landogg","steam_id":76561198049000586,"connected_time":3514000000000,"state":"active","ping":63},{"user_id":411,"name":"blue duck the 2nd","steam_id":76561198263142765,"connected_time":3474000000000,"state":"active","ping":163},{"user_id":378,"name":"Pie","steam_id":76561198054721133,"connected_time":5869000000000,"state":"active","ping":68},{"user_id":438,"name":"‚ù§ Ashley ‚ù§","steam_id":76561198056428303,"connected_time":1608000000000,"state":"active","ping":75}]},{"server_id":5,"name":"Uncletopia | Frankfurt | 1 | All Maps","name_short":"frk-1","host":"frk-1.de.uncletopia.com","port":27015,"enabled":true,"region":"eu","cc":"de","latitude":50.110924,"longitude":8.682127,"reserved":0,"last_update":"0001-01-01T00:00:00Z","name_a2s":"Uncletopia | Frankfurt | 1 | All Maps","protocol":17,"map":"cp_sunshine","folder":"tf","game":"Team Fortress","app_id":440,"player_count":0,"max_players":24,"Bots":0,"server_type":"Dedicated","server_os":"Linux","password":true,"vac":true,"version":"7757534","steam_id":85568392924469989,"keywords":["cp","nocrits","nodmgspread","uncletopia"],"game_id":440,"stv_port":27016,"stv_name":"Uncletopia | Frankfurt | 1 | All Maps | STV","players":null},{"server_id":110,"name":"Uncletopia | Frankfurt | 2 | All Maps","name_short":"frk-2","host":"frk-1.de.uncletopia.com","port":27025,"enabled":true,"region":"eu","cc":"de","latitude":50.110924,"longitude":8.682127,"reserved":0,"last_update":"0001-01-01T00:00:00Z","name_a2s":"Uncletopia | Frankfurt | 2 | All Maps","protocol":17,"map":"koth_viaduct","folder":"tf","game":"Team Fortress","app_id":440,"player_count":0,"max_players":24,"Bots":0,"server_type":"Dedicated","server_os":"Linux","password":true,"vac":true,"version":"7757534","steam_id":85568392924469990,"keywords":["cp","nocrits","nodmgspread","uncletopia"],"game_id":440,"stv_port":27026,"stv_name":"Uncletopia | Frankfurt | 2 | All Maps | STV","players":null},{"server_id":308,"name":"Uncletopia | Frankfurt | 3 | All Maps","name_short":"frk-3","host":"frk-1.de.uncletopia.com","port":27035,"enabled":true,"region":"eu","cc":"de","latitude":50.110924,"longitude":8.682127,"reserved":0,"last_update":"0001-01-01T00:00:00Z","name_a2s":"Uncletopia | Frankfurt | 3 | All Maps","protocol":17,"map":"pl_badwater","folder":"tf","game":"Team Fortress","app_id":440,"player_count":0,"max_players":24,"Bots":0,"server_type":"Dedicated","server_os":"Linux","password":true,"vac":true,"version":"7757534","steam_id":85568392924504274,"keywords":["nocrits","nodmgspread","payload","uncletopia"],"game_id":440,"stv_port":27036,"stv_name":"Uncletopia | Frankfurt | 3 | All Maps | STV","players":null},{"server_id":309,"name":"Uncletopia | Frankfurt | 4 | All Maps","name_short":"frk-4","host":"frk-1.de.uncletopia.com","port":27045,"enabled":true,"region":"eu","cc":"de","latitude":50.110924,"longitude":8.682127,"reserved":0,"last_update":"0001-01-01T00:00:00Z","name_a2s":"Uncletopia | Frankfurt | 4 | All Maps","protocol":17,"map":"koth_cascade","folder":"tf","game":"Team Fortress","app_id":440,"player_count":0,"max_players":24,"Bots":0,"server_type":"Dedicated","server_os":"Linux","password":true,"vac":true,"version":"7757534","steam_id":85568392924504275,"keywords":["cp","nocrits","nodmgspread","uncletopia"],"game_id":440,"stv_port":27046,"stv_name":"Uncletopia | Frankfurt | 4 | All Maps | STV","players":null},{"server_id":310,"name":"Uncletopia | Frankfurt | 5 | All Maps","name_short":"frk-5","host":"frk-1.de.uncletopia.com","port":27055,"enabled":true,"region":"eu","cc":"de","latitude":50.110924,"longitude":8.682127,"reserved":0,"last_update":"0001-01-01T00:00:00Z","name_a2s":"Uncletopia | Frankfurt | 5 | All Maps","protocol":17,"map":"pl_snowycoast","folder":"tf","game":"Team Fortress","app_id":440,"player_count":0,"max_players":24,"Bots":0,"server_type":"Dedicated","server_os":"Linux","password":true,"vac":true,"version":"7757534","steam_id":85568392924504277,"keywords":["nocrits","nodmgspread","payload","uncletopia"],"game_id":440,"stv_port":27056,"stv_name":"Uncletopia | Frankfurt | 5 | All Maps | STV","players":null},{"server_id":311,"name":"Uncletopia | Frankfurt | 6 | All Maps","name_short":"frk-6","host":"frk-1.de.uncletopia.com","port":27065,"enabled":true,"region":"eu","cc":"de","latitude":50.110924,"longitude":8.682127,"reserved":0,"last_update":"0001-01-01T00:00:00Z","name_a2s":"Uncletopia | Frankfurt | 6 | All Maps","protocol":17,"map":"koth_viaduct","folder":"tf","game":"Team Fortress","app_id":440,"player_count":0,"max_players":24,"Bots":0,"server_type":"Dedicated","server_os":"Linux","password":true,"vac":true,"version":"7757534","steam_id":85568392924504278,"keywords":["cp","nocrits","nodmgspread","uncletopia"],"game_id":440,"stv_port":27066,"stv_name":"Uncletopia | Frankfurt | 6 | All Maps | STV","players":null},{"server_id":23,"name":"Uncletopia | Frankfurt | 7 | Stopwatch Beta","name_short":"frk-7","host":"frk-1.de.uncletopia.com","port":27075,"enabled":true,"region":"eu","cc":"de","latitude":50.110924,"longitude":8.682127,"reserved":0,"last_update":"0001-01-01T00:00:00Z","name_a2s":"Uncletopia | Frankfurt | 7 | Stopwatch Beta","protocol":17,"map":"workshop/koth_bagel_rc6.ugc2514036946","folder":"tf","game":"Team Fortress","app_id":440,"player_count":0,"max_players":24,"Bots":0,"server_type":"Dedicated","server_os":"Linux","password":true,"vac":true,"version":"7757534","steam_id":85568392924742827,"keywords":["cp","nocrits","nodmgspread","uncletopia"],"game_id":440,"stv_port":27076,"stv_name":"Uncletopia | Frankfurt | 7 | Stopwatch Beta | STV","players":null},{"server_id":24,"name":"Uncletopia | Frankfurt | 8 | Community","name_short":"frk-8","host":"frk-1.de.uncletopia.com","port":27085,"enabled":true,"region":"eu","cc":"de","latitude":50.110924,"longitude":8.682127,"reserved":0,"last_update":"0001-01-01T00:00:00Z","name_a2s":"Uncletopia | Frankfurt | 8 | Community","protocol":17,"map":"workshop/koth_bagel_rc6.ugc2514036946","folder":"tf","game":"Team Fortress","app_id":440,"player_count":0,"max_players":24,"Bots":0,"server_type":"Dedicated","server_os":"Linux","password":true,"vac":true,"version":"7757534","steam_id":85568392924742828,"keywords":["cp","nocrits","nodmgspread","uncletopia"],"game_id":440,"stv_port":27086,"stv_name":"Uncletopia | Frankfurt | 8 | Community | STV","players":null},{"server_id":202,"name":"Uncletopia | Hong Kong | 1 | All Maps","name_short":"hgk-1","host":"hgk-1.hk.uncletopia.com","port":27015,"enabled":true,"region":"asia","cc":"hk","latitude":22.302711,"longitude":114.177216,"reserved":0,"last_update":"0001-01-01T00:00:00Z","name_a2s":"Uncletopia | Hong Kong | 1 | All Maps","protocol":17,"map":"koth_viaduct","folder":"tf","game":"Team Fortress","app_id":440,"player_count":0,"max_players":24,"Bots":0,"server_type":"Dedicated","server_os":"Linux","password":true,"vac":true,"version":"7757534","steam_id":85568392924494504,"keywords":["cp","nocrits","nodmgspread","uncletopia"],"game_id":440,"stv_port":27016,"stv_name":"Uncletopia | Hong Kong | 1 | All Maps | STV","players":null},{"server_id":1,"name":"Uncletopia | Los Angeles | 1 | All Maps","name_short":"lax-1","host":"lax-1.us.uncletopia.com","port":27015,"enabled":true,"region":"us-west","cc":"us","latitude":33.94279,"longitude":-118.41004,"reserved":0,"last_update":"0001-01-01T00:00:00Z","name_a2s":"Uncletopia | Los Angeles | 1 | All Maps","protocol":17,"map":"cp_sunshine","folder":"tf","game":"Team Fortress","app_id":440,"player_count":4,"max_players":24,"Bots":0,"server_type":"Dedicated","server_os":"Linux","password":true,"vac":true,"version":"7757534","steam_id":85568392924469991,"keywords":["cp","nocrits","nodmgspread","uncletopia"],"game_id":440,"stv_port":27016,"stv_name":"Uncletopia | Los Angeles | 1 | All Maps | STV","players":[{"user_id":100,"name":"Chapter Master","steam_id":76561198799698323,"connected_time":2241000000000,"state":"active","ping":54},{"user_id":129,"name":"Zizen","steam_id":76561199011832069,"connected_time":237000000000,"state":"active","ping":57},{"user_id":102,"name":"Luna_Blossom","steam_id":76561198816384987,"connected_time":2154000000000,"state":"active","ping":78},{"user_id":90,"name":"Fluff","steam_id":76561198255399052,"connected_time":3059000000000,"state":"active","ping":64}]},{"server_id":112,"name":"Uncletopia | Los Angeles | 2 | All Maps","name_short":"lax-2","host":"lax-1.us.uncletopia.com","port":27025,"enabled":true,"region":"us-west","cc":"us","latitude":33.94279,"longitude":-118.41004,"reserved":0,"last_update":"0001-01-01T00:00:00Z","name_a2s":"Uncletopia | Los Angeles | 2 | All Maps","protocol":17,"map":"cp_steel","folder":"tf","game":"Team Fortress","app_id":440,"player_count":24,"max_players":24,"Bots":0,"server_type":"Dedicated","server_os":"Linux","password":true,"vac":true,"version":"7757534","steam_id":85568392924469992,"keywords":["cp","nocrits","nodmgspread","uncletopia"],"game_id":440,"stv_port":27026,"stv_name":"Uncletopia | Los Angeles | 2 | All Maps | STV","players":[{"user_id":712,"name":"jilga","steam_id":76561198162075431,"connected_time":4323000000000,"state":"active","ping":48},{"user_id":579,"name":"a chicken","steam_id":76561198313121580,"connected_time":8524000000000,"state":"active","ping":49},{"user_id":772,"name":"Inside Joke","steam_id":76561199127820756,"connected_time":313000000000,"state":"active","ping":30},{"user_id":756,"name":"Justin","steam_id":76561198110865423,"connected_time":926000000000,"state":"active","ping":44},{"user_id":724,"name":"BBL Sponsor","steam_id":76561199093733603,"connected_time":4030000000000,"state":"active","ping":53},{"user_id":729,"name":"Brutus","steam_id":76561198213163211,"connected_time":2984000000000,"state":"active","ping":115},{"user_id":767,"name":"brothax laptop","steam_id":76561197996713526,"connected_time":549000000000,"state":"active","ping":100},{"user_id":769,"name":"Starfruit66","steam_id":76561198069917277,"connected_time":368000000000,"state":"active","ping":50},{"user_id":760,"name":"Antwan","steam_id":76561198246200638,"connected_time":767000000000,"state":"active","ping":73},{"user_id":753,"name":"ChibiFerrari","steam_id":76561198825330201,"connected_time":1109000000000,"state":"active","ping":70},{"user_id":761,"name":"_Ati","steam_id":76561198339777801,"connected_time":761000000000,"state":"active","ping":79},{"user_id":762,"name":"An00bis","steam_id":76561198044084508,"connected_time":752000000000,"state":"active","ping":47},{"user_id":763,"name":"4 life","steam_id":76561198175961598,"connected_time":722000000000,"state":"active","ping":64},{"user_id":688,"name":"Natalie","steam_id":76561198048848289,"connected_time":5052000000000,"state":"active","ping":58},{"user_id":766,"name":"Notation","steam_id":76561198119509319,"connected_time":669000000000,"state":"active","ping":90},{"user_id":776,"name":"bocchi la piedra","steam_id":76561198026458662,"connected_time":119000000000,"state":"active","ping":66},{"user_id":734,"name":"Gingie","steam_id":76561198258981931,"connected_time":1991000000000,"state":"active","ping":111},{"user_id":765,"name":"K) Mazin","steam_id":76561198003419146,"connected_time":705000000000,"state":"active","ping":127},{"user_id":770,"name":"chucknut","steam_id":76561199329553584,"connected_time":350000000000,"state":"active","ping":90},{"user_id":738,"name":"Nanners","steam_id":76561198378587138,"connected_time":1943000000000,"state":"active","ping":61},{"user_id":739,"name":"PTSleepyHead","steam_id":76561198037748705,"connected_time":1893000000000,"state":"active","ping":44},{"user_id":740,"name":"massive dumbass","steam_id":76561199447881058,"connected_time":1861000000000,"state":"active","ping":92},{"user_id":777,"name":"Firedude","steam_id":76561198852497745,"connected_time":4000000000,"state":"spawning","ping":75},{"user_id":755,"name":"bigman1","steam_id":76561198050225055,"connected_time":1057000000000,"state":"active","ping":48}]},{"server_id":324,"name":"Uncletopia | Los Angeles | 3 | All Maps","name_short":"lax-3","host":"lax-1.us.uncletopia.com","port":27035,"enabled":true,"region":"us-west","cc":"us","latitude":33.94279,"longitude":-118.41004,"reserved":0,"last_update":"0001-01-01T00:00:00Z","name_a2s":"Uncletopia | Los Angeles | 3 | All Maps","protocol":17,"map":"koth_viaduct","folder":"tf","game":"Team Fortress","app_id":440,"player_count":0,"max_players":24,"Bots":0,"server_type":"Dedicated","server_os":"Linux","password":true,"vac":true,"version":"7757534","steam_id":85568392924510198,"keywords":["cp","nocrits","nodmgspread","uncletopia"],"game_id":440,"stv_port":27036,"stv_name":"Uncletopia | Los Angeles | 3 | All Maps | STV","players":null},{"server_id":25,"name":"Uncletopia | Los Angeles | 4 | Stopwatch Beta","name_short":"lax-4","host":"lax-1.us.uncletopia.com","port":27045,"enabled":true,"region":"us-west","cc":"us","latitude":33.94279,"longitude":-118.41004,"reserved":0,"last_update":"0001-01-01T00:00:00Z","name_a2s":"Uncletopia | Los Angeles | 4 | Stopwatch Beta","protocol":17,"map":"pl_borneo","folder":"tf","game":"Team Fortress","app_id":440,"player_count":0,"max_players":24,"Bots":0,"server_type":"Dedicated","server_os":"Linux","password":true,"vac":true,"version":"7757534","steam_id":85568392924510199,"keywords":["nocrits","nodmgspread","payload","uncletopia"],"game_id":440,"stv_port":27046,"stv_name":"Uncletopia | Los Angeles | 4 | Stopwatch Beta | STV","players":null},{"server_id":11,"name":"Uncletopia | London | 1 | All Maps","name_short":"lon-1","host":"lon-1.uk.uncletopia.com","port":27015,"enabled":true,"region":"eu","cc":"gb","latitude":51.509865,"longitude":-0.118092,"reserved":0,"last_update":"0001-01-01T00:00:00Z","name_a2s":"Uncletopia | London | 1 | All Maps","protocol":17,"map":"cp_mountainlab","folder":"tf","game":"Team Fortress","app_id":440,"player_count":0,"max_players":24,"Bots":0,"server_type":"Dedicated","server_os":"Linux","password":true,"vac":true,"version":"7757534","steam_id":85568392924367362,"keywords":["cp","nocrits","nodmgspread","uncletopia"],"game_id":440,"stv_port":27016,"stv_name":"Uncletopia | London | 1 | All Maps | STV","players":null},{"server_id":114,"name":"Uncletopia | London | 2 | All Maps","name_short":"lon-2","host":"lon-1.uk.uncletopia.com","port":27025,"enabled":true,"region":"eu","cc":"gb","latitude":51.509865,"longitude":-0.118092,"reserved":0,"last_update":"0001-01-01T00:00:00Z","name_a2s":"Uncletopia | London | 2 | All Maps","protocol":17,"map":"koth_viaduct","folder":"tf","game":"Team Fortress","app_id":440,"player_count":0,"max_players":24,"Bots":0,"server_type":"Dedicated","server_os":"Linux","password":true,"vac":true,"version":"7757534","steam_id":85568392924470941,"keywords":["cp","nocrits","nodmgspread","uncletopia"],"game_id":440,"stv_port":27026,"stv_name":"Uncletopia | London | 2 | All Maps | STV","players":null},{"server_id":320,"name":"Uncletopia | London | 3 | All Maps","name_short":"lon-3","host":"lon-1.uk.uncletopia.com","port":27035,"enabled":true,"region":"eu","cc":"gb","latitude":51.509865,"longitude":-0.118092,"reserved":0,"last_update":"0001-01-01T00:00:00Z","name_a2s":"Uncletopia | London | 3 | All Maps","protocol":17,"map":"pl_borneo","folder":"tf","game":"Team Fortress","app_id":440,"player_count":24,"max_players":24,"Bots":0,"server_type":"Dedicated","server_os":"Linux","password":true,"vac":true,"version":"7757534","steam_id":85568392924510192,"keywords":["nocrits","nodmgspread","payload","uncletopia"],"game_id":440,"stv_port":27036,"stv_name":"Uncletopia | London | 3 | All Maps | STV","players":[{"user_id":652,"name":"Kris","steam_id":76561198240638652,"connected_time":399000000000,"state":"active","ping":44},{"user_id":653,"name":"Wabbajack","steam_id":76561199147501514,"connected_time":383000000000,"state":"active","ping":67},{"user_id":614,"name":"thekoolest88","steam_id":76561199022415672,"connected_time":1982000000000,"state":"active","ping":126},{"user_id":583,"name":"Shynii","steam_id":76561198194682105,"connected_time":4079000000000,"state":"active","ping":60},{"user_id":646,"name":"revolver","steam_id":76561198126634202,"connected_time":910000000000,"state":"active","ping":58},{"user_id":655,"name":"kikyeredin","steam_id":76561199058651968,"connected_time":233000000000,"state":"active","ping":52},{"user_id":618,"name":"Pineyüíô","steam_id":76561198050910939,"connected_time":1909000000000,"state":"active","ping":45},{"user_id":619,"name":"Lyfeal","steam_id":76561199473146062,"connected_time":1839000000000,"state":"active","ping":75},{"user_id":656,"name":"dysesthesia","steam_id":76561198027159018,"connected_time":218000000000,"state":"active","ping":165},{"user_id":599,"name":"etc","steam_id":76561197998394797,"connected_time":3579000000000,"state":"active","ping":51},{"user_id":638,"name":"agent boulder","steam_id":76561198057150798,"connected_time":1130000000000,"state":"active","ping":84},{"user_id":658,"name":"Frog","steam_id":76561198131977071,"connected_time":178000000000,"state":"active","ping":90},{"user_id":612,"name":"Zote the Mighty","steam_id":76561199200101117,"connected_time":2370000000000,"state":"active","ping":173},{"user_id":586,"name":"Mengle","steam_id":76561198001953684,"connected_time":3967000000000,"state":"active","ping":136},{"user_id":486,"name":"citronous","steam_id":76561198093290934,"connected_time":12294000000000,"state":"active","ping":71},{"user_id":624,"name":"DariBro","steam_id":76561198155444173,"connected_time":1601000000000,"state":"active","ping":70},{"user_id":650,"name":"puck_panzer","steam_id":76561198121260981,"connected_time":510000000000,"state":"active","ping":38},{"user_id":649,"name":"god","steam_id":76561198346638308,"connected_time":675000000000,"state":"active","ping":45},{"user_id":659,"name":"A lost cow.","steam_id":76561198047673765,"connected_time":174000000000,"state":"active","ping":164},{"user_id":489,"name":"PeanutBurger","steam_id":76561198059986286,"connected_time":12102000000000,"state":"active","ping":61},{"user_id":660,"name":"Macro","steam_id":76561199442846226,"connected_time":63000000000,"state":"active","ping":170},{"user_id":561,"name":"Julius Caesar","steam_id":76561199105553271,"connected_time":5970000000000,"state":"active","ping":93},{"user_id":611,"name":"zabloing","steam_id":76561198339480413,"connected_time":2558000000000,"state":"active","ping":64},{"user_id":631,"name":"stun","steam_id":76561198276681691,"connected_time":1312000000000,"state":"active","ping":48}]},{"server_id":321,"name":"Uncletopia | London | 4 | All Maps","name_short":"lon-4","host":"lon-1.uk.uncletopia.com","port":27045,"enabled":true,"region":"eu","cc":"gb","latitude":51.509865,"longitude":-0.118092,"reserved":0,"last_update":"0001-01-01T00:00:00Z","name_a2s":"Uncletopia | London | 4 | All Maps","protocol":17,"map":"koth_harvest_final","folder":"tf","game":"Team Fortress","app_id":440,"player_count":2,"max_players":24,"Bots":0,"server_type":"Dedicated","server_os":"Linux","password":true,"vac":true,"version":"7757534","steam_id":85568392924510193,"keywords":["cp","nocrits","nodmgspread","uncletopia"],"game_id":440,"stv_port":27046,"stv_name":"Uncletopia | London | 4 | All Maps | STV","players":[{"user_id":73,"name":"Psyche","steam_id":76561198091662001,"connected_time":2365000000000,"state":"active","ping":65},{"user_id":56,"name":"Nyhde","steam_id":76561198012771416,"connected_time":16396000000000,"state":"active","ping":111}]},{"server_id":21,"name":"Uncletopia | London | 5 | All Maps","name_short":"lon-5","host":"lon-1.uk.uncletopia.com","port":27055,"enabled":true,"region":"eu","cc":"gb","latitude":51.509865,"longitude":-0.118092,"reserved":0,"last_update":"0001-01-01T00:00:00Z","name_a2s":"Uncletopia | London | 5 | All Maps","protocol":17,"map":"cp_snakewater_final1","folder":"tf","game":"Team Fortress","app_id":440,"player_count":0,"max_players":24,"Bots":0,"server_type":"Dedicated","server_os":"Linux","password":true,"vac":true,"version":"7757534","steam_id":85568392924742829,"keywords":["cp","nocrits","nodmgspread","uncletopia"],"game_id":440,"stv_port":27056,"stv_name":"Uncletopia | London | 5 | All Maps | STV","players":null},{"server_id":22,"name":"Uncletopia | London | 6 | All Maps","name_short":"lon-6","host":"lon-1.uk.uncletopia.com","port":27065,"enabled":true,"region":"eu","cc":"gb","latitude":51.509865,"longitude":-0.118092,"reserved":0,"last_update":"0001-01-01T00:00:00Z","name_a2s":"Uncletopia | London | 6 | All Maps","protocol":17,"map":"koth_highpass","folder":"tf","game":"Team Fortress","app_id":440,"player_count":0,"max_players":24,"Bots":0,"server_type":"Dedicated","server_os":"Linux","password":true,"vac":true,"version":"7757534","steam_id":85568392924742830,"keywords":["cp","nocrits","nodmgspread","uncletopia"],"game_id":440,"stv_port":27066,"stv_name":"Uncletopia | London | 6 | All Maps | STV","players":null},{"server_id":40,"name":"Uncletopia | London | 7 | No Payload","name_short":"lon-7","host":"lon-1.uk.uncletopia.com","port":27075,"enabled":true,"region":"eu","cc":"gb","latitude":51.509865,"longitude":-0.118092,"reserved":0,"last_update":"0001-01-01T00:00:00Z","name_a2s":"Uncletopia | London | 7 | No Payload","protocol":17,"map":"cp_sunshine","folder":"tf","game":"Team Fortress","app_id":440,"player_count":0,"max_players":24,"Bots":0,"server_type":"Dedicated","server_os":"Linux","password":true,"vac":true,"version":"7757534","steam_id":85568392924964314,"keywords":["cp","nocrits","nodmgspread","uncletopia"],"game_id":440,"stv_port":27076,"stv_name":"Uncletopia | London | 7 | No Payload | STV","players":null},{"server_id":41,"name":"Uncletopia | London | 8 | Community","name_short":"lon-8","host":"lon-1.uk.uncletopia.com","port":27085,"enabled":true,"region":"eu","cc":"gb","latitude":51.509865,"longitude":-0.118092,"reserved":0,"last_update":"0001-01-01T00:00:00Z","name_a2s":"Uncletopia | London | 8 | Community","protocol":17,"map":"workshop/koth_ramjam_rc1.ugc459778887","folder":"tf","game":"Team Fortress","app_id":440,"player_count":0,"max_players":24,"Bots":0,"server_type":"Dedicated","server_os":"Linux","password":true,"vac":true,"version":"7757534","steam_id":85568392924964315,"keywords":["cp","nocrits","nodmgspread","uncletopia"],"game_id":440,"stv_port":27086,"stv_name":"Uncletopia | London | 8 | Community | STV","players":null},{"server_id":300,"name":"Uncletopia | Montr√©al | 1 | All Maps","name_short":"mtl-1","host":"mtl-1.ca.uncletopia.com","port":27015,"enabled":true,"region":"us-east","cc":"ca","latitude":45.50889,"longitude":-73.56167,"reserved":0,"last_update":"0001-01-01T00:00:00Z","name_a2s":"Uncletopia | Montr√©al | 1 | All Maps","protocol":17,"map":"pl_borneo","folder":"tf","game":"Team Fortress","app_id":440,"player_count":24,"max_players":24,"Bots":0,"server_type":"Dedicated","server_os":"Linux","password":true,"vac":true,"version":"7757534","steam_id":85568392924500087,"keywords":["nocrits","nodmgspread","payload","uncletopia"],"game_id":440,"stv_port":27016,"stv_name":"Uncletopia | Montr√©al | 1 | All Maps | STV","players":[{"user_id":164,"name":"still bad at video games","steam_id":76561198328675913,"connected_time":3082000000000,"state":"active","ping":118},{"user_id":182,"name":"GRIM GAMING","steam_id":76561198107491637,"connected_time":598000000000,"state":"active","ping":73},{"user_id":183,"name":"VenaticN","steam_id":76561198382074567,"connected_time":583000000000,"state":"active","ping":83},{"user_id":184,"name":"femboy gaming","steam_id":76561199121980584,"connected_time":575000000000,"state":"active","ping":63},{"user_id":188,"name":"wesker can hit it tbh","steam_id":76561197968351430,"connected_time":409000000000,"state":"active","ping":120},{"user_id":189,"name":"Fiendish Frog","steam_id":76561198029478821,"connected_time":386000000000,"state":"active","ping":53},{"user_id":186,"name":"canadian boy (derogatory)","steam_id":76561198812820921,"connected_time":471000000000,"state":"active","ping":99},{"user_id":187,"name":"Olblue2u","steam_id":76561199130563247,"connected_time":461000000000,"state":"active","ping":74},{"user_id":190,"name":"DiscoTraveler","steam_id":76561199240168088,"connected_time":332000000000,"state":"active","ping":51},{"user_id":191,"name":"TheChickenChuck","steam_id":76561199192686708,"connected_time":327000000000,"state":"active","ping":87},{"user_id":192,"name":"[DEEP] Roz257","steam_id":76561198842844532,"connected_time":321000000000,"state":"active","ping":58},{"user_id":179,"name":"dicksouls26","steam_id":76561198838196266,"connected_time":1318000000000,"state":"active","ping":62},{"user_id":193,"name":"hashmap","steam_id":76561198043794014,"connected_time":267000000000,"state":"active","ping":44},{"user_id":176,"name":"PCR","steam_id":76561198048748102,"connected_time":1566000000000,"state":"active","ping":67},{"user_id":181,"name":"10 rule","steam_id":76561198125261443,"connected_time":845000000000,"state":"active","ping":121},{"user_id":79,"name":"Forklift Certified Cat Girl","steam_id":76561198072555204,"connected_time":8272000000000,"state":"active","ping":61},{"user_id":160,"name":"The Drunk Clown","steam_id":76561197986850426,"connected_time":3351000000000,"state":"active","ping":59},{"user_id":194,"name":"Top Score","steam_id":76561197998396236,"connected_time":198000000000,"state":"active","ping":94},{"user_id":170,"name":"Rythmitic","steam_id":76561198137198932,"connected_time":2566000000000,"state":"active","ping":104},{"user_id":178,"name":"lynt","steam_id":76561198988333976,"connected_time":1347000000000,"state":"active","ping":64},{"user_id":165,"name":"Chuck Pickle","steam_id":76561197998230866,"connected_time":2950000000000,"state":"active","ping":58},{"user_id":195,"name":"NOTWALTER","steam_id":76561198125464744,"connected_time":197000000000,"state":"active","ping":70},{"user_id":130,"name":"Tough Puffin","steam_id":76561198024011010,"connected_time":5605000000000,"state":"active","ping":71},{"user_id":162,"name":"Monsieur Hon Hon","steam_id":76561198023120057,"connected_time":3298000000000,"state":"active","ping":67}]},{"server_id":301,"name":"Uncletopia | Montr√©al | 2 | All Maps","name_short":"mtl-2","host":"mtl-1.ca.uncletopia.com","port":27025,"enabled":true,"region":"us-east","cc":"ca","latitude":45.50889,"longitude":-73.56167,"reserved":0,"last_update":"0001-01-01T00:00:00Z","name_a2s":"Uncletopia | Montr√©al | 2 | All Maps","protocol":17,"map":"pl_frontier_final","folder":"tf","game":"Team Fortress","app_id":440,"player_count":24,"max_players":24,"Bots":0,"server_type":"Dedicated","server_os":"Linux","password":true,"vac":true,"version":"7757534","steam_id":85568392924500088,"keywords":["nocrits","nodmgspread","payload","uncletopia"],"game_id":440,"stv_port":27026,"stv_name":"Uncletopia | Montr√©al | 2 | All Maps | STV","players":[{"user_id":119,"name":"Sudo","steam_id":76561198123714026,"connected_time":1433000000000,"state":"active","ping":122},{"user_id":78,"name":"Temujin","steam_id":76561198030936583,"connected_time":4808000000000,"state":"active","ping":45},{"user_id":125,"name":"Wiener Hole Paper Cut","steam_id":76561198000808203,"connected_time":711000000000,"state":"active","ping":69},{"user_id":67,"name":"goblin (real)","steam_id":76561198160235380,"connected_time":5391000000000,"state":"active","ping":96},{"user_id":133,"name":"YHH face","steam_id":76561198035629877,"connected_time":105000000000,"state":"active","ping":60},{"user_id":108,"name":"Portizz","steam_id":76561198095732366,"connected_time":1932000000000,"state":"active","ping":70},{"user_id":128,"name":"Twighnightplane","steam_id":76561198127483168,"connected_time":617000000000,"state":"active","ping":57},{"user_id":134,"name":"it's thicc thirty","steam_id":76561198027052378,"connected_time":103000000000,"state":"active","ping":76},{"user_id":75,"name":"MrrPamplemousse","steam_id":76561198072241333,"connected_time":4967000000000,"state":"active","ping":59},{"user_id":109,"name":"grate_fiter-232","steam_id":76561198073424589,"connected_time":1931000000000,"state":"active","ping":76},{"user_id":110,"name":"certified munch","steam_id":76561198083607304,"connected_time":1913000000000,"state":"active","ping":75},{"user_id":130,"name":"loco503","steam_id":76561198827495121,"connected_time":375000000000,"state":"active","ping":123},{"user_id":127,"name":"Reversed","steam_id":76561198136433466,"connected_time":621000000000,"state":"active","ping":47},{"user_id":129,"name":"vieodgaems","steam_id":76561198025295263,"connected_time":610000000000,"state":"active","ping":87},{"user_id":131,"name":"∆ê’å—¥∆≥","steam_id":76561198099470277,"connected_time":346000000000,"state":"active","ping":89},{"user_id":135,"name":"raphaim #bb","steam_id":76561198089649422,"connected_time":100000000000,"state":"active","ping":120},{"user_id":132,"name":"Thot Police","steam_id":76561198084299100,"connected_time":267000000000,"state":"active","ping":57},{"user_id":136,"name":"austinsmith","steam_id":76561198167838540,"connected_time":97000000000,"state":"active","ping":74},{"user_id":83,"name":"Weeb","steam_id":76561198935795395,"connected_time":4631000000000,"state":"active","ping":114},{"user_id":112,"name":"ARegularJohnDoe","steam_id":76561198015020139,"connected_time":1781000000000,"state":"active","ping":76},{"user_id":137,"name":"surrender to the void","steam_id":76561198055494039,"connected_time":46000000000,"state":"active","ping":71},{"user_id":120,"name":"jooce","steam_id":76561198129069834,"connected_time":1295000000000,"state":"active","ping":72},{"user_id":118,"name":"rad","steam_id":76561198413125750,"connected_time":1633000000000,"state":"active","ping":60},{"user_id":122,"name":"Who are the Gnomes","steam_id":76561198251672386,"connected_time":992000000000,"state":"active","ping":60}]},{"server_id":302,"name":"Uncletopia | Montr√©al | 3 | All Maps","name_short":"mtl-3","host":"mtl-1.ca.uncletopia.com","port":27035,"enabled":true,"region":"us-east","cc":"ca","latitude":45.50889,"longitude":-73.56167,"reserved":0,"last_update":"0001-01-01T00:00:00Z","name_a2s":"Uncletopia | Montr√©al | 3 | All Maps","protocol":17,"map":"cp_sunshine","folder":"tf","game":"Team Fortress","app_id":440,"player_count":0,"max_players":24,"Bots":0,"server_type":"Dedicated","server_os":"Linux","password":true,"vac":true,"version":"7757534","steam_id":85568392924500089,"keywords":["cp","nocrits","nodmgspread","uncletopia"],"game_id":440,"stv_port":27036,"stv_name":"Uncletopia | Montr√©al | 3 | All Maps | STV","players":null},{"server_id":303,"name":"Uncletopia | Montr√©al | 4 | No Payload","name_short":"mtl-4","host":"mtl-1.ca.uncletopia.com","port":27045,"enabled":true,"region":"us-east","cc":"ca","latitude":45.50889,"longitude":-73.56167,"reserved":0,"last_update":"0001-01-01T00:00:00Z","name_a2s":"Uncletopia | Montr√©al | 4 | No Payload","protocol":17,"map":"plr_pipeline","folder":"tf","game":"Team Fortress","app_id":440,"player_count":0,"max_players":24,"Bots":0,"server_type":"Dedicated","server_os":"Linux","password":true,"vac":true,"version":"7757534","steam_id":85568392924500090,"keywords":["nocrits","nodmgspread","payload","uncletopia"],"game_id":440,"stv_port":27046,"stv_name":"Uncletopia | Montr√©al | 4 | No Payload | STV","players":null},{"server_id":13,"name":"Uncletopia | New York City | 1 | All Maps","name_short":"nyc-1","host":"nyc-1.us.uncletopia.com","port":27015,"enabled":true,"region":"us-east","cc":"us","latitude":40.73061,"longitude":-73.93524,"reserved":0,"last_update":"0001-01-01T00:00:00Z","name_a2s":"Uncletopia | New York City | 1 | All Maps","protocol":17,"map":"cp_badlands","folder":"tf","game":"Team Fortress","app_id":440,"player_count":8,"max_players":24,"Bots":0,"server_type":"Dedicated","server_os":"Linux","password":true,"vac":true,"version":"7757534","steam_id":85568392924469993,"keywords":["cp","nocrits","nodmgspread","uncletopia"],"game_id":440,"stv_port":27016,"stv_name":"Uncletopia | New York City | 1 | All Maps | STV","players":[{"user_id":299,"name":"Pizza","steam_id":76561198118748364,"connected_time":2559000000000,"state":"active","ping":68},{"user_id":320,"name":"Malex","steam_id":76561198012216805,"connected_time":257000000000,"state":"active","ping":56},{"user_id":323,"name":"rip muhammad ali","steam_id":76561198072640720,"connected_time":107000000000,"state":"active","ping":49},{"user_id":321,"name":"Wiggee","steam_id":76561197972792989,"connected_time":191000000000,"state":"active","ping":85},{"user_id":322,"name":"ObsessedNerd505","steam_id":76561199045531456,"connected_time":139000000000,"state":"active","ping":63},{"user_id":298,"name":"Marshall","steam_id":76561198042570322,"connected_time":2669000000000,"state":"active","ping":61},{"user_id":313,"name":"bensneb","steam_id":76561198046110099,"connected_time":1746000000000,"state":"active","ping":66},{"user_id":302,"name":"Autogyro","steam_id":76561198047943679,"connected_time":2172000000000,"state":"active","ping":75}]},{"server_id":14,"name":"Uncletopia | New York City | 2 | All Maps","name_short":"nyc-2","host":"nyc-1.us.uncletopia.com","port":27025,"enabled":true,"region":"us-east","cc":"us","latitude":40.73061,"longitude":-73.93524,"reserved":0,"last_update":"0001-01-01T00:00:00Z","name_a2s":"Uncletopia | New York City | 2 | All Maps","protocol":17,"map":"pl_upward","folder":"tf","game":"Team Fortress","app_id":440,"player_count":24,"max_players":24,"Bots":0,"server_type":"Dedicated","server_os":"Linux","password":true,"vac":true,"version":"7757534","steam_id":85568392924469994,"keywords":["nocrits","nodmgspread","payload","uncletopia"],"game_id":440,"stv_port":27026,"stv_name":"Uncletopia | New York City | 2 | All Maps | STV","players":[{"user_id":746,"name":"Sir Quacksalot","steam_id":76561198048942777,"connected_time":3690000000000,"state":"active","ping":91},{"user_id":737,"name":"Sapphireblitz","steam_id":76561198272635379,"connected_time":3818000000000,"state":"active","ping":72},{"user_id":747,"name":"DJ Sheeve","steam_id":76561198095910139,"connected_time":3599000000000,"state":"active","ping":93},{"user_id":777,"name":"what","steam_id":76561198082336619,"connected_time":775000000000,"state":"active","ping":56},{"user_id":767,"name":"AyEasyEngie","steam_id":76561198856769712,"connected_time":1816000000000,"state":"active","ping":75},{"user_id":773,"name":"Antifa Alligator","steam_id":76561197988170816,"connected_time":1026000000000,"state":"active","ping":80},{"user_id":678,"name":"DerpyTC","steam_id":76561198881239323,"connected_time":8105000000000,"state":"active","ping":124},{"user_id":781,"name":"BisKit","steam_id":76561198140624153,"connected_time":432000000000,"state":"active","ping":86},{"user_id":763,"name":"The Traveller","steam_id":76561197988476478,"connected_time":2072000000000,"state":"active","ping":64},{"user_id":771,"name":"Mika  Laakso","steam_id":76561198115035132,"connected_time":1052000000000,"state":"active","ping":79},{"user_id":776,"name":"Sprinklingmydoughnut","steam_id":76561198168009092,"connected_time":824000000000,"state":"active","ping":85},{"user_id":778,"name":"Dill","steam_id":76561197995325198,"connected_time":601000000000,"state":"active","ping":84},{"user_id":766,"name":"RÃ∑iÃ∑sÃ∑oÃ∑tÃ∑tÃ∑oÃ∑","steam_id":76561198090271815,"connected_time":1940000000000,"state":"active","ping":126},{"user_id":744,"name":"Braamklauw","steam_id":76561198283287697,"connected_time":3711000000000,"state":"active","ping":154},{"user_id":769,"name":"Venezia","steam_id":76561197994107407,"connected_time":1795000000000,"state":"active","ping":43},{"user_id":770,"name":"Bad News Panda","steam_id":76561197993327110,"connected_time":1567000000000,"state":"active","ping":46},{"user_id":761,"name":"evilgod","steam_id":76561198890522517,"connected_time":2281000000000,"state":"active","ping":80},{"user_id":732,"name":"ShortenedName","steam_id":76561198079337360,"connected_time":4210000000000,"state":"active","ping":70},{"user_id":772,"name":"Emata","steam_id":76561198020321209,"connected_time":1050000000000,"state":"active","ping":56},{"user_id":736,"name":"Gandalf Gaming","steam_id":76561198368151490,"connected_time":4044000000000,"state":"active","ping":43},{"user_id":751,"name":"Magenta Feline","steam_id":76561198293804468,"connected_time":3434000000000,"state":"active","ping":60},{"user_id":780,"name":"Jailbreak","steam_id":76561198802085218,"connected_time":507000000000,"state":"active","ping":99},{"user_id":782,"name":"ƒ†1 ‚ô¶ Synth","steam_id":76561198058660228,"connected_time":407000000000,"state":"active","ping":74},{"user_id":616,"name":"Analogy != Definition","steam_id":76561197999657118,"connected_time":12444000000000,"state":"active","ping":67}]},{"server_id":15,"name":"Uncletopia | New York City | 3 | Stopwatch Beta","name_short":"nyc-3","host":"nyc-1.us.uncletopia.com","port":27035,"enabled":true,"region":"us-east","cc":"us","latitude":40.73061,"longitude":-73.93524,"reserved":0,"last_update":"0001-01-01T00:00:00Z","name_a2s":"Uncletopia | New York City | 3 | Stopwatch Beta","protocol":17,"map":"workshop/cp_process_f12.ugc2302948105","folder":"tf","game":"Team Fortress","app_id":440,"player_count":0,"max_players":24,"Bots":0,"server_type":"Dedicated","server_os":"Linux","password":true,"vac":true,"version":"7757534","steam_id":85568392924742820,"keywords":["cp","nocrits","nodmgspread","uncletopia"],"game_id":440,"stv_port":27036,"stv_name":"Uncletopia | New York City | 3 | Stopwatch Beta | STV","players":null},{"server_id":16,"name":"Uncletopia | New York City | 4 | Community","name_short":"nyc-4","host":"nyc-1.us.uncletopia.com","port":27045,"enabled":true,"region":"us-east","cc":"us","latitude":40.73061,"longitude":-73.93524,"reserved":0,"last_update":"0001-01-01T00:00:00Z","name_a2s":"Uncletopia | New York City | 4 | Community","protocol":17,"map":"workshop/koth_bagel_rc6.ugc2514036946","folder":"tf","game":"Team Fortress","app_id":440,"player_count":0,"max_players":24,"Bots":0,"server_type":"Dedicated","server_os":"Linux","password":true,"vac":true,"version":"7757534","steam_id":85568392924742821,"keywords":["cp","nocrits","nodmgspread","uncletopia"],"game_id":440,"stv_port":27046,"stv_name":"Uncletopia | New York City | 4 | Community | STV","players":null},{"server_id":142,"name":"Uncletopia | S√£o Paulo | 1 | All Maps","name_short":"sao-1","host":"sao-1.br.uncletopia.com","port":27015,"enabled":true,"region":"sa","cc":"br","latitude":-23.533773,"longitude":-46.62529,"reserved":0,"last_update":"0001-01-01T00:00:00Z","name_a2s":"Uncletopia | S√£o Paulo | 1 | All Maps","protocol":17,"map":"cp_snakewater_final1","folder":"tf","game":"Team Fortress","app_id":440,"player_count":2,"max_players":24,"Bots":0,"server_type":"Dedicated","server_os":"Linux","password":true,"vac":true,"version":"7757534","steam_id":85568392924469996,"keywords":["cp","nocrits","nodmgspread","uncletopia"],"game_id":440,"stv_port":27016,"stv_name":"Uncletopia | S√£o Paulo | 1 | All Maps | STV","players":[{"user_id":103,"name":"DJ Samurai Cafeteira","steam_id":76561198998614592,"connected_time":268000000000,"state":"active","ping":44},{"user_id":104,"name":"Grinch","steam_id":76561198322765783,"connected_time":3000000000,"state":"spawning","ping":49}]},{"server_id":143,"name":"Uncletopia | S√£o Paulo | 2 | All Maps","name_short":"sao-2","host":"sao-2.br.uncletopia.com","port":27015,"enabled":true,"region":"sa","cc":"br","latitude":-23.533773,"longitude":-46.62529,"reserved":0,"last_update":"0001-01-01T00:00:00Z","name_a2s":"Uncletopia | S√£o Paulo | 2 | All Maps","protocol":17,"map":"pl_swiftwater_final1","folder":"tf","game":"Team Fortress","app_id":440,"player_count":0,"max_players":24,"Bots":0,"server_type":"Dedicated","server_os":"Linux","password":true,"vac":true,"version":"7757534","steam_id":85568392924485349,"keywords":["nocrits","nodmgspread","payload","uncletopia"],"game_id":440,"stv_port":27016,"stv_name":"Uncletopia | S√£o Paulo | 2 | All Maps | STV","players":null},{"server_id":7,"name":"Uncletopia | Seattle | 1 | All Maps","name_short":"sea-1","host":"sea-1.us.uncletopia.com","port":27015,"enabled":true,"region":"us-west","cc":"us","latitude":47.608013,"longitude":-122.33517,"reserved":0,"last_update":"0001-01-01T00:00:00Z","name_a2s":"Uncletopia | Seattle | 1 | All Maps","protocol":17,"map":"cp_dustbowl","folder":"tf","game":"Team Fortress","app_id":440,"player_count":22,"max_players":24,"Bots":0,"server_type":"Dedicated","server_os":"Linux","password":true,"vac":true,"version":"7757534","steam_id":85568392924469997,"keywords":["cp","nocrits","nodmgspread","uncletopia"],"game_id":440,"stv_port":27016,"stv_name":"Uncletopia | Seattle | 1 | All Maps | STV","players":[{"user_id":266,"name":"Dunkle","steam_id":76561198041903573,"connected_time":13243000000000,"state":"active","ping":44},{"user_id":402,"name":"Llynch21","steam_id":76561197968784663,"connected_time":3704000000000,"state":"active","ping":129},{"user_id":437,"name":"Celia [ +/- ] ‚úî","steam_id":76561198067164431,"connected_time":1390000000000,"state":"active","ping":74},{"user_id":407,"name":"cerious","steam_id":76561197994365894,"connected_time":3266000000000,"state":"active","ping":44},{"user_id":441,"name":"ChromeOwl","steam_id":76561198953786715,"connected_time":1160000000000,"state":"active","ping":54},{"user_id":372,"name":"William P. Ennis","steam_id":76561198073464877,"connected_time":5675000000000,"state":"active","ping":102},{"user_id":445,"name":"Amish Supremacist","steam_id":76561198396181197,"connected_time":809000000000,"state":"active","ping":126},{"user_id":419,"name":"Crazy Hungarian","steam_id":76561198025498172,"connected_time":2615000000000,"state":"active","ping":49},{"user_id":425,"name":"Adobe Premiere","steam_id":76561198411025724,"connected_time":2301000000000,"state":"active","ping":97},{"user_id":433,"name":"Willy Wonker","steam_id":76561198082944789,"connected_time":1829000000000,"state":"active","ping":71},{"user_id":368,"name":"MinusSoup918","steam_id":76561198060902773,"connected_time":5867000000000,"state":"active","ping":94},{"user_id":358,"name":"BolognaWithOlives","steam_id":76561198101262668,"connected_time":6997000000000,"state":"active","ping":90},{"user_id":390,"name":"cornshot","steam_id":76561198043496387,"connected_time":4379000000000,"state":"active","ping":66},{"user_id":438,"name":"Killer_Bite_","steam_id":76561198153259922,"connected_time":1349000000000,"state":"active","ping":82},{"user_id":422,"name":"doopsies","steam_id":76561198083000867,"connected_time":2459000000000,"state":"active","ping":52},{"user_id":416,"name":"Byu","steam_id":76561199012880340,"connected_time":2741000000000,"state":"active","ping":94},{"user_id":421,"name":"Indefiable","steam_id":76561198219238953,"connected_time":2516000000000,"state":"active","ping":45},{"user_id":414,"name":"MonteJT","steam_id":76561198055409360,"connected_time":2912000000000,"state":"active","ping":45},{"user_id":446,"name":"Angry Shoes","steam_id":76561197980385816,"connected_time":351000000000,"state":"active","ping":53},{"user_id":448,"name":"Tap Water Connoisseur","steam_id":76561198822984628,"connected_time":265000000000,"state":"active","ping":65},{"user_id":400,"name":"Enchanced","steam_id":76561198797393854,"connected_time":4118000000000,"state":"active","ping":52},{"user_id":435,"name":"Pixel","steam_id":76561198163549359,"connected_time":1436000000000,"state":"active","ping":121}]},{"server_id":119,"name":"Uncletopia | Seattle | 2 | All Maps","name_short":"sea-2","host":"sea-1.us.uncletopia.com","port":27025,"enabled":true,"region":"us-west","cc":"us","latitude":47.608013,"longitude":-122.33517,"reserved":0,"last_update":"0001-01-01T00:00:00Z","name_a2s":"Uncletopia | Seattle | 2 | All Maps","protocol":17,"map":"cp_dustbowl","folder":"tf","game":"Team Fortress","app_id":440,"player_count":24,"max_players":24,"Bots":0,"server_type":"Dedicated","server_os":"Linux","password":true,"vac":true,"version":"7757534","steam_id":85568392924469998,"keywords":["cp","nocrits","nodmgspread","uncletopia"],"game_id":440,"stv_port":27026,"stv_name":"Uncletopia | Seattle | 2 | All Maps | STV","players":[{"user_id":542,"name":"Weed Dealer","steam_id":76561198418604400,"connected_time":4978000000000,"state":"active","ping":54},{"user_id":567,"name":"Thanks Ants","steam_id":76561197966221018,"connected_time":3624000000000,"state":"active","ping":54},{"user_id":541,"name":"Creature","steam_id":76561198194585781,"connected_time":4987000000000,"state":"active","ping":87},{"user_id":595,"name":"happer","steam_id":76561198018252253,"connected_time":2190000000000,"state":"active","ping":76},{"user_id":607,"name":"Keamy","steam_id":76561199471434875,"connected_time":788000000000,"state":"active","ping":40},{"user_id":559,"name":"LILIUM","steam_id":76561198086591493,"connected_time":4116000000000,"state":"active","ping":86},{"user_id":554,"name":"Jasmine Rice","steam_id":76561198163163590,"connected_time":4278000000000,"state":"active","ping":72},{"user_id":614,"name":"keithykeithers","steam_id":76561197995552615,"connected_time":265000000000,"state":"active","ping":47},{"user_id":594,"name":"IntravenusDeMilo","steam_id":76561197970629020,"connected_time":2232000000000,"state":"active","ping":39},{"user_id":503,"name":"Digitic","steam_id":76561198080295536,"connected_time":7205000000000,"state":"active","ping":125},{"user_id":610,"name":"SepplesTheDuck","steam_id":76561198069174592,"connected_time":745000000000,"state":"active","ping":91},{"user_id":606,"name":"soup","steam_id":76561198043209046,"connected_time":1331000000000,"state":"active","ping":73},{"user_id":611,"name":"Copy","steam_id":76561198025031590,"connected_time":738000000000,"state":"active","ping":56},{"user_id":574,"name":"DoubleX2000","steam_id":76561198164134387,"connected_time":3431000000000,"state":"active","ping":62},{"user_id":615,"name":"--)YawgMoss(-- \"The Salt\"","steam_id":76561198072971649,"connected_time":11000000000,"state":"spawning","ping":46},{"user_id":592,"name":"how do i control my guy?","steam_id":76561198158855211,"connected_time":2301000000000,"state":"active","ping":46},{"user_id":600,"name":"Strikerbolt","steam_id":76561199095622897,"connected_time":1807000000000,"state":"active","ping":82},{"user_id":596,"name":"jimmy outlaw","steam_id":76561198070380402,"connected_time":2184000000000,"state":"active","ping":106},{"user_id":604,"name":"dash23‚Ñ¢","steam_id":76561198314951185,"connected_time":1452000000000,"state":"active","ping":112},{"user_id":612,"name":"gorlab","steam_id":76561198025089694,"connected_time":721000000000,"state":"active","ping":66},{"user_id":599,"name":"soda","steam_id":76561198105924953,"connected_time":1998000000000,"state":"active","ping":74},{"user_id":603,"name":"Sal In Haiti","steam_id":76561198055452939,"connected_time":1535000000000,"state":"active","ping":95},{"user_id":573,"name":"Error_404","steam_id":76561198163074047,"connected_time":3520000000000,"state":"active","ping":76},{"user_id":588,"name":"eau:","steam_id":76561198110020262,"connected_time":2692000000000,"state":"active","ping":75}]},{"server_id":406,"name":"Uncletopia | Seattle | 3 | Stopwatch Beta","name_short":"sea-3","host":"sea-1.us.uncletopia.com","port":27035,"enabled":true,"region":"us-west","cc":"us","latitude":47.608013,"longitude":-122.33517,"reserved":0,"last_update":"0001-01-01T00:00:00Z","name_a2s":"Uncletopia | Seattle | 3 | Stopwatch Beta","protocol":17,"map":"koth_highpass","folder":"tf","game":"Team Fortress","app_id":440,"player_count":7,"max_players":24,"Bots":0,"server_type":"Dedicated","server_os":"Linux","password":true,"vac":true,"version":"7757534","steam_id":85568392924515217,"keywords":["cp","nocrits","nodmgspread","uncletopia"],"game_id":440,"stv_port":27036,"stv_name":"Uncletopia | Seattle | 3 | Stopwatch Beta | STV","players":[{"user_id":22,"name":"jadene11","steam_id":76561199369221113,"connected_time":919000000000,"state":"active","ping":83},{"user_id":12,"name":"The pain of February","steam_id":76561199100225735,"connected_time":2901000000000,"state":"active","ping":44},{"user_id":31,"name":"professional gaymer","steam_id":76561198063949642,"connected_time":371000000000,"state":"active","ping":41},{"user_id":27,"name":"Frenchfry_Addict","steam_id":76561199156867989,"connected_time":822000000000,"state":"active","ping":45},{"user_id":28,"name":"Spazzid","steam_id":76561199445100850,"connected_time":813000000000,"state":"active","ping":115},{"user_id":30,"name":"2 team fortress","steam_id":76561198860068961,"connected_time":430000000000,"state":"active","ping":131},{"user_id":32,"name":"Noob","steam_id":76561199401657331,"connected_time":259000000000,"state":"active","ping":100}]},{"server_id":17,"name":"Uncletopia | San Francisco | 1 | All Maps","name_short":"sfo-1","host":"sfo-1.us.uncletopia.com","port":27015,"enabled":true,"region":"us-west","cc":"us","latitude":37.77397,"longitude":-122.4313,"reserved":0,"last_update":"0001-01-01T00:00:00Z","name_a2s":"Uncletopia | San Francisco | 1 | All Maps","protocol":17,"map":"cp_mountainlab","folder":"tf","game":"Team Fortress","app_id":440,"player_count":24,"max_players":24,"Bots":0,"server_type":"Dedicated","server_os":"Linux","password":true,"vac":true,"version":"7757534","steam_id":85568392924469999,"keywords":["cp","nocrits","nodmgspread","uncletopia"],"game_id":440,"stv_port":27016,"stv_name":"Uncletopia | San Francisco | 1 | All Maps | STV","players":[{"user_id":477,"name":"DREAMVXIIILE","steam_id":76561199268197009,"connected_time":1561000000000,"state":"active","ping":67},{"user_id":478,"name":"Not Crow","steam_id":76561199002672790,"connected_time":1558000000000,"state":"active","ping":46},{"user_id":464,"name":"corbenis","steam_id":76561199012442511,"connected_time":2847000000000,"state":"active","ping":59},{"user_id":489,"name":"Doctor‚Ñ¢","steam_id":76561198134309750,"connected_time":1268000000000,"state":"active","ping":149},{"user_id":442,"name":"times table","steam_id":76561198341452558,"connected_time":3898000000000,"state":"active","ping":107},{"user_id":494,"name":"Kelavus","steam_id":76561198069323866,"connected_time":483000000000,"state":"active","ping":127},{"user_id":480,"name":"Ashannabuda","steam_id":76561198129552058,"connected_time":1551000000000,"state":"active","ping":89},{"user_id":468,"name":"Psychosis","steam_id":76561198078659070,"connected_time":2639000000000,"state":"active","ping":120},{"user_id":470,"name":"Thomas the Dank Engine","steam_id":76561197997031958,"connected_time":2355000000000,"state":"active","ping":60},{"user_id":474,"name":"Seanvich","steam_id":76561198065805500,"connected_time":1684000000000,"state":"active","ping":102},{"user_id":466,"name":"shawarma.lord007","steam_id":76561198115458307,"connected_time":2832000000000,"state":"active","ping":62},{"user_id":420,"name":"DeckofDragons","steam_id":76561198057398213,"connected_time":5366000000000,"state":"active","ping":84},{"user_id":488,"name":"SpringIvan","steam_id":76561199133179509,"connected_time":1365000000000,"state":"active","ping":43},{"user_id":486,"name":"no step on snek","steam_id":76561197991645400,"connected_time":1491000000000,"state":"active","ping":129},{"user_id":476,"name":"Jay Cutler's Quads","steam_id":76561198342480009,"connected_time":1602000000000,"state":"active","ping":68},{"user_id":495,"name":"bottom pride burger","steam_id":76561198322247602,"connected_time":287000000000,"state":"active","ping":58},{"user_id":496,"name":"psychic","steam_id":76561198136301926,"connected_time":220000000000,"state":"active","ping":57},{"user_id":429,"name":"b3afy","steam_id":76561198084208649,"connected_time":5119000000000,"state":"active","ping":71},{"user_id":458,"name":"Villchip","steam_id":76561198198599982,"connected_time":3582000000000,"state":"active","ping":74},{"user_id":452,"name":"PachucoWaffle","steam_id":76561198051491032,"connected_time":3767000000000,"state":"active","ping":73},{"user_id":484,"name":"Borrowed Thyme","steam_id":76561197997401615,"connected_time":1516000000000,"state":"active","ping":128},{"user_id":471,"name":"Whapper","steam_id":76561198044029606,"connected_time":2110000000000,"state":"active","ping":57},{"user_id":491,"name":"pyrotechnic","steam_id":76561198043558709,"connected_time":1266000000000,"state":"active","ping":74},{"user_id":492,"name":"p9 jorts FULL of pilk","steam_id":76561199041179985,"connected_time":977000000000,"state":"active","ping":83}]},{"server_id":18,"name":"Uncletopia | San Francisco | 2 | All Maps","name_short":"sfo-2","host":"sfo-1.us.uncletopia.com","port":27025,"enabled":true,"region":"us-west","cc":"us","latitude":37.77397,"longitude":-122.4313,"reserved":0,"last_update":"0001-01-01T00:00:00Z","name_a2s":"Uncletopia | San Francisco | 2 | All Maps","protocol":17,"map":"pl_barnblitz","folder":"tf","game":"Team Fortress","app_id":440,"player_count":23,"max_players":24,"Bots":0,"server_type":"Dedicated","server_os":"Linux","password":true,"vac":true,"version":"7757534","steam_id":85568392924470000,"keywords":["nocrits","nodmgspread","payload","uncletopia"],"game_id":440,"stv_port":27026,"stv_name":"Uncletopia | San Francisco | 2 | All Maps | STV","players":[{"user_id":131,"name":"self sufficient kitten","steam_id":76561197960592612,"connected_time":900000000000,"state":"active","ping":60},{"user_id":9,"name":"Tort boi","steam_id":76561198125327110,"connected_time":8942000000000,"state":"active","ping":69},{"user_id":100,"name":"Vergil","steam_id":76561198133905845,"connected_time":3149000000000,"state":"active","ping":81},{"user_id":59,"name":"Blare","steam_id":76561198023669032,"connected_time":6291000000000,"state":"active","ping":36},{"user_id":110,"name":"DoorhingeMan","steam_id":76561198872501684,"connected_time":2433000000000,"state":"active","ping":56},{"user_id":142,"name":"Ezzbrez","steam_id":76561198009809450,"connected_time":10000000000,"state":"active","ping":142},{"user_id":113,"name":"Erm... What the Deuce","steam_id":76561198418288939,"connected_time":2408000000000,"state":"active","ping":56},{"user_id":141,"name":"big car","steam_id":76561198067082350,"connected_time":29000000000,"state":"active","ping":46},{"user_id":125,"name":"all of brasil","steam_id":76561197979056451,"connected_time":1575000000000,"state":"active","ping":66},{"user_id":136,"name":"ZonarlJarl","steam_id":76561198390130328,"connected_time":489000000000,"state":"active","ping":88},{"user_id":121,"name":"Spybusters","steam_id":76561198951505681,"connected_time":1958000000000,"state":"active","ping":42},{"user_id":135,"name":"MayKaye","steam_id":76561199016092265,"connected_time":539000000000,"state":"active","ping":73},{"user_id":122,"name":"SoqwiK","steam_id":76561199013193499,"connected_time":1860000000000,"state":"active","ping":117},{"user_id":104,"name":"F3RRAL","steam_id":76561198172279275,"connected_time":3130000000000,"state":"active","ping":59},{"user_id":128,"name":"HeHedron","steam_id":76561199199667164,"connected_time":1105000000000,"state":"active","ping":83},{"user_id":133,"name":"jj874181","steam_id":76561199455124144,"connected_time":861000000000,"state":"active","ping":86},{"user_id":129,"name":"kanye vs darth vader erb season","steam_id":76561198068672882,"connected_time":924000000000,"state":"active","ping":57},{"user_id":127,"name":"deskmedic","steam_id":76561198295640486,"connected_time":1191000000000,"state":"active","ping":58},{"user_id":130,"name":"mr.edderkopper","steam_id":76561198152614478,"connected_time":922000000000,"state":"active","ping":106},{"user_id":138,"name":"selling rice","steam_id":76561198063357023,"connected_time":156000000000,"state":"active","ping":46},{"user_id":108,"name":"amia","steam_id":76561198228125224,"connected_time":2810000000000,"state":"active","ping":59},{"user_id":97,"name":"zaza2k","steam_id":76561198393760567,"connected_time":3654000000000,"state":"active","ping":62},{"user_id":139,"name":"B/S/SuperBoofOG","steam_id":76561197992030936,"connected_time":99000000000,"state":"active","ping":114}]},{"server_id":19,"name":"Uncletopia | San Francisco | 3 | Stopwatch Beta","name_short":"sfo-3","host":"sfo-1.us.uncletopia.com","port":27035,"enabled":true,"region":"us-west","cc":"us","latitude":37.77397,"longitude":-122.4313,"reserved":0,"last_update":"0001-01-01T00:00:00Z","name_a2s":"Uncletopia | San Francisco | 3 | Stopwatch Beta","protocol":17,"map":"workshop/koth_ramjam_rc1.ugc459778887","folder":"tf","game":"Team Fortress","app_id":440,"player_count":0,"max_players":24,"Bots":0,"server_type":"Dedicated","server_os":"Linux","password":true,"vac":true,"version":"7757534","steam_id":85568392924742824,"keywords":["cp","nocrits","nodmgspread","uncletopia"],"game_id":440,"stv_port":27036,"stv_name":"Uncletopia | San Francisco | 3 | Stopwatch Beta | STV","players":null},{"server_id":20,"name":"Uncletopia | San Francisco | 4 | Community","name_short":"sfo-4","host":"sfo-1.us.uncletopia.com","port":27045,"enabled":true,"region":"us-west","cc":"us","latitude":37.77397,"longitude":-122.4313,"reserved":0,"last_update":"0001-01-01T00:00:00Z","name_a2s":"Uncletopia | San Francisco | 4 | Community","protocol":17,"map":"workshop/pl_badwater_pro_v12.ugc2142942074","folder":"tf","game":"Team Fortress","app_id":440,"player_count":25,"max_players":24,"Bots":0,"server_type":"Dedicated","server_os":"Linux","password":true,"vac":true,"version":"7757534","steam_id":85568392924742826,"keywords":["nocrits","nodmgspread","payload","uncletopia"],"game_id":440,"stv_port":27046,"stv_name":"Uncletopia | San Francisco | 4 | Community | STV","players":[{"user_id":57,"name":"Zora","steam_id":76561198038589572,"connected_time":2242000000000,"state":"active","ping":74},{"user_id":58,"name":"spax twelv","steam_id":76561198075329999,"connected_time":2230000000000,"state":"active","ping":100},{"user_id":59,"name":"The Rizzard of Oz","steam_id":76561198045706413,"connected_time":2221000000000,"state":"active","ping":77},{"user_id":60,"name":"Them-Hulk","steam_id":76561198049954441,"connected_time":2220000000000,"state":"active","ping":107},{"user_id":61,"name":"MSB","steam_id":76561198028207420,"connected_time":2218000000000,"state":"active","ping":155},{"user_id":62,"name":"Hey Chompers","steam_id":76561198081964337,"connected_time":2202000000000,"state":"active","ping":74},{"user_id":63,"name":"Denim Sheet Cake","steam_id":76561198247424046,"connected_time":2199000000000,"state":"active","ping":70},{"user_id":97,"name":"Stryder","steam_id":76561199387418697,"connected_time":382000000000,"state":"active","ping":109},{"user_id":65,"name":"Spooky","steam_id":76561198030817605,"connected_time":2024000000000,"state":"active","ping":58},{"user_id":66,"name":"Casleau","steam_id":76561198011835184,"connected_time":1964000000000,"state":"active","ping":57},{"user_id":67,"name":"Unwavering Flavor","steam_id":76561198053306065,"connected_time":1818000000000,"state":"active","ping":88},{"user_id":108,"name":"Inflated Pikachu","steam_id":76561198100289096,"connected_time":66000000000,"state":"spawning","ping":216},{"user_id":107,"name":"SwineFlu","steam_id":76561197989014109,"connected_time":113000000000,"state":"active","ping":76},{"user_id":99,"name":"thanks pfizer","steam_id":76561198881665250,"connected_time":331000000000,"state":"active","ping":60},{"user_id":90,"name":"I'm Bored","steam_id":76561198167596806,"connected_time":613000000000,"state":"active","ping":61},{"user_id":73,"name":"Lord Headass","steam_id":76561198296532053,"connected_time":1470000000000,"state":"active","ping":55},{"user_id":74,"name":"Also UbeR","steam_id":76561198166926843,"connected_time":1468000000000,"state":"active","ping":56},{"user_id":75,"name":"PotionVII","steam_id":76561199087333704,"connected_time":1455000000000,"state":"active","ping":80},{"user_id":77,"name":"fruitymario","steam_id":76561198047190430,"connected_time":1356000000000,"state":"active","ping":122},{"user_id":110,"name":"Riske","steam_id":76561198115840568,"connected_time":26000000000,"state":"spawning","ping":114},{"user_id":94,"name":"Witchings","steam_id":76561198247431254,"connected_time":475000000000,"state":"active","ping":114},{"user_id":80,"name":"schizophrenicGhost","steam_id":76561198126341923,"connected_time":1265000000000,"state":"active","ping":111},{"user_id":104,"name":"bladees saddest, realest verse","steam_id":76561198098099826,"connected_time":183000000000,"state":"active","ping":64},{"user_id":92,"name":"hand sanitizer","steam_id":76561199153114723,"connected_time":571000000000,"state":"active","ping":56},{"user_id":93,"name":"kr1tsurf3r","steam_id":76561198076402476,"connected_time":562000000000,"state":"active","ping":72}]},{"server_id":141,"name":"Uncletopia | Sydney | 1 | All Maps","name_short":"syd-1","host":"syd-1.au.uncletopia.com","port":27015,"enabled":true,"region":"au","cc":"au","latitude":-33.865143,"longitude":151.2099,"reserved":0,"last_update":"0001-01-01T00:00:00Z","name_a2s":"Uncletopia | Sydney | 1 | All Maps","protocol":17,"map":"koth_king","folder":"tf","game":"Team Fortress","app_id":440,"player_count":24,"max_players":24,"Bots":0,"server_type":"Dedicated","server_os":"Linux","password":true,"vac":true,"version":"7757534","steam_id":85568392924470001,"keywords":["cp","nocrits","nodmgspread","uncletopia"],"game_id":440,"stv_port":27016,"stv_name":"Uncletopia | Sydney | 1 | All Maps | STV","players":[{"user_id":274,"name":"Mayor Ballsworth","steam_id":76561199174593635,"connected_time":3438000000000,"state":"active","ping":79},{"user_id":321,"name":"FreeBeers","steam_id":76561198095448607,"connected_time":1730000000000,"state":"active","ping":72},{"user_id":314,"name":"The Lad #savetf2","steam_id":76561198865537226,"connected_time":1833000000000,"state":"active","ping":90},{"user_id":339,"name":"misa","steam_id":76561199079218182,"connected_time":136000000000,"state":"active","ping":45},{"user_id":281,"name":"Balsamic Vinegar","steam_id":76561198260148888,"connected_time":3066000000000,"state":"active","ping":66},{"user_id":329,"name":"table","steam_id":76561199218095319,"connected_time":1323000000000,"state":"active","ping":53},{"user_id":271,"name":"spicy chalupah","steam_id":76561198289873606,"connected_time":3577000000000,"state":"active","ping":83},{"user_id":340,"name":"Spooky Cheese","steam_id":76561198062026096,"connected_time":99000000000,"state":"active","ping":63},{"user_id":335,"name":"Critz Eastwood","steam_id":76561198050094688,"connected_time":449000000000,"state":"active","ping":53},{"user_id":287,"name":"CypressFluff (She/Her)","steam_id":76561198174667818,"connected_time":2591000000000,"state":"active","ping":56},{"user_id":318,"name":"Berri_Blast","steam_id":76561199077700308,"connected_time":1760000000000,"state":"active","ping":100},{"user_id":334,"name":"Owlenstein‚Ñ¢","steam_id":76561198093983826,"connected_time":848000000000,"state":"active","ping":125},{"user_id":301,"name":"Lobart√©","steam_id":76561198090116136,"connected_time":2166000000000,"state":"active","ping":63},{"user_id":292,"name":"El Chupacabra","steam_id":76561198070641651,"connected_time":2463000000000,"state":"active","ping":48},{"user_id":341,"name":"TuaMater","steam_id":76561198021019008,"connected_time":75000000000,"state":"active","ping":66},{"user_id":304,"name":"soupy","steam_id":76561198073734936,"connected_time":2109000000000,"state":"active","ping":88},{"user_id":342,"name":"Rev","steam_id":76561198076830267,"connected_time":19000000000,"state":"active","ping":50},{"user_id":332,"name":"zore","steam_id":76561198016233021,"connected_time":1224000000000,"state":"active","ping":62},{"user_id":312,"name":"Paper","steam_id":76561198041517737,"connected_time":1951000000000,"state":"active","ping":40},{"user_id":317,"name":"seiran","steam_id":76561198880907232,"connected_time":1793000000000,"state":"active","ping":96},{"user_id":338,"name":"MikkyD","steam_id":76561198043452962,"connected_time":323000000000,"state":"active","ping":72},{"user_id":320,"name":"the normoaner","steam_id":76561198082423230,"connected_time":1754000000000,"state":"active","ping":89},{"user_id":343,"name":"Blackstar","steam_id":76561198169039095,"connected_time":0,"state":"connecting","ping":0},{"user_id":333,"name":"oldbie","steam_id":76561198053297711,"connected_time":1211000000000,"state":"active","ping":82}]},{"server_id":123,"name":"Uncletopia | Sydney | 2 | All Maps","name_short":"syd-2","host":"syd-1.au.uncletopia.com","port":27025,"enabled":true,"region":"au","cc":"au","latitude":-33.865143,"longitude":151.2099,"reserved":0,"last_update":"0001-01-01T00:00:00Z","name_a2s":"Uncletopia | Sydney | 2 | All Maps","protocol":17,"map":"koth_cascade","folder":"tf","game":"Team Fortress","app_id":440,"player_count":0,"max_players":24,"Bots":0,"server_type":"Dedicated","server_os":"Linux","password":true,"vac":true,"version":"7757534","steam_id":85568392924470002,"keywords":["cp","nocrits","nodmgspread","uncletopia"],"game_id":440,"stv_port":27026,"stv_name":"Uncletopia | Sydney | 2 | All Maps | STV","players":null},{"server_id":395,"name":"Uncletopia | Sydney | 3 | All Maps","name_short":"syd-3","host":"syd-1.au.uncletopia.com","port":27035,"enabled":true,"region":"au","cc":"au","latitude":-33.865143,"longitude":151.2099,"reserved":0,"last_update":"0001-01-01T00:00:00Z","name_a2s":"Uncletopia | Sydney | 3 | All Maps","protocol":17,"map":"koth_lakeside_final","folder":"tf","game":"Team Fortress","app_id":440,"player_count":0,"max_players":24,"Bots":0,"server_type":"Dedicated","server_os":"Linux","password":true,"vac":true,"version":"7757534","steam_id":85568392925194467,"keywords":["cp","nocrits","nodmgspread","uncletopia"],"game_id":440,"stv_port":27036,"stv_name":"Uncletopia | Sydney | 3 | All Maps | STV","players":null},{"server_id":396,"name":"Uncletopia | Sydney | 4 | All Maps","name_short":"syd-4","host":"syd-1.au.uncletopia.com","port":27045,"enabled":true,"region":"au","cc":"au","latitude":-33.865143,"longitude":151.2099,"reserved":0,"last_update":"0001-01-01T00:00:00Z","name_a2s":"Uncletopia | Sydney | 4 | All Maps","protocol":17,"map":"koth_lakeside_final","folder":"tf","game":"Team Fortress","app_id":440,"player_count":0,"max_players":24,"Bots":0,"server_type":"Dedicated","server_os":"Linux","password":true,"vac":true,"version":"7757534","steam_id":85568392925397958,"keywords":["cp","nocrits","nodmgspread","uncletopia"],"game_id":440,"stv_port":27046,"stv_name":"Uncletopia | Sydney | 4 | All Maps | STV","players":null},{"server_id":58,"name":"Uncletopia | Sydney | 5 | Stopwatch Beta","name_short":"syd-5","host":"syd-1.au.uncletopia.com","port":27055,"enabled":true,"region":"au","cc":"au","latitude":-33.865143,"longitude":151.2099,"reserved":0,"last_update":"0001-01-01T00:00:00Z","name_a2s":"Uncletopia | Sydney | 5 | Stopwatch Beta","protocol":17,"map":"koth_cascade","folder":"tf","game":"Team Fortress","app_id":440,"player_count":0,"max_players":24,"Bots":0,"server_type":"Dedicated","server_os":"Linux","password":true,"vac":true,"version":"7757534","steam_id":85568392925397959,"keywords":["cp","nocrits","nodmgspread","uncletopia"],"game_id":440,"stv_port":27056,"stv_name":"Uncletopia | Sydney | 5 | Stopwatch Beta | STV","players":null},{"server_id":59,"name":"Uncletopia | Sydney | 6 | Community","name_short":"syd-6","host":"syd-1.au.uncletopia.com","port":27065,"enabled":true,"region":"au","cc":"au","latitude":-33.865143,"longitude":151.2099,"reserved":0,"last_update":"0001-01-01T00:00:00Z","name_a2s":"Uncletopia | Sydney | 6 | Community","protocol":17,"map":"workshop/koth_kemptown_rc1.ugc767410655","folder":"tf","game":"Team Fortress","app_id":440,"player_count":0,"max_players":24,"Bots":0,"server_type":"Dedicated","server_os":"Linux","password":true,"vac":true,"version":"7757534","steam_id":85568392925397960,"keywords":["cp","nocrits","nodmgspread","uncletopia"],"game_id":440,"stv_port":27066,"stv_name":"Uncletopia | Sydney | 6 | Community | STV","players":null},{"server_id":49,"name":"Uncletopia | Warsaw | 1 | All Maps","name_short":"waw-1","host":"waw-1.pl.uncletopia.com","port":27015,"enabled":true,"region":"eu","cc":"pl","latitude":52.2297,"longitude":21.017532,"reserved":0,"last_update":"0001-01-01T00:00:00Z","name_a2s":"","protocol":0,"map":"","folder":"","game":"","app_id":0,"player_count":0,"max_players":0,"Bots":0,"server_type":"","server_os":"","password":false,"vac":false,"version":"","steam_id":0,"keywords":null,"game_id":0,"stv_port":0,"stv_name":"","players":null},{"server_id":50,"name":"Uncletopia | Warsaw | 2 | All Maps","name_short":"waw-2","host":"waw-1.pl.uncletopia.com","port":27025,"enabled":true,"region":"eu","cc":"pl","latitude":52.2297,"longitude":21.017532,"reserved":0,"last_update":"0001-01-01T00:00:00Z","name_a2s":"Uncletopia | Warsaw | 2 | All Maps","protocol":17,"map":"koth_highpass","folder":"tf","game":"Team Fortress","app_id":440,"player_count":0,"max_players":24,"Bots":0,"server_type":"Dedicated","server_os":"Linux","password":true,"vac":true,"version":"7757534","steam_id":85568392925397851,"keywords":["cp","nocrits","nodmgspread","uncletopia"],"game_id":440,"stv_port":27026,"stv_name":"Uncletopia | Warsaw | 2 | All Maps | STV","players":null},{"server_id":51,"name":"Uncletopia | Warsaw | 3 | All Maps","name_short":"waw-3","host":"waw-1.pl.uncletopia.com","port":27035,"enabled":true,"region":"eu","cc":"pl","latitude":52.2297,"longitude":21.017532,"reserved":0,"last_update":"0001-01-01T00:00:00Z","name_a2s":"Uncletopia | Warsaw | 3 | All Maps","protocol":17,"map":"koth_highpass","folder":"tf","game":"Team Fortress","app_id":440,"player_count":0,"max_players":24,"Bots":0,"server_type":"Dedicated","server_os":"Linux","password":true,"vac":true,"version":"7757534","steam_id":85568392925397852,"keywords":["cp","nocrits","nodmgspread","uncletopia"],"game_id":440,"stv_port":27036,"stv_name":"Uncletopia | Warsaw | 3 | All Maps | STV","players":null},{"server_id":52,"name":"Uncletopia | Warsaw | 4 | All Maps","name_short":"waw-4","host":"waw-1.pl.uncletopia.com","port":27045,"enabled":true,"region":"eu","cc":"pl","latitude":52.2297,"longitude":21.017532,"reserved":0,"last_update":"0001-01-01T00:00:00Z","name_a2s":"Uncletopia | Warsaw | 4 | All Maps","protocol":17,"map":"koth_lakeside_final","folder":"tf","game":"Team Fortress","app_id":440,"player_count":0,"max_players":24,"Bots":0,"server_type":"Dedicated","server_os":"Linux","password":true,"vac":true,"version":"7757534","steam_id":85568392925397853,"keywords":["cp","nocrits","nodmgspread","uncletopia"],"game_id":440,"stv_port":27046,"stv_name":"Uncletopia | Warsaw | 4 | All Maps | STV","players":null},{"server_id":53,"name":"Uncletopia | Warsaw | 5 | Stopwatch Beta","name_short":"waw-5","host":"waw-1.pl.uncletopia.com","port":27055,"enabled":true,"region":"eu","cc":"pl","latitude":52.2297,"longitude":21.017532,"reserved":0,"last_update":"0001-01-01T00:00:00Z","name_a2s":"Uncletopia | Warsaw | 5 | Stopwatch Beta","protocol":17,"map":"pl_pier","folder":"tf","game":"Team Fortress","app_id":440,"player_count":0,"max_players":24,"Bots":0,"server_type":"Dedicated","server_os":"Linux","password":true,"vac":true,"version":"7757534","steam_id":85568392925397854,"keywords":["nocrits","nodmgspread","payload","uncletopia"],"game_id":440,"stv_port":27056,"stv_name":"Uncletopia | Warsaw | 5 | Stopwatch Beta | STV","players":null},{"server_id":54,"name":"Uncletopia | Warsaw | 6 | Community","name_short":"waw-6","host":"waw-1.pl.uncletopia.com","port":27065,"enabled":true,"region":"eu","cc":"pl","latitude":52.2297,"longitude":21.017532,"reserved":0,"last_update":"0001-01-01T00:00:00Z","name_a2s":"Uncletopia | Warsaw | 6 | Community","protocol":17,"map":"koth_highpass","folder":"tf","game":"Team Fortress","app_id":440,"player_count":0,"max_players":24,"Bots":0,"server_type":"Dedicated","server_os":"Linux","password":true,"vac":true,"version":"7757534","steam_id":85568392925397856,"keywords":["cp","nocrits","nodmgspread","uncletopia"],"game_id":440,"stv_port":27066,"stv_name":"Uncletopia | Warsaw | 6 | Community | STV","players":null}]}