{"status":true,"message":"","result":[{"server_id":9,"name":"Uncletopia | Atlanta | 1 | All Maps","name_short":"atl-1","host":"atl-1.us.uncletopia.com","port":27015,"enabled":true,"region":"us-east","cc":"us","latitude":33.753746,"longitude":-84.38633,"reserved":0,"last_update":"0001-01-01T00:00:00Z","name_a2s":"Uncletopia | Atlanta | 1 | All Maps","protocol":17,"map":"pl_badwater","folder":"tf","game":"Team Fortress","app_id":440,"player_count":24,"max_players":24,"Bots":0,"server_type":"Dedicated","server_os":"Linux","password":true,"vac":true,"version":"7961495","steam_id":85568392924469982,"keywords":["nocrits","nodmgspread","payload","uncletopia"],"game_id":440,"stv_port":27016,"stv_name":"Uncletopia | Atlanta | 1 | All Maps | STV","players":[{"user_id":134,"name":"PK","steam_id":76561198368722500,"connected_time":1193000000000,"state":"active","ping":75},{"user_id":124,"name":"Jesus Burgess","steam_id":76561199343316814,"connected_time":2065000000000,"state":"active","ping":56},{"user_id":111,"name":"Hvael","steam_id":76561198406463577,"connected_time":3013000000000,"state":"active","ping":75},{"user_id":133,"name":"goofbears","steam_id":76561199100831175,"connected_time":1236000000000,"state":"active","ping":72},{"user_id":137,"name":"Piss Man","steam_id":76561199446367874,"connected_time":897000000000,"state":"active","ping":62},{"user_id":125,"name":"Quomples","steam_id":76561198140996628,"connected_time":2005000000000,"state":"active","ping":89},{"user_id":89,"name":"CoffeeZombee","steam_id":76561198172708053,"connected_time":5247000000000,"state":"active","ping":63},{"user_id":132,"name":"A_Malebolgia","steam_id":76561198097722818,"connected_time":1353000000000,"state":"active","ping":96},{"user_id":145,"name":"Sunshine","steam_id":76561198885528098,"connected_time":743000000000,"state":"active","ping":75},{"user_id":146,"name":"NEM","steam_id":76561199241131104,"connected_time":743000000000,"state":"active","ping":71},{"user_id":72,"name":"NotoriousThicc","steam_id":76561198244650474,"connected_time":7465000000000,"state":"active","ping":106},{"user_id":139,"name":"Orung","steam_id":76561198141012058,"connected_time":893000000000,"state":"active","ping":63},{"user_id":93,"name":"Immoral Boi","steam_id":76561198069551646,"connected_time":4825000000000,"state":"active","ping":71},{"user_id":118,"name":"Syvant","steam_id":76561198122436709,"connected_time":2811000000000,"state":"active","ping":75},{"user_id":136,"name":"Jennifer Aniston's Nipples","steam_id":76561198086107548,"connected_time":1008000000000,"state":"active","ping":63},{"user_id":113,"name":"stiGGy","steam_id":76561198049311931,"connected_time":2993000000000,"state":"active","ping":90},{"user_id":123,"name":"Bond","steam_id":76561198089262776,"connected_time":2259000000000,"state":"active","ping":74},{"user_id":144,"name":"Wilma","steam_id":76561198138420251,"connected_time":775000000000,"state":"active","ping":84},{"user_id":106,"name":"Jaeger","steam_id":76561199392187099,"connected_time":3528000000000,"state":"active","ping":64},{"user_id":135,"name":"he suckin on my rick til i mort","steam_id":76561198310711692,"connected_time":1129000000000,"state":"active","ping":165},{"user_id":131,"name":"Waffle Wannabe","steam_id":76561198064510650,"connected_time":1528000000000,"state":"active","ping":63},{"user_id":83,"name":"Oxygen User","steam_id":76561199111975528,"connected_time":6482000000000,"state":"active","ping":71},{"user_id":147,"name":"Orange","steam_id":76561198282214019,"connected_time":8000000000,"state":"spawning","ping":59},{"user_id":128,"name":"Kuri","steam_id":76561199037050183,"connected_time":1845000000000,"state":"active","ping":79}]},{"server_id":104,"name":"Uncletopia | Atlanta | 2 | All Maps","name_short":"atl-2","host":"atl-1.us.uncletopia.com","port":27025,"enabled":true,"region":"us-east","cc":"us","latitude":33.753746,"longitude":-84.38633,"reserved":0,"last_update":"0001-01-01T00:00:00Z","name_a2s":"Uncletopia | Atlanta | 2 | All Maps","protocol":17,"map":"cp_mountainlab","folder":"tf","game":"Team Fortress","app_id":440,"player_count":24,"max_players":24,"Bots":0,"server_type":"Dedicated","server_os":"Linux","password":true,"vac":true,"version":"7961495","steam_id":85568392924469983,"keywords":["cp","nocrits","nodmgspread","uncletopia"],"game_id":440,"stv_port":27026,"stv_name":"Uncletopia | Atlanta | 2 | All Maps | STV","players":[{"user_id":102,"name":"Magma","steam_id":76561198108261173,"connected_time":1991000000000,"state":"active","ping":70},{"user_id":70,"name":"Primal","steam_id":76561197983118203,"connected_time":3813000000000,"state":"active","ping":87},{"user_id":129,"name":"who ate the cheese","steam_id":76561198275408467,"connected_time":750000000000,"state":"active","ping":47},{"user_id":131,"name":"Punk Bitch","steam_id":76561198111259720,"connected_time":669000000000,"state":"active","ping":79},{"user_id":118,"name":"A Cat","steam_id":76561198221549132,"connected_time":1158000000000,"state":"active","ping":120},{"user_id":134,"name":"BladeeFan69","steam_id":76561198025322638,"connected_time":508000000000,"state":"active","ping":95},{"user_id":85,"name":"josh","steam_id":76561198110063909,"connected_time":2662000000000,"state":"active","ping":60},{"user_id":78,"name":"fuckterry","steam_id":76561198271957738,"connected_time":3076000000000,"state":"active","ping":59},{"user_id":120,"name":"♡lilLoona♡","steam_id":76561198158902875,"connected_time":1075000000000,"state":"active","ping":87},{"user_id":100,"name":"Vonx Crane","steam_id":76561198205069715,"connected_time":2047000000000,"state":"active","ping":79},{"user_id":112,"name":"Slip","steam_id":76561199057232579,"connected_time":1522000000000,"state":"active","ping":75},{"user_id":139,"name":"I. P. Freely","steam_id":76561198155176802,"connected_time":287000000000,"state":"active","ping":83},{"user_id":75,"name":"Brown_Dream","steam_id":76561198975766145,"connected_time":3364000000000,"state":"active","ping":78},{"user_id":132,"name":"Always Here for You","steam_id":76561198219252313,"connected_time":659000000000,"state":"active","ping":88},{"user_id":108,"name":"Tala\u003c3","steam_id":76561198169200739,"connected_time":1654000000000,"state":"active","ping":134},{"user_id":128,"name":"Narwaichen","steam_id":76561198136890329,"connected_time":750000000000,"state":"active","ping":116},{"user_id":121,"name":"Pile of Spinach","steam_id":76561198043068841,"connected_time":1065000000000,"state":"active","ping":74},{"user_id":140,"name":"Smiles","steam_id":76561198107197973,"connected_time":139000000000,"state":"active","ping":90},{"user_id":125,"name":"The All-Seeing Tim","steam_id":76561198075510786,"connected_time":964000000000,"state":"active","ping":81},{"user_id":130,"name":"Big Chad","steam_id":76561198015304658,"connected_time":750000000000,"state":"active","ping":77},{"user_id":138,"name":"Havok","steam_id":76561198063455003,"connected_time":365000000000,"state":"active","ping":74},{"user_id":124,"name":"Harbor Freight Anvil","steam_id":76561198344268438,"connected_time":1043000000000,"state":"active","ping":77},{"user_id":141,"name":"floppy muppet","steam_id":76561198003076261,"connected_time":104000000000,"state":"active","ping":61},{"user_id":137,"name":"Maid 'n' China","steam_id":76561198423392976,"connected_time":444000000000,"state":"active","ping":130}]},{"server_id":400,"name":"Uncletopia | Atlanta | 3 | Stopwatch","name_short":"atl-3","host":"atl-1.us.uncletopia.com","port":27035,"enabled":true,"region":"us-east","cc":"us","latitude":33.753746,"longitude":-84.38633,"reserved":0,"last_update":"0001-01-01T00:00:00Z","name_a2s":"Uncletopia | Atlanta | 3 | Stopwatch","protocol":17,"map":"workshop/pl_barnblitz_pro7.ugc582280235","folder":"tf","game":"Team Fortress","app_id":440,"player_count":0,"max_players":24,"Bots":0,"server_type":"Dedicated","server_os":"Linux","password":true,"vac":true,"version":"7961495","steam_id":85568392924515187,"keywords":["nocrits","nodmgspread","payload","uncletopia"],"game_id":440,"stv_port":27036,"stv_name":"Uncletopia | Atlanta | 3 | Stopwatch | STV","players":null},{"server_id":401,"name":"Uncletopia | Atlanta | 4 | Community","name_short":"atl-4","host":"atl-1.us.uncletopia.com","port":27045,"enabled":true,"region":"us-east","cc":"us","latitude":33.753746,"longitude":-84.38633,"reserved":0,"last_update":"0001-01-01T00:00:00Z","name_a2s":"Uncletopia | Atlanta | 4 | Community","protocol":17,"map":"workshop/cp_overgrown_rc8.ugc503939302","folder":"tf","game":"Team Fortress","app_id":440,"player_count":0,"max_players":24,"Bots":0,"server_type":"Dedicated","server_os":"Linux","password":true,"vac":true,"version":"7961495","steam_id":85568392924515188,"keywords":["cp","nocrits","nodmgspread","uncletopia"],"game_id":440,"stv_port":27046,"stv_name":"Uncletopia | Atlanta | 4 | Community | STV","players":null},{"server_id":2,"name":"Uncletopia | Chicago | 1 | All Maps","name_short":"chi-1","host":"chi-1.us.uncletopia.com","port":27015,"enabled":true,"region":"us-central","cc":"us","latitude":41.881832,"longitude":-87.62318,"reserved":0,"last_update":"0001-01-01T00:00:00Z","name_a2s":"Uncletopia | Chicago | 1 | All Maps","protocol":17,"map":"cp_dustbowl","folder":"tf","game":"Team Fortress","app_id":440,"player_count":24,"max_players":24,"Bots":0,"server_type":"Dedicated","server_os":"Linux","password":true,"vac":true,"version":"7961495","steam_id":85568392924469984,"keywords":["cp","nocrits","nodmgspread","uncletopia"],"game_id":440,"stv_port":27016,"stv_name":"Uncletopia | Chicago | 1 | All Maps | STV","players":[{"user_id":165,"name":"Killo","steam_id":76561198052989584,"connected_time":1053000000000,"state":"active","ping":73},{"user_id":173,"name":"inJuly","steam_id":76561198046811186,"connected_time":11000000000,"state":"spawning","ping":68},{"user_id":141,"name":"Eomy","steam_id":76561198297783627,"connected_time":3188000000000,"state":"active","ping":84},{"user_id":168,"name":"Squigly","steam_id":76561198084811625,"connected_time":962000000000,"state":"active","ping":70},{"user_id":153,"name":"Plinko","steam_id":76561198884912425,"connected_time":1964000000000,"state":"active","ping":70},{"user_id":126,"name":"aurro","steam_id":76561198315692300,"connected_time":5024000000000,"state":"active","ping":47},{"user_id":14,"name":"Nassu","steam_id":76561198147367577,"connected_time":13488000000000,"state":"active","ping":69},{"user_id":171,"name":"Zhong Xina","steam_id":76561198048157121,"connected_time":271000000000,"state":"active","ping":76},{"user_id":148,"name":"Little Skull Boi","steam_id":76561198093595888,"connected_time":2913000000000,"state":"active","ping":93},{"user_id":164,"name":"Candy Sparkles","steam_id":76561198126871264,"connected_time":1134000000000,"state":"active","ping":84},{"user_id":159,"name":"Pyrrhon the Aurum","steam_id":76561198046272856,"connected_time":1219000000000,"state":"active","ping":71},{"user_id":158,"name":"[El Fail] MR.BadassMCLee","steam_id":76561198043787818,"connected_time":1246000000000,"state":"active","ping":116},{"user_id":169,"name":"Siz","steam_id":76561198072962154,"connected_time":790000000000,"state":"active","ping":60},{"user_id":172,"name":"UwU","steam_id":76561198971629959,"connected_time":38000000000,"state":"spawning","ping":136},{"user_id":140,"name":"Beau","steam_id":76561198162587622,"connected_time":3623000000000,"state":"active","ping":72},{"user_id":166,"name":"That Girl With A K","steam_id":76561198317602350,"connected_time":1049000000000,"state":"active","ping":86},{"user_id":123,"name":"Clean Lines","steam_id":76561197960691518,"connected_time":5210000000000,"state":"active","ping":57},{"user_id":149,"name":"Murt","steam_id":76561198044013350,"connected_time":2873000000000,"state":"active","ping":86},{"user_id":160,"name":"soup","steam_id":76561198880568662,"connected_time":1218000000000,"state":"active","ping":69},{"user_id":155,"name":"Beta Fish","steam_id":76561198073504861,"connected_time":1787000000000,"state":"active","ping":61},{"user_id":170,"name":"Tyler\u0026Fingers","steam_id":76561198085154485,"connected_time":709000000000,"state":"active","ping":85},{"user_id":151,"name":"glensanity","steam_id":76561199500265332,"connected_time":2066000000000,"state":"active","ping":67},{"user_id":147,"name":"fresco","steam_id":76561199101199477,"connected_time":2937000000000,"state":"active","ping":61},{"user_id":167,"name":"The_Man","steam_id":76561199194890696,"connected_time":965000000000,"state":"active","ping":86}]},{"server_id":106,"name":"Uncletopia | Chicago | 2 | All Maps","name_short":"chi-2","host":"chi-1.us.uncletopia.com","port":27025,"enabled":true,"region":"us-central","cc":"us","latitude":41.881832,"longitude":-87.62318,"reserved":0,"last_update":"0001-01-01T00:00:00Z","name_a2s":"Uncletopia | Chicago | 2 | All Maps","protocol":17,"map":"pl_badwater","folder":"tf","game":"Team Fortress","app_id":440,"player_count":0,"max_players":24,"Bots":0,"server_type":"Dedicated","server_os":"Linux","password":true,"vac":true,"version":"7961495","steam_id":85568392924469985,"keywords":["nocrits","nodmgspread","payload","uncletopia"],"game_id":440,"stv_port":27026,"stv_name":"Uncletopia | Chicago | 2 | All Maps | STV","players":null},{"server_id":402,"name":"Uncletopia | Chicago | 3 | All Maps","name_short":"chi-3","host":"chi-1.us.uncletopia.com","port":27035,"enabled":true,"region":"us-central","cc":"us","latitude":41.881832,"longitude":-87.62318,"reserved":0,"last_update":"0001-01-01T00:00:00Z","name_a2s":"Uncletopia | Chicago | 3 | All Maps","protocol":17,"map":"koth_viaduct","folder":"tf","game":"Team Fortress","app_id":440,"player_count":0,"max_players":24,"Bots":0,"server_type":"Dedicated","server_os":"Linux","password":true,"vac":true,"version":"7961495","steam_id":85568392924515191,"keywords":["cp","nocrits","nodmgspread","uncletopia"],"game_id":440,"stv_port":27036,"stv_name":"Uncletopia | Chicago | 3 | All Maps | STV","players":null},{"server_id":403,"name":"Uncletopia | Chicago | 4 | All Maps","name_short":"chi-4","host":"chi-1.us.uncletopia.com","port":27045,"enabled":true,"region":"us-central","cc":"us","latitude":41.881832,"longitude":-87.62318,"reserved":0,"last_update":"0001-01-01T00:00:00Z","name_a2s":"Uncletopia | Chicago | 4 | All Maps","protocol":17,"map":"pl_borneo","folder":"tf","game":"Team Fortress","app_id":440,"player_count":24,"max_players":24,"Bots":0,"server_type":"Dedicated","server_os":"Linux","password":true,"vac":true,"version":"7961495","steam_id":85568392924515193,"keywords":["nocrits","nodmgspread","payload","uncletopia"],"game_id":440,"stv_port":27046,"stv_name":"Uncletopia | Chicago | 4 | All Maps | STV","players":[{"user_id":68,"name":"GuyGoom","steam_id":76561198254522178,"connected_time":1964000000000,"state":"active","ping":56},{"user_id":91,"name":"YOU ARE S L E E P Y","steam_id":76561198133858463,"connected_time":364000000000,"state":"active","ping":57},{"user_id":85,"name":"BurnN8or101","steam_id":76561198132668224,"connected_time":1122000000000,"state":"active","ping":62},{"user_id":69,"name":"the.land.of.avalon","steam_id":76561198245431668,"connected_time":1960000000000,"state":"active","ping":53},{"user_id":79,"name":"♥ Tomboy ♥","steam_id":76561198069881436,"connected_time":1790000000000,"state":"active","ping":73},{"user_id":23,"name":"AWGER (don't uber)","steam_id":76561198284683624,"connected_time":4602000000000,"state":"active","ping":75},{"user_id":92,"name":"Crunchy","steam_id":76561198060342804,"connected_time":281000000000,"state":"active","ping":71},{"user_id":53,"name":"Senior_Wrinkles","steam_id":76561198945742114,"connected_time":3384000000000,"state":"active","ping":55},{"user_id":47,"name":"Swedish Crowbar","steam_id":76561199105488936,"connected_time":3529000000000,"state":"active","ping":144},{"user_id":72,"name":"bruh","steam_id":76561198305505479,"connected_time":1891000000000,"state":"active","ping":59},{"user_id":93,"name":"dog safe baja blast.","steam_id":76561198294013916,"connected_time":251000000000,"state":"active","ping":60},{"user_id":94,"name":"sigma male","steam_id":76561198025011611,"connected_time":248000000000,"state":"active","ping":60},{"user_id":64,"name":"/dev/null","steam_id":76561198042144148,"connected_time":2207000000000,"state":"active","ping":55},{"user_id":95,"name":"Tohubohu","steam_id":76561198077838448,"connected_time":246000000000,"state":"active","ping":114},{"user_id":89,"name":"Vorgor","steam_id":76561198157692022,"connected_time":714000000000,"state":"active","ping":145},{"user_id":88,"name":"ZYNTERLINKED","steam_id":76561198241948526,"connected_time":779000000000,"state":"active","ping":60},{"user_id":74,"name":"That Darned Imp","steam_id":76561198854501307,"connected_time":1875000000000,"state":"active","ping":59},{"user_id":75,"name":"Borderinvader","steam_id":76561197969809273,"connected_time":1845000000000,"state":"active","ping":51},{"user_id":81,"name":"ACKnowledge","steam_id":76561198036189303,"connected_time":1546000000000,"state":"active","ping":80},{"user_id":43,"name":"Rornir","steam_id":76561198081829615,"connected_time":3661000000000,"state":"active","ping":39},{"user_id":57,"name":"Mr. Tickle","steam_id":76561198126684647,"connected_time":3123000000000,"state":"active","ping":61},{"user_id":90,"name":"dunk lft","steam_id":76561198066114874,"connected_time":706000000000,"state":"active","ping":106},{"user_id":50,"name":"4pi3","steam_id":76561199093363610,"connected_time":3489000000000,"state":"active","ping":86},{"user_id":83,"name":"EPGツ","steam_id":76561198155624038,"connected_time":1141000000000,"state":"active","ping":72}]},{"server_id":36,"name":"Uncletopia | Chicago | 5 | All Maps","name_short":"chi-5","host":"chi-2.us.uncletopia.com","port":27015,"enabled":true,"region":"us-central","cc":"us","latitude":41.881832,"longitude":-87.62318,"reserved":0,"last_update":"0001-01-01T00:00:00Z","name_a2s":"Uncletopia | Chicago | 5 | All Maps","protocol":17,"map":"koth_viaduct","folder":"tf","game":"Team Fortress","app_id":440,"player_count":0,"max_players":24,"Bots":0,"server_type":"Dedicated","server_os":"Linux","password":true,"vac":true,"version":"7961495","steam_id":85568392924866362,"keywords":["cp","nocrits","nodmgspread","uncletopia"],"game_id":440,"stv_port":27016,"stv_name":"Uncletopia | Chicago | 5 | All Maps | STV","players":null},{"server_id":37,"name":"Uncletopia | Chicago | 6 | All Maps","name_short":"chi-6","host":"chi-2.us.uncletopia.com","port":27025,"enabled":true,"region":"us-central","cc":"us","latitude":41.881832,"longitude":-87.62318,"reserved":0,"last_update":"0001-01-01T00:00:00Z","name_a2s":"Uncletopia | Chicago | 6 | All Maps","protocol":17,"map":"pl_pier","folder":"tf","game":"Team Fortress","app_id":440,"player_count":0,"max_players":24,"Bots":0,"server_type":"Dedicated","server_os":"Linux","password":true,"vac":true,"version":"7961495","steam_id":85568392924866363,"keywords":["nocrits","nodmgspread","payload","uncletopia"],"game_id":440,"stv_port":27026,"stv_name":"Uncletopia | Chicago | 6 | All Maps | STV","players":null},{"server_id":38,"name":"Uncletopia | Chicago | 7 | Stopwatch","name_short":"chi-7","host":"chi-2.us.uncletopia.com","port":27035,"enabled":true,"region":"us-central","cc":"us","latitude":41.881832,"longitude":-87.62318,"reserved":0,"last_update":"0001-01-01T00:00:00Z","name_a2s":"Uncletopia | Chicago | 7 | Stopwatch","protocol":17,"map":"pl_badwater","folder":"tf","game":"Team Fortress","app_id":440,"player_count":0,"max_players":24,"Bots":0,"server_type":"Dedicated","server_os":"Linux","password":true,"vac":true,"version":"7961495","steam_id":85568392924866364,"keywords":["nocrits","nodmgspread","payload","uncletopia"],"game_id":440,"stv_port":27036,"stv_name":"Uncletopia | Chicago | 7 | Stopwatch | STV","players":null},{"server_id":39,"name":"Uncletopia | Chicago | 8 | Community","name_short":"chi-8","host":"chi-2.us.uncletopia.com","port":27045,"enabled":true,"region":"us-central","cc":"us","latitude":41.881832,"longitude":-87.62318,"reserved":0,"last_update":"0001-01-01T00:00:00Z","name_a2s":"Uncletopia | Chicago | 8 | Community","protocol":17,"map":"pl_pier","folder":"tf","game":"Team Fortress","app_id":440,"player_count":0,"max_players":24,"Bots":0,"server_type":"Dedicated","server_os":"Linux","password":true,"vac":true,"version":"7961495","steam_id":85568392924866365,"keywords":["nocrits","nodmgspread","payload","uncletopia"],"game_id":440,"stv_port":27046,"stv_name":"Uncletopia | Chicago | 8 | Community | STV","players":null},{"server_id":8,"name":"Uncletopia | Dallas | 1 | All Maps","name_short":"dal-1","host":"dal-1.us.uncletopia.com","port":27015,"enabled":true,"region":"us-central","cc":"us","latitude":32.779167,"longitude":-96.80889,"reserved":0,"last_update":"0001-01-01T00:00:00Z","name_a2s":"Uncletopia | Dallas | 1 | All Maps","protocol":17,"map":"cp_snakewater_final1","folder":"tf","game":"Team Fortress","app_id":440,"player_count":23,"max_players":24,"Bots":0,"server_type":"Dedicated","server_os":"Linux","password":true,"vac":true,"version":"7961495","steam_id":85568392924469986,"keywords":["cp","nocrits","nodmgspread","uncletopia"],"game_id":440,"stv_port":27016,"stv_name":"Uncletopia | Dallas | 1 | All Maps | STV","players":[{"user_id":61,"name":"rusted out gamer","steam_id":76561198073103529,"connected_time":71000000000,"state":"active","ping":75},{"user_id":62,"name":"Batso","steam_id":76561198106589452,"connected_time":17000000000,"state":"spawning","ping":76},{"user_id":54,"name":"Pacts Gornax","steam_id":76561198066256419,"connected_time":575000000000,"state":"active","ping":75},{"user_id":46,"name":"lowlife","steam_id":76561199183355587,"connected_time":1098000000000,"state":"active","ping":81},{"user_id":14,"name":"The janitor(El coyote)","steam_id":76561198414300607,"connected_time":2267000000000,"state":"active","ping":81},{"user_id":53,"name":"Clagger","steam_id":76561198066701092,"connected_time":656000000000,"state":"active","ping":89},{"user_id":16,"name":"mkl","steam_id":76561197986401685,"connected_time":2227000000000,"state":"active","ping":57},{"user_id":57,"name":"Drilly22","steam_id":76561198068838338,"connected_time":485000000000,"state":"active","ping":57},{"user_id":18,"name":"Reginald the Deceased Gentleman","steam_id":76561198322068512,"connected_time":2125000000000,"state":"active","ping":86},{"user_id":49,"name":"iiamiizzyy","steam_id":76561198355030751,"connected_time":810000000000,"state":"active","ping":98},{"user_id":55,"name":"finger","steam_id":76561198119224484,"connected_time":574000000000,"state":"active","ping":118},{"user_id":56,"name":"the keebler","steam_id":76561199486326945,"connected_time":559000000000,"state":"active","ping":78},{"user_id":35,"name":"professional bad player","steam_id":76561199038566105,"connected_time":1350000000000,"state":"active","ping":111},{"user_id":58,"name":"Sweet Tooth","steam_id":76561198830158092,"connected_time":470000000000,"state":"active","ping":81},{"user_id":51,"name":"Fartyparty","steam_id":76561198446254364,"connected_time":661000000000,"state":"active","ping":93},{"user_id":45,"name":"Allister","steam_id":76561197999823352,"connected_time":1127000000000,"state":"active","ping":84},{"user_id":29,"name":"☑Juanaco is dead","steam_id":76561198029895630,"connected_time":1607000000000,"state":"active","ping":104},{"user_id":60,"name":"The creator(made twitter)","steam_id":76561198870900265,"connected_time":222000000000,"state":"active","ping":74},{"user_id":47,"name":"Roof Rat","steam_id":76561198136475073,"connected_time":1022000000000,"state":"active","ping":82},{"user_id":38,"name":"Jango","steam_id":76561198084589742,"connected_time":1273000000000,"state":"active","ping":74},{"user_id":39,"name":"homsar","steam_id":76561199031742838,"connected_time":1251000000000,"state":"active","ping":81},{"user_id":40,"name":"plink","steam_id":76561198057829889,"connected_time":1245000000000,"state":"active","ping":58},{"user_id":59,"name":"BoxOfStaples","steam_id":76561198834773017,"connected_time":433000000000,"state":"active","ping":93}]},{"server_id":108,"name":"Uncletopia | Dallas | 2 | All Maps","name_short":"dal-2","host":"dal-1.us.uncletopia.com","port":27025,"enabled":true,"region":"us-central","cc":"us","latitude":32.779167,"longitude":-96.80889,"reserved":0,"last_update":"0001-01-01T00:00:00Z","name_a2s":"Uncletopia | Dallas | 2 | All Maps","protocol":17,"map":"pl_upward","folder":"tf","game":"Team Fortress","app_id":440,"player_count":23,"max_players":24,"Bots":0,"server_type":"Dedicated","server_os":"Linux","password":true,"vac":true,"version":"7961495","steam_id":85568392924469988,"keywords":["nocrits","nodmgspread","payload","uncletopia"],"game_id":440,"stv_port":27026,"stv_name":"Uncletopia | Dallas | 2 | All Maps | STV","players":[{"user_id":67,"name":"Kirby","steam_id":76561199161858008,"connected_time":4439000000000,"state":"active","ping":72},{"user_id":90,"name":"Moonflower ✦","steam_id":76561198191782483,"connected_time":2576000000000,"state":"active","ping":49},{"user_id":109,"name":"Gibs Degrossi","steam_id":76561198066152609,"connected_time":532000000000,"state":"active","ping":85},{"user_id":80,"name":"men kisser","steam_id":76561199026721822,"connected_time":2949000000000,"state":"active","ping":87},{"user_id":110,"name":"Sulfurage","steam_id":76561198192391854,"connected_time":474000000000,"state":"active","ping":173},{"user_id":69,"name":"Magik","steam_id":76561198099726660,"connected_time":4376000000000,"state":"active","ping":75},{"user_id":92,"name":"Zetta","steam_id":76561198045710113,"connected_time":2432000000000,"state":"active","ping":76},{"user_id":93,"name":"number 1 edalyn clawthorne love","steam_id":76561198163238434,"connected_time":2388000000000,"state":"active","ping":90},{"user_id":99,"name":"SeaDeez","steam_id":76561198171637283,"connected_time":1775000000000,"state":"active","ping":85},{"user_id":111,"name":"Ulrich Stern","steam_id":76561198101739682,"connected_time":450000000000,"state":"active","ping":75},{"user_id":112,"name":"ryce","steam_id":76561198114572309,"connected_time":402000000000,"state":"active","ping":69},{"user_id":105,"name":"gretchling","steam_id":76561198046111695,"connected_time":860000000000,"state":"active","ping":47},{"user_id":113,"name":"loser","steam_id":76561198259380127,"connected_time":383000000000,"state":"active","ping":75},{"user_id":100,"name":"DualiTea","steam_id":76561198081733870,"connected_time":1766000000000,"state":"active","ping":60},{"user_id":97,"name":"ApocalypticFirefly","steam_id":76561198064405546,"connected_time":1806000000000,"state":"active","ping":177},{"user_id":116,"name":"flabber","steam_id":76561199247494538,"connected_time":16000000000,"state":"spawning","ping":79},{"user_id":95,"name":"Prsm","steam_id":76561198053344995,"connected_time":2035000000000,"state":"active","ping":64},{"user_id":78,"name":"John Calibur","steam_id":76561197999986606,"connected_time":3669000000000,"state":"active","ping":73},{"user_id":115,"name":"erm... krill yourself?","steam_id":76561198095121758,"connected_time":296000000000,"state":"active","ping":81},{"user_id":34,"name":"ihave80hp","steam_id":76561199251621911,"connected_time":6737000000000,"state":"active","ping":66},{"user_id":96,"name":"VOLCON","steam_id":76561198116023052,"connected_time":2002000000000,"state":"active","ping":70},{"user_id":72,"name":"Major Woody","steam_id":76561198835541533,"connected_time":4263000000000,"state":"active","ping":56},{"user_id":104,"name":"Kid named download","steam_id":76561199192074448,"connected_time":923000000000,"state":"active","ping":101}]},{"server_id":404,"name":"Uncletopia | Dallas | 3 | All Maps","name_short":"dal-3","host":"dal-1.us.uncletopia.com","port":27035,"enabled":true,"region":"us-central","cc":"us","latitude":32.779167,"longitude":-96.80889,"reserved":0,"last_update":"0001-01-01T00:00:00Z","name_a2s":"Uncletopia | Dallas | 3 | All Maps","protocol":17,"map":"koth_viaduct","folder":"tf","game":"Team Fortress","app_id":440,"player_count":0,"max_players":24,"Bots":0,"server_type":"Dedicated","server_os":"Linux","password":true,"vac":true,"version":"7961495","steam_id":85568392924515219,"keywords":["cp","nocrits","nodmgspread","uncletopia"],"game_id":440,"stv_port":27036,"stv_name":"Uncletopia | Dallas | 3 | All Maps | STV","players":null},{"server_id":405,"name":"Uncletopia | Dallas | 4 | Community","name_short":"dal-4","host":"dal-1.us.uncletopia.com","port":27045,"enabled":true,"region":"us-central","cc":"us","latitude":32.779167,"longitude":-96.80889,"reserved":0,"last_update":"0001-01-01T00:00:00Z","name_a2s":"Uncletopia | Dallas | 4 | Community","protocol":17,"map":"pl_pier","folder":"tf","game":"Team Fortress","app_id":440,"player_count":0,"max_players":24,"Bots":0,"server_type":"Dedicated","server_os":"Linux","password":true,"vac":true,"version":"7961495","steam_id":85568392924515220,"keywords":["nocrits","nodmgspread","payload","uncletopia"],"game_id":440,"stv_port":27046,"stv_name":"Uncletopia | Dallas | 4 | Community | STV","players":null},{"server_id":5,"name":"Uncletopia | Frankfurt | 1 | All Maps","name_short":"frk-1","host":"frk-1.de.uncletopia.com","port":27015,"enabled":true,"region":"eu","cc":"de","latitude":50.110924,"longitude":8.682127,"reserved":0,"last_update":"0001-01-01T00:00:00Z","name_a2s":"Uncletopia | Frankfurt | 1 | All Maps","protocol":17,"map":"pl_borneo","folder":"tf","game":"Team Fortress","app_id":440,"player_count":24,"max_players":24,"Bots":0,"server_type":"Dedicated","server_os":"Linux","password":true,"vac":true,"version":"7961495","steam_id":85568392924469989,"keywords":["nocrits","nodmgspread","payload","uncletopia"],"game_id":440,"stv_port":27016,"stv_name":"Uncletopia | Frankfurt | 1 | All Maps | STV","players":[{"user_id":611,"name":"shenanigan","steam_id":76561198043452925,"connected_time":1137000000000,"state":"active","ping":99},{"user_id":552,"name":"Pighead_08","steam_id":76561199060466647,"connected_time":4453000000000,"state":"active","ping":104},{"user_id":587,"name":"Scout","steam_id":76561198992898803,"connected_time":2835000000000,"state":"active","ping":69},{"user_id":609,"name":"Fluff","steam_id":76561198125348457,"connected_time":1379000000000,"state":"active","ping":60},{"user_id":588,"name":"Napoleon","steam_id":76561198074757450,"connected_time":2834000000000,"state":"active","ping":59},{"user_id":616,"name":"VW Golf MK2 GTI","steam_id":76561199250808808,"connected_time":699000000000,"state":"active","ping":75},{"user_id":619,"name":"тукку ирма","steam_id":76561197998715016,"connected_time":285000000000,"state":"active","ping":46},{"user_id":589,"name":"Duke","steam_id":76561198041713602,"connected_time":2830000000000,"state":"active","ping":50},{"user_id":620,"name":"WiDam","steam_id":76561198005976631,"connected_time":28000000000,"state":"active","ping":172},{"user_id":604,"name":"Marty™","steam_id":76561198060073673,"connected_time":1611000000000,"state":"active","ping":62},{"user_id":602,"name":"mr.resetti","steam_id":76561198974520642,"connected_time":1736000000000,"state":"active","ping":61},{"user_id":618,"name":"Palex","steam_id":76561198093219465,"connected_time":674000000000,"state":"active","ping":59},{"user_id":613,"name":"Rimx","steam_id":76561198053034840,"connected_time":1116000000000,"state":"active","ping":91},{"user_id":617,"name":"Lyell","steam_id":76561198350329389,"connected_time":686000000000,"state":"active","ping":78},{"user_id":605,"name":"Summer ♥","steam_id":76561198047723907,"connected_time":1597000000000,"state":"active","ping":49},{"user_id":591,"name":"shadow39344","steam_id":76561198090639618,"connected_time":2770000000000,"state":"active","ping":67},{"user_id":473,"name":"6'11\" Jaden Smith","steam_id":76561198059674196,"connected_time":8664000000000,"state":"active","ping":56},{"user_id":598,"name":"soney","steam_id":76561198121177512,"connected_time":1935000000000,"state":"active","ping":69},{"user_id":615,"name":"fishska","steam_id":76561198051166015,"connected_time":719000000000,"state":"active","ping":74},{"user_id":593,"name":"Retrograde_","steam_id":76561198155371354,"connected_time":2642000000000,"state":"active","ping":67},{"user_id":600,"name":"Twik","steam_id":76561198023835056,"connected_time":1866000000000,"state":"active","ping":58},{"user_id":474,"name":"Family Disser","steam_id":76561198278967055,"connected_time":8645000000000,"state":"active","ping":75},{"user_id":594,"name":"—ฅ/ᐠ. ̫ .ᐟ\\ฅ—meow","steam_id":76561198010662796,"connected_time":2641000000000,"state":"active","ping":59},{"user_id":614,"name":"Toasty5050","steam_id":76561198073540881,"connected_time":1070000000000,"state":"active","ping":45}]},{"server_id":110,"name":"Uncletopia | Frankfurt | 2 | All Maps","name_short":"frk-2","host":"frk-1.de.uncletopia.com","port":27025,"enabled":true,"region":"eu","cc":"de","latitude":50.110924,"longitude":8.682127,"reserved":0,"last_update":"0001-01-01T00:00:00Z","name_a2s":"Uncletopia | Frankfurt | 2 | All Maps","protocol":17,"map":"cp_snakewater_final1","folder":"tf","game":"Team Fortress","app_id":440,"player_count":24,"max_players":24,"Bots":0,"server_type":"Dedicated","server_os":"Linux","password":true,"vac":true,"version":"7961495","steam_id":85568392924469990,"keywords":["cp","nocrits","nodmgspread","uncletopia"],"game_id":440,"stv_port":27026,"stv_name":"Uncletopia | Frankfurt | 2 | All Maps | STV","players":[{"user_id":87,"name":"else1","steam_id":76561197996558319,"connected_time":11414000000000,"state":"active","ping":75},{"user_id":258,"name":"American Chjeff (✪oficial)","steam_id":76561198019917466,"connected_time":15000000000,"state":"active","ping":67},{"user_id":250,"name":"Ransu","steam_id":76561198211750823,"connected_time":441000000000,"state":"active","ping":84},{"user_id":256,"name":"dansci","steam_id":76561198269530717,"connected_time":148000000000,"state":"active","ping":166},{"user_id":215,"name":"Mr Lemon","steam_id":76561198054685254,"connected_time":2365000000000,"state":"active","ping":68},{"user_id":238,"name":"Kentucky Fried Crab","steam_id":76561198035586715,"connected_time":619000000000,"state":"active","ping":113},{"user_id":237,"name":"Sand","steam_id":76561198103761268,"connected_time":631000000000,"state":"active","ping":52},{"user_id":239,"name":"Klifton","steam_id":76561198803743443,"connected_time":614000000000,"state":"active","ping":73},{"user_id":235,"name":"meap","steam_id":76561198126639221,"connected_time":677000000000,"state":"active","ping":76},{"user_id":259,"name":"tealoverr.190","steam_id":76561199028497703,"connected_time":13000000000,"state":"spawning","ping":105},{"user_id":241,"name":"brew","steam_id":76561198836246326,"connected_time":569000000000,"state":"active","ping":75},{"user_id":208,"name":"BIG Dave Gaming","steam_id":76561199170843929,"connected_time":2891000000000,"state":"active","ping":52},{"user_id":253,"name":"G-Man Follower","steam_id":76561199384234822,"connected_time":355000000000,"state":"active","ping":62},{"user_id":242,"name":"Father Garcia","steam_id":76561199098644460,"connected_time":552000000000,"state":"active","ping":70},{"user_id":222,"name":"marrella [she/her]","steam_id":76561198262910410,"connected_time":1654000000000,"state":"active","ping":92},{"user_id":192,"name":"Albon","steam_id":76561198060378881,"connected_time":3748000000000,"state":"active","ping":58},{"user_id":260,"name":"Spei","steam_id":76561198826005248,"connected_time":3000000000,"state":"spawning","ping":67},{"user_id":245,"name":"wasto-/-™","steam_id":76561198102888038,"connected_time":513000000000,"state":"active","ping":50},{"user_id":246,"name":"Macisum","steam_id":76561197997078828,"connected_time":509000000000,"state":"active","ping":128},{"user_id":178,"name":"michalstrach13","steam_id":76561199004687217,"connected_time":4843000000000,"state":"active","ping":70},{"user_id":247,"name":"DeBozMann_","steam_id":76561198266876790,"connected_time":474000000000,"state":"active","ping":66},{"user_id":248,"name":"󠀡󠀡","steam_id":76561198399390201,"connected_time":466000000000,"state":"active","ping":86},{"user_id":254,"name":"obi","steam_id":76561198040154461,"connected_time":336000000000,"state":"active","ping":58},{"user_id":252,"name":"H...","steam_id":76561197984299377,"connected_time":420000000000,"state":"active","ping":60}]},{"server_id":308,"name":"Uncletopia | Frankfurt | 3 | All Maps","name_short":"frk-3","host":"frk-1.de.uncletopia.com","port":27035,"enabled":true,"region":"eu","cc":"de","latitude":50.110924,"longitude":8.682127,"reserved":0,"last_update":"0001-01-01T00:00:00Z","name_a2s":"Uncletopia | Frankfurt | 3 | All Maps","protocol":17,"map":"pl_pier","folder":"tf","game":"Team Fortress","app_id":440,"player_count":24,"max_players":24,"Bots":0,"server_type":"Dedicated","server_os":"Linux","password":true,"vac":true,"version":"7961495","steam_id":85568392924504274,"keywords":["nocrits","nodmgspread","payload","uncletopia"],"game_id":440,"stv_port":27036,"stv_name":"Uncletopia | Frankfurt | 3 | All Maps | STV","players":[{"user_id":370,"name":"Creative","steam_id":76561198835034247,"connected_time":332000000000,"state":"active","ping":74},{"user_id":364,"name":"LOBZIK","steam_id":76561198114830120,"connected_time":386000000000,"state":"active","ping":78},{"user_id":365,"name":"Gillusion","steam_id":76561198138818087,"connected_time":368000000000,"state":"active","ping":52},{"user_id":373,"name":"dex","steam_id":76561197972438196,"connected_time":287000000000,"state":"active","ping":57},{"user_id":369,"name":"nordstream bomber","steam_id":76561199401283123,"connected_time":353000000000,"state":"active","ping":63},{"user_id":345,"name":"gr3821","steam_id":76561198091531010,"connected_time":1624000000000,"state":"active","ping":52},{"user_id":351,"name":"Generál Kiwi","steam_id":76561198255946537,"connected_time":1278000000000,"state":"active","ping":39},{"user_id":325,"name":"Pyromancer","steam_id":76561198136260717,"connected_time":2799000000000,"state":"active","ping":54},{"user_id":372,"name":"Keroz1n","steam_id":76561197998681491,"connected_time":305000000000,"state":"active","ping":73},{"user_id":362,"name":"DOKTOR SEX","steam_id":76561198226378616,"connected_time":501000000000,"state":"active","ping":74},{"user_id":304,"name":"jona3838","steam_id":76561199097658195,"connected_time":3953000000000,"state":"active","ping":102},{"user_id":363,"name":"cirrem","steam_id":76561198265192382,"connected_time":412000000000,"state":"active","ping":63},{"user_id":322,"name":"please","steam_id":76561199036865103,"connected_time":2878000000000,"state":"active","ping":89},{"user_id":313,"name":"Maybe","steam_id":76561198274455278,"connected_time":3203000000000,"state":"active","ping":72},{"user_id":360,"name":"Packet","steam_id":76561199173195875,"connected_time":765000000000,"state":"active","ping":97},{"user_id":349,"name":"I Love Filtered Water","steam_id":76561198016042113,"connected_time":1399000000000,"state":"active","ping":81},{"user_id":333,"name":"Tea Follet","steam_id":76561198852408734,"connected_time":2239000000000,"state":"active","ping":100},{"user_id":368,"name":"Roblin24","steam_id":76561198991674513,"connected_time":360000000000,"state":"active","ping":64},{"user_id":359,"name":"apple","steam_id":76561198350676879,"connected_time":797000000000,"state":"active","ping":105},{"user_id":353,"name":"VolcanicArts","steam_id":76561198063453246,"connected_time":1048000000000,"state":"active","ping":61},{"user_id":371,"name":"shameful display","steam_id":76561198273358760,"connected_time":322000000000,"state":"active","ping":60},{"user_id":334,"name":"Pikdy","steam_id":76561199492395972,"connected_time":2235000000000,"state":"active","ping":65},{"user_id":356,"name":"Help me","steam_id":76561198115044116,"connected_time":837000000000,"state":"active","ping":99},{"user_id":361,"name":"Kavary","steam_id":76561198024792146,"connected_time":693000000000,"state":"active","ping":77}]},{"server_id":309,"name":"Uncletopia | Frankfurt | 4 | All Maps","name_short":"frk-4","host":"frk-1.de.uncletopia.com","port":27045,"enabled":true,"region":"eu","cc":"de","latitude":50.110924,"longitude":8.682127,"reserved":0,"last_update":"0001-01-01T00:00:00Z","name_a2s":"Uncletopia | Frankfurt | 4 | All Maps","protocol":17,"map":"pl_frontier_final","folder":"tf","game":"Team Fortress","app_id":440,"player_count":17,"max_players":24,"Bots":0,"server_type":"Dedicated","server_os":"Linux","password":true,"vac":true,"version":"7961495","steam_id":85568392924504275,"keywords":["nocrits","nodmgspread","payload","uncletopia"],"game_id":440,"stv_port":27046,"stv_name":"Uncletopia | Frankfurt | 4 | All Maps | STV","players":[{"user_id":171,"name":"fexxor","steam_id":76561198030051719,"connected_time":2630000000000,"state":"spawning","ping":167},{"user_id":126,"name":"chair 2.0","steam_id":76561199233470150,"connected_time":5377000000000,"state":"spawning","ping":47},{"user_id":162,"name":"Largo","steam_id":76561198844368927,"connected_time":3578000000000,"state":"spawning","ping":78},{"user_id":213,"name":"Muwri","steam_id":76561197997252341,"connected_time":92000000000,"state":"active","ping":141},{"user_id":212,"name":"lulu","steam_id":76561199147764133,"connected_time":372000000000,"state":"active","ping":54},{"user_id":207,"name":"GMsU | AuxiliusM","steam_id":76561198071903356,"connected_time":842000000000,"state":"active","ping":37},{"user_id":211,"name":"Rudoss","steam_id":76561198018415787,"connected_time":586000000000,"state":"active","ping":66},{"user_id":201,"name":"highest noon","steam_id":76561199103959197,"connected_time":1098000000000,"state":"spawning","ping":75},{"user_id":195,"name":"GMsU | Acoul","steam_id":76561198229222992,"connected_time":1599000000000,"state":"active","ping":113},{"user_id":198,"name":"GogsCrunchyNuts","steam_id":76561198150599213,"connected_time":1305000000000,"state":"spawning","ping":79},{"user_id":202,"name":"cisgender clown","steam_id":76561199469909295,"connected_time":1051000000000,"state":"connecting","ping":79},{"user_id":191,"name":"Ribs grow back","steam_id":76561199067658590,"connected_time":1672000000000,"state":"spawning","ping":115},{"user_id":193,"name":"Welder","steam_id":76561198355300561,"connected_time":1622000000000,"state":"active","ping":88},{"user_id":196,"name":"GMsU | Rebikas","steam_id":76561198077053764,"connected_time":1563000000000,"state":"active","ping":96},{"user_id":190,"name":"Trollstoy","steam_id":76561198072017175,"connected_time":1685000000000,"state":"active","ping":66},{"user_id":206,"name":"-LPD-Eldariub","steam_id":76561198039852722,"connected_time":939000000000,"state":"spawning","ping":77},{"user_id":185,"name":"engineer drip","steam_id":76561198991032570,"connected_time":1898000000000,"state":"spawning","ping":99}]},{"server_id":310,"name":"Uncletopia | Frankfurt | 5 | All Maps","name_short":"frk-5","host":"frk-1.de.uncletopia.com","port":27055,"enabled":true,"region":"eu","cc":"de","latitude":50.110924,"longitude":8.682127,"reserved":0,"last_update":"0001-01-01T00:00:00Z","name_a2s":"Uncletopia | Frankfurt | 5 | All Maps","protocol":17,"map":"pl_badwater","folder":"tf","game":"Team Fortress","app_id":440,"player_count":24,"max_players":24,"Bots":0,"server_type":"Dedicated","server_os":"Linux","password":true,"vac":true,"version":"7961495","steam_id":85568392924504277,"keywords":["nocrits","nodmgspread","payload","uncletopia"],"game_id":440,"stv_port":27056,"stv_name":"Uncletopia | Frankfurt | 5 | All Maps | STV","players":[{"user_id":482,"name":"󠁳⁧⁧ Kruthal","steam_id":76561198245726582,"connected_time":376000000000,"state":"active","ping":70},{"user_id":472,"name":"medicinal man","steam_id":76561198202668788,"connected_time":1248000000000,"state":"active","ping":62},{"user_id":443,"name":"CampMaster49","steam_id":76561198353096926,"connected_time":2731000000000,"state":"active","ping":99},{"user_id":410,"name":"Laitse","steam_id":76561198073247480,"connected_time":4067000000000,"state":"active","ping":86},{"user_id":484,"name":"Flump","steam_id":76561198106352373,"connected_time":161000000000,"state":"active","ping":55},{"user_id":483,"name":"SpilledMilk","steam_id":76561198174123971,"connected_time":209000000000,"state":"active","ping":57},{"user_id":467,"name":"pablo","steam_id":76561198089285014,"connected_time":1741000000000,"state":"active","ping":79},{"user_id":462,"name":"FJADL","steam_id":76561198237008214,"connected_time":1869000000000,"state":"active","ping":70},{"user_id":415,"name":"faden","steam_id":76561198172147593,"connected_time":3884000000000,"state":"active","ping":97},{"user_id":377,"name":"s a i","steam_id":76561197970379754,"connected_time":6493000000000,"state":"active","ping":55},{"user_id":475,"name":"Dolcelatte","steam_id":76561198038501770,"connected_time":1220000000000,"state":"active","ping":54},{"user_id":485,"name":"jovi_","steam_id":76561198449280552,"connected_time":144000000000,"state":"active","ping":59},{"user_id":480,"name":"LemonLeCitron","steam_id":76561198215545267,"connected_time":658000000000,"state":"active","ping":70},{"user_id":454,"name":"Carlo","steam_id":76561198276491098,"connected_time":2248000000000,"state":"active","ping":60},{"user_id":479,"name":"Kenny Savage","steam_id":76561199049383900,"connected_time":983000000000,"state":"active","ping":72},{"user_id":466,"name":"LackOfSleep","steam_id":76561198019751794,"connected_time":1761000000000,"state":"active","ping":113},{"user_id":424,"name":"souli","steam_id":76561198820206418,"connected_time":3784000000000,"state":"active","ping":62},{"user_id":486,"name":"LEGEND FUMO.","steam_id":76561198061033903,"connected_time":1000000000,"state":"spawning","ping":39},{"user_id":429,"name":"Jethro Tull","steam_id":76561199034041634,"connected_time":3670000000000,"state":"active","ping":71},{"user_id":457,"name":"sam_","steam_id":76561198814734120,"connected_time":2231000000000,"state":"active","ping":103},{"user_id":478,"name":"warforge3","steam_id":76561199276024310,"connected_time":1101000000000,"state":"active","ping":99},{"user_id":437,"name":"Fenix (RUS)","steam_id":76561198399886365,"connected_time":3356000000000,"state":"active","ping":80},{"user_id":481,"name":"Quietine","steam_id":76561198361723475,"connected_time":491000000000,"state":"active","ping":65},{"user_id":477,"name":"SirClyan","steam_id":76561199196651938,"connected_time":1153000000000,"state":"active","ping":66}]},{"server_id":311,"name":"Uncletopia | Frankfurt | 6 | All Maps","name_short":"frk-6","host":"frk-1.de.uncletopia.com","port":27065,"enabled":true,"region":"eu","cc":"de","latitude":50.110924,"longitude":8.682127,"reserved":0,"last_update":"0001-01-01T00:00:00Z","name_a2s":"Uncletopia | Frankfurt | 6 | All Maps","protocol":17,"map":"pl_upward","folder":"tf","game":"Team Fortress","app_id":440,"player_count":24,"max_players":24,"Bots":0,"server_type":"Dedicated","server_os":"Linux","password":true,"vac":true,"version":"7961495","steam_id":85568392924504278,"keywords":["nocrits","nodmgspread","payload","uncletopia"],"game_id":440,"stv_port":27066,"stv_name":"Uncletopia | Frankfurt | 6 | All Maps | STV","players":[{"user_id":334,"name":"Hexagon","steam_id":76561198151205758,"connected_time":1584000000000,"state":"active","ping":53},{"user_id":348,"name":"Arcea","steam_id":76561198231093480,"connected_time":590000000000,"state":"active","ping":78},{"user_id":274,"name":"SuntanPikachu","steam_id":76561198121242476,"connected_time":5046000000000,"state":"active","ping":80},{"user_id":337,"name":":)","steam_id":76561198140151959,"connected_time":769000000000,"state":"active","ping":60},{"user_id":338,"name":"Olekman","steam_id":76561198035446981,"connected_time":766000000000,"state":"active","ping":57},{"user_id":351,"name":"faccboi","steam_id":76561198137816642,"connected_time":225000000000,"state":"active","ping":59},{"user_id":290,"name":"Pvt Talbot","steam_id":76561198261001389,"connected_time":3939000000000,"state":"active","ping":52},{"user_id":341,"name":"Mr. Salt Detector","steam_id":76561198089962282,"connected_time":661000000000,"state":"active","ping":59},{"user_id":297,"name":"alfus","steam_id":76561198071003109,"connected_time":3383000000000,"state":"active","ping":73},{"user_id":326,"name":"Rocket.Blade","steam_id":76561198063104145,"connected_time":2099000000000,"state":"active","ping":53},{"user_id":344,"name":"After8","steam_id":76561198090750865,"connected_time":628000000000,"state":"active","ping":60},{"user_id":320,"name":"onixed766","steam_id":76561198995478547,"connected_time":2165000000000,"state":"active","ping":59},{"user_id":353,"name":"Fr1Zer","steam_id":76561198357086270,"connected_time":122000000000,"state":"active","ping":97},{"user_id":345,"name":"Papa Cheese","steam_id":76561198276351496,"connected_time":625000000000,"state":"active","ping":58},{"user_id":300,"name":"The Holy Bible","steam_id":76561197967683724,"connected_time":3346000000000,"state":"active","ping":48},{"user_id":349,"name":"Gol D. Roger","steam_id":76561199499108654,"connected_time":584000000000,"state":"active","ping":100},{"user_id":309,"name":"Bulgur","steam_id":76561198015064675,"connected_time":2629000000000,"state":"active","ping":62},{"user_id":311,"name":"generic alias","steam_id":76561198271607226,"connected_time":2454000000000,"state":"active","ping":100},{"user_id":352,"name":"Ruth","steam_id":76561198063296613,"connected_time":160000000000,"state":"active","ping":62},{"user_id":354,"name":"Sprayus #Rustypot","steam_id":76561198399216417,"connected_time":81000000000,"state":"active","ping":61},{"user_id":282,"name":"cister0","steam_id":76561198130195469,"connected_time":4389000000000,"state":"active","ping":78},{"user_id":332,"name":"Chambersite the Wizard","steam_id":76561198197022399,"connected_time":1691000000000,"state":"active","ping":59},{"user_id":347,"name":"hwleo","steam_id":76561198090848620,"connected_time":619000000000,"state":"active","ping":94},{"user_id":312,"name":"Gabys","steam_id":76561198282892553,"connected_time":2420000000000,"state":"active","ping":73}]},{"server_id":23,"name":"Uncletopia | Frankfurt | 7 | Stopwatch","name_short":"frk-7","host":"frk-1.de.uncletopia.com","port":27075,"enabled":true,"region":"eu","cc":"de","latitude":50.110924,"longitude":8.682127,"reserved":0,"last_update":"0001-01-01T00:00:00Z","name_a2s":"Uncletopia | Frankfurt | 7 | Stopwatch","protocol":17,"map":"workshop/koth_ramjam_rc1.ugc459778887","folder":"tf","game":"Team Fortress","app_id":440,"player_count":0,"max_players":24,"Bots":0,"server_type":"Dedicated","server_os":"Linux","password":true,"vac":true,"version":"7961495","steam_id":85568392924742827,"keywords":["cp","nocrits","nodmgspread","uncletopia"],"game_id":440,"stv_port":27076,"stv_name":"Uncletopia | Frankfurt | 7 | Stopwatch | STV","players":null},{"server_id":24,"name":"Uncletopia | Frankfurt | 8 | Community","name_short":"frk-8","host":"frk-1.de.uncletopia.com","port":27085,"enabled":true,"region":"eu","cc":"de","latitude":50.110924,"longitude":8.682127,"reserved":0,"last_update":"0001-01-01T00:00:00Z","name_a2s":"Uncletopia | Frankfurt | 8 | Community","protocol":17,"map":"workshop/pl_corrode_rc2.ugc546577989","folder":"tf","game":"Team Fortress","app_id":440,"player_count":0,"max_players":24,"Bots":0,"server_type":"Dedicated","server_os":"Linux","password":true,"vac":true,"version":"7961495","steam_id":85568392924742828,"keywords":["nocrits","nodmgspread","payload","uncletopia"],"game_id":440,"stv_port":27086,"stv_name":"Uncletopia | Frankfurt | 8 | Community | STV","players":null},{"server_id":202,"name":"Uncletopia | Hong Kong | 1 | All Maps","name_short":"hgk-1","host":"hgk-1.hk.uncletopia.com","port":27015,"enabled":true,"region":"asia","cc":"hk","latitude":22.302711,"longitude":114.177216,"reserved":0,"last_update":"0001-01-01T00:00:00Z","name_a2s":"Uncletopia | Hong Kong | 1 | All Maps","protocol":17,"map":"koth_king","folder":"tf","game":"Team Fortress","app_id":440,"player_count":0,"max_players":24,"Bots":0,"server_type":"Dedicated","server_os":"Linux","password":true,"vac":true,"version":"7961495","steam_id":85568392924494504,"keywords":["cp","nocrits","nodmgspread","uncletopia"],"game_id":440,"stv_port":27016,"stv_name":"Uncletopia | Hong Kong | 1 | All Maps | STV","players":null},{"server_id":1,"name":"Uncletopia | Los Angeles | 1 | All Maps","name_short":"lax-1","host":"lax-1.us.uncletopia.com","port":27015,"enabled":true,"region":"us-west","cc":"us","latitude":33.94279,"longitude":-118.41004,"reserved":0,"last_update":"0001-01-01T00:00:00Z","name_a2s":"Uncletopia | Los Angeles | 1 | All Maps","protocol":17,"map":"koth_viaduct","folder":"tf","game":"Team Fortress","app_id":440,"player_count":0,"max_players":24,"Bots":0,"server_type":"Dedicated","server_os":"Linux","password":true,"vac":true,"version":"7961495","steam_id":85568392924469991,"keywords":["cp","nocrits","nodmgspread","uncletopia"],"game_id":440,"stv_port":27016,"stv_name":"Uncletopia | Los Angeles | 1 | All Maps | STV","players":null},{"server_id":112,"name":"Uncletopia | Los Angeles | 2 | All Maps","name_short":"lax-2","host":"lax-1.us.uncletopia.com","port":27025,"enabled":true,"region":"us-west","cc":"us","latitude":33.94279,"longitude":-118.41004,"reserved":0,"last_update":"0001-01-01T00:00:00Z","name_a2s":"Uncletopia | Los Angeles | 2 | All Maps","protocol":17,"map":"koth_viaduct","folder":"tf","game":"Team Fortress","app_id":440,"player_count":0,"max_players":24,"Bots":0,"server_type":"Dedicated","server_os":"Linux","password":true,"vac":true,"version":"7961495","steam_id":85568392924469992,"keywords":["cp","nocrits","nodmgspread","uncletopia"],"game_id":440,"stv_port":27026,"stv_name":"Uncletopia | Los Angeles | 2 | All Maps | STV","players":null},{"server_id":324,"name":"Uncletopia | Los Angeles | 3 | All Maps","name_short":"lax-3","host":"lax-1.us.uncletopia.com","port":27035,"enabled":true,"region":"us-west","cc":"us","latitude":33.94279,"longitude":-118.41004,"reserved":0,"last_update":"0001-01-01T00:00:00Z","name_a2s":"Uncletopia | Los Angeles | 3 | All Maps","protocol":17,"map":"pl_barnblitz","folder":"tf","game":"Team Fortress","app_id":440,"player_count":0,"max_players":24,"Bots":0,"server_type":"Dedicated","server_os":"Linux","password":true,"vac":true,"version":"7961495","steam_id":85568392924510198,"keywords":["nocrits","nodmgspread","payload","uncletopia"],"game_id":440,"stv_port":27036,"stv_name":"Uncletopia | Los Angeles | 3 | All Maps | STV","players":null},{"server_id":25,"name":"Uncletopia | Los Angeles | 4 | Stopwatch","name_short":"lax-4","host":"lax-1.us.uncletopia.com","port":27045,"enabled":true,"region":"us-west","cc":"us","latitude":33.94279,"longitude":-118.41004,"reserved":0,"last_update":"0001-01-01T00:00:00Z","name_a2s":"Uncletopia | Los Angeles | 4 | Stopwatch","protocol":17,"map":"pl_barnblitz","folder":"tf","game":"Team Fortress","app_id":440,"player_count":0,"max_players":24,"Bots":0,"server_type":"Dedicated","server_os":"Linux","password":true,"vac":true,"version":"7961495","steam_id":85568392924510199,"keywords":["nocrits","nodmgspread","payload","uncletopia"],"game_id":440,"stv_port":27046,"stv_name":"Uncletopia | Los Angeles | 4 | Stopwatch | STV","players":null},{"server_id":11,"name":"Uncletopia | London | 1 | All Maps","name_short":"lon-1","host":"lon-1.uk.uncletopia.com","port":27015,"enabled":true,"region":"eu","cc":"gb","latitude":51.509865,"longitude":-0.118092,"reserved":0,"last_update":"0001-01-01T00:00:00Z","name_a2s":"Uncletopia | London | 1 | All Maps","protocol":17,"map":"pl_borneo","folder":"tf","game":"Team Fortress","app_id":440,"player_count":24,"max_players":24,"Bots":0,"server_type":"Dedicated","server_os":"Linux","password":true,"vac":true,"version":"7961495","steam_id":85568392924367362,"keywords":["nocrits","nodmgspread","payload","uncletopia"],"game_id":440,"stv_port":27016,"stv_name":"Uncletopia | London | 1 | All Maps | STV","players":[{"user_id":454,"name":"Finkaksu Devourer of Sour Candy","steam_id":76561198201389163,"connected_time":8194000000000,"state":"active","ping":72},{"user_id":549,"name":"Senior","steam_id":76561198065014164,"connected_time":1202000000000,"state":"active","ping":49},{"user_id":536,"name":"Topia","steam_id":76561198163571788,"connected_time":2159000000000,"state":"active","ping":96},{"user_id":538,"name":"STEFF","steam_id":76561198013306538,"connected_time":1826000000000,"state":"active","ping":55},{"user_id":539,"name":"Der Herr Doktor","steam_id":76561198119476089,"connected_time":1671000000000,"state":"active","ping":70},{"user_id":496,"name":"Ville","steam_id":76561198137424821,"connected_time":6054000000000,"state":"active","ping":66},{"user_id":523,"name":"⚧aura⚧","steam_id":76561198066258544,"connected_time":4256000000000,"state":"active","ping":64},{"user_id":565,"name":"xva","steam_id":76561198969286813,"connected_time":179000000000,"state":"active","ping":70},{"user_id":537,"name":"Kora","steam_id":76561198343198306,"connected_time":1998000000000,"state":"active","ping":66},{"user_id":525,"name":"charlotte","steam_id":76561198075129898,"connected_time":4221000000000,"state":"active","ping":31},{"user_id":554,"name":"Femboy Thighs","steam_id":76561198115496457,"connected_time":705000000000,"state":"active","ping":40},{"user_id":557,"name":"nappo","steam_id":76561198060105180,"connected_time":661000000000,"state":"active","ping":60},{"user_id":542,"name":"Chish n' Fips","steam_id":76561198012300440,"connected_time":1470000000000,"state":"active","ping":47},{"user_id":559,"name":"imagine being able to talk","steam_id":76561198420349969,"connected_time":602000000000,"state":"active","ping":108},{"user_id":522,"name":"whimsy.","steam_id":76561198878171763,"connected_time":4274000000000,"state":"active","ping":55},{"user_id":567,"name":"Gaius","steam_id":76561198188174963,"connected_time":66000000000,"state":"active","ping":63},{"user_id":493,"name":"Watereaters","steam_id":76561198165489058,"connected_time":6437000000000,"state":"active","ping":52},{"user_id":562,"name":"Titut11","steam_id":76561198392505656,"connected_time":479000000000,"state":"active","ping":81},{"user_id":564,"name":"Kahvi","steam_id":76561198723244199,"connected_time":393000000000,"state":"active","ping":78},{"user_id":520,"name":"kelpie (eepiest girl)","steam_id":76561198128327529,"connected_time":4540000000000,"state":"active","ping":48},{"user_id":558,"name":"GoblinGaming","steam_id":76561198360395476,"connected_time":660000000000,"state":"active","ping":30},{"user_id":529,"name":"Clown :o)","steam_id":76561198074657015,"connected_time":3705000000000,"state":"active","ping":60},{"user_id":566,"name":"Clumsy Lesbean","steam_id":76561198370561647,"connected_time":131000000000,"state":"active","ping":75},{"user_id":547,"name":"lily.exe","steam_id":76561198049840460,"connected_time":1286000000000,"state":"active","ping":56}]},{"server_id":114,"name":"Uncletopia | London | 2 | All Maps","name_short":"lon-2","host":"lon-1.uk.uncletopia.com","port":27025,"enabled":true,"region":"eu","cc":"gb","latitude":51.509865,"longitude":-0.118092,"reserved":0,"last_update":"0001-01-01T00:00:00Z","name_a2s":"Uncletopia | London | 2 | All Maps","protocol":17,"map":"koth_viaduct","folder":"tf","game":"Team Fortress","app_id":440,"player_count":24,"max_players":24,"Bots":0,"server_type":"Dedicated","server_os":"Linux","password":true,"vac":true,"version":"7961495","steam_id":85568392924470941,"keywords":["cp","nocrits","nodmgspread","uncletopia"],"game_id":440,"stv_port":27026,"stv_name":"Uncletopia | London | 2 | All Maps | STV","players":[{"user_id":230,"name":"Pontos","steam_id":76561198056855411,"connected_time":2164000000000,"state":"active","ping":86},{"user_id":252,"name":"angry russian man","steam_id":76561198386712795,"connected_time":179000000000,"state":"active","ping":49},{"user_id":189,"name":"Scrooge Mc Clunk","steam_id":76561198885945084,"connected_time":5245000000000,"state":"active","ping":59},{"user_id":253,"name":"☠The Boio☠","steam_id":76561198114166378,"connected_time":179000000000,"state":"active","ping":75},{"user_id":240,"name":"BTD","steam_id":76561199046044993,"connected_time":1215000000000,"state":"active","ping":59},{"user_id":254,"name":"lawn","steam_id":76561198001243486,"connected_time":113000000000,"state":"active","ping":45},{"user_id":255,"name":"GGabe","steam_id":76561198117199068,"connected_time":109000000000,"state":"active","ping":77},{"user_id":243,"name":"silicon based life form","steam_id":76561199127121346,"connected_time":997000000000,"state":"active","ping":52},{"user_id":256,"name":"_Context_","steam_id":76561199163359312,"connected_time":71000000000,"state":"active","ping":62},{"user_id":257,"name":"British Disapproval","steam_id":76561198001375260,"connected_time":66000000000,"state":"active","ping":57},{"user_id":258,"name":"Glonkdod","steam_id":76561198035119964,"connected_time":20000000000,"state":"active","ping":60},{"user_id":211,"name":"Sir Cauterize","steam_id":76561198047079422,"connected_time":3580000000000,"state":"active","ping":51},{"user_id":248,"name":"GermanGopnik","steam_id":76561198985128247,"connected_time":695000000000,"state":"active","ping":69},{"user_id":233,"name":"simon","steam_id":76561198880361394,"connected_time":1988000000000,"state":"active","ping":63},{"user_id":241,"name":"roblan11","steam_id":76561198066839258,"connected_time":1125000000000,"state":"active","ping":45},{"user_id":204,"name":"kadanov","steam_id":76561198055365234,"connected_time":3825000000000,"state":"active","ping":90},{"user_id":193,"name":"soil.dirt.earth","steam_id":76561198014377623,"connected_time":4850000000000,"state":"active","ping":33},{"user_id":259,"name":"yuck","steam_id":76561197987249568,"connected_time":15000000000,"state":"active","ping":120},{"user_id":164,"name":"cp lover","steam_id":76561198413275515,"connected_time":6368000000000,"state":"active","ping":77},{"user_id":206,"name":"CrangSign","steam_id":76561198370580355,"connected_time":3813000000000,"state":"active","ping":59},{"user_id":224,"name":"Dr. Le Quack","steam_id":76561197995711176,"connected_time":2407000000000,"state":"active","ping":87},{"user_id":260,"name":"Agro | KritzKast","steam_id":76561197970498549,"connected_time":2000000000,"state":"spawning","ping":27},{"user_id":250,"name":"Warrior555MainsGanon","steam_id":76561198388627786,"connected_time":368000000000,"state":"active","ping":64},{"user_id":231,"name":"AI | Davidoscki","steam_id":76561198129166046,"connected_time":2112000000000,"state":"active","ping":97}]},{"server_id":320,"name":"Uncletopia | London | 3 | All Maps","name_short":"lon-3","host":"lon-1.uk.uncletopia.com","port":27035,"enabled":true,"region":"eu","cc":"gb","latitude":51.509865,"longitude":-0.118092,"reserved":0,"last_update":"0001-01-01T00:00:00Z","name_a2s":"Uncletopia | London | 3 | All Maps","protocol":17,"map":"plr_hightower","folder":"tf","game":"Team Fortress","app_id":440,"player_count":24,"max_players":24,"Bots":0,"server_type":"Dedicated","server_os":"Linux","password":true,"vac":true,"version":"7961495","steam_id":85568392924510192,"keywords":["nocrits","nodmgspread","payload","uncletopia"],"game_id":440,"stv_port":27036,"stv_name":"Uncletopia | London | 3 | All Maps | STV","players":[{"user_id":133,"name":"Pats (Gifted items Collector)","steam_id":76561198418538887,"connected_time":6000000000,"state":"spawning","ping":78},{"user_id":73,"name":"DaisyTheCat","steam_id":76561198241732704,"connected_time":2976000000000,"state":"active","ping":47},{"user_id":95,"name":"SLoW","steam_id":76561198032650972,"connected_time":2466000000000,"state":"active","ping":105},{"user_id":111,"name":"ender45","steam_id":76561198840955715,"connected_time":1197000000000,"state":"active","ping":39},{"user_id":124,"name":"sCOOB","steam_id":76561198164142917,"connected_time":239000000000,"state":"active","ping":92},{"user_id":79,"name":"[EXDr]Specky","steam_id":76561198302518477,"connected_time":2791000000000,"state":"active","ping":51},{"user_id":98,"name":"RLCrazyCat3","steam_id":76561197983757878,"connected_time":2033000000000,"state":"active","ping":65},{"user_id":110,"name":"DXD Tech","steam_id":76561198358379587,"connected_time":1285000000000,"state":"active","ping":70},{"user_id":97,"name":"KFC Manager","steam_id":76561198066374956,"connected_time":2363000000000,"state":"active","ping":85},{"user_id":120,"name":"Razef","steam_id":76561198030309484,"connected_time":331000000000,"state":"active","ping":59},{"user_id":127,"name":"Turek","steam_id":76561198280066503,"connected_time":187000000000,"state":"active","ping":90},{"user_id":82,"name":"Deez nuts","steam_id":76561199429562693,"connected_time":2756000000000,"state":"active","ping":79},{"user_id":128,"name":"Goblin on deez nuts","steam_id":76561199070562554,"connected_time":171000000000,"state":"active","ping":62},{"user_id":122,"name":"Hansi","steam_id":76561198035577047,"connected_time":291000000000,"state":"active","ping":70},{"user_id":70,"name":"RABBAIT UDDERS","steam_id":76561198169852789,"connected_time":3105000000000,"state":"active","ping":43},{"user_id":126,"name":"Plep","steam_id":76561198840259819,"connected_time":213000000000,"state":"active","ping":60},{"user_id":117,"name":"eeg","steam_id":76561198323372946,"connected_time":402000000000,"state":"active","ping":56},{"user_id":129,"name":"Simonek","steam_id":76561198340843683,"connected_time":85000000000,"state":"active","ping":67},{"user_id":131,"name":"Drunkenkidney","steam_id":76561197995116708,"connected_time":69000000000,"state":"active","ping":61},{"user_id":86,"name":"JSX","steam_id":76561198039097662,"connected_time":2710000000000,"state":"active","ping":75},{"user_id":90,"name":"TheEventGuy","steam_id":76561197972797744,"connected_time":2597000000000,"state":"active","ping":70},{"user_id":92,"name":"Gkiller","steam_id":76561198169086450,"connected_time":2551000000000,"state":"active","ping":87},{"user_id":115,"name":"Vaffeljarn","steam_id":76561198151060365,"connected_time":987000000000,"state":"active","ping":69},{"user_id":132,"name":"DEad","steam_id":76561198023708262,"connected_time":49000000000,"state":"active","ping":113}]},{"server_id":321,"name":"Uncletopia | London | 4 | All Maps","name_short":"lon-4","host":"lon-1.uk.uncletopia.com","port":27045,"enabled":true,"region":"eu","cc":"gb","latitude":51.509865,"longitude":-0.118092,"reserved":0,"last_update":"0001-01-01T00:00:00Z","name_a2s":"Uncletopia | London | 4 | All Maps","protocol":17,"map":"koth_cascade","folder":"tf","game":"Team Fortress","app_id":440,"player_count":0,"max_players":24,"Bots":0,"server_type":"Dedicated","server_os":"Linux","password":true,"vac":true,"version":"7961495","steam_id":85568392924510193,"keywords":["cp","nocrits","nodmgspread","uncletopia"],"game_id":440,"stv_port":27046,"stv_name":"Uncletopia | London | 4 | All Maps | STV","players":null},{"server_id":21,"name":"Uncletopia | London | 5 | All Maps","name_short":"lon-5","host":"lon-1.uk.uncletopia.com","port":27055,"enabled":true,"region":"eu","cc":"gb","latitude":51.509865,"longitude":-0.118092,"reserved":0,"last_update":"0001-01-01T00:00:00Z","name_a2s":"Uncletopia | London | 5 | All Maps","protocol":17,"map":"cp_snakewater_final1","folder":"tf","game":"Team Fortress","app_id":440,"player_count":12,"max_players":24,"Bots":0,"server_type":"Dedicated","server_os":"Linux","password":true,"vac":true,"version":"7961495","steam_id":85568392924742829,"keywords":["cp","nocrits","nodmgspread","uncletopia"],"game_id":440,"stv_port":27056,"stv_name":"Uncletopia | London | 5 | All Maps | STV","players":[{"user_id":46,"name":"Cookies and Bakies","steam_id":76561198017442928,"connected_time":98000000000,"state":"active","ping":52},{"user_id":49,"name":"spy in the base","steam_id":76561198284570752,"connected_time":47000000000,"state":"active","ping":67},{"user_id":36,"name":"FoOzTV","steam_id":76561197998636728,"connected_time":508000000000,"state":"active","ping":55},{"user_id":27,"name":"mumbler","steam_id":76561197970641239,"connected_time":780000000000,"state":"active","ping":54},{"user_id":24,"name":"meatsoupcube","steam_id":76561198276802249,"connected_time":834000000000,"state":"active","ping":92},{"user_id":39,"name":"tapeworms!","steam_id":76561198069649097,"connected_time":351000000000,"state":"active","ping":50},{"user_id":41,"name":"Fleecesnbks","steam_id":76561198880187991,"connected_time":273000000000,"state":"active","ping":57},{"user_id":31,"name":"FireStorm","steam_id":76561198350478325,"connected_time":655000000000,"state":"active","ping":45},{"user_id":32,"name":"mary","steam_id":76561198014828037,"connected_time":654000000000,"state":"active","ping":52},{"user_id":34,"name":"bombo112","steam_id":76561198059743551,"connected_time":592000000000,"state":"active","ping":76},{"user_id":35,"name":"Wuffington","steam_id":76561198033762881,"connected_time":550000000000,"state":"active","ping":47},{"user_id":43,"name":"bryophyta","steam_id":76561197968945306,"connected_time":267000000000,"state":"active","ping":70}]},{"server_id":22,"name":"Uncletopia | London | 6 | All Maps","name_short":"lon-6","host":"lon-1.uk.uncletopia.com","port":27065,"enabled":true,"region":"eu","cc":"gb","latitude":51.509865,"longitude":-0.118092,"reserved":0,"last_update":"0001-01-01T00:00:00Z","name_a2s":"Uncletopia | London | 6 | All Maps","protocol":17,"map":"koth_lakeside_final","folder":"tf","game":"Team Fortress","app_id":440,"player_count":0,"max_players":24,"Bots":0,"server_type":"Dedicated","server_os":"Linux","password":true,"vac":true,"version":"7961495","steam_id":85568392924742830,"keywords":["cp","nocrits","nodmgspread","uncletopia"],"game_id":440,"stv_port":27066,"stv_name":"Uncletopia | London | 6 | All Maps | STV","players":null},{"server_id":40,"name":"Uncletopia | London | 7 | Stopwatch","name_short":"lon-7","host":"lon-1.uk.uncletopia.com","port":27075,"enabled":true,"region":"eu","cc":"gb","latitude":51.509865,"longitude":-0.118092,"reserved":0,"last_update":"0001-01-01T00:00:00Z","name_a2s":"Uncletopia | London | 7 | Stopwatch","protocol":17,"map":"koth_lakeside_final","folder":"tf","game":"Team Fortress","app_id":440,"player_count":0,"max_players":24,"Bots":0,"server_type":"Dedicated","server_os":"Linux","password":true,"vac":true,"version":"7961495","steam_id":85568392924964314,"keywords":["cp","nocrits","nodmgspread","uncletopia"],"game_id":440,"stv_port":27076,"stv_name":"Uncletopia | London | 7 | Stopwatch | STV","players":null},{"server_id":41,"name":"Uncletopia | London | 8 | Community","name_short":"lon-8","host":"lon-1.uk.uncletopia.com","port":27085,"enabled":true,"region":"eu","cc":"gb","latitude":51.509865,"longitude":-0.118092,"reserved":0,"last_update":"0001-01-01T00:00:00Z","name_a2s":"Uncletopia | London | 8 | Community","protocol":17,"map":"cp_snakewater_final1","folder":"tf","game":"Team Fortress","app_id":440,"player_count":0,"max_players":24,"Bots":0,"server_type":"Dedicated","server_os":"Linux","password":true,"vac":true,"version":"7961495","steam_id":85568392924964315,"keywords":["cp","nocrits","nodmgspread","uncletopia"],"game_id":440,"stv_port":27086,"stv_name":"Uncletopia | London | 8 | Community | STV","players":null},{"server_id":300,"name":"Uncletopia | Montréal | 1 | One Thousand Uncles","name_short":"mtl-1","host":"mtl-1.ca.uncletopia.com","port":27015,"enabled":true,"region":"us-east","cc":"ca","latitude":45.50889,"longitude":-73.56167,"reserved":0,"last_update":"0001-01-01T00:00:00Z","name_a2s":"","protocol":0,"map":"","folder":"","game":"","app_id":0,"player_count":2,"max_players":0,"Bots":0,"server_type":"","server_os":"","password":false,"vac":false,"version":"","steam_id":0,"keywords":null,"game_id":0,"stv_port":0,"stv_name":"","players":[{"user_id":60,"name":"Lucas096br","steam_id":76561198350760997,"connected_time":1324000000000,"state":"active","ping":217},{"user_id":77,"name":"general.b","steam_id":76561198162480519,"connected_time":602000000000,"state":"active","ping":40}]},{"server_id":301,"name":"Uncletopia | Montréal | 2 | One Thousand Uncles","name_short":"mtl-2","host":"mtl-1.ca.uncletopia.com","port":27025,"enabled":true,"region":"us-east","cc":"ca","latitude":45.50889,"longitude":-73.56167,"reserved":0,"last_update":"0001-01-01T00:00:00Z","name_a2s":"","protocol":0,"map":"","folder":"","game":"","app_id":0,"player_count":0,"max_players":0,"Bots":0,"server_type":"","server_os":"","password":false,"vac":false,"version":"","steam_id":0,"keywords":null,"game_id":0,"stv_port":0,"stv_name":"","players":null},{"server_id":302,"name":"Uncletopia | Montréal | 3 | One Thousand Uncles","name_short":"mtl-3","host":"mtl-1.ca.uncletopia.com","port":27035,"enabled":true,"region":"us-east","cc":"ca","latitude":45.50889,"longitude":-73.56167,"reserved":0,"last_update":"0001-01-01T00:00:00Z","name_a2s":"","protocol":0,"map":"","folder":"","game":"","app_id":0,"player_count":0,"max_players":0,"Bots":0,"server_type":"","server_os":"","password":false,"vac":false,"version":"","steam_id":0,"keywords":null,"game_id":0,"stv_port":0,"stv_name":"","players":null},{"server_id":13,"name":"Uncletopia | New York City | 1 | All Maps","name_short":"nyc-1","host":"nyc-1.us.uncletopia.com","port":27015,"enabled":true,"region":"us-east","cc":"us","latitude":40.73061,"longitude":-73.93524,"reserved":0,"last_update":"0001-01-01T00:00:00Z","name_a2s":"Uncletopia | New York City | 1 | All Maps","protocol":17,"map":"cp_sunshine","folder":"tf","game":"Team Fortress","app_id":440,"player_count":2,"max_players":24,"Bots":0,"server_type":"Dedicated","server_os":"Linux","password":true,"vac":true,"version":"7961495","steam_id":85568392924469993,"keywords":["cp","nocrits","nodmgspread","uncletopia"],"game_id":440,"stv_port":27016,"stv_name":"Uncletopia | New York City | 1 | All Maps | STV","players":[{"user_id":18,"name":"Bee_Pirate","steam_id":76561199000599111,"connected_time":711000000000,"state":"active","ping":59},{"user_id":19,"name":"bleach65","steam_id":76561198115270571,"connected_time":502000000000,"state":"active","ping":75}]},{"server_id":14,"name":"Uncletopia | New York City | 2 | All Maps","name_short":"nyc-2","host":"nyc-1.us.uncletopia.com","port":27025,"enabled":true,"region":"us-east","cc":"us","latitude":40.73061,"longitude":-73.93524,"reserved":0,"last_update":"0001-01-01T00:00:00Z","name_a2s":"Uncletopia | New York City | 2 | All Maps","protocol":17,"map":"pl_snowycoast","folder":"tf","game":"Team Fortress","app_id":440,"player_count":2,"max_players":24,"Bots":0,"server_type":"Dedicated","server_os":"Linux","password":true,"vac":true,"version":"7961495","steam_id":85568392924469994,"keywords":["nocrits","nodmgspread","payload","uncletopia"],"game_id":440,"stv_port":27026,"stv_name":"Uncletopia | New York City | 2 | All Maps | STV","players":[{"user_id":6,"name":"Nightmare at Crack Axle Canyon","steam_id":76561198319986579,"connected_time":267000000000,"state":"active","ping":83},{"user_id":7,"name":"pussyclapper69 (Ape)","steam_id":76561198237827742,"connected_time":87000000000,"state":"active","ping":43}]},{"server_id":15,"name":"Uncletopia | New York City | 3 | Stopwatch","name_short":"nyc-3","host":"nyc-1.us.uncletopia.com","port":27035,"enabled":true,"region":"us-east","cc":"us","latitude":40.73061,"longitude":-73.93524,"reserved":0,"last_update":"0001-01-01T00:00:00Z","name_a2s":"Uncletopia | New York City | 3 | Stopwatch","protocol":17,"map":"pl_snowycoast","folder":"tf","game":"Team Fortress","app_id":440,"player_count":0,"max_players":24,"Bots":0,"server_type":"Dedicated","server_os":"Linux","password":true,"vac":true,"version":"7961495","steam_id":85568392924742820,"keywords":["nocrits","nodmgspread","payload","uncletopia"],"game_id":440,"stv_port":27036,"stv_name":"Uncletopia | New York City | 3 | Stopwatch | STV","players":null},{"server_id":16,"name":"Uncletopia | New York City | 4 | Community","name_short":"nyc-4","host":"nyc-1.us.uncletopia.com","port":27045,"enabled":true,"region":"us-east","cc":"us","latitude":40.73061,"longitude":-73.93524,"reserved":0,"last_update":"0001-01-01T00:00:00Z","name_a2s":"Uncletopia | New York City | 4 | Community","protocol":17,"map":"workshop/koth_synthetic_rc6a.ugc1549817316","folder":"tf","game":"Team Fortress","app_id":440,"player_count":0,"max_players":24,"Bots":0,"server_type":"Dedicated","server_os":"Linux","password":true,"vac":true,"version":"7961495","steam_id":85568392924742821,"keywords":["cp","nocrits","nodmgspread","uncletopia"],"game_id":440,"stv_port":27046,"stv_name":"Uncletopia | New York City | 4 | Community | STV","players":null},{"server_id":142,"name":"Uncletopia | São Paulo | 1 | All Maps","name_short":"sao-1","host":"sao-1.br.uncletopia.com","port":27015,"enabled":true,"region":"sa","cc":"br","latitude":-23.533773,"longitude":-46.62529,"reserved":0,"last_update":"0001-01-01T00:00:00Z","name_a2s":"Uncletopia | São Paulo | 1 | All Maps","protocol":17,"map":"koth_lakeside_final","folder":"tf","game":"Team Fortress","app_id":440,"player_count":2,"max_players":24,"Bots":0,"server_type":"Dedicated","server_os":"Linux","password":true,"vac":true,"version":"7961495","steam_id":85568392924469996,"keywords":["cp","nocrits","nodmgspread","uncletopia"],"game_id":440,"stv_port":27016,"stv_name":"Uncletopia | São Paulo | 1 | All Maps | STV","players":[{"user_id":5,"name":"O corvo","steam_id":76561199433196951,"connected_time":2717000000000,"state":"active","ping":56},{"user_id":7,"name":"capuanohomero","steam_id":76561199223240399,"connected_time":1972000000000,"state":"active","ping":60}]},{"server_id":143,"name":"Uncletopia | São Paulo | 2 | Community","name_short":"sao-2","host":"sao-2.br.uncletopia.com","port":27015,"enabled":true,"region":"sa","cc":"br","latitude":-23.533773,"longitude":-46.62529,"reserved":0,"last_update":"0001-01-01T00:00:00Z","name_a2s":"Uncletopia | São Paulo | 2 | Community","protocol":17,"map":"workshop/pl_cashworks_final1.ugc2904065412","folder":"tf","game":"Team Fortress","app_id":440,"player_count":0,"max_players":24,"Bots":0,"server_type":"Dedicated","server_os":"Linux","password":true,"vac":true,"version":"7961495","steam_id":85568392924485349,"keywords":["nocrits","nodmgspread","payload","uncletopia"],"game_id":440,"stv_port":27016,"stv_name":"Uncletopia | São Paulo | 2 | Community | STV","players":null},{"server_id":7,"name":"Uncletopia | Seattle | 1 | All Maps","name_short":"sea-1","host":"sea-1.us.uncletopia.com","port":27015,"enabled":true,"region":"us-west","cc":"us","latitude":47.608013,"longitude":-122.33517,"reserved":0,"last_update":"0001-01-01T00:00:00Z","name_a2s":"Uncletopia | Seattle | 1 | All Maps","protocol":17,"map":"koth_highpass","folder":"tf","game":"Team Fortress","app_id":440,"player_count":0,"max_players":24,"Bots":0,"server_type":"Dedicated","server_os":"Linux","password":true,"vac":true,"version":"7961495","steam_id":85568392924469997,"keywords":["cp","nocrits","nodmgspread","uncletopia"],"game_id":440,"stv_port":27016,"stv_name":"Uncletopia | Seattle | 1 | All Maps | STV","players":null},{"server_id":119,"name":"Uncletopia | Seattle | 2 | All Maps","name_short":"sea-2","host":"sea-1.us.uncletopia.com","port":27025,"enabled":true,"region":"us-west","cc":"us","latitude":47.608013,"longitude":-122.33517,"reserved":0,"last_update":"0001-01-01T00:00:00Z","name_a2s":"Uncletopia | Seattle | 2 | All Maps","protocol":17,"map":"cp_process_final","folder":"tf","game":"Team Fortress","app_id":440,"player_count":0,"max_players":24,"Bots":0,"server_type":"Dedicated","server_os":"Linux","password":true,"vac":true,"version":"7961495","steam_id":85568392924469998,"keywords":["cp","nocrits","nodmgspread","uncletopia"],"game_id":440,"stv_port":27026,"stv_name":"Uncletopia | Seattle | 2 | All Maps | STV","players":null},{"server_id":406,"name":"Uncletopia | Seattle | 3 | Stopwatch","name_short":"sea-3","host":"sea-1.us.uncletopia.com","port":27035,"enabled":true,"region":"us-west","cc":"us","latitude":47.608013,"longitude":-122.33517,"reserved":0,"last_update":"0001-01-01T00:00:00Z","name_a2s":"Uncletopia | Seattle | 3 | Stopwatch","protocol":17,"map":"pl_pier","folder":"tf","game":"Team Fortress","app_id":440,"player_count":0,"max_players":24,"Bots":0,"server_type":"Dedicated","server_os":"Linux","password":true,"vac":true,"version":"7961495","steam_id":85568392924515217,"keywords":["nocrits","nodmgspread","payload","uncletopia"],"game_id":440,"stv_port":27036,"stv_name":"Uncletopia | Seattle | 3 | Stopwatch | STV","players":null},{"server_id":17,"name":"Uncletopia | San Francisco | 1 | All Maps","name_short":"sfo-1","host":"sfo-1.us.uncletopia.com","port":27015,"enabled":true,"region":"us-west","cc":"us","latitude":37.77397,"longitude":-122.4313,"reserved":0,"last_update":"0001-01-01T00:00:00Z","name_a2s":"Uncletopia | San Francisco | 1 | All Maps","protocol":17,"map":"koth_cascade","folder":"tf","game":"Team Fortress","app_id":440,"player_count":0,"max_players":24,"Bots":0,"server_type":"Dedicated","server_os":"Linux","password":true,"vac":true,"version":"7961495","steam_id":85568392924469999,"keywords":["cp","nocrits","nodmgspread","uncletopia"],"game_id":440,"stv_port":27016,"stv_name":"Uncletopia | San Francisco | 1 | All Maps | STV","players":null},{"server_id":18,"name":"Uncletopia | San Francisco | 2 | All Maps","name_short":"sfo-2","host":"sfo-1.us.uncletopia.com","port":27025,"enabled":true,"region":"us-west","cc":"us","latitude":37.77397,"longitude":-122.4313,"reserved":0,"last_update":"0001-01-01T00:00:00Z","name_a2s":"Uncletopia | San Francisco | 2 | All Maps","protocol":17,"map":"pl_upward","folder":"tf","game":"Team Fortress","app_id":440,"player_count":11,"max_players":24,"Bots":0,"server_type":"Dedicated","server_os":"Linux","password":true,"vac":true,"version":"7961495","steam_id":85568392924470000,"keywords":["nocrits","nodmgspread","payload","uncletopia"],"game_id":440,"stv_port":27026,"stv_name":"Uncletopia | San Francisco | 2 | All Maps | STV","players":[{"user_id":3,"name":"Sticky Man","steam_id":76561199068340760,"connected_time":2928000000000,"state":"active","ping":92},{"user_id":4,"name":"SomeFatKid","steam_id":76561199067572106,"connected_time":2925000000000,"state":"active","ping":89},{"user_id":5,"name":"Oktayey","steam_id":76561198143213426,"connected_time":2722000000000,"state":"active","ping":43},{"user_id":8,"name":"Thequirka","steam_id":76561198968058652,"connected_time":1416000000000,"state":"active","ping":66},{"user_id":10,"name":"Mom","steam_id":76561198207936000,"connected_time":629000000000,"state":"active","ping":39},{"user_id":11,"name":"Nom Skirrett","steam_id":76561198014600788,"connected_time":411000000000,"state":"active","ping":76},{"user_id":13,"name":"spoc13","steam_id":76561198091808119,"connected_time":164000000000,"state":"active","ping":47},{"user_id":14,"name":"the pizza","steam_id":76561198221331476,"connected_time":160000000000,"state":"active","ping":44},{"user_id":15,"name":"Slimey","steam_id":76561199200969139,"connected_time":149000000000,"state":"active","ping":94},{"user_id":16,"name":"fish","steam_id":76561198054070811,"connected_time":135000000000,"state":"active","ping":56},{"user_id":18,"name":"Dallas","steam_id":76561198066542919,"connected_time":0,"state":"spawning","ping":26}]},{"server_id":19,"name":"Uncletopia | San Francisco | 3 | Stopwatch","name_short":"sfo-3","host":"sfo-1.us.uncletopia.com","port":27035,"enabled":true,"region":"us-west","cc":"us","latitude":37.77397,"longitude":-122.4313,"reserved":0,"last_update":"0001-01-01T00:00:00Z","name_a2s":"Uncletopia | San Francisco | 3 | Stopwatch","protocol":17,"map":"pl_pier","folder":"tf","game":"Team Fortress","app_id":440,"player_count":0,"max_players":24,"Bots":0,"server_type":"Dedicated","server_os":"Linux","password":true,"vac":true,"version":"7961495","steam_id":85568392924742824,"keywords":["nocrits","nodmgspread","payload","uncletopia"],"game_id":440,"stv_port":27036,"stv_name":"Uncletopia | San Francisco | 3 | Stopwatch | STV","players":null},{"server_id":20,"name":"Uncletopia | San Francisco | 4 | Community","name_short":"sfo-4","host":"sfo-1.us.uncletopia.com","port":27045,"enabled":true,"region":"us-west","cc":"us","latitude":37.77397,"longitude":-122.4313,"reserved":0,"last_update":"0001-01-01T00:00:00Z","name_a2s":"Uncletopia | San Francisco | 4 | Community","protocol":17,"map":"pl_pier","folder":"tf","game":"Team Fortress","app_id":440,"player_count":0,"max_players":24,"Bots":0,"server_type":"Dedicated","server_os":"Linux","password":true,"vac":true,"version":"7961495","steam_id":85568392924742826,"keywords":["nocrits","nodmgspread","payload","uncletopia"],"game_id":440,"stv_port":27046,"stv_name":"Uncletopia | San Francisco | 4 | Community | STV","players":null},{"server_id":141,"name":"Uncletopia | Sydney | 1 | All Maps","name_short":"syd-1","host":"syd-1.au.uncletopia.com","port":27015,"enabled":true,"region":"au","cc":"au","latitude":-33.865143,"longitude":151.2099,"reserved":0,"last_update":"0001-01-01T00:00:00Z","name_a2s":"Uncletopia | Sydney | 1 | All Maps","protocol":17,"map":"ctf_2fort","folder":"tf","game":"Team Fortress","app_id":440,"player_count":0,"max_players":24,"Bots":0,"server_type":"Dedicated","server_os":"Linux","password":true,"vac":true,"version":"7961495","steam_id":85568392924470001,"keywords":["ctf","nocrits","nodmgspread","uncletopia"],"game_id":440,"stv_port":27016,"stv_name":"Uncletopia | Sydney | 1 | All Maps | STV","players":null},{"server_id":123,"name":"Uncletopia | Sydney | 2 | All Maps","name_short":"syd-2","host":"syd-1.au.uncletopia.com","port":27025,"enabled":true,"region":"au","cc":"au","latitude":-33.865143,"longitude":151.2099,"reserved":0,"last_update":"0001-01-01T00:00:00Z","name_a2s":"Uncletopia | Sydney | 2 | All Maps","protocol":17,"map":"cp_mountainlab","folder":"tf","game":"Team Fortress","app_id":440,"player_count":0,"max_players":24,"Bots":0,"server_type":"Dedicated","server_os":"Linux","password":true,"vac":true,"version":"7961495","steam_id":85568392924470002,"keywords":["cp","nocrits","nodmgspread","uncletopia"],"game_id":440,"stv_port":27026,"stv_name":"Uncletopia | Sydney | 2 | All Maps | STV","players":null},{"server_id":395,"name":"Uncletopia | Sydney | 3 | All Maps","name_short":"syd-3","host":"syd-1.au.uncletopia.com","port":27035,"enabled":true,"region":"au","cc":"au","latitude":-33.865143,"longitude":151.2099,"reserved":0,"last_update":"0001-01-01T00:00:00Z","name_a2s":"Uncletopia | Sydney | 3 | All Maps","protocol":17,"map":"koth_cascade","folder":"tf","game":"Team Fortress","app_id":440,"player_count":0,"max_players":24,"Bots":0,"server_type":"Dedicated","server_os":"Linux","password":true,"vac":true,"version":"7961495","steam_id":85568392925194467,"keywords":["cp","nocrits","nodmgspread","uncletopia"],"game_id":440,"stv_port":27036,"stv_name":"Uncletopia | Sydney | 3 | All Maps | STV","players":null},{"server_id":396,"name":"Uncletopia | Sydney | 4 | All Maps","name_short":"syd-4","host":"syd-1.au.uncletopia.com","port":27045,"enabled":true,"region":"au","cc":"au","latitude":-33.865143,"longitude":151.2099,"reserved":0,"last_update":"0001-01-01T00:00:00Z","name_a2s":"Uncletopia | Sydney | 4 | All Maps","protocol":17,"map":"cp_snakewater_final1","folder":"tf","game":"Team Fortress","app_id":440,"player_count":0,"max_players":24,"Bots":0,"server_type":"Dedicated","server_os":"Linux","password":true,"vac":true,"version":"7961495","steam_id":85568392925397958,"keywords":["cp","nocrits","nodmgspread","uncletopia"],"game_id":440,"stv_port":27046,"stv_name":"Uncletopia | Sydney | 4 | All Maps | STV","players":null},{"server_id":58,"name":"Uncletopia | Sydney | 5 | Stopwatch","name_short":"syd-5","host":"syd-1.au.uncletopia.com","port":27055,"enabled":true,"region":"au","cc":"au","latitude":-33.865143,"longitude":151.2099,"reserved":0,"last_update":"0001-01-01T00:00:00Z","name_a2s":"Uncletopia | Sydney | 5 | Stopwatch","protocol":17,"map":"pl_frontier_final","folder":"tf","game":"Team Fortress","app_id":440,"player_count":0,"max_players":24,"Bots":0,"server_type":"Dedicated","server_os":"Linux","password":true,"vac":true,"version":"7961495","steam_id":85568392925397959,"keywords":["nocrits","nodmgspread","payload","uncletopia"],"game_id":440,"stv_port":27056,"stv_name":"Uncletopia | Sydney | 5 | Stopwatch | STV","players":null},{"server_id":59,"name":"Uncletopia | Sydney | 6 | Community","name_short":"syd-6","host":"syd-1.au.uncletopia.com","port":27065,"enabled":true,"region":"au","cc":"au","latitude":-33.865143,"longitude":151.2099,"reserved":0,"last_update":"0001-01-01T00:00:00Z","name_a2s":"Uncletopia | Sydney | 6 | Community","protocol":17,"map":"workshop/koth_product_final.ugc454272353","folder":"tf","game":"Team Fortress","app_id":440,"player_count":0,"max_players":24,"Bots":0,"server_type":"Dedicated","server_os":"Linux","password":true,"vac":true,"version":"7961495","steam_id":85568392925397960,"keywords":["cp","nocrits","nodmgspread","uncletopia"],"game_id":440,"stv_port":27066,"stv_name":"Uncletopia | Sydney | 6 | Community | STV","players":null},{"server_id":49,"name":"Uncletopia | Warsaw | 1 | One Thousand Uncles","name_short":"waw-1","host":"waw-1.pl.uncletopia.com","port":27015,"enabled":true,"region":"eu","cc":"pl","latitude":52.2297,"longitude":21.017532,"reserved":0,"last_update":"0001-01-01T00:00:00Z","name_a2s":"Uncletopia | Warsaw | 1 | One Thousand Uncles","protocol":17,"map":"pl_thundermountain","folder":"tf","game":"Team Fortress","app_id":440,"player_count":28,"max_players":32,"Bots":16,"server_type":"Dedicated","server_os":"Linux","password":true,"vac":true,"version":"7961495","steam_id":85568392925397850,"keywords":["alltalk","bots","danepve","increased_maxplayers","nocrits","norespawntime","payload","uncletopia"],"game_id":440,"stv_port":0,"stv_name":"","players":[{"user_id":499,"name":"heuji","steam_id":76561197971067828,"connected_time":381000000000,"state":"active","ping":98},{"user_id":483,"name":"kikithenorthwind","steam_id":76561199013581278,"connected_time":1289000000000,"state":"active","ping":90},{"user_id":496,"name":"SalCrabber deluxe","steam_id":76561198275942961,"connected_time":698000000000,"state":"active","ping":61},{"user_id":485,"name":"Lyxfex","steam_id":76561198050166082,"connected_time":1286000000000,"state":"active","ping":156},{"user_id":494,"name":"Pavlína Nohamamihonilová","steam_id":76561198044545358,"connected_time":734000000000,"state":"active","ping":60},{"user_id":487,"name":"saul goodmen","steam_id":76561199395002401,"connected_time":1201000000000,"state":"active","ping":180},{"user_id":497,"name":"Eazyツ","steam_id":76561198848619228,"connected_time":665000000000,"state":"active","ping":58},{"user_id":491,"name":"Womanticore","steam_id":76561199235582031,"connected_time":982000000000,"state":"active","ping":253},{"user_id":472,"name":"xanderomeister","steam_id":76561198882550389,"connected_time":3108000000000,"state":"active","ping":68},{"user_id":451,"name":"the baddest boy in btd5","steam_id":76561199487914508,"connected_time":3622000000000,"state":"active","ping":37},{"user_id":498,"name":"Ricey","steam_id":76561198832961307,"connected_time":499000000000,"state":"active","ping":74},{"user_id":516,"name":"T_Crow","steam_id":76561198052999669,"connected_time":343000000000,"state":"active","ping":47}]},{"server_id":50,"name":"Uncletopia | Warsaw | 2 | One Thousand Uncles","name_short":"waw-2","host":"waw-1.pl.uncletopia.com","port":27025,"enabled":true,"region":"eu","cc":"pl","latitude":52.2297,"longitude":21.017532,"reserved":0,"last_update":"0001-01-01T00:00:00Z","name_a2s":"Uncletopia | Warsaw | 2 | One Thousand Uncles","protocol":17,"map":"pl_thundermountain","folder":"tf","game":"Team Fortress","app_id":440,"player_count":17,"max_players":32,"Bots":16,"server_type":"Dedicated","server_os":"Linux","password":true,"vac":true,"version":"7961495","steam_id":85568392925397851,"keywords":["alltalk","bots","danepve","increased_maxplayers","nocrits","norespawntime","payload","uncletopia"],"game_id":440,"stv_port":0,"stv_name":"","players":[{"user_id":277,"name":"LǘcКγ کŦriкξ","steam_id":76561198057723275,"connected_time":250000000000,"state":"active","ping":74}]},{"server_id":51,"name":"Uncletopia | Warsaw | 3 | All Maps","name_short":"waw-3","host":"waw-1.pl.uncletopia.com","port":27035,"enabled":true,"region":"eu","cc":"pl","latitude":52.2297,"longitude":21.017532,"reserved":0,"last_update":"0001-01-01T00:00:00Z","name_a2s":"Uncletopia | Warsaw | 3 | All Maps","protocol":17,"map":"pl_swiftwater_final1","folder":"tf","game":"Team Fortress","app_id":440,"player_count":0,"max_players":24,"Bots":0,"server_type":"Dedicated","server_os":"Linux","password":true,"vac":true,"version":"7961495","steam_id":85568392925397852,"keywords":["nocrits","nodmgspread","payload","uncletopia"],"game_id":440,"stv_port":27036,"stv_name":"Uncletopia | Warsaw | 3 | All Maps | STV","players":null},{"server_id":52,"name":"Uncletopia | Warsaw | 4 | All Maps","name_short":"waw-4","host":"waw-1.pl.uncletopia.com","port":27045,"enabled":true,"region":"eu","cc":"pl","latitude":52.2297,"longitude":21.017532,"reserved":0,"last_update":"0001-01-01T00:00:00Z","name_a2s":"Uncletopia | Warsaw | 4 | All Maps","protocol":17,"map":"koth_cascade","folder":"tf","game":"Team Fortress","app_id":440,"player_count":0,"max_players":24,"Bots":0,"server_type":"Dedicated","server_os":"Linux","password":true,"vac":true,"version":"7961495","steam_id":85568392925397853,"keywords":["cp","nocrits","nodmgspread","uncletopia"],"game_id":440,"stv_port":27046,"stv_name":"Uncletopia | Warsaw | 4 | All Maps | STV","players":null},{"server_id":53,"name":"Uncletopia | Warsaw | 5 | Stopwatch","name_short":"waw-5","host":"waw-1.pl.uncletopia.com","port":27055,"enabled":true,"region":"eu","cc":"pl","latitude":52.2297,"longitude":21.017532,"reserved":0,"last_update":"0001-01-01T00:00:00Z","name_a2s":"Uncletopia | Warsaw | 5 | Stopwatch","protocol":17,"map":"cp_snakewater_final1","folder":"tf","game":"Team Fortress","app_id":440,"player_count":0,"max_players":24,"Bots":0,"server_type":"Dedicated","server_os":"Linux","password":true,"vac":true,"version":"7961495","steam_id":85568392925397854,"keywords":["cp","nocrits","nodmgspread","uncletopia"],"game_id":440,"stv_port":27056,"stv_name":"Uncletopia | Warsaw | 5 | Stopwatch | STV","players":null},{"server_id":54,"name":"Uncletopia | Warsaw | 6 | Community","name_short":"waw-6","host":"waw-1.pl.uncletopia.com","port":27065,"enabled":true,"region":"eu","cc":"pl","latitude":52.2297,"longitude":21.017532,"reserved":0,"last_update":"0001-01-01T00:00:00Z","name_a2s":"Uncletopia | Warsaw | 6 | Community","protocol":17,"map":"workshop/cp_indulge.ugc528106646","folder":"tf","game":"Team Fortress","app_id":440,"player_count":0,"max_players":24,"Bots":0,"server_type":"Dedicated","server_os":"Linux","password":true,"vac":true,"version":"7961495","steam_id":85568392925397856,"keywords":["cp","nocrits","nodmgspread","uncletopia"],"game_id":440,"stv_port":27066,"stv_name":"Uncletopia | Warsaw | 6 | Community | STV","players":null}]}