{"status":true,"message":"","result":[{"server_id":9,"name":"Uncletopia | Atlanta | 1 | All Maps","name_short":"atl-1","host":"atl-1.us.uncletopia.com","port":27015,"enabled":true,"region":"us-east","cc":"us","latitude":33.753746,"longitude":-84.38633,"reserved":0,"last_update":"0001-01-01T00:00:00Z","name_a2s":"Uncletopia | Atlanta | 1 | All Maps","protocol":17,"map":"pl_barnblitz","folder":"tf","game":"Team Fortress","app_id":440,"player_count":24,"max_players":24,"Bots":0,"server_type":"Dedicated","server_os":"Linux","password":true,"vac":true,"version":"7757534","steam_id":85568392924469982,"keywords":["nocrits","nodmgspread","payload","uncletopia"],"game_id":440,"stv_port":27016,"stv_name":"Uncletopia | Atlanta | 1 | All Maps | STV","players":[{"user_id":117,"name":"ammo delivery","steam_id":76561198328618417,"connected_time":6764000000000,"state":"active","ping":99},{"user_id":215,"name":"KBoneski ♡","steam_id":76561198307409065,"connected_time":419000000000,"state":"active","ping":96},{"user_id":219,"name":"SadVeggie","steam_id":76561198163430099,"connected_time":16000000000,"state":"active","ping":94},{"user_id":170,"name":"[BBW] Justario","steam_id":76561198016095410,"connected_time":2896000000000,"state":"active","ping":61},{"user_id":208,"name":"IanDig","steam_id":76561198135509343,"connected_time":811000000000,"state":"active","ping":68},{"user_id":209,"name":"bobthemailman10","steam_id":76561198305336531,"connected_time":805000000000,"state":"active","ping":74},{"user_id":214,"name":"Galaxy_42","steam_id":76561198845514831,"connected_time":579000000000,"state":"active","ping":52},{"user_id":113,"name":"Ignatius J. Reilly","steam_id":76561198066958868,"connected_time":7503000000000,"state":"active","ping":74},{"user_id":204,"name":"Bad Rollout","steam_id":76561197971948876,"connected_time":1501000000000,"state":"active","ping":77},{"user_id":216,"name":"NithyG","steam_id":76561198817102857,"connected_time":358000000000,"state":"active","ping":133},{"user_id":206,"name":"morphine","steam_id":76561198072124799,"connected_time":1116000000000,"state":"active","ping":93},{"user_id":154,"name":"Albino Jellyfish","steam_id":76561198208561097,"connected_time":3959000000000,"state":"active","ping":68},{"user_id":155,"name":"NovaSc6ut","steam_id":76561198277163301,"connected_time":3937000000000,"state":"active","ping":88},{"user_id":166,"name":"i eat stickers","steam_id":76561198040602075,"connected_time":3429000000000,"state":"active","ping":89},{"user_id":217,"name":"Raptortastico","steam_id":76561198105613110,"connected_time":168000000000,"state":"active","ping":73},{"user_id":187,"name":"Marc G","steam_id":76561198062650363,"connected_time":2857000000000,"state":"active","ping":72},{"user_id":211,"name":"Ashes!","steam_id":76561197998475441,"connected_time":756000000000,"state":"active","ping":79},{"user_id":213,"name":"Minion Idolizer","steam_id":76561197987805095,"connected_time":612000000000,"state":"active","ping":104},{"user_id":212,"name":"♫Pilk King♫","steam_id":76561198073660779,"connected_time":755000000000,"state":"active","ping":49},{"user_id":37,"name":"creepycrawler","steam_id":76561198352016831,"connected_time":12863000000000,"state":"active","ping":80},{"user_id":161,"name":"!! BRO IS FLABBERGASTED !!","steam_id":76561198135036396,"connected_time":3773000000000,"state":"active","ping":74},{"user_id":188,"name":"cleopatra","steam_id":76561199382129166,"connected_time":2841000000000,"state":"active","ping":62},{"user_id":144,"name":"luxin","steam_id":76561198399383047,"connected_time":4575000000000,"state":"active","ping":55},{"user_id":194,"name":"dewd","steam_id":76561198813574552,"connected_time":2675000000000,"state":"active","ping":46}]},{"server_id":104,"name":"Uncletopia | Atlanta | 2 | All Maps","name_short":"atl-2","host":"atl-1.us.uncletopia.com","port":27025,"enabled":true,"region":"us-east","cc":"us","latitude":33.753746,"longitude":-84.38633,"reserved":0,"last_update":"0001-01-01T00:00:00Z","name_a2s":"Uncletopia | Atlanta | 2 | All Maps","protocol":17,"map":"koth_lakeside_final","folder":"tf","game":"Team Fortress","app_id":440,"player_count":24,"max_players":24,"Bots":0,"server_type":"Dedicated","server_os":"Linux","password":true,"vac":true,"version":"7757534","steam_id":85568392924469983,"keywords":["cp","nocrits","nodmgspread","uncletopia"],"game_id":440,"stv_port":27026,"stv_name":"Uncletopia | Atlanta | 2 | All Maps | STV","players":[{"user_id":64,"name":"reis","steam_id":76561199232952016,"connected_time":178000000000,"state":"active","ping":165},{"user_id":60,"name":"ticklemytush","steam_id":76561199206080182,"connected_time":323000000000,"state":"active","ping":59},{"user_id":49,"name":"(no monitor) ayylien","steam_id":76561198042127970,"connected_time":1716000000000,"state":"active","ping":60},{"user_id":51,"name":"Games Deen","steam_id":76561198109125737,"connected_time":898000000000,"state":"active","ping":71},{"user_id":62,"name":"Conjurer","steam_id":76561198316256275,"connected_time":283000000000,"state":"active","ping":47},{"user_id":56,"name":"Scrux","steam_id":76561198129763115,"connected_time":480000000000,"state":"active","ping":112},{"user_id":32,"name":"gamerlegend47","steam_id":76561198122776598,"connected_time":2187000000000,"state":"active","ping":51},{"user_id":70,"name":"SHiFT_DeL3TE","steam_id":76561198234965064,"connected_time":35000000000,"state":"active","ping":45},{"user_id":33,"name":"matt_rolltide","steam_id":76561198796727164,"connected_time":2152000000000,"state":"active","ping":86},{"user_id":65,"name":"Osrio","steam_id":76561198083428069,"connected_time":163000000000,"state":"active","ping":89},{"user_id":18,"name":"Chaos Phoenix","steam_id":76561198121866418,"connected_time":2674000000000,"state":"active","ping":145},{"user_id":20,"name":"Eugene SunScreen","steam_id":76561198344119204,"connected_time":2663000000000,"state":"active","ping":130},{"user_id":52,"name":"Testosteroblerone","steam_id":76561199031278496,"connected_time":700000000000,"state":"active","ping":91},{"user_id":69,"name":"Violet42","steam_id":76561198072927887,"connected_time":82000000000,"state":"active","ping":61},{"user_id":68,"name":"Danger Days by MCR","steam_id":76561199107068627,"connected_time":107000000000,"state":"active","ping":80},{"user_id":53,"name":"Speed Weed","steam_id":76561198007512620,"connected_time":678000000000,"state":"active","ping":85},{"user_id":48,"name":"TheBigJabroni™","steam_id":76561198066208423,"connected_time":1822000000000,"state":"active","ping":64},{"user_id":61,"name":"pingus","steam_id":76561198268995867,"connected_time":308000000000,"state":"active","ping":106},{"user_id":67,"name":"Smiles","steam_id":76561198107197973,"connected_time":130000000000,"state":"active","ping":99},{"user_id":59,"name":"BigBubble42","steam_id":76561198136286123,"connected_time":445000000000,"state":"active","ping":44},{"user_id":44,"name":"Eblizard","steam_id":76561198111481965,"connected_time":1874000000000,"state":"active","ping":93},{"user_id":42,"name":"Bombat","steam_id":76561198083096946,"connected_time":1908000000000,"state":"active","ping":107},{"user_id":45,"name":"SPOOKY_","steam_id":76561198073395404,"connected_time":1873000000000,"state":"active","ping":158},{"user_id":46,"name":"kris the deer (lagging)","steam_id":76561198170928310,"connected_time":1862000000000,"state":"active","ping":76}]},{"server_id":400,"name":"Uncletopia | Atlanta | 3 | Community","name_short":"atl-3","host":"atl-1.us.uncletopia.com","port":27035,"enabled":true,"region":"us-east","cc":"us","latitude":33.753746,"longitude":-84.38633,"reserved":0,"last_update":"0001-01-01T00:00:00Z","name_a2s":"Uncletopia | Atlanta | 3 | Community","protocol":17,"map":"cp_snakewater_final1","folder":"tf","game":"Team Fortress","app_id":440,"player_count":0,"max_players":24,"Bots":0,"server_type":"Dedicated","server_os":"Linux","password":true,"vac":true,"version":"7757534","steam_id":85568392924515187,"keywords":["cp","nocrits","nodmgspread","uncletopia"],"game_id":440,"stv_port":27036,"stv_name":"Uncletopia | Atlanta | 3 | Community | STV","players":null},{"server_id":401,"name":"Uncletopia | Atlanta | 4 | No Payload","name_short":"atl-4","host":"atl-1.us.uncletopia.com","port":27045,"enabled":true,"region":"us-east","cc":"us","latitude":33.753746,"longitude":-84.38633,"reserved":0,"last_update":"0001-01-01T00:00:00Z","name_a2s":"","protocol":0,"map":"","folder":"","game":"","app_id":0,"player_count":0,"max_players":0,"Bots":0,"server_type":"","server_os":"","password":false,"vac":false,"version":"","steam_id":0,"keywords":null,"game_id":0,"stv_port":0,"stv_name":"","players":null},{"server_id":2,"name":"Uncletopia | Chicago | 1 | All Maps","name_short":"chi-1","host":"chi-1.us.uncletopia.com","port":27015,"enabled":true,"region":"us-central","cc":"us","latitude":41.881832,"longitude":-87.62318,"reserved":0,"last_update":"0001-01-01T00:00:00Z","name_a2s":"Uncletopia | Chicago | 1 | All Maps","protocol":17,"map":"cp_steel","folder":"tf","game":"Team Fortress","app_id":440,"player_count":23,"max_players":24,"Bots":0,"server_type":"Dedicated","server_os":"Linux","password":true,"vac":true,"version":"7757534","steam_id":85568392924469984,"keywords":["cp","nocrits","nodmgspread","uncletopia"],"game_id":440,"stv_port":27016,"stv_name":"Uncletopia | Chicago | 1 | All Maps | STV","players":[{"user_id":258,"name":"i really like this dog :)","steam_id":76561198882404753,"connected_time":3129000000000,"state":"active","ping":76},{"user_id":288,"name":"Technic","steam_id":76561198200302281,"connected_time":777000000000,"state":"active","ping":60},{"user_id":266,"name":"PooSmoker","steam_id":76561198254312303,"connected_time":2270000000000,"state":"active","ping":83},{"user_id":280,"name":"the doo doo man","steam_id":76561198057076267,"connected_time":1138000000000,"state":"active","ping":73},{"user_id":282,"name":"AGagagaga","steam_id":76561199008585183,"connected_time":1095000000000,"state":"active","ping":78},{"user_id":251,"name":"TI-83 Plus","steam_id":76561198316134443,"connected_time":3534000000000,"state":"active","ping":79},{"user_id":267,"name":"TeeTree","steam_id":76561198862307874,"connected_time":2258000000000,"state":"active","ping":59},{"user_id":289,"name":"mrselfdestruct13","steam_id":76561197992054553,"connected_time":480000000000,"state":"active","ping":80},{"user_id":287,"name":"I Spy","steam_id":76561198046366964,"connected_time":969000000000,"state":"active","ping":52},{"user_id":292,"name":"Marcy2231","steam_id":76561198202323656,"connected_time":103000000000,"state":"active","ping":68},{"user_id":261,"name":"Chinese \"Weather\" Balloon","steam_id":76561198031675881,"connected_time":2905000000000,"state":"active","ping":46},{"user_id":293,"name":"giveit5","steam_id":76561198030815437,"connected_time":78000000000,"state":"active","ping":95},{"user_id":285,"name":"delusional schizophrenic","steam_id":76561198323435040,"connected_time":1052000000000,"state":"active","ping":59},{"user_id":273,"name":"Rec","steam_id":76561198022813906,"connected_time":1777000000000,"state":"active","ping":51},{"user_id":275,"name":"Cheeeeeeeen","steam_id":76561198986388085,"connected_time":1739000000000,"state":"active","ping":115},{"user_id":295,"name":"Pubby Do","steam_id":76561198072066185,"connected_time":57000000000,"state":"active","ping":71},{"user_id":291,"name":"auts","steam_id":76561198055198646,"connected_time":110000000000,"state":"active","ping":76},{"user_id":290,"name":"keep life warm","steam_id":76561198044443985,"connected_time":351000000000,"state":"active","ping":83},{"user_id":296,"name":"Candy Sparkles","steam_id":76561198126871264,"connected_time":45000000000,"state":"active","ping":85},{"user_id":297,"name":"Tlaloc","steam_id":76561198375215983,"connected_time":43000000000,"state":"active","ping":120},{"user_id":283,"name":"CamZGamer7","steam_id":76561199405045529,"connected_time":1085000000000,"state":"active","ping":119},{"user_id":269,"name":"lost in spaaaaace","steam_id":76561199085974120,"connected_time":2240000000000,"state":"active","ping":76},{"user_id":270,"name":"Wengatang","steam_id":76561198021747059,"connected_time":2233000000000,"state":"active","ping":49}]},{"server_id":106,"name":"Uncletopia | Chicago | 2 | All Maps","name_short":"chi-2","host":"chi-1.us.uncletopia.com","port":27025,"enabled":true,"region":"us-central","cc":"us","latitude":41.881832,"longitude":-87.62318,"reserved":0,"last_update":"0001-01-01T00:00:00Z","name_a2s":"Uncletopia | Chicago | 2 | All Maps","protocol":17,"map":"pl_frontier_final","folder":"tf","game":"Team Fortress","app_id":440,"player_count":24,"max_players":24,"Bots":0,"server_type":"Dedicated","server_os":"Linux","password":true,"vac":true,"version":"7757534","steam_id":85568392924469985,"keywords":["nocrits","nodmgspread","payload","uncletopia"],"game_id":440,"stv_port":27026,"stv_name":"Uncletopia | Chicago | 2 | All Maps | STV","players":[{"user_id":286,"name":"peppion spaghet","steam_id":76561199220539460,"connected_time":2728000000000,"state":"active","ping":64},{"user_id":296,"name":"i hate car seat headrest","steam_id":76561198055186751,"connected_time":1104000000000,"state":"active","ping":70},{"user_id":313,"name":"footoftheday","steam_id":76561198052712449,"connected_time":505000000000,"state":"active","ping":58},{"user_id":310,"name":"DuckKey","steam_id":76561198904477889,"connected_time":638000000000,"state":"active","ping":57},{"user_id":315,"name":"Mann","steam_id":76561199030987614,"connected_time":24000000000,"state":"active","ping":85},{"user_id":316,"name":"Try Gardening","steam_id":76561198120311340,"connected_time":21000000000,"state":"active","ping":53},{"user_id":301,"name":"CopperBox","steam_id":76561198068217248,"connected_time":1040000000000,"state":"active","ping":94},{"user_id":224,"name":"E4Estrogen","steam_id":76561198085813708,"connected_time":8711000000000,"state":"active","ping":62},{"user_id":302,"name":"YourLocalArsonist","steam_id":76561199111922751,"connected_time":1029000000000,"state":"active","ping":78},{"user_id":290,"name":"Toottoot","steam_id":76561197992404836,"connected_time":1770000000000,"state":"active","ping":44},{"user_id":284,"name":"D0VE","steam_id":76561198151618566,"connected_time":3090000000000,"state":"active","ping":79},{"user_id":269,"name":"SirJellyRolls","steam_id":76561198119277244,"connected_time":4183000000000,"state":"spawning","ping":74},{"user_id":281,"name":"gl1tchr","steam_id":76561198302661983,"connected_time":3470000000000,"state":"active","ping":73},{"user_id":288,"name":"Be Positive's Brother","steam_id":76561198131288571,"connected_time":2655000000000,"state":"active","ping":97},{"user_id":187,"name":"PEPPNIO SPAGHETTI","steam_id":76561198084849541,"connected_time":11322000000000,"state":"active","ping":54},{"user_id":314,"name":"Ta5K","steam_id":76561198939558155,"connected_time":155000000000,"state":"active","ping":42},{"user_id":304,"name":"O o g","steam_id":76561199267535506,"connected_time":1001000000000,"state":"active","ping":75},{"user_id":293,"name":"Stoa","steam_id":76561198332519926,"connected_time":1608000000000,"state":"active","ping":79},{"user_id":292,"name":"Willem Dafoe","steam_id":76561198037453253,"connected_time":1680000000000,"state":"active","ping":59},{"user_id":305,"name":"ray (the based god)","steam_id":76561198311984941,"connected_time":971000000000,"state":"active","ping":60},{"user_id":317,"name":"Valery___Zmyshenko","steam_id":76561199387904987,"connected_time":5000000000,"state":"spawning","ping":168},{"user_id":307,"name":"bought this cart for 15 dollars","steam_id":76561198253731826,"connected_time":887000000000,"state":"active","ping":91},{"user_id":312,"name":"Mr. Tickle","steam_id":76561198126684647,"connected_time":592000000000,"state":"active","ping":55},{"user_id":271,"name":"Cottontail","steam_id":76561198213634567,"connected_time":4004000000000,"state":"active","ping":96}]},{"server_id":402,"name":"Uncletopia | Chicago | 3 | All Maps","name_short":"chi-3","host":"chi-1.us.uncletopia.com","port":27035,"enabled":true,"region":"us-central","cc":"us","latitude":41.881832,"longitude":-87.62318,"reserved":0,"last_update":"0001-01-01T00:00:00Z","name_a2s":"Uncletopia | Chicago | 3 | All Maps","protocol":17,"map":"koth_lakeside_final","folder":"tf","game":"Team Fortress","app_id":440,"player_count":0,"max_players":24,"Bots":0,"server_type":"Dedicated","server_os":"Linux","password":true,"vac":true,"version":"7757534","steam_id":85568392924515191,"keywords":["cp","nocrits","nodmgspread","uncletopia"],"game_id":440,"stv_port":27036,"stv_name":"Uncletopia | Chicago | 3 | All Maps | STV","players":null},{"server_id":403,"name":"Uncletopia | Chicago | 4 | All Maps","name_short":"chi-4","host":"chi-1.us.uncletopia.com","port":27045,"enabled":true,"region":"us-central","cc":"us","latitude":41.881832,"longitude":-87.62318,"reserved":0,"last_update":"0001-01-01T00:00:00Z","name_a2s":"Uncletopia | Chicago | 4 | All Maps","protocol":17,"map":"ctf_turbine","folder":"tf","game":"Team Fortress","app_id":440,"player_count":18,"max_players":24,"Bots":0,"server_type":"Dedicated","server_os":"Linux","password":true,"vac":true,"version":"7757534","steam_id":85568392924515193,"keywords":["ctf","nocrits","nodmgspread","uncletopia"],"game_id":440,"stv_port":27046,"stv_name":"Uncletopia | Chicago | 4 | All Maps | STV","players":[{"user_id":85,"name":"Shay the Sheep","steam_id":76561198065964820,"connected_time":1099000000000,"state":"active","ping":62},{"user_id":91,"name":"albertoRamirez.8.24","steam_id":76561198123216429,"connected_time":928000000000,"state":"active","ping":86},{"user_id":92,"name":"Zornplays","steam_id":76561199175292302,"connected_time":886000000000,"state":"active","ping":128},{"user_id":110,"name":"Ringo x Seiran","steam_id":76561198357437908,"connected_time":26000000000,"state":"connecting","ping":61},{"user_id":42,"name":"Miach","steam_id":76561198150062640,"connected_time":4532000000000,"state":"active","ping":89},{"user_id":102,"name":"professorchaos","steam_id":76561197993296324,"connected_time":684000000000,"state":"active","ping":75},{"user_id":87,"name":"Reno Gato","steam_id":76561198048417246,"connected_time":1094000000000,"state":"active","ping":80},{"user_id":81,"name":"kevin supermarket","steam_id":76561198058287022,"connected_time":1577000000000,"state":"active","ping":59},{"user_id":93,"name":"Legit_Jaxer","steam_id":76561198172234053,"connected_time":882000000000,"state":"active","ping":107},{"user_id":64,"name":"Unicorn","steam_id":76561198119261280,"connected_time":3803000000000,"state":"active","ping":89},{"user_id":96,"name":"dabri88","steam_id":76561198103645497,"connected_time":825000000000,"state":"active","ping":60},{"user_id":105,"name":"YOU","steam_id":76561198391551932,"connected_time":391000000000,"state":"spawning","ping":77},{"user_id":82,"name":"Eosson","steam_id":76561198108642113,"connected_time":1491000000000,"state":"active","ping":53},{"user_id":109,"name":"Highphin","steam_id":76561198986584680,"connected_time":36000000000,"state":"active","ping":64},{"user_id":99,"name":"um pato sem ato","steam_id":76561198891367873,"connected_time":803000000000,"state":"spawning","ping":207},{"user_id":101,"name":"threethree","steam_id":76561198177354155,"connected_time":795000000000,"state":"active","ping":62},{"user_id":106,"name":"BIG HOG","steam_id":76561198079923652,"connected_time":342000000000,"state":"active","ping":76},{"user_id":78,"name":"cyber.genius","steam_id":76561198034121017,"connected_time":2321000000000,"state":"active","ping":112}]},{"server_id":36,"name":"Uncletopia | Chicago | 5 | All Maps","name_short":"chi-5","host":"chi-2.us.uncletopia.com","port":27015,"enabled":true,"region":"us-central","cc":"us","latitude":41.881832,"longitude":-87.62318,"reserved":0,"last_update":"0001-01-01T00:00:00Z","name_a2s":"Uncletopia | Chicago | 5 | All Maps","protocol":17,"map":"koth_cascade","folder":"tf","game":"Team Fortress","app_id":440,"player_count":0,"max_players":24,"Bots":0,"server_type":"Dedicated","server_os":"Linux","password":true,"vac":true,"version":"7757534","steam_id":85568392924866362,"keywords":["cp","nocrits","nodmgspread","uncletopia"],"game_id":440,"stv_port":27016,"stv_name":"Uncletopia | Chicago | 5 | All Maps | STV","players":null},{"server_id":37,"name":"Uncletopia | Chicago | 6 | All Maps","name_short":"chi-6","host":"chi-2.us.uncletopia.com","port":27025,"enabled":true,"region":"us-central","cc":"us","latitude":41.881832,"longitude":-87.62318,"reserved":0,"last_update":"0001-01-01T00:00:00Z","name_a2s":"Uncletopia | Chicago | 6 | All Maps","protocol":17,"map":"koth_cascade","folder":"tf","game":"Team Fortress","app_id":440,"player_count":0,"max_players":24,"Bots":0,"server_type":"Dedicated","server_os":"Linux","password":true,"vac":true,"version":"7757534","steam_id":85568392924866363,"keywords":["cp","nocrits","nodmgspread","uncletopia"],"game_id":440,"stv_port":27026,"stv_name":"Uncletopia | Chicago | 6 | All Maps | STV","players":null},{"server_id":38,"name":"Uncletopia | Chicago | 7 | Stopwatch Beta","name_short":"chi-7","host":"chi-2.us.uncletopia.com","port":27035,"enabled":true,"region":"us-central","cc":"us","latitude":41.881832,"longitude":-87.62318,"reserved":0,"last_update":"0001-01-01T00:00:00Z","name_a2s":"Uncletopia | Chicago | 7 | Stopwatch Beta","protocol":17,"map":"pl_barnblitz","folder":"tf","game":"Team Fortress","app_id":440,"player_count":0,"max_players":24,"Bots":0,"server_type":"Dedicated","server_os":"Linux","password":true,"vac":true,"version":"7757534","steam_id":85568392924866364,"keywords":["nocrits","nodmgspread","payload","uncletopia"],"game_id":440,"stv_port":27036,"stv_name":"Uncletopia | Chicago | 7 | Stopwatch Beta | STV","players":null},{"server_id":39,"name":"Uncletopia | Chicago | 8 | Community","name_short":"chi-8","host":"chi-2.us.uncletopia.com","port":27045,"enabled":true,"region":"us-central","cc":"us","latitude":41.881832,"longitude":-87.62318,"reserved":0,"last_update":"0001-01-01T00:00:00Z","name_a2s":"Uncletopia | Chicago | 8 | Community","protocol":17,"map":"koth_cascade","folder":"tf","game":"Team Fortress","app_id":440,"player_count":0,"max_players":24,"Bots":0,"server_type":"Dedicated","server_os":"Linux","password":true,"vac":true,"version":"7757534","steam_id":85568392924866365,"keywords":["cp","nocrits","nodmgspread","uncletopia"],"game_id":440,"stv_port":27046,"stv_name":"Uncletopia | Chicago | 8 | Community | STV","players":null},{"server_id":8,"name":"Uncletopia | Dallas | 1 | All Maps","name_short":"dal-1","host":"dal-1.us.uncletopia.com","port":27015,"enabled":true,"region":"us-central","cc":"us","latitude":32.779167,"longitude":-96.80889,"reserved":0,"last_update":"0001-01-01T00:00:00Z","name_a2s":"Uncletopia | Dallas | 1 | All Maps","protocol":17,"map":"koth_cascade","folder":"tf","game":"Team Fortress","app_id":440,"player_count":7,"max_players":24,"Bots":0,"server_type":"Dedicated","server_os":"Linux","password":true,"vac":true,"version":"7757534","steam_id":85568392924469986,"keywords":["cp","nocrits","nodmgspread","uncletopia"],"game_id":440,"stv_port":27016,"stv_name":"Uncletopia | Dallas | 1 | All Maps | STV","players":[{"user_id":9,"name":"gamble","steam_id":76561198252320278,"connected_time":1228000000000,"state":"active","ping":41},{"user_id":10,"name":"TheEmeraldLiker","steam_id":76561198323926464,"connected_time":972000000000,"state":"active","ping":106},{"user_id":12,"name":"Pillagon","steam_id":76561198183894834,"connected_time":650000000000,"state":"active","ping":76},{"user_id":13,"name":"superprogamerman2009","steam_id":76561199393831863,"connected_time":612000000000,"state":"active","ping":148},{"user_id":14,"name":"Mask","steam_id":76561198877649728,"connected_time":585000000000,"state":"active","ping":141},{"user_id":15,"name":"Pinto","steam_id":76561199105386998,"connected_time":484000000000,"state":"active","ping":51},{"user_id":18,"name":"briggs","steam_id":76561198045655893,"connected_time":132000000000,"state":"active","ping":75}]},{"server_id":108,"name":"Uncletopia | Dallas | 2 | All Maps","name_short":"dal-2","host":"dal-1.us.uncletopia.com","port":27025,"enabled":true,"region":"us-central","cc":"us","latitude":32.779167,"longitude":-96.80889,"reserved":0,"last_update":"0001-01-01T00:00:00Z","name_a2s":"Uncletopia | Dallas | 2 | All Maps","protocol":17,"map":"pl_swiftwater_final1","folder":"tf","game":"Team Fortress","app_id":440,"player_count":0,"max_players":24,"Bots":0,"server_type":"Dedicated","server_os":"Linux","password":true,"vac":true,"version":"7757534","steam_id":85568392924469988,"keywords":["nocrits","nodmgspread","payload","uncletopia"],"game_id":440,"stv_port":27026,"stv_name":"Uncletopia | Dallas | 2 | All Maps | STV","players":null},{"server_id":5,"name":"Uncletopia | Frankfurt | 1 | All Maps","name_short":"frk-1","host":"frk-1.de.uncletopia.com","port":27015,"enabled":true,"region":"eu","cc":"de","latitude":50.110924,"longitude":8.682127,"reserved":0,"last_update":"0001-01-01T00:00:00Z","name_a2s":"Uncletopia | Frankfurt | 1 | All Maps","protocol":17,"map":"pl_swiftwater_final1","folder":"tf","game":"Team Fortress","app_id":440,"player_count":23,"max_players":24,"Bots":0,"server_type":"Dedicated","server_os":"Linux","password":true,"vac":true,"version":"7757534","steam_id":85568392924469989,"keywords":["nocrits","nodmgspread","payload","uncletopia"],"game_id":440,"stv_port":27016,"stv_name":"Uncletopia | Frankfurt | 1 | All Maps | STV","players":[{"user_id":154,"name":"El Texicano","steam_id":76561198053207411,"connected_time":309000000000,"state":"active","ping":184},{"user_id":132,"name":"900T","steam_id":76561198398456732,"connected_time":1438000000000,"state":"active","ping":47},{"user_id":136,"name":"Artemis","steam_id":76561198199091801,"connected_time":1367000000000,"state":"active","ping":47},{"user_id":148,"name":"busgrabb","steam_id":76561198055768465,"connected_time":853000000000,"state":"active","ping":59},{"user_id":89,"name":"someone","steam_id":76561198377208758,"connected_time":4514000000000,"state":"active","ping":86},{"user_id":133,"name":"PAN","steam_id":76561198118671779,"connected_time":1433000000000,"state":"active","ping":61},{"user_id":155,"name":"RobN","steam_id":76561198165919115,"connected_time":216000000000,"state":"active","ping":81},{"user_id":135,"name":"sloppy transgirl toppy","steam_id":76561198057092208,"connected_time":1379000000000,"state":"active","ping":59},{"user_id":117,"name":"Kolanciasty ♥","steam_id":76561198020042179,"connected_time":3005000000000,"state":"active","ping":83},{"user_id":159,"name":"Haggabah,WhoPliesTheUmbralPath","steam_id":76561198846984399,"connected_time":187000000000,"state":"active","ping":78},{"user_id":137,"name":"Ruke 1","steam_id":76561198409908008,"connected_time":1282000000000,"state":"active","ping":77},{"user_id":87,"name":"Remembrance","steam_id":76561199229247163,"connected_time":4614000000000,"state":"active","ping":56},{"user_id":90,"name":"Walter Hartwell White","steam_id":76561198833826885,"connected_time":4497000000000,"state":"active","ping":108},{"user_id":152,"name":"Filleman","steam_id":76561198159386946,"connected_time":408000000000,"state":"active","ping":64},{"user_id":138,"name":"DeCypher [She/Her]","steam_id":76561198171992619,"connected_time":1249000000000,"state":"active","ping":67},{"user_id":158,"name":"Makasim:)","steam_id":76561198816061842,"connected_time":203000000000,"state":"active","ping":74},{"user_id":147,"name":"on1on (fried)","steam_id":76561197995304137,"connected_time":1023000000000,"state":"active","ping":64},{"user_id":160,"name":"Despe","steam_id":76561198271217576,"connected_time":180000000000,"state":"active","ping":55},{"user_id":111,"name":"Gruby","steam_id":76561198879745824,"connected_time":3435000000000,"state":"active","ping":66},{"user_id":161,"name":"ErJu","steam_id":76561198106273165,"connected_time":123000000000,"state":"active","ping":70},{"user_id":115,"name":"I am piss man","steam_id":76561198039209685,"connected_time":3077000000000,"state":"active","ping":52},{"user_id":163,"name":"Holofightz Nene","steam_id":76561198226788392,"connected_time":61000000000,"state":"active","ping":72},{"user_id":164,"name":"howabe","steam_id":76561197996486818,"connected_time":42000000000,"state":"spawning","ping":42}]},{"server_id":110,"name":"Uncletopia | Frankfurt | 2 | All Maps","name_short":"frk-2","host":"frk-1.de.uncletopia.com","port":27025,"enabled":true,"region":"eu","cc":"de","latitude":50.110924,"longitude":8.682127,"reserved":0,"last_update":"0001-01-01T00:00:00Z","name_a2s":"Uncletopia | Frankfurt | 2 | All Maps","protocol":17,"map":"pl_swiftwater_final1","folder":"tf","game":"Team Fortress","app_id":440,"player_count":23,"max_players":24,"Bots":0,"server_type":"Dedicated","server_os":"Linux","password":true,"vac":true,"version":"7757534","steam_id":85568392924469990,"keywords":["nocrits","nodmgspread","payload","uncletopia"],"game_id":440,"stv_port":27026,"stv_name":"Uncletopia | Frankfurt | 2 | All Maps | STV","players":[{"user_id":396,"name":"Dakeyras","steam_id":76561198057069564,"connected_time":802000000000,"state":"active","ping":100},{"user_id":380,"name":"twitch.tv/vision515","steam_id":76561198065293729,"connected_time":1210000000000,"state":"active","ping":167},{"user_id":405,"name":"Russenluster","steam_id":76561198118016220,"connected_time":87000000000,"state":"active","ping":58},{"user_id":387,"name":"Vidrox #savetf2","steam_id":76561199217854983,"connected_time":1044000000000,"state":"active","ping":86},{"user_id":406,"name":"TheDozer","steam_id":76561198073850602,"connected_time":70000000000,"state":"active","ping":68},{"user_id":389,"name":"Hildreth","steam_id":76561197995254867,"connected_time":963000000000,"state":"active","ping":60},{"user_id":340,"name":"Neon","steam_id":76561198089944674,"connected_time":3486000000000,"state":"active","ping":63},{"user_id":408,"name":"Koli","steam_id":76561197992428783,"connected_time":26000000000,"state":"active","ping":45},{"user_id":397,"name":"yeyegoncas","steam_id":76561198061217656,"connected_time":790000000000,"state":"active","ping":81},{"user_id":377,"name":"LOBZIK","steam_id":76561198114830120,"connected_time":1367000000000,"state":"active","ping":79},{"user_id":384,"name":"Ita","steam_id":76561198147277460,"connected_time":1066000000000,"state":"active","ping":52},{"user_id":338,"name":"T der Ba","steam_id":76561198091189185,"connected_time":3667000000000,"state":"active","ping":50},{"user_id":385,"name":"johnny dorito","steam_id":76561198148074472,"connected_time":1066000000000,"state":"active","ping":44},{"user_id":401,"name":"Johan","steam_id":76561199380849468,"connected_time":205000000000,"state":"active","ping":60},{"user_id":386,"name":"gangnam style moshpit","steam_id":76561198163244605,"connected_time":1064000000000,"state":"active","ping":60},{"user_id":402,"name":"Morpheus","steam_id":76561198208349835,"connected_time":190000000000,"state":"active","ping":75},{"user_id":403,"name":"tone","steam_id":76561197975301462,"connected_time":179000000000,"state":"active","ping":82},{"user_id":375,"name":"tallen","steam_id":76561198061708595,"connected_time":1450000000000,"state":"active","ping":83},{"user_id":392,"name":"Egor Pomidor","steam_id":76561199175688390,"connected_time":917000000000,"state":"active","ping":83},{"user_id":393,"name":"ElPayá77","steam_id":76561198064044243,"connected_time":877000000000,"state":"active","ping":89},{"user_id":398,"name":"Jeerven","steam_id":76561198259189841,"connected_time":784000000000,"state":"active","ping":61},{"user_id":407,"name":"The tiniest boy","steam_id":76561198044165189,"connected_time":45000000000,"state":"active","ping":67},{"user_id":404,"name":"Bill Hampton","steam_id":76561198310295139,"connected_time":163000000000,"state":"active","ping":83}]},{"server_id":308,"name":"Uncletopia | Frankfurt | 3 | All Maps","name_short":"frk-3","host":"frk-1.de.uncletopia.com","port":27035,"enabled":true,"region":"eu","cc":"de","latitude":50.110924,"longitude":8.682127,"reserved":0,"last_update":"0001-01-01T00:00:00Z","name_a2s":"Uncletopia | Frankfurt | 3 | All Maps","protocol":17,"map":"cp_sunshine","folder":"tf","game":"Team Fortress","app_id":440,"player_count":0,"max_players":24,"Bots":0,"server_type":"Dedicated","server_os":"Linux","password":true,"vac":true,"version":"7757534","steam_id":85568392924504274,"keywords":["cp","nocrits","nodmgspread","uncletopia"],"game_id":440,"stv_port":27036,"stv_name":"Uncletopia | Frankfurt | 3 | All Maps | STV","players":null},{"server_id":309,"name":"Uncletopia | Frankfurt | 4 | All Maps","name_short":"frk-4","host":"frk-1.de.uncletopia.com","port":27045,"enabled":true,"region":"eu","cc":"de","latitude":50.110924,"longitude":8.682127,"reserved":0,"last_update":"0001-01-01T00:00:00Z","name_a2s":"Uncletopia | Frankfurt | 4 | All Maps","protocol":17,"map":"pl_barnblitz","folder":"tf","game":"Team Fortress","app_id":440,"player_count":24,"max_players":24,"Bots":0,"server_type":"Dedicated","server_os":"Linux","password":true,"vac":true,"version":"7757534","steam_id":85568392924504275,"keywords":["nocrits","nodmgspread","payload","uncletopia"],"game_id":440,"stv_port":27046,"stv_name":"Uncletopia | Frankfurt | 4 | All Maps | STV","players":[{"user_id":718,"name":"Cypher","steam_id":76561197996967254,"connected_time":889000000000,"state":"active","ping":59},{"user_id":679,"name":"AnonTron","steam_id":76561199031895493,"connected_time":4307000000000,"state":"active","ping":155},{"user_id":713,"name":"xTheDarkLight","steam_id":76561198239128298,"connected_time":1464000000000,"state":"active","ping":45},{"user_id":719,"name":"Garuda1","steam_id":76561198058244959,"connected_time":882000000000,"state":"active","ping":76},{"user_id":720,"name":"roblan11","steam_id":76561198066839258,"connected_time":873000000000,"state":"active","ping":41},{"user_id":715,"name":"finbar","steam_id":76561198056812396,"connected_time":1394000000000,"state":"active","ping":76},{"user_id":721,"name":"Sandvich","steam_id":76561199079493666,"connected_time":870000000000,"state":"active","ping":93},{"user_id":700,"name":"Penis Contortionist","steam_id":76561198073663784,"connected_time":2218000000000,"state":"active","ping":50},{"user_id":717,"name":"Menty","steam_id":76561198036748212,"connected_time":1289000000000,"state":"active","ping":40},{"user_id":722,"name":"Ayyy lmao","steam_id":76561198153366647,"connected_time":784000000000,"state":"active","ping":69},{"user_id":665,"name":"Dr. Mike Litoris","steam_id":76561197991205793,"connected_time":4983000000000,"state":"active","ping":87},{"user_id":723,"name":"FoOzTV","steam_id":76561197998636728,"connected_time":765000000000,"state":"active","ping":74},{"user_id":724,"name":"๖ۣۜSir Robbiewolf","steam_id":76561198001357988,"connected_time":764000000000,"state":"active","ping":72},{"user_id":709,"name":"lol wantatack mr hitman grib f2","steam_id":76561198105121641,"connected_time":1715000000000,"state":"active","ping":62},{"user_id":684,"name":"Homosapien","steam_id":76561197972035953,"connected_time":3995000000000,"state":"active","ping":45},{"user_id":698,"name":"Typs","steam_id":76561198011748555,"connected_time":2273000000000,"state":"active","ping":44},{"user_id":725,"name":"The 4th Doctor","steam_id":76561198191516706,"connected_time":755000000000,"state":"active","ping":67},{"user_id":726,"name":"dung eater","steam_id":76561198037130528,"connected_time":707000000000,"state":"active","ping":66},{"user_id":710,"name":"lambrusco di sorbara","steam_id":76561198066071855,"connected_time":1711000000000,"state":"active","ping":57},{"user_id":727,"name":"The Sex","steam_id":76561199142022395,"connected_time":668000000000,"state":"active","ping":65},{"user_id":728,"name":"kornetov.vitalya","steam_id":76561199286034833,"connected_time":653000000000,"state":"active","ping":92},{"user_id":714,"name":"LightBulbGlue #SaveTF2","steam_id":76561198329573529,"connected_time":1444000000000,"state":"active","ping":172},{"user_id":716,"name":"LiterallyRyanGosling","steam_id":76561199017856691,"connected_time":1357000000000,"state":"active","ping":67},{"user_id":729,"name":"Maythorn","steam_id":76561198049709072,"connected_time":423000000000,"state":"active","ping":147}]},{"server_id":310,"name":"Uncletopia | Frankfurt | 5 | All Maps","name_short":"frk-5","host":"frk-1.de.uncletopia.com","port":27055,"enabled":true,"region":"eu","cc":"de","latitude":50.110924,"longitude":8.682127,"reserved":0,"last_update":"0001-01-01T00:00:00Z","name_a2s":"Uncletopia | Frankfurt | 5 | All Maps","protocol":17,"map":"pl_pier","folder":"tf","game":"Team Fortress","app_id":440,"player_count":0,"max_players":24,"Bots":0,"server_type":"Dedicated","server_os":"Linux","password":true,"vac":true,"version":"7757534","steam_id":85568392924504277,"keywords":["nocrits","nodmgspread","payload","uncletopia"],"game_id":440,"stv_port":27056,"stv_name":"Uncletopia | Frankfurt | 5 | All Maps | STV","players":null},{"server_id":311,"name":"Uncletopia | Frankfurt | 6 | All Maps","name_short":"frk-6","host":"frk-1.de.uncletopia.com","port":27065,"enabled":true,"region":"eu","cc":"de","latitude":50.110924,"longitude":8.682127,"reserved":0,"last_update":"0001-01-01T00:00:00Z","name_a2s":"Uncletopia | Frankfurt | 6 | All Maps","protocol":17,"map":"koth_viaduct","folder":"tf","game":"Team Fortress","app_id":440,"player_count":10,"max_players":24,"Bots":0,"server_type":"Dedicated","server_os":"Linux","password":true,"vac":true,"version":"7757534","steam_id":85568392924504278,"keywords":["cp","nocrits","nodmgspread","uncletopia"],"game_id":440,"stv_port":27066,"stv_name":"Uncletopia | Frankfurt | 6 | All Maps | STV","players":[{"user_id":310,"name":"ThePoorArtist","steam_id":76561198827036373,"connected_time":139000000000,"state":"active","ping":58},{"user_id":280,"name":"LiønHeart","steam_id":76561198081370704,"connected_time":2056000000000,"state":"active","ping":54},{"user_id":269,"name":"Adrenaline","steam_id":76561197970852048,"connected_time":3090000000000,"state":"active","ping":61},{"user_id":301,"name":"New","steam_id":76561198402195911,"connected_time":659000000000,"state":"active","ping":114},{"user_id":302,"name":"Pingus","steam_id":76561198164880756,"connected_time":650000000000,"state":"active","ping":71},{"user_id":307,"name":"DonD","steam_id":76561198061496731,"connected_time":445000000000,"state":"active","ping":79},{"user_id":289,"name":"betonomeshalka","steam_id":76561198304548337,"connected_time":1357000000000,"state":"active","ping":99},{"user_id":283,"name":"Sh1n","steam_id":76561199012155377,"connected_time":1896000000000,"state":"active","ping":44},{"user_id":276,"name":"Vectillion","steam_id":76561198074292454,"connected_time":2821000000000,"state":"active","ping":70},{"user_id":263,"name":"REN","steam_id":76561198000596385,"connected_time":3303000000000,"state":"active","ping":67}]},{"server_id":23,"name":"Uncletopia | Frankfurt | 7 | Stopwatch Beta","name_short":"frk-7","host":"frk-1.de.uncletopia.com","port":27075,"enabled":true,"region":"eu","cc":"de","latitude":50.110924,"longitude":8.682127,"reserved":0,"last_update":"0001-01-01T00:00:00Z","name_a2s":"Uncletopia | Frankfurt | 7 | Stopwatch Beta","protocol":17,"map":"workshop/pl_barnblitz_pro7.ugc582280235","folder":"tf","game":"Team Fortress","app_id":440,"player_count":0,"max_players":24,"Bots":0,"server_type":"Dedicated","server_os":"Linux","password":true,"vac":true,"version":"7757534","steam_id":85568392924742827,"keywords":["nocrits","nodmgspread","payload","uncletopia"],"game_id":440,"stv_port":27076,"stv_name":"Uncletopia | Frankfurt | 7 | Stopwatch Beta | STV","players":null},{"server_id":24,"name":"Uncletopia | Frankfurt | 8 | Community","name_short":"frk-8","host":"frk-1.de.uncletopia.com","port":27085,"enabled":true,"region":"eu","cc":"de","latitude":50.110924,"longitude":8.682127,"reserved":0,"last_update":"0001-01-01T00:00:00Z","name_a2s":"Uncletopia | Frankfurt | 8 | Community","protocol":17,"map":"workshop/cp_bruhstbowl_b5.ugc2878604990","folder":"tf","game":"Team Fortress","app_id":440,"player_count":6,"max_players":24,"Bots":0,"server_type":"Dedicated","server_os":"Linux","password":true,"vac":true,"version":"7757534","steam_id":85568392924742828,"keywords":["cp","nocrits","nodmgspread","uncletopia"],"game_id":440,"stv_port":27086,"stv_name":"Uncletopia | Frankfurt | 8 | Community | STV","players":[{"user_id":30,"name":"i heal gay people","steam_id":76561198032167311,"connected_time":127000000000,"state":"spawning","ping":770},{"user_id":19,"name":"(can't chat)mafutbolero","steam_id":76561199233664005,"connected_time":2637000000000,"state":"spawning","ping":213},{"user_id":29,"name":"[waffles]","steam_id":76561198951206047,"connected_time":180000000000,"state":"active","ping":73},{"user_id":21,"name":"Osmo","steam_id":76561199286764992,"connected_time":2050000000000,"state":"active","ping":74},{"user_id":28,"name":"printer is broken","steam_id":76561198234270592,"connected_time":331000000000,"state":"active","ping":58},{"user_id":25,"name":"Operunter","steam_id":76561198059937616,"connected_time":717000000000,"state":"active","ping":69}]},{"server_id":202,"name":"Uncletopia | Hong Kong | 1 | All Maps","name_short":"hgk-1","host":"hgk-1.hk.uncletopia.com","port":27015,"enabled":true,"region":"asia","cc":"hk","latitude":22.302711,"longitude":114.177216,"reserved":0,"last_update":"0001-01-01T00:00:00Z","name_a2s":"Uncletopia | Hong Kong | 1 | All Maps","protocol":17,"map":"koth_cascade","folder":"tf","game":"Team Fortress","app_id":440,"player_count":0,"max_players":24,"Bots":0,"server_type":"Dedicated","server_os":"Linux","password":true,"vac":true,"version":"7757534","steam_id":85568392924494504,"keywords":["cp","nocrits","nodmgspread","uncletopia"],"game_id":440,"stv_port":27016,"stv_name":"Uncletopia | Hong Kong | 1 | All Maps | STV","players":null},{"server_id":1,"name":"Uncletopia | Los Angeles | 1 | All Maps","name_short":"lax-1","host":"lax-1.us.uncletopia.com","port":27015,"enabled":true,"region":"us-west","cc":"us","latitude":33.94279,"longitude":-118.41004,"reserved":0,"last_update":"0001-01-01T00:00:00Z","name_a2s":"Uncletopia | Los Angeles | 1 | All Maps","protocol":17,"map":"koth_lakeside_final","folder":"tf","game":"Team Fortress","app_id":440,"player_count":0,"max_players":24,"Bots":0,"server_type":"Dedicated","server_os":"Linux","password":true,"vac":true,"version":"7757534","steam_id":85568392924469991,"keywords":["cp","nocrits","nodmgspread","uncletopia"],"game_id":440,"stv_port":27016,"stv_name":"Uncletopia | Los Angeles | 1 | All Maps | STV","players":null},{"server_id":112,"name":"Uncletopia | Los Angeles | 2 | All Maps","name_short":"lax-2","host":"lax-1.us.uncletopia.com","port":27025,"enabled":true,"region":"us-west","cc":"us","latitude":33.94279,"longitude":-118.41004,"reserved":0,"last_update":"0001-01-01T00:00:00Z","name_a2s":"Uncletopia | Los Angeles | 2 | All Maps","protocol":17,"map":"pl_upward","folder":"tf","game":"Team Fortress","app_id":440,"player_count":4,"max_players":24,"Bots":0,"server_type":"Dedicated","server_os":"Linux","password":true,"vac":true,"version":"7757534","steam_id":85568392924469992,"keywords":["nocrits","nodmgspread","payload","uncletopia"],"game_id":440,"stv_port":27026,"stv_name":"Uncletopia | Los Angeles | 2 | All Maps | STV","players":[{"user_id":15,"name":"Mediarch","steam_id":76561198050765729,"connected_time":478000000000,"state":"active","ping":76},{"user_id":17,"name":"a cat plushie","steam_id":76561198080046542,"connected_time":293000000000,"state":"active","ping":75},{"user_id":18,"name":"stboncho","steam_id":76561198172275301,"connected_time":259000000000,"state":"active","ping":67},{"user_id":19,"name":"ayyimyou","steam_id":76561199023391779,"connected_time":127000000000,"state":"active","ping":90}]},{"server_id":324,"name":"Uncletopia | Los Angeles | 3 | All Maps","name_short":"lax-3","host":"lax-1.us.uncletopia.com","port":27035,"enabled":true,"region":"us-west","cc":"us","latitude":33.94279,"longitude":-118.41004,"reserved":0,"last_update":"0001-01-01T00:00:00Z","name_a2s":"Uncletopia | Los Angeles | 3 | All Maps","protocol":17,"map":"pl_barnblitz","folder":"tf","game":"Team Fortress","app_id":440,"player_count":0,"max_players":24,"Bots":0,"server_type":"Dedicated","server_os":"Linux","password":true,"vac":true,"version":"7757534","steam_id":85568392924510198,"keywords":["nocrits","nodmgspread","payload","uncletopia"],"game_id":440,"stv_port":27036,"stv_name":"Uncletopia | Los Angeles | 3 | All Maps | STV","players":null},{"server_id":25,"name":"Uncletopia | Los Angeles | 4 | Stopwatch Beta","name_short":"lax-4","host":"lax-1.us.uncletopia.com","port":27045,"enabled":true,"region":"us-west","cc":"us","latitude":33.94279,"longitude":-118.41004,"reserved":0,"last_update":"0001-01-01T00:00:00Z","name_a2s":"Uncletopia | Los Angeles | 4 | Stopwatch Beta","protocol":17,"map":"pl_swiftwater_final1","folder":"tf","game":"Team Fortress","app_id":440,"player_count":0,"max_players":24,"Bots":0,"server_type":"Dedicated","server_os":"Linux","password":true,"vac":true,"version":"7757534","steam_id":85568392924510199,"keywords":["nocrits","nodmgspread","payload","uncletopia"],"game_id":440,"stv_port":27046,"stv_name":"Uncletopia | Los Angeles | 4 | Stopwatch Beta | STV","players":null},{"server_id":11,"name":"Uncletopia | London | 1 | All Maps","name_short":"lon-1","host":"lon-1.uk.uncletopia.com","port":27015,"enabled":true,"region":"eu","cc":"gb","latitude":51.509865,"longitude":-0.118092,"reserved":0,"last_update":"0001-01-01T00:00:00Z","name_a2s":"Uncletopia | London | 1 | All Maps","protocol":17,"map":"pl_barnblitz","folder":"tf","game":"Team Fortress","app_id":440,"player_count":24,"max_players":24,"Bots":0,"server_type":"Dedicated","server_os":"Linux","password":true,"vac":true,"version":"7757534","steam_id":85568392924367362,"keywords":["nocrits","nodmgspread","payload","uncletopia"],"game_id":440,"stv_port":27016,"stv_name":"Uncletopia | London | 1 | All Maps | STV","players":[{"user_id":518,"name":"leg","steam_id":76561199026097466,"connected_time":723000000000,"state":"active","ping":74},{"user_id":437,"name":"Lyra","steam_id":76561198190583242,"connected_time":5174000000000,"state":"active","ping":76},{"user_id":425,"name":"rigel_","steam_id":76561198148640847,"connected_time":6759000000000,"state":"active","ping":86},{"user_id":477,"name":"Pilaarius","steam_id":76561198120273212,"connected_time":3028000000000,"state":"active","ping":98},{"user_id":476,"name":"Jesus Enjoyer","steam_id":76561198840259819,"connected_time":3033000000000,"state":"active","ping":52},{"user_id":501,"name":"Kvicha Kvaratskhelia","steam_id":76561198179339326,"connected_time":1456000000000,"state":"active","ping":80},{"user_id":525,"name":"wouris","steam_id":76561198876188003,"connected_time":230000000000,"state":"active","ping":60},{"user_id":524,"name":"Archer","steam_id":76561197994239444,"connected_time":393000000000,"state":"active","ping":110},{"user_id":427,"name":"eblanovic","steam_id":76561198106049954,"connected_time":6753000000000,"state":"active","ping":75},{"user_id":494,"name":"Mi Manchi","steam_id":76561198171573129,"connected_time":1658000000000,"state":"active","ping":74},{"user_id":408,"name":"Caerot","steam_id":76561198839000676,"connected_time":9172000000000,"state":"active","ping":73},{"user_id":479,"name":"agony","steam_id":76561199192434258,"connected_time":3019000000000,"state":"active","ping":91},{"user_id":491,"name":"Martyawesome23","steam_id":76561198236015392,"connected_time":1700000000000,"state":"active","ping":120},{"user_id":497,"name":"kojitori","steam_id":76561198838072150,"connected_time":1473000000000,"state":"active","ping":47},{"user_id":480,"name":"static","steam_id":76561198836825741,"connected_time":3000000000000,"state":"active","ping":45},{"user_id":503,"name":"Rose","steam_id":76561198043601838,"connected_time":1436000000000,"state":"active","ping":61},{"user_id":471,"name":"Garfield Senpai","steam_id":76561198253809458,"connected_time":3146000000000,"state":"active","ping":103},{"user_id":531,"name":"cocksucker","steam_id":76561199480442352,"connected_time":12000000000,"state":"active","ping":99},{"user_id":460,"name":"goblinninja110","steam_id":76561198269159354,"connected_time":3546000000000,"state":"active","ping":64},{"user_id":472,"name":"sareena","steam_id":76561198810194062,"connected_time":3137000000000,"state":"active","ping":70},{"user_id":458,"name":"Son Goku","steam_id":76561199383437138,"connected_time":3613000000000,"state":"active","ping":136},{"user_id":424,"name":"aibohpsnart","steam_id":76561198168207306,"connected_time":6909000000000,"state":"active","ping":99},{"user_id":475,"name":"Dr Ludwig","steam_id":76561198426522902,"connected_time":3052000000000,"state":"active","ping":58},{"user_id":499,"name":"xavier","steam_id":76561198076494034,"connected_time":1470000000000,"state":"active","ping":54}]},{"server_id":114,"name":"Uncletopia | London | 2 | All Maps","name_short":"lon-2","host":"lon-1.uk.uncletopia.com","port":27025,"enabled":true,"region":"eu","cc":"gb","latitude":51.509865,"longitude":-0.118092,"reserved":0,"last_update":"0001-01-01T00:00:00Z","name_a2s":"Uncletopia | London | 2 | All Maps","protocol":17,"map":"pl_borneo","folder":"tf","game":"Team Fortress","app_id":440,"player_count":24,"max_players":24,"Bots":0,"server_type":"Dedicated","server_os":"Linux","password":true,"vac":true,"version":"7757534","steam_id":85568392924470941,"keywords":["nocrits","nodmgspread","payload","uncletopia"],"game_id":440,"stv_port":27026,"stv_name":"Uncletopia | London | 2 | All Maps | STV","players":[{"user_id":283,"name":"bean3d","steam_id":76561198285786989,"connected_time":711000000000,"state":"active","ping":179},{"user_id":167,"name":"sape (huntsman enjoyer)","steam_id":76561198089322416,"connected_time":7944000000000,"state":"active","ping":94},{"user_id":287,"name":"Firearms","steam_id":76561197989867612,"connected_time":454000000000,"state":"active","ping":44},{"user_id":244,"name":"strohkopf9","steam_id":76561198059349860,"connected_time":4188000000000,"state":"active","ping":75},{"user_id":289,"name":"Enda","steam_id":76561198202980164,"connected_time":118000000000,"state":"active","ping":81},{"user_id":255,"name":"sirdudalot","steam_id":76561198050298635,"connected_time":3184000000000,"state":"active","ping":210},{"user_id":286,"name":"SaltyCupcakes","steam_id":76561198256386417,"connected_time":679000000000,"state":"active","ping":42},{"user_id":240,"name":"British Disapproval","steam_id":76561198001375260,"connected_time":4344000000000,"state":"active","ping":56},{"user_id":268,"name":"[T]aKer","steam_id":76561198001778013,"connected_time":2425000000000,"state":"active","ping":46},{"user_id":214,"name":"Ape","steam_id":76561198322703872,"connected_time":5886000000000,"state":"active","ping":68},{"user_id":257,"name":"♥ aura ♥","steam_id":76561198066258544,"connected_time":3022000000000,"state":"active","ping":62},{"user_id":233,"name":"homeinvasion$","steam_id":76561199111905021,"connected_time":4752000000000,"state":"active","ping":120},{"user_id":228,"name":"SnowShot","steam_id":76561198004766638,"connected_time":5373000000000,"state":"active","ping":82},{"user_id":281,"name":"help","steam_id":76561199056338917,"connected_time":1034000000000,"state":"active","ping":167},{"user_id":271,"name":"Shynii","steam_id":76561198194682105,"connected_time":2071000000000,"state":"active","ping":56},{"user_id":185,"name":"Persephone \u003c3","steam_id":76561198045694137,"connected_time":7518000000000,"state":"active","ping":77},{"user_id":238,"name":"Mecha","steam_id":76561198014927379,"connected_time":4369000000000,"state":"active","ping":131},{"user_id":274,"name":"Waltcha","steam_id":76561198007691468,"connected_time":1619000000000,"state":"active","ping":66},{"user_id":284,"name":"kotamine","steam_id":76561198068907991,"connected_time":701000000000,"state":"active","ping":75},{"user_id":266,"name":"IncrediblyTexan","steam_id":76561199159370663,"connected_time":2489000000000,"state":"active","ping":88},{"user_id":285,"name":"randompixel","steam_id":76561198003941207,"connected_time":688000000000,"state":"active","ping":58},{"user_id":288,"name":"twitch.tv/doveuzi","steam_id":76561198026037217,"connected_time":322000000000,"state":"active","ping":89},{"user_id":275,"name":"K23.","steam_id":76561198842670241,"connected_time":1220000000000,"state":"active","ping":107},{"user_id":272,"name":"GazerBazer","steam_id":76561198879107565,"connected_time":1985000000000,"state":"active","ping":60}]},{"server_id":320,"name":"Uncletopia | London | 3 | All Maps","name_short":"lon-3","host":"lon-1.uk.uncletopia.com","port":27035,"enabled":true,"region":"eu","cc":"gb","latitude":51.509865,"longitude":-0.118092,"reserved":0,"last_update":"0001-01-01T00:00:00Z","name_a2s":"Uncletopia | London | 3 | All Maps","protocol":17,"map":"cp_mountainlab","folder":"tf","game":"Team Fortress","app_id":440,"player_count":24,"max_players":24,"Bots":0,"server_type":"Dedicated","server_os":"Linux","password":true,"vac":true,"version":"7757534","steam_id":85568392924510192,"keywords":["cp","nocrits","nodmgspread","uncletopia"],"game_id":440,"stv_port":27036,"stv_name":"Uncletopia | London | 3 | All Maps | STV","players":[{"user_id":517,"name":"Krim","steam_id":76561199070070579,"connected_time":175000000000,"state":"active","ping":67},{"user_id":475,"name":"Omni","steam_id":76561197964320557,"connected_time":2230000000000,"state":"active","ping":69},{"user_id":503,"name":"Davey","steam_id":76561198256879107,"connected_time":557000000000,"state":"active","ping":75},{"user_id":504,"name":"Avitz","steam_id":76561197986150359,"connected_time":533000000000,"state":"active","ping":42},{"user_id":516,"name":"R4yzan","steam_id":76561198085146731,"connected_time":228000000000,"state":"active","ping":53},{"user_id":443,"name":"go play rimworld","steam_id":76561199397932924,"connected_time":4277000000000,"state":"active","ping":86},{"user_id":505,"name":"Vanes #savetf2","steam_id":76561198070099171,"connected_time":526000000000,"state":"active","ping":72},{"user_id":513,"name":"daddy cheese","steam_id":76561199049128913,"connected_time":329000000000,"state":"active","ping":69},{"user_id":447,"name":"Мякиш(хлебный)","steam_id":76561199223895282,"connected_time":4188000000000,"state":"active","ping":97},{"user_id":492,"name":"zvekan","steam_id":76561198381101196,"connected_time":1486000000000,"state":"active","ping":62},{"user_id":484,"name":"juntao","steam_id":76561198363882056,"connected_time":1701000000000,"state":"active","ping":44},{"user_id":482,"name":"Xx_EpicGaymer_xX","steam_id":76561198846784757,"connected_time":1729000000000,"state":"active","ping":57},{"user_id":481,"name":"Fido","steam_id":76561198019826483,"connected_time":1801000000000,"state":"active","ping":60},{"user_id":456,"name":"beheading video from 2009","steam_id":76561198834897089,"connected_time":3587000000000,"state":"active","ping":73},{"user_id":506,"name":"Malai","steam_id":76561198062537014,"connected_time":488000000000,"state":"active","ping":73},{"user_id":507,"name":"Somb","steam_id":76561198101672735,"connected_time":474000000000,"state":"active","ping":75},{"user_id":518,"name":"maybe","steam_id":76561199028670732,"connected_time":133000000000,"state":"active","ping":62},{"user_id":511,"name":"Shingo the Brit","steam_id":76561198439680647,"connected_time":392000000000,"state":"active","ping":62},{"user_id":487,"name":"blazeeight","steam_id":76561198159456502,"connected_time":1661000000000,"state":"active","ping":55},{"user_id":515,"name":"Gorogaz","steam_id":76561198207157679,"connected_time":274000000000,"state":"active","ping":58},{"user_id":479,"name":"DarkFloy","steam_id":76561198070650206,"connected_time":1983000000000,"state":"active","ping":94},{"user_id":493,"name":"License","steam_id":76561197967501494,"connected_time":1478000000000,"state":"active","ping":175},{"user_id":509,"name":"Crazy Bath Salt Sniffer","steam_id":76561199147501514,"connected_time":463000000000,"state":"active","ping":74},{"user_id":450,"name":"Pan Piotr","steam_id":76561198140016126,"connected_time":4172000000000,"state":"active","ping":77}]},{"server_id":321,"name":"Uncletopia | London | 4 | All Maps","name_short":"lon-4","host":"lon-1.uk.uncletopia.com","port":27045,"enabled":true,"region":"eu","cc":"gb","latitude":51.509865,"longitude":-0.118092,"reserved":0,"last_update":"0001-01-01T00:00:00Z","name_a2s":"Uncletopia | London | 4 | All Maps","protocol":17,"map":"pl_snowycoast","folder":"tf","game":"Team Fortress","app_id":440,"player_count":24,"max_players":24,"Bots":0,"server_type":"Dedicated","server_os":"Linux","password":true,"vac":true,"version":"7757534","steam_id":85568392924510193,"keywords":["nocrits","nodmgspread","payload","uncletopia"],"game_id":440,"stv_port":27046,"stv_name":"Uncletopia | London | 4 | All Maps | STV","players":[{"user_id":190,"name":"Noob_with_source","steam_id":76561198870362103,"connected_time":1359000000000,"state":"active","ping":55},{"user_id":212,"name":"ObamaRunEsports","steam_id":76561199102715720,"connected_time":97000000000,"state":"active","ping":90},{"user_id":181,"name":"SeriousBusiness","steam_id":76561198046600932,"connected_time":1776000000000,"state":"active","ping":78},{"user_id":211,"name":"what is he doing?","steam_id":76561198139303045,"connected_time":140000000000,"state":"active","ping":92},{"user_id":199,"name":"Kyle","steam_id":76561198071181745,"connected_time":560000000000,"state":"active","ping":54},{"user_id":205,"name":"etc","steam_id":76561197998394797,"connected_time":362000000000,"state":"active","ping":51},{"user_id":171,"name":"Dabman","steam_id":76561199207417437,"connected_time":2663000000000,"state":"active","ping":101},{"user_id":64,"name":"brokenphilip","steam_id":76561198080960604,"connected_time":9735000000000,"state":"active","ping":79},{"user_id":201,"name":"Hercules","steam_id":76561198041164170,"connected_time":435000000000,"state":"active","ping":65},{"user_id":172,"name":"KnugenIV","steam_id":76561198127091993,"connected_time":2661000000000,"state":"active","ping":57},{"user_id":173,"name":"Private Sex","steam_id":76561199007574830,"connected_time":2660000000000,"state":"active","ping":82},{"user_id":183,"name":"king251311","steam_id":76561199063310889,"connected_time":1741000000000,"state":"active","ping":93},{"user_id":204,"name":"kim-il-sung","steam_id":76561199142566560,"connected_time":411000000000,"state":"active","ping":39},{"user_id":192,"name":"Madmoose96","steam_id":76561198081888486,"connected_time":1311000000000,"state":"active","ping":75},{"user_id":178,"name":"Stucent","steam_id":76561198147498713,"connected_time":2313000000000,"state":"active","ping":66},{"user_id":111,"name":"Smash hit enjoyer","steam_id":76561198311322738,"connected_time":7114000000000,"state":"active","ping":59},{"user_id":207,"name":"Michael","steam_id":76561198003146906,"connected_time":291000000000,"state":"active","ping":45},{"user_id":198,"name":"MistaHezakiah","steam_id":76561198004668029,"connected_time":716000000000,"state":"active","ping":79},{"user_id":45,"name":"DiscoTraveler","steam_id":76561199240168088,"connected_time":10968000000000,"state":"active","ping":111},{"user_id":208,"name":"twpsyn","steam_id":76561198057121917,"connected_time":286000000000,"state":"active","ping":77},{"user_id":48,"name":"syndenz","steam_id":76561198176063813,"connected_time":10929000000000,"state":"active","ping":75},{"user_id":209,"name":"Ted Kaczynski","steam_id":76561198064795519,"connected_time":250000000000,"state":"active","ping":61},{"user_id":210,"name":"One Shiny Boi™","steam_id":76561198199193627,"connected_time":234000000000,"state":"active","ping":75},{"user_id":203,"name":"Tom Foolery","steam_id":76561198358895809,"connected_time":431000000000,"state":"active","ping":54}]},{"server_id":21,"name":"Uncletopia | London | 5 | All Maps","name_short":"lon-5","host":"lon-1.uk.uncletopia.com","port":27055,"enabled":true,"region":"eu","cc":"gb","latitude":51.509865,"longitude":-0.118092,"reserved":0,"last_update":"0001-01-01T00:00:00Z","name_a2s":"Uncletopia | London | 5 | All Maps","protocol":17,"map":"cp_dustbowl","folder":"tf","game":"Team Fortress","app_id":440,"player_count":24,"max_players":24,"Bots":0,"server_type":"Dedicated","server_os":"Linux","password":true,"vac":true,"version":"7757534","steam_id":85568392924742829,"keywords":["cp","nocrits","nodmgspread","uncletopia"],"game_id":440,"stv_port":27056,"stv_name":"Uncletopia | London | 5 | All Maps | STV","players":[{"user_id":125,"name":"flange","steam_id":76561198040182692,"connected_time":2756000000000,"state":"active","ping":31},{"user_id":151,"name":"r06u3","steam_id":76561198254099253,"connected_time":981000000000,"state":"active","ping":178},{"user_id":133,"name":"TheFatOne","steam_id":76561199047405954,"connected_time":2232000000000,"state":"active","ping":49},{"user_id":165,"name":"all quiet on the wanker front","steam_id":76561198011155232,"connected_time":289000000000,"state":"active","ping":56},{"user_id":174,"name":"JohkupohkuXD","steam_id":76561198391108762,"connected_time":16000000000,"state":"spawning","ping":88},{"user_id":153,"name":"Angelatine(slut)","steam_id":76561198101624996,"connected_time":926000000000,"state":"active","ping":98},{"user_id":164,"name":"SaphriX","steam_id":76561198092239262,"connected_time":315000000000,"state":"active","ping":53},{"user_id":166,"name":"kitten","steam_id":76561198154997494,"connected_time":215000000000,"state":"active","ping":52},{"user_id":141,"name":"Hat Lover","steam_id":76561198312283433,"connected_time":1803000000000,"state":"active","ping":87},{"user_id":163,"name":"Erates","steam_id":76561197968707211,"connected_time":355000000000,"state":"active","ping":37},{"user_id":135,"name":"The Daniella","steam_id":76561198023075547,"connected_time":2220000000000,"state":"active","ping":55},{"user_id":117,"name":"ILDPRUT","steam_id":76561198024545611,"connected_time":3038000000000,"state":"active","ping":59},{"user_id":167,"name":"Sauce","steam_id":76561198307339689,"connected_time":213000000000,"state":"active","ping":60},{"user_id":156,"name":"Chocofrolik","steam_id":76561198454779847,"connected_time":884000000000,"state":"active","ping":70},{"user_id":169,"name":"Monara12th","steam_id":76561199478607360,"connected_time":201000000000,"state":"active","ping":60},{"user_id":157,"name":"cat","steam_id":76561198832231975,"connected_time":877000000000,"state":"active","ping":97},{"user_id":173,"name":"exily","steam_id":76561198038209818,"connected_time":33000000000,"state":"active","ping":44},{"user_id":170,"name":"Jxsion222","steam_id":76561198204523637,"connected_time":197000000000,"state":"active","ping":49},{"user_id":97,"name":"Труп Володя","steam_id":76561198035718457,"connected_time":4909000000000,"state":"active","ping":89},{"user_id":127,"name":"Hooodeeney","steam_id":76561199013654263,"connected_time":2556000000000,"state":"active","ping":71},{"user_id":172,"name":"a straight white male","steam_id":76561198381120660,"connected_time":128000000000,"state":"active","ping":90},{"user_id":132,"name":"L78k3","steam_id":76561198042189577,"connected_time":2261000000000,"state":"active","ping":52},{"user_id":40,"name":"Urfangonultasadana","steam_id":76561199389286151,"connected_time":9191000000000,"state":"active","ping":94},{"user_id":162,"name":"Signes","steam_id":76561198318775340,"connected_time":575000000000,"state":"active","ping":90}]},{"server_id":22,"name":"Uncletopia | London | 6 | All Maps","name_short":"lon-6","host":"lon-1.uk.uncletopia.com","port":27065,"enabled":true,"region":"eu","cc":"gb","latitude":51.509865,"longitude":-0.118092,"reserved":0,"last_update":"0001-01-01T00:00:00Z","name_a2s":"Uncletopia | London | 6 | All Maps","protocol":17,"map":"koth_viaduct","folder":"tf","game":"Team Fortress","app_id":440,"player_count":6,"max_players":24,"Bots":0,"server_type":"Dedicated","server_os":"Linux","password":true,"vac":true,"version":"7757534","steam_id":85568392924742830,"keywords":["cp","nocrits","nodmgspread","uncletopia"],"game_id":440,"stv_port":27066,"stv_name":"Uncletopia | London | 6 | All Maps | STV","players":[{"user_id":7,"name":"lipaul777","steam_id":76561199090751367,"connected_time":1213000000000,"state":"active","ping":72},{"user_id":8,"name":"DaDemoBottleBoy","steam_id":76561199052375561,"connected_time":968000000000,"state":"active","ping":56},{"user_id":9,"name":"john315546","steam_id":76561199186537930,"connected_time":702000000000,"state":"active","ping":116},{"user_id":13,"name":"zajebano Loki5112","steam_id":76561198788755334,"connected_time":361000000000,"state":"active","ping":88},{"user_id":11,"name":"Heyy :3","steam_id":76561198616031703,"connected_time":422000000000,"state":"active","ping":72},{"user_id":12,"name":"Lessoz","steam_id":76561199211572036,"connected_time":406000000000,"state":"active","ping":84}]},{"server_id":40,"name":"Uncletopia | London | 7 | No Payload","name_short":"lon-7","host":"lon-1.uk.uncletopia.com","port":27075,"enabled":true,"region":"eu","cc":"gb","latitude":51.509865,"longitude":-0.118092,"reserved":0,"last_update":"0001-01-01T00:00:00Z","name_a2s":"Uncletopia | London | 7 | No Payload","protocol":17,"map":"koth_viaduct","folder":"tf","game":"Team Fortress","app_id":440,"player_count":24,"max_players":24,"Bots":0,"server_type":"Dedicated","server_os":"Linux","password":true,"vac":true,"version":"7757534","steam_id":85568392924964314,"keywords":["cp","nocrits","nodmgspread","uncletopia"],"game_id":440,"stv_port":27076,"stv_name":"Uncletopia | London | 7 | No Payload | STV","players":[{"user_id":10,"name":"ran is running","steam_id":76561199443185667,"connected_time":3911000000000,"state":"active","ping":139},{"user_id":13,"name":"Nummi","steam_id":76561198980901935,"connected_time":2520000000000,"state":"active","ping":74},{"user_id":14,"name":"piss man (real)","steam_id":76561198839843428,"connected_time":2425000000000,"state":"active","ping":116},{"user_id":33,"name":"Gimli","steam_id":76561198004149706,"connected_time":1203000000000,"state":"active","ping":70},{"user_id":22,"name":"Der Herr Doktor","steam_id":76561198119476089,"connected_time":1593000000000,"state":"active","ping":80},{"user_id":17,"name":"Not Clickbait (Real)","steam_id":76561198951275407,"connected_time":1815000000000,"state":"active","ping":81},{"user_id":38,"name":"Kleiner Engel","steam_id":76561198009922500,"connected_time":966000000000,"state":"active","ping":71},{"user_id":23,"name":"Tohseno","steam_id":76561197995813008,"connected_time":1584000000000,"state":"active","ping":51},{"user_id":20,"name":"Birdseye","steam_id":76561198025852216,"connected_time":1672000000000,"state":"active","ping":46},{"user_id":21,"name":"🦐 Tust 🦐","steam_id":76561198045694677,"connected_time":1667000000000,"state":"active","ping":45},{"user_id":24,"name":"Kirvis","steam_id":76561198027831643,"connected_time":1571000000000,"state":"active","ping":95},{"user_id":25,"name":"Trans Cat GF","steam_id":76561198436817109,"connected_time":1564000000000,"state":"active","ping":50},{"user_id":47,"name":"Dåvid","steam_id":76561198184135755,"connected_time":527000000000,"state":"active","ping":69},{"user_id":27,"name":"Aspect YT","steam_id":76561198238625372,"connected_time":1540000000000,"state":"active","ping":72},{"user_id":48,"name":"Fasj.","steam_id":76561198049975379,"connected_time":517000000000,"state":"active","ping":49},{"user_id":54,"name":"gummygeek","steam_id":76561198244543486,"connected_time":72000000000,"state":"active","ping":194},{"user_id":37,"name":"Space","steam_id":76561198021572167,"connected_time":1138000000000,"state":"active","ping":45},{"user_id":49,"name":"Gry","steam_id":76561198053961616,"connected_time":397000000000,"state":"active","ping":46},{"user_id":39,"name":"Rowan","steam_id":76561198076193444,"connected_time":952000000000,"state":"active","ping":65},{"user_id":51,"name":"Subterranean","steam_id":76561198106684566,"connected_time":303000000000,"state":"active","ping":76},{"user_id":53,"name":"kris","steam_id":76561198134746536,"connected_time":78000000000,"state":"active","ping":89},{"user_id":50,"name":"Tywhip","steam_id":76561199207545191,"connected_time":371000000000,"state":"active","ping":57},{"user_id":45,"name":"Nobaddy","steam_id":76561198037871007,"connected_time":628000000000,"state":"active","ping":86},{"user_id":46,"name":"Glitch","steam_id":76561198801335846,"connected_time":588000000000,"state":"active","ping":33}]},{"server_id":41,"name":"Uncletopia | London | 8 | Community","name_short":"lon-8","host":"lon-1.uk.uncletopia.com","port":27085,"enabled":true,"region":"eu","cc":"gb","latitude":51.509865,"longitude":-0.118092,"reserved":0,"last_update":"0001-01-01T00:00:00Z","name_a2s":"Uncletopia | London | 8 | Community","protocol":17,"map":"pl_barnblitz","folder":"tf","game":"Team Fortress","app_id":440,"player_count":0,"max_players":24,"Bots":0,"server_type":"Dedicated","server_os":"Linux","password":true,"vac":true,"version":"7757534","steam_id":85568392924964315,"keywords":["nocrits","nodmgspread","payload","uncletopia"],"game_id":440,"stv_port":27086,"stv_name":"Uncletopia | London | 8 | Community | STV","players":null},{"server_id":300,"name":"Uncletopia | Montréal | 1 | All Maps","name_short":"mtl-1","host":"mtl-1.ca.uncletopia.com","port":27015,"enabled":true,"region":"us-east","cc":"ca","latitude":45.50889,"longitude":-73.56167,"reserved":0,"last_update":"0001-01-01T00:00:00Z","name_a2s":"Uncletopia | Montréal | 1 | All Maps","protocol":17,"map":"cp_sunshine","folder":"tf","game":"Team Fortress","app_id":440,"player_count":0,"max_players":24,"Bots":0,"server_type":"Dedicated","server_os":"Linux","password":true,"vac":true,"version":"7757534","steam_id":85568392924500087,"keywords":["cp","nocrits","nodmgspread","uncletopia"],"game_id":440,"stv_port":27016,"stv_name":"Uncletopia | Montréal | 1 | All Maps | STV","players":null},{"server_id":301,"name":"Uncletopia | Montréal | 2 | All Maps","name_short":"mtl-2","host":"mtl-1.ca.uncletopia.com","port":27025,"enabled":true,"region":"us-east","cc":"ca","latitude":45.50889,"longitude":-73.56167,"reserved":0,"last_update":"0001-01-01T00:00:00Z","name_a2s":"Uncletopia | Montréal | 2 | All Maps","protocol":17,"map":"pl_snowycoast","folder":"tf","game":"Team Fortress","app_id":440,"player_count":0,"max_players":24,"Bots":0,"server_type":"Dedicated","server_os":"Linux","password":true,"vac":true,"version":"7757534","steam_id":85568392924500088,"keywords":["nocrits","nodmgspread","payload","uncletopia"],"game_id":440,"stv_port":27026,"stv_name":"Uncletopia | Montréal | 2 | All Maps | STV","players":null},{"server_id":302,"name":"Uncletopia | Montréal | 3 | All Maps","name_short":"mtl-3","host":"mtl-1.ca.uncletopia.com","port":27035,"enabled":true,"region":"us-east","cc":"ca","latitude":45.50889,"longitude":-73.56167,"reserved":0,"last_update":"0001-01-01T00:00:00Z","name_a2s":"Uncletopia | Montréal | 3 | All Maps","protocol":17,"map":"pl_swiftwater_final1","folder":"tf","game":"Team Fortress","app_id":440,"player_count":0,"max_players":24,"Bots":0,"server_type":"Dedicated","server_os":"Linux","password":true,"vac":true,"version":"7757534","steam_id":85568392924500089,"keywords":["nocrits","nodmgspread","payload","uncletopia"],"game_id":440,"stv_port":27036,"stv_name":"Uncletopia | Montréal | 3 | All Maps | STV","players":null},{"server_id":303,"name":"Uncletopia | Montréal | 4 | No Payload","name_short":"mtl-4","host":"mtl-1.ca.uncletopia.com","port":27045,"enabled":true,"region":"us-east","cc":"ca","latitude":45.50889,"longitude":-73.56167,"reserved":0,"last_update":"0001-01-01T00:00:00Z","name_a2s":"Uncletopia | Montréal | 4 | No Payload","protocol":17,"map":"cp_steel","folder":"tf","game":"Team Fortress","app_id":440,"player_count":0,"max_players":24,"Bots":0,"server_type":"Dedicated","server_os":"Linux","password":true,"vac":true,"version":"7757534","steam_id":85568392924500090,"keywords":["cp","nocrits","nodmgspread","uncletopia"],"game_id":440,"stv_port":27046,"stv_name":"Uncletopia | Montréal | 4 | No Payload | STV","players":null},{"server_id":13,"name":"Uncletopia | New York City | 1 | All Maps","name_short":"nyc-1","host":"nyc-1.us.uncletopia.com","port":27015,"enabled":true,"region":"us-east","cc":"us","latitude":40.73061,"longitude":-73.93524,"reserved":0,"last_update":"0001-01-01T00:00:00Z","name_a2s":"Uncletopia | New York City | 1 | All Maps","protocol":17,"map":"koth_lakeside_final","folder":"tf","game":"Team Fortress","app_id":440,"player_count":23,"max_players":24,"Bots":0,"server_type":"Dedicated","server_os":"Linux","password":true,"vac":true,"version":"7757534","steam_id":85568392924469993,"keywords":["cp","nocrits","nodmgspread","uncletopia"],"game_id":440,"stv_port":27016,"stv_name":"Uncletopia | New York City | 1 | All Maps | STV","players":[{"user_id":170,"name":"hydrationing","steam_id":76561199429069267,"connected_time":3974000000000,"state":"active","ping":60},{"user_id":186,"name":"Wattle","steam_id":76561198036756626,"connected_time":2184000000000,"state":"active","ping":53},{"user_id":187,"name":"jhatzy","steam_id":76561198853607142,"connected_time":2170000000000,"state":"active","ping":57},{"user_id":188,"name":"kermeeee","steam_id":76561198106278670,"connected_time":2164000000000,"state":"active","ping":100},{"user_id":208,"name":"burger king fries on the dash","steam_id":76561199049096532,"connected_time":940000000000,"state":"active","ping":89},{"user_id":218,"name":"Tomcouger","steam_id":76561198022866923,"connected_time":231000000000,"state":"active","ping":115},{"user_id":195,"name":"Weekly","steam_id":76561197985928169,"connected_time":2026000000000,"state":"active","ping":77},{"user_id":223,"name":"Qwerds","steam_id":76561198139150581,"connected_time":113000000000,"state":"active","ping":83},{"user_id":219,"name":"Bipolar Beary","steam_id":76561198042027933,"connected_time":224000000000,"state":"active","ping":118},{"user_id":179,"name":"Homura Simp","steam_id":76561198246080762,"connected_time":2997000000000,"state":"active","ping":44},{"user_id":203,"name":"KhorneBread ︻デ 一","steam_id":76561198097069958,"connected_time":1587000000000,"state":"active","ping":72},{"user_id":224,"name":"WarMace","steam_id":76561198395937853,"connected_time":79000000000,"state":"active","ping":84},{"user_id":221,"name":"Training Arc","steam_id":76561198038832034,"connected_time":144000000000,"state":"active","ping":121},{"user_id":200,"name":"4ling","steam_id":76561197994398381,"connected_time":1758000000000,"state":"active","ping":55},{"user_id":222,"name":"JTD1019","steam_id":76561198131179444,"connected_time":119000000000,"state":"active","ping":72},{"user_id":181,"name":"barbara","steam_id":76561198072417792,"connected_time":2900000000000,"state":"active","ping":127},{"user_id":159,"name":"Schmingus","steam_id":76561199476148332,"connected_time":4941000000000,"state":"active","ping":97},{"user_id":205,"name":"OG Bird Jesus","steam_id":76561198090957312,"connected_time":1460000000000,"state":"active","ping":90},{"user_id":210,"name":"roby","steam_id":76561198044660393,"connected_time":833000000000,"state":"active","ping":128},{"user_id":206,"name":"Bony","steam_id":76561199001748822,"connected_time":1284000000000,"state":"active","ping":105},{"user_id":175,"name":"A Trigger Happy Chipmunk","steam_id":76561198013608736,"connected_time":3178000000000,"state":"active","ping":61},{"user_id":215,"name":"Aeonspassed","steam_id":76561198014016451,"connected_time":262000000000,"state":"active","ping":82},{"user_id":217,"name":"Dastardly","steam_id":76561198028351509,"connected_time":261000000000,"state":"active","ping":161}]},{"server_id":14,"name":"Uncletopia | New York City | 2 | All Maps","name_short":"nyc-2","host":"nyc-1.us.uncletopia.com","port":27025,"enabled":true,"region":"us-east","cc":"us","latitude":40.73061,"longitude":-73.93524,"reserved":0,"last_update":"0001-01-01T00:00:00Z","name_a2s":"Uncletopia | New York City | 2 | All Maps","protocol":17,"map":"koth_cascade","folder":"tf","game":"Team Fortress","app_id":440,"player_count":21,"max_players":24,"Bots":0,"server_type":"Dedicated","server_os":"Linux","password":true,"vac":true,"version":"7757534","steam_id":85568392924469994,"keywords":["cp","nocrits","nodmgspread","uncletopia"],"game_id":440,"stv_port":27026,"stv_name":"Uncletopia | New York City | 2 | All Maps | STV","players":[{"user_id":139,"name":"Fstev ✘","steam_id":76561198358766202,"connected_time":44000000000,"state":"active","ping":150},{"user_id":142,"name":"Chiki","steam_id":76561198063590320,"connected_time":18000000000,"state":"spawning","ping":74},{"user_id":120,"name":"Doctor Ichor","steam_id":76561198123815761,"connected_time":1639000000000,"state":"active","ping":83},{"user_id":118,"name":"Krellah","steam_id":76561198287045069,"connected_time":1705000000000,"state":"active","ping":61},{"user_id":117,"name":"Notafraid90","steam_id":76561198104072542,"connected_time":1839000000000,"state":"active","ping":46},{"user_id":132,"name":"Vegerot","steam_id":76561197997843710,"connected_time":1148000000000,"state":"active","ping":46},{"user_id":108,"name":"GaiBerd","steam_id":76561198177100634,"connected_time":2771000000000,"state":"active","ping":46},{"user_id":119,"name":"active shooter 9","steam_id":76561198040912048,"connected_time":1704000000000,"state":"active","ping":62},{"user_id":140,"name":"The Jizzler","steam_id":76561198199708198,"connected_time":44000000000,"state":"active","ping":84},{"user_id":138,"name":"robotman5","steam_id":76561197996783330,"connected_time":51000000000,"state":"active","ping":75},{"user_id":136,"name":"pastas","steam_id":76561198154774351,"connected_time":977000000000,"state":"active","ping":62},{"user_id":59,"name":"Smoke","steam_id":76561198140627349,"connected_time":6701000000000,"state":"active","ping":73},{"user_id":137,"name":"tailorturtle","steam_id":76561198107481127,"connected_time":474000000000,"state":"active","ping":60},{"user_id":123,"name":"sevanial","steam_id":76561198071532126,"connected_time":1578000000000,"state":"active","ping":92},{"user_id":104,"name":"TLG, Certified Gamer Mom","steam_id":76561198076669951,"connected_time":3017000000000,"state":"active","ping":56},{"user_id":85,"name":"Aviyarn","steam_id":76561199074194652,"connected_time":4051000000000,"state":"active","ping":78},{"user_id":124,"name":"BasicPeaches","steam_id":76561198190890150,"connected_time":1565000000000,"state":"active","ping":69},{"user_id":130,"name":"Mr. Morrow","steam_id":76561198011333701,"connected_time":1469000000000,"state":"active","ping":100},{"user_id":131,"name":"enotown","steam_id":76561198109901138,"connected_time":1159000000000,"state":"active","ping":60},{"user_id":70,"name":"LunarrD","steam_id":76561198811220107,"connected_time":5671000000000,"state":"active","ping":57},{"user_id":98,"name":"custodian","steam_id":76561198058793778,"connected_time":3556000000000,"state":"active","ping":55}]},{"server_id":15,"name":"Uncletopia | New York City | 3 | Stopwatch Beta","name_short":"nyc-3","host":"nyc-1.us.uncletopia.com","port":27035,"enabled":true,"region":"us-east","cc":"us","latitude":40.73061,"longitude":-73.93524,"reserved":0,"last_update":"0001-01-01T00:00:00Z","name_a2s":"Uncletopia | New York City | 3 | Stopwatch Beta","protocol":17,"map":"workshop/koth_product_final.ugc454272353","folder":"tf","game":"Team Fortress","app_id":440,"player_count":13,"max_players":24,"Bots":0,"server_type":"Dedicated","server_os":"Linux","password":true,"vac":true,"version":"7757534","steam_id":85568392924742820,"keywords":["cp","nocrits","nodmgspread","uncletopia"],"game_id":440,"stv_port":27036,"stv_name":"Uncletopia | New York City | 3 | Stopwatch Beta | STV","players":[{"user_id":26,"name":"Reaper","steam_id":76561198435826103,"connected_time":1219000000000,"state":"active","ping":91},{"user_id":24,"name":"AntiAnimus","steam_id":76561198039074432,"connected_time":1248000000000,"state":"active","ping":89},{"user_id":33,"name":"theghazinator","steam_id":76561198188027695,"connected_time":405000000000,"state":"active","ping":59},{"user_id":27,"name":"MetalTao","steam_id":76561198189408110,"connected_time":1216000000000,"state":"active","ping":76},{"user_id":29,"name":"Mkwhackertracker","steam_id":76561198128343704,"connected_time":753000000000,"state":"active","ping":80},{"user_id":30,"name":"dx","steam_id":76561198335496355,"connected_time":703000000000,"state":"active","ping":38},{"user_id":41,"name":"Militant Pacifist","steam_id":76561198290691432,"connected_time":36000000000,"state":"active","ping":94},{"user_id":20,"name":"gmaay","steam_id":76561199104911185,"connected_time":1991000000000,"state":"active","ping":53},{"user_id":32,"name":"Zalthair","steam_id":76561198052698533,"connected_time":548000000000,"state":"active","ping":159},{"user_id":42,"name":"Stomp","steam_id":76561198167765748,"connected_time":33000000000,"state":"active","ping":70},{"user_id":35,"name":"RabidSoda","steam_id":76561198115416316,"connected_time":301000000000,"state":"active","ping":101},{"user_id":37,"name":"Felwyn","steam_id":76561198031280239,"connected_time":253000000000,"state":"active","ping":120},{"user_id":40,"name":"MR MODE","steam_id":76561198046775352,"connected_time":193000000000,"state":"active","ping":105}]},{"server_id":16,"name":"Uncletopia | New York City | 4 | Community","name_short":"nyc-4","host":"nyc-1.us.uncletopia.com","port":27045,"enabled":true,"region":"us-east","cc":"us","latitude":40.73061,"longitude":-73.93524,"reserved":0,"last_update":"0001-01-01T00:00:00Z","name_a2s":"Uncletopia | New York City | 4 | Community","protocol":17,"map":"workshop/koth_ramjam_rc1.ugc459778887","folder":"tf","game":"Team Fortress","app_id":440,"player_count":0,"max_players":24,"Bots":0,"server_type":"Dedicated","server_os":"Linux","password":true,"vac":true,"version":"7757534","steam_id":85568392924742821,"keywords":["cp","nocrits","nodmgspread","uncletopia"],"game_id":440,"stv_port":27046,"stv_name":"Uncletopia | New York City | 4 | Community | STV","players":null},{"server_id":142,"name":"Uncletopia | São Paulo | 1 | All Maps","name_short":"sao-1","host":"sao-1.br.uncletopia.com","port":27015,"enabled":true,"region":"sa","cc":"br","latitude":-23.533773,"longitude":-46.62529,"reserved":0,"last_update":"0001-01-01T00:00:00Z","name_a2s":"Uncletopia | São Paulo | 1 | All Maps","protocol":17,"map":"koth_highpass","folder":"tf","game":"Team Fortress","app_id":440,"player_count":0,"max_players":24,"Bots":0,"server_type":"Dedicated","server_os":"Linux","password":true,"vac":true,"version":"7757534","steam_id":85568392924469996,"keywords":["cp","nocrits","nodmgspread","uncletopia"],"game_id":440,"stv_port":27016,"stv_name":"Uncletopia | São Paulo | 1 | All Maps | STV","players":null},{"server_id":143,"name":"Uncletopia | São Paulo | 2 | All Maps","name_short":"sao-2","host":"sao-2.br.uncletopia.com","port":27015,"enabled":true,"region":"sa","cc":"br","latitude":-23.533773,"longitude":-46.62529,"reserved":0,"last_update":"0001-01-01T00:00:00Z","name_a2s":"Uncletopia | São Paulo | 2 | All Maps","protocol":17,"map":"koth_cascade","folder":"tf","game":"Team Fortress","app_id":440,"player_count":0,"max_players":24,"Bots":0,"server_type":"Dedicated","server_os":"Linux","password":true,"vac":true,"version":"7757534","steam_id":85568392924485349,"keywords":["cp","nocrits","nodmgspread","uncletopia"],"game_id":440,"stv_port":27016,"stv_name":"Uncletopia | São Paulo | 2 | All Maps | STV","players":null},{"server_id":7,"name":"Uncletopia | Seattle | 1 | All Maps","name_short":"sea-1","host":"sea-1.us.uncletopia.com","port":27015,"enabled":true,"region":"us-west","cc":"us","latitude":47.608013,"longitude":-122.33517,"reserved":0,"last_update":"0001-01-01T00:00:00Z","name_a2s":"Uncletopia | Seattle | 1 | All Maps","protocol":17,"map":"pl_snowycoast","folder":"tf","game":"Team Fortress","app_id":440,"player_count":24,"max_players":24,"Bots":0,"server_type":"Dedicated","server_os":"Linux","password":true,"vac":true,"version":"7757534","steam_id":85568392924469997,"keywords":["nocrits","nodmgspread","payload","uncletopia"],"game_id":440,"stv_port":27016,"stv_name":"Uncletopia | Seattle | 1 | All Maps | STV","players":[{"user_id":187,"name":"AmiableNebula","steam_id":76561198094306627,"connected_time":3785000000000,"state":"active","ping":75},{"user_id":236,"name":"soda","steam_id":76561198105924953,"connected_time":751000000000,"state":"active","ping":74},{"user_id":222,"name":"Kieran","steam_id":76561198072788168,"connected_time":1199000000000,"state":"active","ping":125},{"user_id":188,"name":"BraxBird","steam_id":76561199262535082,"connected_time":3649000000000,"state":"active","ping":86},{"user_id":172,"name":"monkey squirts","steam_id":76561197983101644,"connected_time":5220000000000,"state":"active","ping":71},{"user_id":202,"name":"Prof. Eggnog","steam_id":76561198193389166,"connected_time":2497000000000,"state":"active","ping":137},{"user_id":243,"name":"SenTreats","steam_id":76561198085835841,"connected_time":559000000000,"state":"active","ping":94},{"user_id":249,"name":"Erntest","steam_id":76561198049499899,"connected_time":136000000000,"state":"active","ping":69},{"user_id":204,"name":"BigWack","steam_id":76561198334878169,"connected_time":1877000000000,"state":"active","ping":83},{"user_id":226,"name":"costa","steam_id":76561198881144114,"connected_time":1072000000000,"state":"active","ping":52},{"user_id":245,"name":"MrHenryJ","steam_id":76561198277999428,"connected_time":354000000000,"state":"active","ping":49},{"user_id":100,"name":"Kick Down Door 6:00AM TUCK☃RO","steam_id":76561197976146738,"connected_time":11460000000000,"state":"active","ping":135},{"user_id":248,"name":"Vacc Onetrick","steam_id":76561198207987376,"connected_time":172000000000,"state":"active","ping":111},{"user_id":244,"name":"Lou Wii Gee","steam_id":76561198308449320,"connected_time":464000000000,"state":"active","ping":90},{"user_id":175,"name":"LeBron James Ferraro","steam_id":76561197995200743,"connected_time":5156000000000,"state":"active","ping":71},{"user_id":205,"name":"bobo","steam_id":76561198020268561,"connected_time":1829000000000,"state":"active","ping":116},{"user_id":192,"name":"An Unhappy Clown","steam_id":76561198175516514,"connected_time":3404000000000,"state":"active","ping":104},{"user_id":227,"name":"Tritium","steam_id":76561198043305626,"connected_time":1053000000000,"state":"active","ping":81},{"user_id":176,"name":"emit AHHHHHHHHHHHHHHHHHHHHHHHHH","steam_id":76561198367778550,"connected_time":5134000000000,"state":"active","ping":125},{"user_id":200,"name":"Cloud","steam_id":76561198272454184,"connected_time":2779000000000,"state":"active","ping":175},{"user_id":181,"name":"the world is watching","steam_id":76561198875376206,"connected_time":4415000000000,"state":"active","ping":86},{"user_id":228,"name":"Scribble_","steam_id":76561198966103272,"connected_time":1023000000000,"state":"active","ping":97},{"user_id":241,"name":"TwoBit","steam_id":76561198062437559,"connected_time":631000000000,"state":"active","ping":144},{"user_id":246,"name":"corbenis","steam_id":76561199012442511,"connected_time":354000000000,"state":"active","ping":93}]},{"server_id":119,"name":"Uncletopia | Seattle | 2 | All Maps","name_short":"sea-2","host":"sea-1.us.uncletopia.com","port":27025,"enabled":true,"region":"us-west","cc":"us","latitude":47.608013,"longitude":-122.33517,"reserved":0,"last_update":"0001-01-01T00:00:00Z","name_a2s":"Uncletopia | Seattle | 2 | All Maps","protocol":17,"map":"pl_borneo","folder":"tf","game":"Team Fortress","app_id":440,"player_count":23,"max_players":24,"Bots":0,"server_type":"Dedicated","server_os":"Linux","password":true,"vac":true,"version":"7757534","steam_id":85568392924469998,"keywords":["nocrits","nodmgspread","payload","uncletopia"],"game_id":440,"stv_port":27026,"stv_name":"Uncletopia | Seattle | 2 | All Maps | STV","players":[{"user_id":120,"name":"Lock'd","steam_id":76561198170108230,"connected_time":1421000000000,"state":"active","ping":74},{"user_id":30,"name":"mafia is mafia","steam_id":76561198042574722,"connected_time":7202000000000,"state":"active","ping":56},{"user_id":121,"name":"weenie hut jr","steam_id":76561198206922028,"connected_time":1414000000000,"state":"active","ping":73},{"user_id":122,"name":"keffers","steam_id":76561198202338796,"connected_time":1371000000000,"state":"active","ping":105},{"user_id":104,"name":"T . T","steam_id":76561198041907345,"connected_time":2683000000000,"state":"active","ping":85},{"user_id":71,"name":"Thequirka","steam_id":76561198968058652,"connected_time":4488000000000,"state":"active","ping":51},{"user_id":128,"name":"Smoky","steam_id":76561198041551259,"connected_time":133000000000,"state":"active","ping":73},{"user_id":119,"name":"OBS","steam_id":76561199226941302,"connected_time":1473000000000,"state":"active","ping":56},{"user_id":116,"name":"gloobern","steam_id":76561198341190679,"connected_time":1818000000000,"state":"active","ping":58},{"user_id":118,"name":"Rango","steam_id":76561198067275912,"connected_time":1528000000000,"state":"active","ping":98},{"user_id":100,"name":"Tyler\u0026Fingers","steam_id":76561198085154485,"connected_time":2915000000000,"state":"active","ping":138},{"user_id":113,"name":"SuperFresh","steam_id":76561198200723198,"connected_time":2336000000000,"state":"active","ping":89},{"user_id":51,"name":"Little Linguine","steam_id":76561198816986370,"connected_time":5456000000000,"state":"active","ping":62},{"user_id":99,"name":"lew","steam_id":76561198088682495,"connected_time":3167000000000,"state":"active","ping":171},{"user_id":126,"name":"FartGar the FunkEl","steam_id":76561198054978492,"connected_time":611000000000,"state":"active","ping":61},{"user_id":106,"name":"SomeRandomBetaFish","steam_id":76561198827731399,"connected_time":2667000000000,"state":"active","ping":66},{"user_id":125,"name":"purple™ | they/she","steam_id":76561198057459725,"connected_time":680000000000,"state":"active","ping":53},{"user_id":115,"name":"Ekuseebia","steam_id":76561198037504112,"connected_time":2090000000000,"state":"active","ping":78},{"user_id":67,"name":"turkeysarefriendsz","steam_id":76561199074521322,"connected_time":4700000000000,"state":"active","ping":86},{"user_id":124,"name":"Adopted","steam_id":76561198308324620,"connected_time":1130000000000,"state":"active","ping":73},{"user_id":117,"name":"Brain Magic","steam_id":76561198010201477,"connected_time":1625000000000,"state":"active","ping":83},{"user_id":123,"name":"the sludge?!","steam_id":76561198094575882,"connected_time":1365000000000,"state":"active","ping":53},{"user_id":102,"name":"The Pepsi® Superbowl®!","steam_id":76561198080828981,"connected_time":2872000000000,"state":"active","ping":77}]},{"server_id":406,"name":"Uncletopia | Seattle | 3 | Stopwatch Beta","name_short":"sea-3","host":"sea-1.us.uncletopia.com","port":27035,"enabled":true,"region":"us-west","cc":"us","latitude":47.608013,"longitude":-122.33517,"reserved":0,"last_update":"0001-01-01T00:00:00Z","name_a2s":"Uncletopia | Seattle | 3 | Stopwatch Beta","protocol":17,"map":"cp_dustbowl","folder":"tf","game":"Team Fortress","app_id":440,"player_count":0,"max_players":24,"Bots":0,"server_type":"Dedicated","server_os":"Linux","password":true,"vac":true,"version":"7757534","steam_id":85568392924515217,"keywords":["cp","nocrits","nodmgspread","uncletopia"],"game_id":440,"stv_port":27036,"stv_name":"Uncletopia | Seattle | 3 | Stopwatch Beta | STV","players":null},{"server_id":17,"name":"Uncletopia | San Francisco | 1 | All Maps","name_short":"sfo-1","host":"sfo-1.us.uncletopia.com","port":27015,"enabled":true,"region":"us-west","cc":"us","latitude":37.77397,"longitude":-122.4313,"reserved":0,"last_update":"0001-01-01T00:00:00Z","name_a2s":"Uncletopia | San Francisco | 1 | All Maps","protocol":17,"map":"cp_snakewater_final1","folder":"tf","game":"Team Fortress","app_id":440,"player_count":0,"max_players":24,"Bots":0,"server_type":"Dedicated","server_os":"Linux","password":true,"vac":true,"version":"7757534","steam_id":85568392924469999,"keywords":["cp","nocrits","nodmgspread","uncletopia"],"game_id":440,"stv_port":27016,"stv_name":"Uncletopia | San Francisco | 1 | All Maps | STV","players":null},{"server_id":18,"name":"Uncletopia | San Francisco | 2 | All Maps","name_short":"sfo-2","host":"sfo-1.us.uncletopia.com","port":27025,"enabled":true,"region":"us-west","cc":"us","latitude":37.77397,"longitude":-122.4313,"reserved":0,"last_update":"0001-01-01T00:00:00Z","name_a2s":"Uncletopia | San Francisco | 2 | All Maps","protocol":17,"map":"koth_highpass","folder":"tf","game":"Team Fortress","app_id":440,"player_count":0,"max_players":24,"Bots":0,"server_type":"Dedicated","server_os":"Linux","password":true,"vac":true,"version":"7757534","steam_id":85568392924470000,"keywords":["cp","nocrits","nodmgspread","uncletopia"],"game_id":440,"stv_port":27026,"stv_name":"Uncletopia | San Francisco | 2 | All Maps | STV","players":null},{"server_id":19,"name":"Uncletopia | San Francisco | 3 | Stopwatch Beta","name_short":"sfo-3","host":"sfo-1.us.uncletopia.com","port":27035,"enabled":true,"region":"us-west","cc":"us","latitude":37.77397,"longitude":-122.4313,"reserved":0,"last_update":"0001-01-01T00:00:00Z","name_a2s":"Uncletopia | San Francisco | 3 | Stopwatch Beta","protocol":17,"map":"koth_lakeside_final","folder":"tf","game":"Team Fortress","app_id":440,"player_count":0,"max_players":24,"Bots":0,"server_type":"Dedicated","server_os":"Linux","password":true,"vac":true,"version":"7757534","steam_id":85568392924742824,"keywords":["cp","nocrits","nodmgspread","uncletopia"],"game_id":440,"stv_port":27036,"stv_name":"Uncletopia | San Francisco | 3 | Stopwatch Beta | STV","players":null},{"server_id":20,"name":"Uncletopia | San Francisco | 4 | Community","name_short":"sfo-4","host":"sfo-1.us.uncletopia.com","port":27045,"enabled":true,"region":"us-west","cc":"us","latitude":37.77397,"longitude":-122.4313,"reserved":0,"last_update":"0001-01-01T00:00:00Z","name_a2s":"Uncletopia | San Francisco | 4 | Community","protocol":17,"map":"workshop/pl_cashworks_final1.ugc2904065412","folder":"tf","game":"Team Fortress","app_id":440,"player_count":0,"max_players":24,"Bots":0,"server_type":"Dedicated","server_os":"Linux","password":true,"vac":true,"version":"7757534","steam_id":85568392924742826,"keywords":["nocrits","nodmgspread","payload","uncletopia"],"game_id":440,"stv_port":27046,"stv_name":"Uncletopia | San Francisco | 4 | Community | STV","players":null},{"server_id":141,"name":"Uncletopia | Sydney | 1 | All Maps","name_short":"syd-1","host":"syd-1.au.uncletopia.com","port":27015,"enabled":true,"region":"au","cc":"au","latitude":-33.865143,"longitude":151.2099,"reserved":0,"last_update":"0001-01-01T00:00:00Z","name_a2s":"Uncletopia | Sydney | 1 | All Maps","protocol":17,"map":"koth_viaduct","folder":"tf","game":"Team Fortress","app_id":440,"player_count":0,"max_players":24,"Bots":0,"server_type":"Dedicated","server_os":"Linux","password":true,"vac":true,"version":"7757534","steam_id":85568392924470001,"keywords":["cp","nocrits","nodmgspread","uncletopia"],"game_id":440,"stv_port":27016,"stv_name":"Uncletopia | Sydney | 1 | All Maps | STV","players":null},{"server_id":123,"name":"Uncletopia | Sydney | 2 | All Maps","name_short":"syd-2","host":"syd-1.au.uncletopia.com","port":27025,"enabled":true,"region":"au","cc":"au","latitude":-33.865143,"longitude":151.2099,"reserved":0,"last_update":"0001-01-01T00:00:00Z","name_a2s":"Uncletopia | Sydney | 2 | All Maps","protocol":17,"map":"cp_process_final","folder":"tf","game":"Team Fortress","app_id":440,"player_count":0,"max_players":24,"Bots":0,"server_type":"Dedicated","server_os":"Linux","password":true,"vac":true,"version":"7757534","steam_id":85568392924470002,"keywords":["cp","nocrits","nodmgspread","uncletopia"],"game_id":440,"stv_port":27026,"stv_name":"Uncletopia | Sydney | 2 | All Maps | STV","players":null},{"server_id":395,"name":"Uncletopia | Sydney | 3 | All Maps","name_short":"syd-3","host":"syd-1.au.uncletopia.com","port":27035,"enabled":true,"region":"au","cc":"au","latitude":-33.865143,"longitude":151.2099,"reserved":0,"last_update":"0001-01-01T00:00:00Z","name_a2s":"Uncletopia | Sydney | 3 | All Maps","protocol":17,"map":"pl_swiftwater_final1","folder":"tf","game":"Team Fortress","app_id":440,"player_count":0,"max_players":24,"Bots":0,"server_type":"Dedicated","server_os":"Linux","password":true,"vac":true,"version":"7757534","steam_id":85568392925194467,"keywords":["nocrits","nodmgspread","payload","uncletopia"],"game_id":440,"stv_port":27036,"stv_name":"Uncletopia | Sydney | 3 | All Maps | STV","players":null},{"server_id":396,"name":"Uncletopia | Sydney | 4 | All Maps","name_short":"syd-4","host":"syd-1.au.uncletopia.com","port":27045,"enabled":true,"region":"au","cc":"au","latitude":-33.865143,"longitude":151.2099,"reserved":0,"last_update":"0001-01-01T00:00:00Z","name_a2s":"Uncletopia | Sydney | 4 | All Maps","protocol":17,"map":"koth_highpass","folder":"tf","game":"Team Fortress","app_id":440,"player_count":0,"max_players":24,"Bots":0,"server_type":"Dedicated","server_os":"Linux","password":true,"vac":true,"version":"7757534","steam_id":85568392925397958,"keywords":["cp","nocrits","nodmgspread","uncletopia"],"game_id":440,"stv_port":27046,"stv_name":"Uncletopia | Sydney | 4 | All Maps | STV","players":null},{"server_id":58,"name":"Uncletopia | Sydney | 5 | Stopwatch Beta","name_short":"syd-5","host":"syd-1.au.uncletopia.com","port":27055,"enabled":true,"region":"au","cc":"au","latitude":-33.865143,"longitude":151.2099,"reserved":0,"last_update":"0001-01-01T00:00:00Z","name_a2s":"Uncletopia | Sydney | 5 | Stopwatch Beta","protocol":17,"map":"koth_cascade","folder":"tf","game":"Team Fortress","app_id":440,"player_count":0,"max_players":24,"Bots":0,"server_type":"Dedicated","server_os":"Linux","password":true,"vac":true,"version":"7757534","steam_id":85568392925397959,"keywords":["cp","nocrits","nodmgspread","uncletopia"],"game_id":440,"stv_port":27056,"stv_name":"Uncletopia | Sydney | 5 | Stopwatch Beta | STV","players":null},{"server_id":59,"name":"Uncletopia | Sydney | 6 | Community","name_short":"syd-6","host":"syd-1.au.uncletopia.com","port":27065,"enabled":true,"region":"au","cc":"au","latitude":-33.865143,"longitude":151.2099,"reserved":0,"last_update":"0001-01-01T00:00:00Z","name_a2s":"Uncletopia | Sydney | 6 | Community","protocol":17,"map":"cp_snakewater_final1","folder":"tf","game":"Team Fortress","app_id":440,"player_count":0,"max_players":24,"Bots":0,"server_type":"Dedicated","server_os":"Linux","password":true,"vac":true,"version":"7757534","steam_id":85568392925397960,"keywords":["cp","nocrits","nodmgspread","uncletopia"],"game_id":440,"stv_port":27066,"stv_name":"Uncletopia | Sydney | 6 | Community | STV","players":null},{"server_id":49,"name":"Uncletopia | Warsaw | 1 | All Maps","name_short":"waw-1","host":"waw-1.pl.uncletopia.com","port":27015,"enabled":true,"region":"eu","cc":"pl","latitude":52.2297,"longitude":21.017532,"reserved":0,"last_update":"0001-01-01T00:00:00Z","name_a2s":"","protocol":0,"map":"","folder":"","game":"","app_id":0,"player_count":0,"max_players":0,"Bots":0,"server_type":"","server_os":"","password":false,"vac":false,"version":"","steam_id":0,"keywords":null,"game_id":0,"stv_port":0,"stv_name":"","players":null},{"server_id":50,"name":"Uncletopia | Warsaw | 2 | All Maps","name_short":"waw-2","host":"waw-1.pl.uncletopia.com","port":27025,"enabled":true,"region":"eu","cc":"pl","latitude":52.2297,"longitude":21.017532,"reserved":0,"last_update":"0001-01-01T00:00:00Z","name_a2s":"Uncletopia | Warsaw | 2 | All Maps","protocol":17,"map":"pl_frontier_final","folder":"tf","game":"Team Fortress","app_id":440,"player_count":0,"max_players":24,"Bots":0,"server_type":"Dedicated","server_os":"Linux","password":true,"vac":true,"version":"7757534","steam_id":85568392925397851,"keywords":["nocrits","nodmgspread","payload","uncletopia"],"game_id":440,"stv_port":27026,"stv_name":"Uncletopia | Warsaw | 2 | All Maps | STV","players":null},{"server_id":51,"name":"Uncletopia | Warsaw | 3 | All Maps","name_short":"waw-3","host":"waw-1.pl.uncletopia.com","port":27035,"enabled":true,"region":"eu","cc":"pl","latitude":52.2297,"longitude":21.017532,"reserved":0,"last_update":"0001-01-01T00:00:00Z","name_a2s":"Uncletopia | Warsaw | 3 | All Maps","protocol":17,"map":"pl_badwater","folder":"tf","game":"Team Fortress","app_id":440,"player_count":0,"max_players":24,"Bots":0,"server_type":"Dedicated","server_os":"Linux","password":true,"vac":true,"version":"7757534","steam_id":85568392925397852,"keywords":["nocrits","nodmgspread","payload","uncletopia"],"game_id":440,"stv_port":27036,"stv_name":"Uncletopia | Warsaw | 3 | All Maps | STV","players":null},{"server_id":52,"name":"Uncletopia | Warsaw | 4 | All Maps","name_short":"waw-4","host":"waw-1.pl.uncletopia.com","port":27045,"enabled":true,"region":"eu","cc":"pl","latitude":52.2297,"longitude":21.017532,"reserved":0,"last_update":"0001-01-01T00:00:00Z","name_a2s":"Uncletopia | Warsaw | 4 | All Maps","protocol":17,"map":"koth_lakeside_final","folder":"tf","game":"Team Fortress","app_id":440,"player_count":0,"max_players":24,"Bots":0,"server_type":"Dedicated","server_os":"Linux","password":true,"vac":true,"version":"7757534","steam_id":85568392925397853,"keywords":["cp","nocrits","nodmgspread","uncletopia"],"game_id":440,"stv_port":27046,"stv_name":"Uncletopia | Warsaw | 4 | All Maps | STV","players":null},{"server_id":53,"name":"Uncletopia | Warsaw | 5 | Stopwatch Beta","name_short":"waw-5","host":"waw-1.pl.uncletopia.com","port":27055,"enabled":true,"region":"eu","cc":"pl","latitude":52.2297,"longitude":21.017532,"reserved":0,"last_update":"0001-01-01T00:00:00Z","name_a2s":"Uncletopia | Warsaw | 5 | Stopwatch Beta","protocol":17,"map":"pl_borneo","folder":"tf","game":"Team Fortress","app_id":440,"player_count":0,"max_players":24,"Bots":0,"server_type":"Dedicated","server_os":"Linux","password":true,"vac":true,"version":"7757534","steam_id":85568392925397854,"keywords":["nocrits","nodmgspread","payload","uncletopia"],"game_id":440,"stv_port":27056,"stv_name":"Uncletopia | Warsaw | 5 | Stopwatch Beta | STV","players":null},{"server_id":54,"name":"Uncletopia | Warsaw | 6 | Community","name_short":"waw-6","host":"waw-1.pl.uncletopia.com","port":27065,"enabled":true,"region":"eu","cc":"pl","latitude":52.2297,"longitude":21.017532,"reserved":0,"last_update":"0001-01-01T00:00:00Z","name_a2s":"Uncletopia | Warsaw | 6 | Community","protocol":17,"map":"koth_lakeside_final","folder":"tf","game":"Team Fortress","app_id":440,"player_count":0,"max_players":24,"Bots":0,"server_type":"Dedicated","server_os":"Linux","password":true,"vac":true,"version":"7757534","steam_id":85568392925397856,"keywords":["cp","nocrits","nodmgspread","uncletopia"],"game_id":440,"stv_port":27066,"stv_name":"Uncletopia | Warsaw | 6 | Community | STV","players":null}]}