{"status":true,"message":"","result":[{"server_id":9,"name":"Uncletopia | Atlanta | 1 | All Maps","name_short":"atl-1","host":"atl-1.us.uncletopia.com","port":27015,"enabled":true,"region":"us-east","cc":"us","latitude":33.753746,"longitude":-84.38633,"reserved":0,"last_update":"0001-01-01T00:00:00Z","name_a2s":"Uncletopia | Atlanta | 1 | All Maps","protocol":17,"map":"koth_cascade","folder":"tf","game":"Team Fortress","app_id":440,"player_count":0,"max_players":24,"Bots":0,"server_type":"Dedicated","server_os":"Linux","password":true,"vac":true,"version":"7757534","steam_id":85568392924469982,"keywords":["cp","nocrits","nodmgspread","uncletopia"],"game_id":440,"stv_port":27016,"stv_name":"Uncletopia | Atlanta | 1 | All Maps | STV","players":null},{"server_id":104,"name":"Uncletopia | Atlanta | 2 | All Maps","name_short":"atl-2","host":"atl-1.us.uncletopia.com","port":27025,"enabled":true,"region":"us-east","cc":"us","latitude":33.753746,"longitude":-84.38633,"reserved":0,"last_update":"0001-01-01T00:00:00Z","name_a2s":"Uncletopia | Atlanta | 2 | All Maps","protocol":17,"map":"cp_dustbowl","folder":"tf","game":"Team Fortress","app_id":440,"player_count":0,"max_players":24,"Bots":0,"server_type":"Dedicated","server_os":"Linux","password":true,"vac":true,"version":"7757534","steam_id":85568392924469983,"keywords":["cp","nocrits","nodmgspread","uncletopia"],"game_id":440,"stv_port":27026,"stv_name":"Uncletopia | Atlanta | 2 | All Maps | STV","players":null},{"server_id":400,"name":"Uncletopia | Atlanta | 3 | Community","name_short":"atl-3","host":"atl-1.us.uncletopia.com","port":27035,"enabled":true,"region":"us-east","cc":"us","latitude":33.753746,"longitude":-84.38633,"reserved":0,"last_update":"0001-01-01T00:00:00Z","name_a2s":"Uncletopia | Atlanta | 3 | Community","protocol":17,"map":"cp_snakewater_final1","folder":"tf","game":"Team Fortress","app_id":440,"player_count":0,"max_players":24,"Bots":0,"server_type":"Dedicated","server_os":"Linux","password":true,"vac":true,"version":"7757534","steam_id":85568392924515187,"keywords":["cp","nocrits","nodmgspread","uncletopia"],"game_id":440,"stv_port":27036,"stv_name":"Uncletopia | Atlanta | 3 | Community | STV","players":null},{"server_id":401,"name":"Uncletopia | Atlanta | 4 | No Payload","name_short":"atl-4","host":"atl-1.us.uncletopia.com","port":27045,"enabled":true,"region":"us-east","cc":"us","latitude":33.753746,"longitude":-84.38633,"reserved":0,"last_update":"0001-01-01T00:00:00Z","name_a2s":"","protocol":0,"map":"","folder":"","game":"","app_id":0,"player_count":0,"max_players":0,"Bots":0,"server_type":"","server_os":"","password":false,"vac":false,"version":"","steam_id":0,"keywords":null,"game_id":0,"stv_port":0,"stv_name":"","players":null},{"server_id":2,"name":"Uncletopia | Chicago | 1 | All Maps","name_short":"chi-1","host":"chi-1.us.uncletopia.com","port":27015,"enabled":true,"region":"us-central","cc":"us","latitude":41.881832,"longitude":-87.62318,"reserved":0,"last_update":"0001-01-01T00:00:00Z","name_a2s":"Uncletopia | Chicago | 1 | All Maps","protocol":17,"map":"koth_nucleus","folder":"tf","game":"Team Fortress","app_id":440,"player_count":0,"max_players":24,"Bots":0,"server_type":"Dedicated","server_os":"Linux","password":true,"vac":true,"version":"7757534","steam_id":85568392924469984,"keywords":["cp","nocrits","nodmgspread","uncletopia"],"game_id":440,"stv_port":27016,"stv_name":"Uncletopia | Chicago | 1 | All Maps | STV","players":null},{"server_id":106,"name":"Uncletopia | Chicago | 2 | All Maps","name_short":"chi-2","host":"chi-1.us.uncletopia.com","port":27025,"enabled":true,"region":"us-central","cc":"us","latitude":41.881832,"longitude":-87.62318,"reserved":0,"last_update":"0001-01-01T00:00:00Z","name_a2s":"Uncletopia | Chicago | 2 | All Maps","protocol":17,"map":"koth_nucleus","folder":"tf","game":"Team Fortress","app_id":440,"player_count":0,"max_players":24,"Bots":0,"server_type":"Dedicated","server_os":"Linux","password":true,"vac":true,"version":"7757534","steam_id":85568392924469985,"keywords":["cp","nocrits","nodmgspread","uncletopia"],"game_id":440,"stv_port":27026,"stv_name":"Uncletopia | Chicago | 2 | All Maps | STV","players":null},{"server_id":402,"name":"Uncletopia | Chicago | 3 | All Maps","name_short":"chi-3","host":"chi-1.us.uncletopia.com","port":27035,"enabled":true,"region":"us-central","cc":"us","latitude":41.881832,"longitude":-87.62318,"reserved":0,"last_update":"0001-01-01T00:00:00Z","name_a2s":"Uncletopia | Chicago | 3 | All Maps","protocol":17,"map":"koth_nucleus","folder":"tf","game":"Team Fortress","app_id":440,"player_count":0,"max_players":24,"Bots":0,"server_type":"Dedicated","server_os":"Linux","password":true,"vac":true,"version":"7757534","steam_id":85568392924515191,"keywords":["cp","nocrits","nodmgspread","uncletopia"],"game_id":440,"stv_port":27036,"stv_name":"Uncletopia | Chicago | 3 | All Maps | STV","players":null},{"server_id":403,"name":"Uncletopia | Chicago | 4 | All Maps","name_short":"chi-4","host":"chi-1.us.uncletopia.com","port":27045,"enabled":true,"region":"us-central","cc":"us","latitude":41.881832,"longitude":-87.62318,"reserved":0,"last_update":"0001-01-01T00:00:00Z","name_a2s":"Uncletopia | Chicago | 4 | All Maps","protocol":17,"map":"pl_upward","folder":"tf","game":"Team Fortress","app_id":440,"player_count":22,"max_players":24,"Bots":0,"server_type":"Dedicated","server_os":"Linux","password":true,"vac":true,"version":"7757534","steam_id":85568392924515193,"keywords":["nocrits","nodmgspread","payload","uncletopia"],"game_id":440,"stv_port":27046,"stv_name":"Uncletopia | Chicago | 4 | All Maps | STV","players":[{"user_id":63,"name":"Kurt Biscuitmaker","steam_id":76561198331701823,"connected_time":95000000000,"state":"active","ping":71},{"user_id":10,"name":"ScaryTree","steam_id":76561199384362833,"connected_time":3779000000000,"state":"active","ping":142},{"user_id":36,"name":"roxases","steam_id":76561198119759490,"connected_time":2210000000000,"state":"active","ping":84},{"user_id":6,"name":"Mimir","steam_id":76561197995003142,"connected_time":3788000000000,"state":"active","ping":86},{"user_id":7,"name":"Monster","steam_id":76561198189429665,"connected_time":3783000000000,"state":"active","ping":65},{"user_id":38,"name":"Dauntless Duelist","steam_id":76561198025056018,"connected_time":1969000000000,"state":"active","ping":97},{"user_id":9,"name":"LeZagna","steam_id":76561198258060097,"connected_time":3779000000000,"state":"active","ping":55},{"user_id":40,"name":"HeisenBurger","steam_id":76561198040632080,"connected_time":1829000000000,"state":"active","ping":47},{"user_id":42,"name":"Jamie(^_^)","steam_id":76561198835286379,"connected_time":1784000000000,"state":"active","ping":75},{"user_id":43,"name":"Poppet","steam_id":76561198012301951,"connected_time":1773000000000,"state":"active","ping":53},{"user_id":24,"name":"b. loke","steam_id":76561198371235800,"connected_time":2830000000000,"state":"active","ping":83},{"user_id":64,"name":"mechiimi ★","steam_id":76561198321627268,"connected_time":82000000000,"state":"active","ping":117},{"user_id":17,"name":"Bryguy","steam_id":76561198092096120,"connected_time":3695000000000,"state":"active","ping":43},{"user_id":28,"name":"xd Clover","steam_id":76561198038905361,"connected_time":2518000000000,"state":"active","ping":57},{"user_id":65,"name":"Dr.BendyBones","steam_id":76561198048846641,"connected_time":81000000000,"state":"active","ping":65},{"user_id":56,"name":"god doesnt here me","steam_id":76561198125328737,"connected_time":976000000000,"state":"active","ping":70},{"user_id":53,"name":"Umbrella Corporation","steam_id":76561197970242110,"connected_time":1234000000000,"state":"active","ping":69},{"user_id":58,"name":"whimsical little creature","steam_id":76561198271710504,"connected_time":957000000000,"state":"active","ping":53},{"user_id":50,"name":"Romo","steam_id":76561198243101572,"connected_time":1401000000000,"state":"active","ping":85},{"user_id":51,"name":"k3ramb1t","steam_id":76561198097880352,"connected_time":1355000000000,"state":"active","ping":75},{"user_id":62,"name":"CHUND BUNGLER THE SECOND COMING","steam_id":76561198281735951,"connected_time":602000000000,"state":"active","ping":73},{"user_id":60,"name":"mashallah","steam_id":76561198075111427,"connected_time":909000000000,"state":"active","ping":62}]},{"server_id":36,"name":"Uncletopia | Chicago | 5 | All Maps","name_short":"chi-5","host":"chi-2.us.uncletopia.com","port":27015,"enabled":true,"region":"us-central","cc":"us","latitude":41.881832,"longitude":-87.62318,"reserved":0,"last_update":"0001-01-01T00:00:00Z","name_a2s":"Uncletopia | Chicago | 5 | All Maps","protocol":17,"map":"koth_cascade","folder":"tf","game":"Team Fortress","app_id":440,"player_count":0,"max_players":24,"Bots":0,"server_type":"Dedicated","server_os":"Linux","password":true,"vac":true,"version":"7757534","steam_id":85568392924866362,"keywords":["cp","nocrits","nodmgspread","uncletopia"],"game_id":440,"stv_port":27016,"stv_name":"Uncletopia | Chicago | 5 | All Maps | STV","players":null},{"server_id":37,"name":"Uncletopia | Chicago | 6 | All Maps","name_short":"chi-6","host":"chi-2.us.uncletopia.com","port":27025,"enabled":true,"region":"us-central","cc":"us","latitude":41.881832,"longitude":-87.62318,"reserved":0,"last_update":"0001-01-01T00:00:00Z","name_a2s":"Uncletopia | Chicago | 6 | All Maps","protocol":17,"map":"pl_borneo","folder":"tf","game":"Team Fortress","app_id":440,"player_count":0,"max_players":24,"Bots":0,"server_type":"Dedicated","server_os":"Linux","password":true,"vac":true,"version":"7757534","steam_id":85568392924866363,"keywords":["nocrits","nodmgspread","payload","uncletopia"],"game_id":440,"stv_port":27026,"stv_name":"Uncletopia | Chicago | 6 | All Maps | STV","players":null},{"server_id":38,"name":"Uncletopia | Chicago | 7 | Stopwatch Beta","name_short":"chi-7","host":"chi-2.us.uncletopia.com","port":27035,"enabled":true,"region":"us-central","cc":"us","latitude":41.881832,"longitude":-87.62318,"reserved":0,"last_update":"0001-01-01T00:00:00Z","name_a2s":"Uncletopia | Chicago | 7 | Stopwatch Beta","protocol":17,"map":"pl_barnblitz","folder":"tf","game":"Team Fortress","app_id":440,"player_count":0,"max_players":24,"Bots":0,"server_type":"Dedicated","server_os":"Linux","password":true,"vac":true,"version":"7757534","steam_id":85568392924866364,"keywords":["nocrits","nodmgspread","payload","uncletopia"],"game_id":440,"stv_port":27036,"stv_name":"Uncletopia | Chicago | 7 | Stopwatch Beta | STV","players":null},{"server_id":39,"name":"Uncletopia | Chicago | 8 | Community","name_short":"chi-8","host":"chi-2.us.uncletopia.com","port":27045,"enabled":true,"region":"us-central","cc":"us","latitude":41.881832,"longitude":-87.62318,"reserved":0,"last_update":"0001-01-01T00:00:00Z","name_a2s":"Uncletopia | Chicago | 8 | Community","protocol":17,"map":"koth_cascade","folder":"tf","game":"Team Fortress","app_id":440,"player_count":0,"max_players":24,"Bots":0,"server_type":"Dedicated","server_os":"Linux","password":true,"vac":true,"version":"7757534","steam_id":85568392924866365,"keywords":["cp","nocrits","nodmgspread","uncletopia"],"game_id":440,"stv_port":27046,"stv_name":"Uncletopia | Chicago | 8 | Community | STV","players":null},{"server_id":8,"name":"Uncletopia | Dallas | 1 | All Maps","name_short":"dal-1","host":"dal-1.us.uncletopia.com","port":27015,"enabled":true,"region":"us-central","cc":"us","latitude":32.779167,"longitude":-96.80889,"reserved":0,"last_update":"0001-01-01T00:00:00Z","name_a2s":"Uncletopia | Dallas | 1 | All Maps","protocol":17,"map":"koth_cascade","folder":"tf","game":"Team Fortress","app_id":440,"player_count":0,"max_players":24,"Bots":0,"server_type":"Dedicated","server_os":"Linux","password":true,"vac":true,"version":"7757534","steam_id":85568392924469986,"keywords":["cp","nocrits","nodmgspread","uncletopia"],"game_id":440,"stv_port":27016,"stv_name":"Uncletopia | Dallas | 1 | All Maps | STV","players":null},{"server_id":108,"name":"Uncletopia | Dallas | 2 | All Maps","name_short":"dal-2","host":"dal-1.us.uncletopia.com","port":27025,"enabled":true,"region":"us-central","cc":"us","latitude":32.779167,"longitude":-96.80889,"reserved":0,"last_update":"0001-01-01T00:00:00Z","name_a2s":"Uncletopia | Dallas | 2 | All Maps","protocol":17,"map":"pl_upward","folder":"tf","game":"Team Fortress","app_id":440,"player_count":0,"max_players":24,"Bots":0,"server_type":"Dedicated","server_os":"Linux","password":true,"vac":true,"version":"7757534","steam_id":85568392924469988,"keywords":["nocrits","nodmgspread","payload","uncletopia"],"game_id":440,"stv_port":27026,"stv_name":"Uncletopia | Dallas | 2 | All Maps | STV","players":null},{"server_id":5,"name":"Uncletopia | Frankfurt | 1 | All Maps","name_short":"frk-1","host":"frk-1.de.uncletopia.com","port":27015,"enabled":true,"region":"eu","cc":"de","latitude":50.110924,"longitude":8.682127,"reserved":0,"last_update":"0001-01-01T00:00:00Z","name_a2s":"Uncletopia | Frankfurt | 1 | All Maps","protocol":17,"map":"pl_badwater","folder":"tf","game":"Team Fortress","app_id":440,"player_count":21,"max_players":24,"Bots":0,"server_type":"Dedicated","server_os":"Linux","password":true,"vac":true,"version":"7757534","steam_id":85568392924469989,"keywords":["nocrits","nodmgspread","payload","uncletopia"],"game_id":440,"stv_port":27016,"stv_name":"Uncletopia | Frankfurt | 1 | All Maps | STV","players":[{"user_id":305,"name":"*","steam_id":76561198095572159,"connected_time":2461000000000,"state":"active","ping":51},{"user_id":329,"name":"Akisян","steam_id":76561198078706435,"connected_time":1024000000000,"state":"active","ping":76},{"user_id":268,"name":"gagalak","steam_id":76561198089979108,"connected_time":6320000000000,"state":"active","ping":78},{"user_id":335,"name":"Lazy Bane","steam_id":76561198032359132,"connected_time":62000000000,"state":"active","ping":59},{"user_id":270,"name":"✪ qua ✪","steam_id":76561198066408333,"connected_time":5884000000000,"state":"active","ping":74},{"user_id":307,"name":"Cranto","steam_id":76561198101745576,"connected_time":2383000000000,"state":"active","ping":66},{"user_id":322,"name":"Sedoy","steam_id":76561198390666516,"connected_time":1657000000000,"state":"active","ping":81},{"user_id":318,"name":"Shimass","steam_id":76561198867546842,"connected_time":1918000000000,"state":"active","ping":48},{"user_id":308,"name":"Hÿlkje","steam_id":76561198998581449,"connected_time":2302000000000,"state":"active","ping":67},{"user_id":285,"name":"NFTs are the future!","steam_id":76561198128506921,"connected_time":4681000000000,"state":"active","ping":71},{"user_id":332,"name":"addicted","steam_id":76561199129801006,"connected_time":332000000000,"state":"active","ping":45},{"user_id":309,"name":"Piquesque","steam_id":76561198286763046,"connected_time":2295000000000,"state":"active","ping":105},{"user_id":310,"name":"Zenos","steam_id":76561198212366199,"connected_time":2293000000000,"state":"active","ping":50},{"user_id":336,"name":"schmick","steam_id":76561198039537958,"connected_time":46000000000,"state":"active","ping":119},{"user_id":330,"name":"Jeff The Guest","steam_id":76561198010036317,"connected_time":947000000000,"state":"active","ping":60},{"user_id":331,"name":"Pek","steam_id":76561198110417995,"connected_time":940000000000,"state":"active","ping":115},{"user_id":334,"name":"FWDTRKR","steam_id":76561198060369427,"connected_time":300000000000,"state":"active","ping":143},{"user_id":323,"name":".::[SerafeTTiN]::.","steam_id":76561198009471724,"connected_time":1250000000000,"state":"active","ping":90},{"user_id":319,"name":"Noob_with_source","steam_id":76561198870362103,"connected_time":1893000000000,"state":"active","ping":60},{"user_id":316,"name":"Joy","steam_id":76561198155314925,"connected_time":2159000000000,"state":"active","ping":65},{"user_id":327,"name":"B@yka","steam_id":76561198986736592,"connected_time":1104000000000,"state":"active","ping":64}]},{"server_id":110,"name":"Uncletopia | Frankfurt | 2 | All Maps","name_short":"frk-2","host":"frk-1.de.uncletopia.com","port":27025,"enabled":true,"region":"eu","cc":"de","latitude":50.110924,"longitude":8.682127,"reserved":0,"last_update":"0001-01-01T00:00:00Z","name_a2s":"Uncletopia | Frankfurt | 2 | All Maps","protocol":17,"map":"pl_swiftwater_final1","folder":"tf","game":"Team Fortress","app_id":440,"player_count":24,"max_players":24,"Bots":0,"server_type":"Dedicated","server_os":"Linux","password":true,"vac":true,"version":"7757534","steam_id":85568392924469990,"keywords":["nocrits","nodmgspread","payload","uncletopia"],"game_id":440,"stv_port":27026,"stv_name":"Uncletopia | Frankfurt | 2 | All Maps | STV","players":[{"user_id":104,"name":"xstylehardx","steam_id":76561198111203974,"connected_time":363000000000,"state":"active","ping":69},{"user_id":100,"name":"SCRAMMMBLED","steam_id":76561197998307746,"connected_time":746000000000,"state":"active","ping":64},{"user_id":48,"name":"Kamanie","steam_id":76561198135448255,"connected_time":2837000000000,"state":"active","ping":46},{"user_id":40,"name":"Silverstorm","steam_id":76561198118175267,"connected_time":3097000000000,"state":"active","ping":68},{"user_id":88,"name":"Regulus, Slaneesh's Champion","steam_id":76561198194635703,"connected_time":1367000000000,"state":"active","ping":66},{"user_id":106,"name":"Shark Petter","steam_id":76561198358801819,"connected_time":327000000000,"state":"active","ping":61},{"user_id":70,"name":"Yelowchy","steam_id":76561198199416121,"connected_time":2259000000000,"state":"active","ping":62},{"user_id":108,"name":"howabe","steam_id":76561197996486818,"connected_time":217000000000,"state":"active","ping":54},{"user_id":50,"name":"lisivi","steam_id":76561198365503306,"connected_time":2800000000000,"state":"active","ping":59},{"user_id":41,"name":"Angelatine","steam_id":76561198101624996,"connected_time":3061000000000,"state":"active","ping":96},{"user_id":94,"name":"Fat Pigeon","steam_id":76561198817940142,"connected_time":1028000000000,"state":"active","ping":53},{"user_id":31,"name":"jonas","steam_id":76561198250132954,"connected_time":3592000000000,"state":"active","ping":50},{"user_id":95,"name":"zinzyk","steam_id":76561198128011822,"connected_time":998000000000,"state":"active","ping":60},{"user_id":80,"name":"Maru","steam_id":76561198030931030,"connected_time":1648000000000,"state":"active","ping":72},{"user_id":99,"name":"be gay do crime","steam_id":76561198254450468,"connected_time":764000000000,"state":"active","ping":88},{"user_id":97,"name":"Sinny","steam_id":76561197999598422,"connected_time":926000000000,"state":"active","ping":72},{"user_id":107,"name":"Chimay","steam_id":76561197999295203,"connected_time":303000000000,"state":"active","ping":60},{"user_id":81,"name":"♥ Aura says Trans Rights ♥","steam_id":76561198066258544,"connected_time":1582000000000,"state":"active","ping":56},{"user_id":87,"name":"Le père Volca","steam_id":76561198235814492,"connected_time":1375000000000,"state":"active","ping":268},{"user_id":101,"name":"multiflex","steam_id":76561198049639319,"connected_time":746000000000,"state":"active","ping":88},{"user_id":60,"name":"player","steam_id":76561198054474684,"connected_time":2519000000000,"state":"active","ping":76},{"user_id":102,"name":"sm0ke","steam_id":76561198198977226,"connected_time":384000000000,"state":"active","ping":75},{"user_id":103,"name":"Eivind","steam_id":76561198159927980,"connected_time":383000000000,"state":"active","ping":76},{"user_id":85,"name":"tax fraud enthusiast","steam_id":76561198115208030,"connected_time":1429000000000,"state":"active","ping":50}]},{"server_id":308,"name":"Uncletopia | Frankfurt | 3 | All Maps","name_short":"frk-3","host":"frk-1.de.uncletopia.com","port":27035,"enabled":true,"region":"eu","cc":"de","latitude":50.110924,"longitude":8.682127,"reserved":0,"last_update":"0001-01-01T00:00:00Z","name_a2s":"Uncletopia | Frankfurt | 3 | All Maps","protocol":17,"map":"koth_highpass","folder":"tf","game":"Team Fortress","app_id":440,"player_count":23,"max_players":24,"Bots":0,"server_type":"Dedicated","server_os":"Linux","password":true,"vac":true,"version":"7757534","steam_id":85568392924504274,"keywords":["cp","nocrits","nodmgspread","uncletopia"],"game_id":440,"stv_port":27036,"stv_name":"Uncletopia | Frankfurt | 3 | All Maps | STV","players":[{"user_id":134,"name":"Bonuxer","steam_id":76561198093098132,"connected_time":1251000000000,"state":"active","ping":75},{"user_id":142,"name":"Sirzen","steam_id":76561198170155434,"connected_time":768000000000,"state":"active","ping":54},{"user_id":105,"name":"modavak","steam_id":76561198946290908,"connected_time":2889000000000,"state":"active","ping":104},{"user_id":119,"name":"Lee","steam_id":76561198021448321,"connected_time":2081000000000,"state":"active","ping":78},{"user_id":58,"name":"Sza","steam_id":76561198022132105,"connected_time":5940000000000,"state":"active","ping":61},{"user_id":106,"name":"Feeli","steam_id":76561198026923585,"connected_time":2880000000000,"state":"active","ping":62},{"user_id":143,"name":"KAZAM | Tervez","steam_id":76561198045459068,"connected_time":290000000000,"state":"active","ping":83},{"user_id":72,"name":"Cheers Mate!","steam_id":76561198265192382,"connected_time":5315000000000,"state":"active","ping":58},{"user_id":148,"name":"grandpa's post-mortem photo","steam_id":76561198130116078,"connected_time":0,"state":"spawning","ping":56},{"user_id":99,"name":"Magic","steam_id":76561198401602586,"connected_time":3379000000000,"state":"active","ping":83},{"user_id":145,"name":"LemonLeCitron","steam_id":76561198215545267,"connected_time":144000000000,"state":"active","ping":67},{"user_id":137,"name":"French Lym","steam_id":76561198954876624,"connected_time":1148000000000,"state":"active","ping":64},{"user_id":144,"name":"frenchie","steam_id":76561198178298931,"connected_time":179000000000,"state":"active","ping":47},{"user_id":87,"name":"A stripper","steam_id":76561198034865891,"connected_time":4446000000000,"state":"active","ping":63},{"user_id":117,"name":"john fortress","steam_id":76561198013237629,"connected_time":2347000000000,"state":"active","ping":94},{"user_id":139,"name":"Cobb Salads","steam_id":76561197971140507,"connected_time":964000000000,"state":"active","ping":64},{"user_id":124,"name":"killer of noob, winner of game","steam_id":76561198190583242,"connected_time":2042000000000,"state":"active","ping":68},{"user_id":74,"name":"SomeGuyWithCoffee","steam_id":76561198137465619,"connected_time":5300000000000,"state":"active","ping":99},{"user_id":129,"name":"SynthBox3","steam_id":76561199094075745,"connected_time":1867000000000,"state":"active","ping":90},{"user_id":125,"name":"daks_7","steam_id":76561198446866984,"connected_time":2019000000000,"state":"active","ping":152},{"user_id":103,"name":"Sarah Obama Michella","steam_id":76561198078996559,"connected_time":2986000000000,"state":"active","ping":73},{"user_id":126,"name":"the","steam_id":76561198079277466,"connected_time":1997000000000,"state":"active","ping":60},{"user_id":146,"name":"Dickkickem","steam_id":76561198425505206,"connected_time":144000000000,"state":"active","ping":70}]},{"server_id":309,"name":"Uncletopia | Frankfurt | 4 | All Maps","name_short":"frk-4","host":"frk-1.de.uncletopia.com","port":27045,"enabled":true,"region":"eu","cc":"de","latitude":50.110924,"longitude":8.682127,"reserved":0,"last_update":"0001-01-01T00:00:00Z","name_a2s":"Uncletopia | Frankfurt | 4 | All Maps","protocol":17,"map":"koth_viaduct","folder":"tf","game":"Team Fortress","app_id":440,"player_count":0,"max_players":24,"Bots":0,"server_type":"Dedicated","server_os":"Linux","password":true,"vac":true,"version":"7757534","steam_id":85568392924504275,"keywords":["cp","nocrits","nodmgspread","uncletopia"],"game_id":440,"stv_port":27046,"stv_name":"Uncletopia | Frankfurt | 4 | All Maps | STV","players":null},{"server_id":310,"name":"Uncletopia | Frankfurt | 5 | All Maps","name_short":"frk-5","host":"frk-1.de.uncletopia.com","port":27055,"enabled":true,"region":"eu","cc":"de","latitude":50.110924,"longitude":8.682127,"reserved":0,"last_update":"0001-01-01T00:00:00Z","name_a2s":"Uncletopia | Frankfurt | 5 | All Maps","protocol":17,"map":"koth_lakeside_final","folder":"tf","game":"Team Fortress","app_id":440,"player_count":0,"max_players":24,"Bots":0,"server_type":"Dedicated","server_os":"Linux","password":true,"vac":true,"version":"7757534","steam_id":85568392924504277,"keywords":["cp","nocrits","nodmgspread","uncletopia"],"game_id":440,"stv_port":27056,"stv_name":"Uncletopia | Frankfurt | 5 | All Maps | STV","players":null},{"server_id":311,"name":"Uncletopia | Frankfurt | 6 | All Maps","name_short":"frk-6","host":"frk-1.de.uncletopia.com","port":27065,"enabled":true,"region":"eu","cc":"de","latitude":50.110924,"longitude":8.682127,"reserved":0,"last_update":"0001-01-01T00:00:00Z","name_a2s":"Uncletopia | Frankfurt | 6 | All Maps","protocol":17,"map":"pl_frontier_final","folder":"tf","game":"Team Fortress","app_id":440,"player_count":0,"max_players":24,"Bots":0,"server_type":"Dedicated","server_os":"Linux","password":true,"vac":true,"version":"7757534","steam_id":85568392924504278,"keywords":["nocrits","nodmgspread","payload","uncletopia"],"game_id":440,"stv_port":27066,"stv_name":"Uncletopia | Frankfurt | 6 | All Maps | STV","players":null},{"server_id":23,"name":"Uncletopia | Frankfurt | 7 | Stopwatch Beta","name_short":"frk-7","host":"frk-1.de.uncletopia.com","port":27075,"enabled":true,"region":"eu","cc":"de","latitude":50.110924,"longitude":8.682127,"reserved":0,"last_update":"0001-01-01T00:00:00Z","name_a2s":"Uncletopia | Frankfurt | 7 | Stopwatch Beta","protocol":17,"map":"cp_sunshine","folder":"tf","game":"Team Fortress","app_id":440,"player_count":0,"max_players":24,"Bots":0,"server_type":"Dedicated","server_os":"Linux","password":true,"vac":true,"version":"7757534","steam_id":85568392924742827,"keywords":["cp","nocrits","nodmgspread","uncletopia"],"game_id":440,"stv_port":27076,"stv_name":"Uncletopia | Frankfurt | 7 | Stopwatch Beta | STV","players":null},{"server_id":24,"name":"Uncletopia | Frankfurt | 8 | Community","name_short":"frk-8","host":"frk-1.de.uncletopia.com","port":27085,"enabled":true,"region":"eu","cc":"de","latitude":50.110924,"longitude":8.682127,"reserved":0,"last_update":"0001-01-01T00:00:00Z","name_a2s":"Uncletopia | Frankfurt | 8 | Community","protocol":17,"map":"koth_lakeside_final","folder":"tf","game":"Team Fortress","app_id":440,"player_count":0,"max_players":24,"Bots":0,"server_type":"Dedicated","server_os":"Linux","password":true,"vac":true,"version":"7757534","steam_id":85568392924742828,"keywords":["cp","nocrits","nodmgspread","uncletopia"],"game_id":440,"stv_port":27086,"stv_name":"Uncletopia | Frankfurt | 8 | Community | STV","players":null},{"server_id":202,"name":"Uncletopia | Hong Kong | 1 | All Maps","name_short":"hgk-1","host":"hgk-1.hk.uncletopia.com","port":27015,"enabled":true,"region":"asia","cc":"hk","latitude":22.302711,"longitude":114.177216,"reserved":0,"last_update":"0001-01-01T00:00:00Z","name_a2s":"Uncletopia | Hong Kong | 1 | All Maps","protocol":17,"map":"cp_mountainlab","folder":"tf","game":"Team Fortress","app_id":440,"player_count":15,"max_players":24,"Bots":0,"server_type":"Dedicated","server_os":"Linux","password":true,"vac":true,"version":"7757534","steam_id":85568392924494504,"keywords":["cp","nocrits","nodmgspread","uncletopia"],"game_id":440,"stv_port":27016,"stv_name":"Uncletopia | Hong Kong | 1 | All Maps | STV","players":[{"user_id":161,"name":"Shienn__","steam_id":76561199174019837,"connected_time":3255000000000,"state":"active","ping":95},{"user_id":159,"name":"Slim3rs","steam_id":76561199088010585,"connected_time":3334000000000,"state":"active","ping":183},{"user_id":175,"name":"Steve","steam_id":76561198429235506,"connected_time":1556000000000,"state":"active","ping":101},{"user_id":189,"name":"Medic Targeter","steam_id":76561198210380077,"connected_time":722000000000,"state":"active","ping":129},{"user_id":183,"name":"Xh4dow","steam_id":76561199171823881,"connected_time":921000000000,"state":"active","ping":145},{"user_id":180,"name":"yw","steam_id":76561199382726488,"connected_time":1159000000000,"state":"active","ping":59},{"user_id":202,"name":"Ivy","steam_id":76561198400698408,"connected_time":27000000000,"state":"active","ping":199},{"user_id":181,"name":"LEGS","steam_id":76561199111623890,"connected_time":1105000000000,"state":"active","ping":87},{"user_id":177,"name":"ArcticDolphin","steam_id":76561198203626319,"connected_time":1309000000000,"state":"active","ping":131},{"user_id":182,"name":"Nope","steam_id":76561198146669366,"connected_time":1074000000000,"state":"active","ping":109},{"user_id":203,"name":"waffle house's old host","steam_id":76561198987746141,"connected_time":16000000000,"state":"active","ping":48},{"user_id":185,"name":"Kpba32(Lego)","steam_id":76561198051927766,"connected_time":845000000000,"state":"active","ping":112},{"user_id":200,"name":"OmpR","steam_id":76561198139734756,"connected_time":134000000000,"state":"active","ping":57},{"user_id":191,"name":"Kazuki, ScienceDILF","steam_id":76561198011707565,"connected_time":689000000000,"state":"active","ping":164},{"user_id":195,"name":"frei","steam_id":76561199043420855,"connected_time":452000000000,"state":"active","ping":76}]},{"server_id":1,"name":"Uncletopia | Los Angeles | 1 | All Maps","name_short":"lax-1","host":"lax-1.us.uncletopia.com","port":27015,"enabled":true,"region":"us-west","cc":"us","latitude":33.94279,"longitude":-118.41004,"reserved":0,"last_update":"0001-01-01T00:00:00Z","name_a2s":"Uncletopia | Los Angeles | 1 | All Maps","protocol":17,"map":"pl_borneo","folder":"tf","game":"Team Fortress","app_id":440,"player_count":0,"max_players":24,"Bots":0,"server_type":"Dedicated","server_os":"Linux","password":true,"vac":true,"version":"7757534","steam_id":85568392924469991,"keywords":["nocrits","nodmgspread","payload","uncletopia"],"game_id":440,"stv_port":27016,"stv_name":"Uncletopia | Los Angeles | 1 | All Maps | STV","players":null},{"server_id":112,"name":"Uncletopia | Los Angeles | 2 | All Maps","name_short":"lax-2","host":"lax-1.us.uncletopia.com","port":27025,"enabled":true,"region":"us-west","cc":"us","latitude":33.94279,"longitude":-118.41004,"reserved":0,"last_update":"0001-01-01T00:00:00Z","name_a2s":"Uncletopia | Los Angeles | 2 | All Maps","protocol":17,"map":"koth_cascade","folder":"tf","game":"Team Fortress","app_id":440,"player_count":0,"max_players":24,"Bots":0,"server_type":"Dedicated","server_os":"Linux","password":true,"vac":true,"version":"7757534","steam_id":85568392924469992,"keywords":["cp","nocrits","nodmgspread","uncletopia"],"game_id":440,"stv_port":27026,"stv_name":"Uncletopia | Los Angeles | 2 | All Maps | STV","players":null},{"server_id":324,"name":"Uncletopia | Los Angeles | 3 | All Maps","name_short":"lax-3","host":"lax-1.us.uncletopia.com","port":27035,"enabled":true,"region":"us-west","cc":"us","latitude":33.94279,"longitude":-118.41004,"reserved":0,"last_update":"0001-01-01T00:00:00Z","name_a2s":"Uncletopia | Los Angeles | 3 | All Maps","protocol":17,"map":"koth_highpass","folder":"tf","game":"Team Fortress","app_id":440,"player_count":0,"max_players":24,"Bots":0,"server_type":"Dedicated","server_os":"Linux","password":true,"vac":true,"version":"7757534","steam_id":85568392924510198,"keywords":["cp","nocrits","nodmgspread","uncletopia"],"game_id":440,"stv_port":27036,"stv_name":"Uncletopia | Los Angeles | 3 | All Maps | STV","players":null},{"server_id":25,"name":"Uncletopia | Los Angeles | 4 | Stopwatch Beta","name_short":"lax-4","host":"lax-1.us.uncletopia.com","port":27045,"enabled":true,"region":"us-west","cc":"us","latitude":33.94279,"longitude":-118.41004,"reserved":0,"last_update":"0001-01-01T00:00:00Z","name_a2s":"Uncletopia | Los Angeles | 4 | Stopwatch Beta","protocol":17,"map":"pl_borneo","folder":"tf","game":"Team Fortress","app_id":440,"player_count":0,"max_players":24,"Bots":0,"server_type":"Dedicated","server_os":"Linux","password":true,"vac":true,"version":"7757534","steam_id":85568392924510199,"keywords":["nocrits","nodmgspread","payload","uncletopia"],"game_id":440,"stv_port":27046,"stv_name":"Uncletopia | Los Angeles | 4 | Stopwatch Beta | STV","players":null},{"server_id":11,"name":"Uncletopia | London | 1 | All Maps","name_short":"lon-1","host":"lon-1.uk.uncletopia.com","port":27015,"enabled":true,"region":"eu","cc":"gb","latitude":51.509865,"longitude":-0.118092,"reserved":0,"last_update":"0001-01-01T00:00:00Z","name_a2s":"Uncletopia | London | 1 | All Maps","protocol":17,"map":"pl_badwater","folder":"tf","game":"Team Fortress","app_id":440,"player_count":24,"max_players":24,"Bots":0,"server_type":"Dedicated","server_os":"Linux","password":true,"vac":true,"version":"7757534","steam_id":85568392924367362,"keywords":["nocrits","nodmgspread","payload","uncletopia"],"game_id":440,"stv_port":27016,"stv_name":"Uncletopia | London | 1 | All Maps | STV","players":[{"user_id":155,"name":"Myrmodion","steam_id":76561198054746247,"connected_time":2459000000000,"state":"active","ping":73},{"user_id":112,"name":"quickfast","steam_id":76561199438900919,"connected_time":5112000000000,"state":"active","ping":45},{"user_id":144,"name":"jimmy bob","steam_id":76561198319583692,"connected_time":3263000000000,"state":"active","ping":58},{"user_id":91,"name":"BONK-TEC!","steam_id":76561198272667029,"connected_time":6904000000000,"state":"active","ping":42},{"user_id":132,"name":"epic party rat","steam_id":76561199100632053,"connected_time":3832000000000,"state":"active","ping":59},{"user_id":116,"name":"bodyshot simulator","steam_id":76561199403420562,"connected_time":5060000000000,"state":"active","ping":93},{"user_id":174,"name":"❤ Sparx ❤","steam_id":76561198095009261,"connected_time":1689000000000,"state":"active","ping":53},{"user_id":180,"name":"Chambersite","steam_id":76561198197022399,"connected_time":1234000000000,"state":"active","ping":97},{"user_id":178,"name":"Oki (Bon)","steam_id":76561199047748534,"connected_time":1375000000000,"state":"active","ping":64},{"user_id":181,"name":"Apolo","steam_id":76561198116159344,"connected_time":1202000000000,"state":"active","ping":32},{"user_id":108,"name":"Yuzu","steam_id":76561198121694613,"connected_time":5605000000000,"state":"active","ping":47},{"user_id":183,"name":"Economic crisis","steam_id":76561198063562843,"connected_time":1086000000000,"state":"active","ping":62},{"user_id":185,"name":"Apathy","steam_id":76561199308784371,"connected_time":272000000000,"state":"active","ping":50},{"user_id":184,"name":"The Chosen One","steam_id":76561199046984627,"connected_time":1085000000000,"state":"active","ping":159},{"user_id":186,"name":"R0mulone","steam_id":76561198352513792,"connected_time":87000000000,"state":"active","ping":62},{"user_id":175,"name":"dunduu","steam_id":76561198875240717,"connected_time":1612000000000,"state":"active","ping":75},{"user_id":177,"name":"Desj","steam_id":76561198114212636,"connected_time":1422000000000,"state":"active","ping":46},{"user_id":159,"name":"CrabboStabbo","steam_id":76561198105660937,"connected_time":2249000000000,"state":"active","ping":59},{"user_id":170,"name":"GMsU | Rebikas","steam_id":76561198077053764,"connected_time":1849000000000,"state":"active","ping":49},{"user_id":145,"name":"transgender e-girl","steam_id":76561198168589809,"connected_time":3177000000000,"state":"active","ping":60},{"user_id":187,"name":"Owlet","steam_id":76561198065613974,"connected_time":33000000000,"state":"active","ping":64},{"user_id":166,"name":"poliakov.noam","steam_id":76561199259322961,"connected_time":2092000000000,"state":"active","ping":106},{"user_id":146,"name":"bum","steam_id":76561198060105180,"connected_time":3144000000000,"state":"active","ping":62},{"user_id":169,"name":"BX","steam_id":76561197962889211,"connected_time":1980000000000,"state":"active","ping":59}]},{"server_id":114,"name":"Uncletopia | London | 2 | All Maps","name_short":"lon-2","host":"lon-1.uk.uncletopia.com","port":27025,"enabled":true,"region":"eu","cc":"gb","latitude":51.509865,"longitude":-0.118092,"reserved":0,"last_update":"0001-01-01T00:00:00Z","name_a2s":"Uncletopia | London | 2 | All Maps","protocol":17,"map":"koth_viaduct","folder":"tf","game":"Team Fortress","app_id":440,"player_count":0,"max_players":24,"Bots":0,"server_type":"Dedicated","server_os":"Linux","password":true,"vac":true,"version":"7757534","steam_id":85568392924470941,"keywords":["cp","nocrits","nodmgspread","uncletopia"],"game_id":440,"stv_port":27026,"stv_name":"Uncletopia | London | 2 | All Maps | STV","players":null},{"server_id":320,"name":"Uncletopia | London | 3 | All Maps","name_short":"lon-3","host":"lon-1.uk.uncletopia.com","port":27035,"enabled":true,"region":"eu","cc":"gb","latitude":51.509865,"longitude":-0.118092,"reserved":0,"last_update":"0001-01-01T00:00:00Z","name_a2s":"Uncletopia | London | 3 | All Maps","protocol":17,"map":"cp_dustbowl","folder":"tf","game":"Team Fortress","app_id":440,"player_count":24,"max_players":24,"Bots":0,"server_type":"Dedicated","server_os":"Linux","password":true,"vac":true,"version":"7757534","steam_id":85568392924510192,"keywords":["cp","nocrits","nodmgspread","uncletopia"],"game_id":440,"stv_port":27036,"stv_name":"Uncletopia | London | 3 | All Maps | STV","players":[{"user_id":32,"name":"greg's mom","steam_id":76561198050525471,"connected_time":181000000000,"state":"active","ping":71},{"user_id":5,"name":"wide appreciator","steam_id":76561198083286511,"connected_time":1217000000000,"state":"active","ping":44},{"user_id":6,"name":"heavy sings (real)","steam_id":76561199023804405,"connected_time":1210000000000,"state":"active","ping":110},{"user_id":7,"name":"tqla","steam_id":76561198073092585,"connected_time":1013000000000,"state":"active","ping":105},{"user_id":8,"name":"morgan","steam_id":76561198322124999,"connected_time":965000000000,"state":"active","ping":67},{"user_id":9,"name":"da number one gamer","steam_id":76561199049633351,"connected_time":838000000000,"state":"active","ping":68},{"user_id":10,"name":"headphones broke in one ear","steam_id":76561198334042273,"connected_time":831000000000,"state":"active","ping":89},{"user_id":11,"name":"Plastic Baggins","steam_id":76561198039836567,"connected_time":790000000000,"state":"active","ping":40},{"user_id":13,"name":"Benpl","steam_id":76561198084890757,"connected_time":757000000000,"state":"active","ping":47},{"user_id":15,"name":"Team Fortress 2","steam_id":76561198325403141,"connected_time":731000000000,"state":"active","ping":134},{"user_id":16,"name":"Skuld","steam_id":76561198064734905,"connected_time":625000000000,"state":"active","ping":105},{"user_id":17,"name":"printer is broken","steam_id":76561198234270592,"connected_time":607000000000,"state":"active","ping":69},{"user_id":18,"name":"Osmo","steam_id":76561199286764992,"connected_time":559000000000,"state":"active","ping":79},{"user_id":30,"name":"hedon/","steam_id":76561198249832770,"connected_time":276000000000,"state":"active","ping":44},{"user_id":20,"name":"SpeddyMeddy","steam_id":76561197999693825,"connected_time":511000000000,"state":"active","ping":77},{"user_id":21,"name":"adam","steam_id":76561199024816404,"connected_time":493000000000,"state":"active","ping":79},{"user_id":31,"name":"Envy","steam_id":76561198132723219,"connected_time":258000000000,"state":"active","ping":109},{"user_id":24,"name":"JeanCorben","steam_id":76561197965133561,"connected_time":422000000000,"state":"active","ping":36},{"user_id":29,"name":"kotamine","steam_id":76561198068907991,"connected_time":299000000000,"state":"active","ping":74},{"user_id":27,"name":"2pizza","steam_id":76561198009955902,"connected_time":343000000000,"state":"active","ping":103},{"user_id":28,"name":"piping hot","steam_id":76561198011692496,"connected_time":324000000000,"state":"active","ping":79},{"user_id":33,"name":"jovi_","steam_id":76561198449280552,"connected_time":113000000000,"state":"active","ping":52},{"user_id":34,"name":"1990 mazda miata mx-5","steam_id":76561198272809526,"connected_time":105000000000,"state":"active","ping":59},{"user_id":35,"name":"IHave2000HoursButPlayLikeIHave1","steam_id":76561198295280927,"connected_time":81000000000,"state":"active","ping":162}]},{"server_id":321,"name":"Uncletopia | London | 4 | All Maps","name_short":"lon-4","host":"lon-1.uk.uncletopia.com","port":27045,"enabled":true,"region":"eu","cc":"gb","latitude":51.509865,"longitude":-0.118092,"reserved":0,"last_update":"0001-01-01T00:00:00Z","name_a2s":"Uncletopia | London | 4 | All Maps","protocol":17,"map":"pl_snowycoast","folder":"tf","game":"Team Fortress","app_id":440,"player_count":1,"max_players":24,"Bots":0,"server_type":"Dedicated","server_os":"Linux","password":true,"vac":true,"version":"7757534","steam_id":85568392924510193,"keywords":["nocrits","nodmgspread","payload","uncletopia"],"game_id":440,"stv_port":27046,"stv_name":"Uncletopia | London | 4 | All Maps | STV","players":[{"user_id":11,"name":"Boombox95","steam_id":76561199185074584,"connected_time":192000000000,"state":"active","ping":37}]},{"server_id":21,"name":"Uncletopia | London | 5 | All Maps","name_short":"lon-5","host":"lon-1.uk.uncletopia.com","port":27055,"enabled":true,"region":"eu","cc":"gb","latitude":51.509865,"longitude":-0.118092,"reserved":0,"last_update":"0001-01-01T00:00:00Z","name_a2s":"Uncletopia | London | 5 | All Maps","protocol":17,"map":"cp_mountainlab","folder":"tf","game":"Team Fortress","app_id":440,"player_count":0,"max_players":24,"Bots":0,"server_type":"Dedicated","server_os":"Linux","password":true,"vac":true,"version":"7757534","steam_id":85568392924742829,"keywords":["cp","nocrits","nodmgspread","uncletopia"],"game_id":440,"stv_port":27056,"stv_name":"Uncletopia | London | 5 | All Maps | STV","players":null},{"server_id":22,"name":"Uncletopia | London | 6 | All Maps","name_short":"lon-6","host":"lon-1.uk.uncletopia.com","port":27065,"enabled":true,"region":"eu","cc":"gb","latitude":51.509865,"longitude":-0.118092,"reserved":0,"last_update":"0001-01-01T00:00:00Z","name_a2s":"Uncletopia | London | 6 | All Maps","protocol":17,"map":"cp_mountainlab","folder":"tf","game":"Team Fortress","app_id":440,"player_count":0,"max_players":24,"Bots":0,"server_type":"Dedicated","server_os":"Linux","password":true,"vac":true,"version":"7757534","steam_id":85568392924742830,"keywords":["cp","nocrits","nodmgspread","uncletopia"],"game_id":440,"stv_port":27066,"stv_name":"Uncletopia | London | 6 | All Maps | STV","players":null},{"server_id":40,"name":"Uncletopia | London | 7 | No Payload","name_short":"lon-7","host":"lon-1.uk.uncletopia.com","port":27075,"enabled":true,"region":"eu","cc":"gb","latitude":51.509865,"longitude":-0.118092,"reserved":0,"last_update":"0001-01-01T00:00:00Z","name_a2s":"Uncletopia | London | 7 | No Payload","protocol":17,"map":"cp_sunshine","folder":"tf","game":"Team Fortress","app_id":440,"player_count":0,"max_players":24,"Bots":0,"server_type":"Dedicated","server_os":"Linux","password":true,"vac":true,"version":"7757534","steam_id":85568392924964314,"keywords":["cp","nocrits","nodmgspread","uncletopia"],"game_id":440,"stv_port":27076,"stv_name":"Uncletopia | London | 7 | No Payload | STV","players":null},{"server_id":41,"name":"Uncletopia | London | 8 | Community","name_short":"lon-8","host":"lon-1.uk.uncletopia.com","port":27085,"enabled":true,"region":"eu","cc":"gb","latitude":51.509865,"longitude":-0.118092,"reserved":0,"last_update":"0001-01-01T00:00:00Z","name_a2s":"Uncletopia | London | 8 | Community","protocol":17,"map":"pl_barnblitz","folder":"tf","game":"Team Fortress","app_id":440,"player_count":0,"max_players":24,"Bots":0,"server_type":"Dedicated","server_os":"Linux","password":true,"vac":true,"version":"7757534","steam_id":85568392924964315,"keywords":["nocrits","nodmgspread","payload","uncletopia"],"game_id":440,"stv_port":27086,"stv_name":"Uncletopia | London | 8 | Community | STV","players":null},{"server_id":300,"name":"Uncletopia | Montréal | 1 | All Maps","name_short":"mtl-1","host":"mtl-1.ca.uncletopia.com","port":27015,"enabled":true,"region":"us-east","cc":"ca","latitude":45.50889,"longitude":-73.56167,"reserved":0,"last_update":"0001-01-01T00:00:00Z","name_a2s":"Uncletopia | Montréal | 1 | All Maps","protocol":17,"map":"pl_upward","folder":"tf","game":"Team Fortress","app_id":440,"player_count":0,"max_players":24,"Bots":0,"server_type":"Dedicated","server_os":"Linux","password":true,"vac":true,"version":"7757534","steam_id":85568392924500087,"keywords":["nocrits","nodmgspread","payload","uncletopia"],"game_id":440,"stv_port":27016,"stv_name":"Uncletopia | Montréal | 1 | All Maps | STV","players":null},{"server_id":301,"name":"Uncletopia | Montréal | 2 | All Maps","name_short":"mtl-2","host":"mtl-1.ca.uncletopia.com","port":27025,"enabled":true,"region":"us-east","cc":"ca","latitude":45.50889,"longitude":-73.56167,"reserved":0,"last_update":"0001-01-01T00:00:00Z","name_a2s":"Uncletopia | Montréal | 2 | All Maps","protocol":17,"map":"pl_snowycoast","folder":"tf","game":"Team Fortress","app_id":440,"player_count":0,"max_players":24,"Bots":0,"server_type":"Dedicated","server_os":"Linux","password":true,"vac":true,"version":"7757534","steam_id":85568392924500088,"keywords":["nocrits","nodmgspread","payload","uncletopia"],"game_id":440,"stv_port":27026,"stv_name":"Uncletopia | Montréal | 2 | All Maps | STV","players":null},{"server_id":302,"name":"Uncletopia | Montréal | 3 | All Maps","name_short":"mtl-3","host":"mtl-1.ca.uncletopia.com","port":27035,"enabled":true,"region":"us-east","cc":"ca","latitude":45.50889,"longitude":-73.56167,"reserved":0,"last_update":"0001-01-01T00:00:00Z","name_a2s":"Uncletopia | Montréal | 3 | All Maps","protocol":17,"map":"pl_swiftwater_final1","folder":"tf","game":"Team Fortress","app_id":440,"player_count":0,"max_players":24,"Bots":0,"server_type":"Dedicated","server_os":"Linux","password":true,"vac":true,"version":"7757534","steam_id":85568392924500089,"keywords":["nocrits","nodmgspread","payload","uncletopia"],"game_id":440,"stv_port":27036,"stv_name":"Uncletopia | Montréal | 3 | All Maps | STV","players":null},{"server_id":303,"name":"Uncletopia | Montréal | 4 | No Payload","name_short":"mtl-4","host":"mtl-1.ca.uncletopia.com","port":27045,"enabled":true,"region":"us-east","cc":"ca","latitude":45.50889,"longitude":-73.56167,"reserved":0,"last_update":"0001-01-01T00:00:00Z","name_a2s":"Uncletopia | Montréal | 4 | No Payload","protocol":17,"map":"pl_pier","folder":"tf","game":"Team Fortress","app_id":440,"player_count":0,"max_players":24,"Bots":0,"server_type":"Dedicated","server_os":"Linux","password":true,"vac":true,"version":"7757534","steam_id":85568392924500090,"keywords":["nocrits","nodmgspread","payload","uncletopia"],"game_id":440,"stv_port":27046,"stv_name":"Uncletopia | Montréal | 4 | No Payload | STV","players":null},{"server_id":13,"name":"Uncletopia | New York City | 1 | All Maps","name_short":"nyc-1","host":"nyc-1.us.uncletopia.com","port":27015,"enabled":true,"region":"us-east","cc":"us","latitude":40.73061,"longitude":-73.93524,"reserved":0,"last_update":"0001-01-01T00:00:00Z","name_a2s":"Uncletopia | New York City | 1 | All Maps","protocol":17,"map":"koth_viaduct","folder":"tf","game":"Team Fortress","app_id":440,"player_count":0,"max_players":24,"Bots":0,"server_type":"Dedicated","server_os":"Linux","password":true,"vac":true,"version":"7757534","steam_id":85568392924469993,"keywords":["cp","nocrits","nodmgspread","uncletopia"],"game_id":440,"stv_port":27016,"stv_name":"Uncletopia | New York City | 1 | All Maps | STV","players":null},{"server_id":14,"name":"Uncletopia | New York City | 2 | All Maps","name_short":"nyc-2","host":"nyc-1.us.uncletopia.com","port":27025,"enabled":true,"region":"us-east","cc":"us","latitude":40.73061,"longitude":-73.93524,"reserved":0,"last_update":"0001-01-01T00:00:00Z","name_a2s":"Uncletopia | New York City | 2 | All Maps","protocol":17,"map":"pl_badwater","folder":"tf","game":"Team Fortress","app_id":440,"player_count":0,"max_players":24,"Bots":0,"server_type":"Dedicated","server_os":"Linux","password":true,"vac":true,"version":"7757534","steam_id":85568392924469994,"keywords":["nocrits","nodmgspread","payload","uncletopia"],"game_id":440,"stv_port":27026,"stv_name":"Uncletopia | New York City | 2 | All Maps | STV","players":null},{"server_id":15,"name":"Uncletopia | New York City | 3 | Stopwatch Beta","name_short":"nyc-3","host":"nyc-1.us.uncletopia.com","port":27035,"enabled":true,"region":"us-east","cc":"us","latitude":40.73061,"longitude":-73.93524,"reserved":0,"last_update":"0001-01-01T00:00:00Z","name_a2s":"Uncletopia | New York City | 3 | Stopwatch Beta","protocol":17,"map":"pl_upward","folder":"tf","game":"Team Fortress","app_id":440,"player_count":0,"max_players":24,"Bots":0,"server_type":"Dedicated","server_os":"Linux","password":true,"vac":true,"version":"7757534","steam_id":85568392924742820,"keywords":["nocrits","nodmgspread","payload","uncletopia"],"game_id":440,"stv_port":27036,"stv_name":"Uncletopia | New York City | 3 | Stopwatch Beta | STV","players":null},{"server_id":16,"name":"Uncletopia | New York City | 4 | Community","name_short":"nyc-4","host":"nyc-1.us.uncletopia.com","port":27045,"enabled":true,"region":"us-east","cc":"us","latitude":40.73061,"longitude":-73.93524,"reserved":0,"last_update":"0001-01-01T00:00:00Z","name_a2s":"Uncletopia | New York City | 4 | Community","protocol":17,"map":"workshop/cp_logjam_rc12.ugc454812035","folder":"tf","game":"Team Fortress","app_id":440,"player_count":2,"max_players":24,"Bots":0,"server_type":"Dedicated","server_os":"Linux","password":true,"vac":true,"version":"7757534","steam_id":85568392924742821,"keywords":["cp","nocrits","nodmgspread","uncletopia"],"game_id":440,"stv_port":27046,"stv_name":"Uncletopia | New York City | 4 | Community | STV","players":[{"user_id":3,"name":"Fart Smella","steam_id":76561198419066993,"connected_time":3558000000000,"state":"active","ping":129},{"user_id":4,"name":"THE LOATHSOME DUNG EATER","steam_id":76561198805375543,"connected_time":3505000000000,"state":"active","ping":130}]},{"server_id":142,"name":"Uncletopia | São Paulo | 1 | All Maps","name_short":"sao-1","host":"sao-1.br.uncletopia.com","port":27015,"enabled":true,"region":"sa","cc":"br","latitude":-23.533773,"longitude":-46.62529,"reserved":0,"last_update":"0001-01-01T00:00:00Z","name_a2s":"Uncletopia | São Paulo | 1 | All Maps","protocol":17,"map":"koth_lakeside_final","folder":"tf","game":"Team Fortress","app_id":440,"player_count":0,"max_players":24,"Bots":0,"server_type":"Dedicated","server_os":"Linux","password":true,"vac":true,"version":"7757534","steam_id":85568392924469996,"keywords":["cp","nocrits","nodmgspread","uncletopia"],"game_id":440,"stv_port":27016,"stv_name":"Uncletopia | São Paulo | 1 | All Maps | STV","players":null},{"server_id":143,"name":"Uncletopia | São Paulo | 2 | All Maps","name_short":"sao-2","host":"sao-2.br.uncletopia.com","port":27015,"enabled":true,"region":"sa","cc":"br","latitude":-23.533773,"longitude":-46.62529,"reserved":0,"last_update":"0001-01-01T00:00:00Z","name_a2s":"Uncletopia | São Paulo | 2 | All Maps","protocol":17,"map":"pl_borneo","folder":"tf","game":"Team Fortress","app_id":440,"player_count":0,"max_players":24,"Bots":0,"server_type":"Dedicated","server_os":"Linux","password":true,"vac":true,"version":"7757534","steam_id":85568392924485349,"keywords":["nocrits","nodmgspread","payload","uncletopia"],"game_id":440,"stv_port":27016,"stv_name":"Uncletopia | São Paulo | 2 | All Maps | STV","players":null},{"server_id":7,"name":"Uncletopia | Seattle | 1 | All Maps","name_short":"sea-1","host":"sea-1.us.uncletopia.com","port":27015,"enabled":true,"region":"us-west","cc":"us","latitude":47.608013,"longitude":-122.33517,"reserved":0,"last_update":"0001-01-01T00:00:00Z","name_a2s":"Uncletopia | Seattle | 1 | All Maps","protocol":17,"map":"cp_sunshine","folder":"tf","game":"Team Fortress","app_id":440,"player_count":25,"max_players":24,"Bots":0,"server_type":"Dedicated","server_os":"Linux","password":true,"vac":true,"version":"7757534","steam_id":85568392924469997,"keywords":["cp","nocrits","nodmgspread","uncletopia"],"game_id":440,"stv_port":27016,"stv_name":"Uncletopia | Seattle | 1 | All Maps | STV","players":[{"user_id":1197,"name":"Noble645","steam_id":76561198081240648,"connected_time":465000000000,"state":"active","ping":108},{"user_id":1206,"name":"freegibz","steam_id":76561198132192461,"connected_time":197000000000,"state":"active","ping":100},{"user_id":1186,"name":"Terratomere","steam_id":76561198067716320,"connected_time":807000000000,"state":"active","ping":86},{"user_id":1117,"name":"Kaiju4289","steam_id":76561198878179212,"connected_time":4501000000000,"state":"active","ping":74},{"user_id":1159,"name":"tone","steam_id":76561198006505587,"connected_time":1706000000000,"state":"active","ping":131},{"user_id":1111,"name":"Grassman (Cc)","steam_id":76561198026488532,"connected_time":4730000000000,"state":"active","ping":63},{"user_id":1149,"name":"rlty","steam_id":76561198009395055,"connected_time":2312000000000,"state":"active","ping":119},{"user_id":1150,"name":"ʀ.ʚɞ.","steam_id":76561198029580420,"connected_time":2304000000000,"state":"active","ping":165},{"user_id":1134,"name":"i love tf2!","steam_id":76561198050220225,"connected_time":3318000000000,"state":"active","ping":110},{"user_id":1152,"name":"Rain","steam_id":76561198123437878,"connected_time":2198000000000,"state":"active","ping":120},{"user_id":1209,"name":"L'suspector","steam_id":76561199066068833,"connected_time":24000000000,"state":"spawning","ping":63},{"user_id":1178,"name":"captain red","steam_id":76561198191587983,"connected_time":1035000000000,"state":"active","ping":75},{"user_id":1136,"name":"Andrew","steam_id":76561198070615190,"connected_time":3299000000000,"state":"active","ping":77},{"user_id":1137,"name":"will uber light classes","steam_id":76561198117033273,"connected_time":3289000000000,"state":"active","ping":194},{"user_id":1207,"name":"ƐՌѴƳ","steam_id":76561198099470277,"connected_time":139000000000,"state":"active","ping":127},{"user_id":1205,"name":"Packet [ :P","steam_id":76561197963257621,"connected_time":257000000000,"state":"active","ping":106},{"user_id":1145,"name":"sleepyhead","steam_id":76561198070859040,"connected_time":2553000000000,"state":"active","ping":82},{"user_id":1156,"name":"Hotdog Goblin","steam_id":76561198004133638,"connected_time":1741000000000,"state":"active","ping":100},{"user_id":1195,"name":"Literally a Trans Woman","steam_id":76561198054639925,"connected_time":494000000000,"state":"active","ping":111},{"user_id":1163,"name":"Sifan (CAMSL)","steam_id":76561198094433932,"connected_time":1668000000000,"state":"active","ping":132},{"user_id":1210,"name":"JOHNWICK","steam_id":76561199472940786,"connected_time":8000000000,"state":"spawning","ping":123},{"user_id":1126,"name":"the nut chuckler","steam_id":76561198211677460,"connected_time":3755000000000,"state":"active","ping":101},{"user_id":1173,"name":"amagicowl","steam_id":76561199060487814,"connected_time":1337000000000,"state":"active","ping":47},{"user_id":1211,"name":"Peppino Spaghetti","steam_id":76561198034122573,"connected_time":5000000000,"state":"spawning","ping":46},{"user_id":1174,"name":"lol","steam_id":76561198026491738,"connected_time":1324000000000,"state":"active","ping":86}]},{"server_id":119,"name":"Uncletopia | Seattle | 2 | All Maps","name_short":"sea-2","host":"sea-1.us.uncletopia.com","port":27025,"enabled":true,"region":"us-west","cc":"us","latitude":47.608013,"longitude":-122.33517,"reserved":0,"last_update":"0001-01-01T00:00:00Z","name_a2s":"Uncletopia | Seattle | 2 | All Maps","protocol":17,"map":"koth_highpass","folder":"tf","game":"Team Fortress","app_id":440,"player_count":0,"max_players":24,"Bots":0,"server_type":"Dedicated","server_os":"Linux","password":true,"vac":true,"version":"7757534","steam_id":85568392924469998,"keywords":["cp","nocrits","nodmgspread","uncletopia"],"game_id":440,"stv_port":27026,"stv_name":"Uncletopia | Seattle | 2 | All Maps | STV","players":null},{"server_id":406,"name":"Uncletopia | Seattle | 3 | Stopwatch Beta","name_short":"sea-3","host":"sea-1.us.uncletopia.com","port":27035,"enabled":true,"region":"us-west","cc":"us","latitude":47.608013,"longitude":-122.33517,"reserved":0,"last_update":"0001-01-01T00:00:00Z","name_a2s":"Uncletopia | Seattle | 3 | Stopwatch Beta","protocol":17,"map":"koth_lakeside_final","folder":"tf","game":"Team Fortress","app_id":440,"player_count":0,"max_players":24,"Bots":0,"server_type":"Dedicated","server_os":"Linux","password":true,"vac":true,"version":"7757534","steam_id":85568392924515217,"keywords":["cp","nocrits","nodmgspread","uncletopia"],"game_id":440,"stv_port":27036,"stv_name":"Uncletopia | Seattle | 3 | Stopwatch Beta | STV","players":null},{"server_id":17,"name":"Uncletopia | San Francisco | 1 | All Maps","name_short":"sfo-1","host":"sfo-1.us.uncletopia.com","port":27015,"enabled":true,"region":"us-west","cc":"us","latitude":37.77397,"longitude":-122.4313,"reserved":0,"last_update":"0001-01-01T00:00:00Z","name_a2s":"Uncletopia | San Francisco | 1 | All Maps","protocol":17,"map":"cp_sunshine","folder":"tf","game":"Team Fortress","app_id":440,"player_count":0,"max_players":24,"Bots":0,"server_type":"Dedicated","server_os":"Linux","password":true,"vac":true,"version":"7757534","steam_id":85568392924469999,"keywords":["cp","nocrits","nodmgspread","uncletopia"],"game_id":440,"stv_port":27016,"stv_name":"Uncletopia | San Francisco | 1 | All Maps | STV","players":null},{"server_id":18,"name":"Uncletopia | San Francisco | 2 | All Maps","name_short":"sfo-2","host":"sfo-1.us.uncletopia.com","port":27025,"enabled":true,"region":"us-west","cc":"us","latitude":37.77397,"longitude":-122.4313,"reserved":0,"last_update":"0001-01-01T00:00:00Z","name_a2s":"Uncletopia | San Francisco | 2 | All Maps","protocol":17,"map":"koth_cascade","folder":"tf","game":"Team Fortress","app_id":440,"player_count":0,"max_players":24,"Bots":0,"server_type":"Dedicated","server_os":"Linux","password":true,"vac":true,"version":"7757534","steam_id":85568392924470000,"keywords":["cp","nocrits","nodmgspread","uncletopia"],"game_id":440,"stv_port":27026,"stv_name":"Uncletopia | San Francisco | 2 | All Maps | STV","players":null},{"server_id":19,"name":"Uncletopia | San Francisco | 3 | Stopwatch Beta","name_short":"sfo-3","host":"sfo-1.us.uncletopia.com","port":27035,"enabled":true,"region":"us-west","cc":"us","latitude":37.77397,"longitude":-122.4313,"reserved":0,"last_update":"0001-01-01T00:00:00Z","name_a2s":"Uncletopia | San Francisco | 3 | Stopwatch Beta","protocol":17,"map":"pl_swiftwater_final1","folder":"tf","game":"Team Fortress","app_id":440,"player_count":0,"max_players":24,"Bots":0,"server_type":"Dedicated","server_os":"Linux","password":true,"vac":true,"version":"7757534","steam_id":85568392924742824,"keywords":["nocrits","nodmgspread","payload","uncletopia"],"game_id":440,"stv_port":27036,"stv_name":"Uncletopia | San Francisco | 3 | Stopwatch Beta | STV","players":null},{"server_id":20,"name":"Uncletopia | San Francisco | 4 | Community","name_short":"sfo-4","host":"sfo-1.us.uncletopia.com","port":27045,"enabled":true,"region":"us-west","cc":"us","latitude":37.77397,"longitude":-122.4313,"reserved":0,"last_update":"0001-01-01T00:00:00Z","name_a2s":"Uncletopia | San Francisco | 4 | Community","protocol":17,"map":"workshop/cp_glassworks_rc6a.ugc454118349","folder":"tf","game":"Team Fortress","app_id":440,"player_count":0,"max_players":24,"Bots":0,"server_type":"Dedicated","server_os":"Linux","password":true,"vac":true,"version":"7757534","steam_id":85568392924742826,"keywords":["cp","nocrits","nodmgspread","uncletopia"],"game_id":440,"stv_port":27046,"stv_name":"Uncletopia | San Francisco | 4 | Community | STV","players":null},{"server_id":141,"name":"Uncletopia | Sydney | 1 | All Maps","name_short":"syd-1","host":"syd-1.au.uncletopia.com","port":27015,"enabled":true,"region":"au","cc":"au","latitude":-33.865143,"longitude":151.2099,"reserved":0,"last_update":"0001-01-01T00:00:00Z","name_a2s":"Uncletopia | Sydney | 1 | All Maps","protocol":17,"map":"koth_viaduct","folder":"tf","game":"Team Fortress","app_id":440,"player_count":0,"max_players":24,"Bots":0,"server_type":"Dedicated","server_os":"Linux","password":true,"vac":true,"version":"7757534","steam_id":85568392924470001,"keywords":["cp","nocrits","nodmgspread","uncletopia"],"game_id":440,"stv_port":27016,"stv_name":"Uncletopia | Sydney | 1 | All Maps | STV","players":null},{"server_id":123,"name":"Uncletopia | Sydney | 2 | All Maps","name_short":"syd-2","host":"syd-1.au.uncletopia.com","port":27025,"enabled":true,"region":"au","cc":"au","latitude":-33.865143,"longitude":151.2099,"reserved":0,"last_update":"0001-01-01T00:00:00Z","name_a2s":"Uncletopia | Sydney | 2 | All Maps","protocol":17,"map":"pl_borneo","folder":"tf","game":"Team Fortress","app_id":440,"player_count":4,"max_players":24,"Bots":0,"server_type":"Dedicated","server_os":"Linux","password":true,"vac":true,"version":"7757534","steam_id":85568392924470002,"keywords":["nocrits","nodmgspread","payload","uncletopia"],"game_id":440,"stv_port":27026,"stv_name":"Uncletopia | Sydney | 2 | All Maps | STV","players":[{"user_id":161,"name":"bangerlop","steam_id":76561199349993627,"connected_time":1244000000000,"state":"active","ping":140},{"user_id":166,"name":"Gamma","steam_id":76561198281131757,"connected_time":291000000000,"state":"active","ping":73},{"user_id":164,"name":"¿eTheRealMe?","steam_id":76561198033297147,"connected_time":753000000000,"state":"active","ping":96},{"user_id":139,"name":"Patet","steam_id":76561199359401930,"connected_time":3706000000000,"state":"active","ping":315}]},{"server_id":395,"name":"Uncletopia | Sydney | 3 | All Maps","name_short":"syd-3","host":"syd-1.au.uncletopia.com","port":27035,"enabled":true,"region":"au","cc":"au","latitude":-33.865143,"longitude":151.2099,"reserved":0,"last_update":"0001-01-01T00:00:00Z","name_a2s":"Uncletopia | Sydney | 3 | All Maps","protocol":17,"map":"pl_frontier_final","folder":"tf","game":"Team Fortress","app_id":440,"player_count":24,"max_players":24,"Bots":0,"server_type":"Dedicated","server_os":"Linux","password":true,"vac":true,"version":"7757534","steam_id":85568392925194467,"keywords":["nocrits","nodmgspread","payload","uncletopia"],"game_id":440,"stv_port":27036,"stv_name":"Uncletopia | Sydney | 3 | All Maps | STV","players":[{"user_id":157,"name":"Hertog van Damme","steam_id":76561198152470958,"connected_time":5028000000000,"state":"active","ping":59},{"user_id":207,"name":"KILLER WHALES","steam_id":76561198012422705,"connected_time":464000000000,"state":"active","ping":60},{"user_id":189,"name":"Tofu","steam_id":76561198025637573,"connected_time":2660000000000,"state":"active","ping":37},{"user_id":180,"name":"Jdn","steam_id":76561198293079232,"connected_time":3133000000000,"state":"active","ping":60},{"user_id":169,"name":"jrg","steam_id":76561197997362731,"connected_time":4815000000000,"state":"active","ping":48},{"user_id":188,"name":"Samboys Chips","steam_id":76561198059382306,"connected_time":2772000000000,"state":"active","ping":105},{"user_id":137,"name":"Bob Ross","steam_id":76561198081686896,"connected_time":6790000000000,"state":"active","ping":64},{"user_id":152,"name":"beans","steam_id":76561198202908888,"connected_time":5890000000000,"state":"active","ping":60},{"user_id":192,"name":"Matt","steam_id":76561198006791420,"connected_time":1975000000000,"state":"active","ping":98},{"user_id":194,"name":"Tantei Rotana","steam_id":76561198041204323,"connected_time":1835000000000,"state":"active","ping":62},{"user_id":181,"name":"NollReed","steam_id":76561198098501571,"connected_time":3126000000000,"state":"active","ping":73},{"user_id":148,"name":"calculusfish","steam_id":76561198067205959,"connected_time":6094000000000,"state":"active","ping":57},{"user_id":199,"name":"dreamydoggy","steam_id":76561198448243169,"connected_time":1651000000000,"state":"active","ping":59},{"user_id":200,"name":"Gnat","steam_id":76561198109747863,"connected_time":1616000000000,"state":"active","ping":100},{"user_id":201,"name":"Greg","steam_id":76561198133966374,"connected_time":1553000000000,"state":"active","ping":58},{"user_id":184,"name":"Nyk","steam_id":76561198125000580,"connected_time":2845000000000,"state":"active","ping":39},{"user_id":202,"name":"Catto","steam_id":76561197999111589,"connected_time":1531000000000,"state":"active","ping":31},{"user_id":164,"name":"Snowy","steam_id":76561198255720598,"connected_time":4883000000000,"state":"active","ping":48},{"user_id":203,"name":"Sledgehammer","steam_id":76561198066726621,"connected_time":1502000000000,"state":"active","ping":50},{"user_id":204,"name":"syl","steam_id":76561198049270541,"connected_time":1494000000000,"state":"active","ping":29},{"user_id":205,"name":"Giant Rat","steam_id":76561198110170714,"connected_time":1359000000000,"state":"active","ping":65},{"user_id":187,"name":"AptGetGnome","steam_id":76561198063849132,"connected_time":2821000000000,"state":"active","ping":46},{"user_id":176,"name":"ADUCK","steam_id":76561198249887912,"connected_time":3980000000000,"state":"active","ping":64},{"user_id":206,"name":"soupy","steam_id":76561198073734936,"connected_time":1148000000000,"state":"active","ping":90}]},{"server_id":396,"name":"Uncletopia | Sydney | 4 | All Maps","name_short":"syd-4","host":"syd-1.au.uncletopia.com","port":27045,"enabled":true,"region":"au","cc":"au","latitude":-33.865143,"longitude":151.2099,"reserved":0,"last_update":"0001-01-01T00:00:00Z","name_a2s":"Uncletopia | Sydney | 4 | All Maps","protocol":17,"map":"koth_highpass","folder":"tf","game":"Team Fortress","app_id":440,"player_count":0,"max_players":24,"Bots":0,"server_type":"Dedicated","server_os":"Linux","password":true,"vac":true,"version":"7757534","steam_id":85568392925397958,"keywords":["cp","nocrits","nodmgspread","uncletopia"],"game_id":440,"stv_port":27046,"stv_name":"Uncletopia | Sydney | 4 | All Maps | STV","players":null},{"server_id":58,"name":"Uncletopia | Sydney | 5 | Stopwatch Beta","name_short":"syd-5","host":"syd-1.au.uncletopia.com","port":27055,"enabled":true,"region":"au","cc":"au","latitude":-33.865143,"longitude":151.2099,"reserved":0,"last_update":"0001-01-01T00:00:00Z","name_a2s":"Uncletopia | Sydney | 5 | Stopwatch Beta","protocol":17,"map":"workshop/koth_product_final.ugc454272353","folder":"tf","game":"Team Fortress","app_id":440,"player_count":0,"max_players":24,"Bots":0,"server_type":"Dedicated","server_os":"Linux","password":true,"vac":true,"version":"7757534","steam_id":85568392925397959,"keywords":["cp","nocrits","nodmgspread","uncletopia"],"game_id":440,"stv_port":27056,"stv_name":"Uncletopia | Sydney | 5 | Stopwatch Beta | STV","players":null},{"server_id":59,"name":"Uncletopia | Sydney | 6 | Community","name_short":"syd-6","host":"syd-1.au.uncletopia.com","port":27065,"enabled":true,"region":"au","cc":"au","latitude":-33.865143,"longitude":151.2099,"reserved":0,"last_update":"0001-01-01T00:00:00Z","name_a2s":"Uncletopia | Sydney | 6 | Community","protocol":17,"map":"workshop/pl_corrode_rc2.ugc546577989","folder":"tf","game":"Team Fortress","app_id":440,"player_count":0,"max_players":24,"Bots":0,"server_type":"Dedicated","server_os":"Linux","password":true,"vac":true,"version":"7757534","steam_id":85568392925397960,"keywords":["nocrits","nodmgspread","payload","uncletopia"],"game_id":440,"stv_port":27066,"stv_name":"Uncletopia | Sydney | 6 | Community | STV","players":null},{"server_id":49,"name":"Uncletopia | Warsaw | 1 | All Maps","name_short":"waw-1","host":"waw-1.pl.uncletopia.com","port":27015,"enabled":true,"region":"eu","cc":"pl","latitude":52.2297,"longitude":21.017532,"reserved":0,"last_update":"0001-01-01T00:00:00Z","name_a2s":"","protocol":0,"map":"","folder":"","game":"","app_id":0,"player_count":0,"max_players":0,"Bots":0,"server_type":"","server_os":"","password":false,"vac":false,"version":"","steam_id":0,"keywords":null,"game_id":0,"stv_port":0,"stv_name":"","players":null},{"server_id":50,"name":"Uncletopia | Warsaw | 2 | All Maps","name_short":"waw-2","host":"waw-1.pl.uncletopia.com","port":27025,"enabled":true,"region":"eu","cc":"pl","latitude":52.2297,"longitude":21.017532,"reserved":0,"last_update":"0001-01-01T00:00:00Z","name_a2s":"Uncletopia | Warsaw | 2 | All Maps","protocol":17,"map":"koth_viaduct","folder":"tf","game":"Team Fortress","app_id":440,"player_count":0,"max_players":24,"Bots":0,"server_type":"Dedicated","server_os":"Linux","password":true,"vac":true,"version":"7757534","steam_id":85568392925397851,"keywords":["cp","nocrits","nodmgspread","uncletopia"],"game_id":440,"stv_port":27026,"stv_name":"Uncletopia | Warsaw | 2 | All Maps | STV","players":null},{"server_id":51,"name":"Uncletopia | Warsaw | 3 | All Maps","name_short":"waw-3","host":"waw-1.pl.uncletopia.com","port":27035,"enabled":true,"region":"eu","cc":"pl","latitude":52.2297,"longitude":21.017532,"reserved":0,"last_update":"0001-01-01T00:00:00Z","name_a2s":"Uncletopia | Warsaw | 3 | All Maps","protocol":17,"map":"koth_lakeside_final","folder":"tf","game":"Team Fortress","app_id":440,"player_count":0,"max_players":24,"Bots":0,"server_type":"Dedicated","server_os":"Linux","password":true,"vac":true,"version":"7757534","steam_id":85568392925397852,"keywords":["cp","nocrits","nodmgspread","uncletopia"],"game_id":440,"stv_port":27036,"stv_name":"Uncletopia | Warsaw | 3 | All Maps | STV","players":null},{"server_id":52,"name":"Uncletopia | Warsaw | 4 | All Maps","name_short":"waw-4","host":"waw-1.pl.uncletopia.com","port":27045,"enabled":true,"region":"eu","cc":"pl","latitude":52.2297,"longitude":21.017532,"reserved":0,"last_update":"0001-01-01T00:00:00Z","name_a2s":"Uncletopia | Warsaw | 4 | All Maps","protocol":17,"map":"koth_lakeside_final","folder":"tf","game":"Team Fortress","app_id":440,"player_count":0,"max_players":24,"Bots":0,"server_type":"Dedicated","server_os":"Linux","password":true,"vac":true,"version":"7757534","steam_id":85568392925397853,"keywords":["cp","nocrits","nodmgspread","uncletopia"],"game_id":440,"stv_port":27046,"stv_name":"Uncletopia | Warsaw | 4 | All Maps | STV","players":null},{"server_id":53,"name":"Uncletopia | Warsaw | 5 | Stopwatch Beta","name_short":"waw-5","host":"waw-1.pl.uncletopia.com","port":27055,"enabled":true,"region":"eu","cc":"pl","latitude":52.2297,"longitude":21.017532,"reserved":0,"last_update":"0001-01-01T00:00:00Z","name_a2s":"Uncletopia | Warsaw | 5 | Stopwatch Beta","protocol":17,"map":"pl_borneo","folder":"tf","game":"Team Fortress","app_id":440,"player_count":0,"max_players":24,"Bots":0,"server_type":"Dedicated","server_os":"Linux","password":true,"vac":true,"version":"7757534","steam_id":85568392925397854,"keywords":["nocrits","nodmgspread","payload","uncletopia"],"game_id":440,"stv_port":27056,"stv_name":"Uncletopia | Warsaw | 5 | Stopwatch Beta | STV","players":null},{"server_id":54,"name":"Uncletopia | Warsaw | 6 | Community","name_short":"waw-6","host":"waw-1.pl.uncletopia.com","port":27065,"enabled":true,"region":"eu","cc":"pl","latitude":52.2297,"longitude":21.017532,"reserved":0,"last_update":"0001-01-01T00:00:00Z","name_a2s":"Uncletopia | Warsaw | 6 | Community","protocol":17,"map":"koth_lakeside_final","folder":"tf","game":"Team Fortress","app_id":440,"player_count":0,"max_players":24,"Bots":0,"server_type":"Dedicated","server_os":"Linux","password":true,"vac":true,"version":"7757534","steam_id":85568392925397856,"keywords":["cp","nocrits","nodmgspread","uncletopia"],"game_id":440,"stv_port":27066,"stv_name":"Uncletopia | Warsaw | 6 | Community | STV","players":null}]}