{"status":true,"message":"","result":[{"server_id":9,"name":"Uncletopia | Atlanta | 1 | All Maps","name_short":"atl-1","host":"atl-1.us.uncletopia.com","port":27015,"enabled":true,"region":"us-east","cc":"us","latitude":33.753746,"longitude":-84.38633,"reserved":0,"last_update":"0001-01-01T00:00:00Z","name_a2s":"Uncletopia | Atlanta | 1 | All Maps","protocol":17,"map":"cp_mountainlab","folder":"tf","game":"Team Fortress","app_id":440,"player_count":0,"max_players":24,"Bots":0,"server_type":"Dedicated","server_os":"Linux","password":true,"vac":true,"version":"7757534","steam_id":85568392924469982,"keywords":["cp","nocrits","nodmgspread","uncletopia"],"game_id":440,"stv_port":27016,"stv_name":"Uncletopia | Atlanta | 1 | All Maps | STV","players":null},{"server_id":400,"name":"Uncletopia | Atlanta | 3 | Community","name_short":"atl-3","host":"atl-1.us.uncletopia.com","port":27035,"enabled":true,"region":"us-east","cc":"us","latitude":33.753746,"longitude":-84.38633,"reserved":0,"last_update":"0001-01-01T00:00:00Z","name_a2s":"Uncletopia | Atlanta | 3 | Community","protocol":17,"map":"workshop/pl_boundary_final1.ugc456799153","folder":"tf","game":"Team Fortress","app_id":440,"player_count":0,"max_players":24,"Bots":0,"server_type":"Dedicated","server_os":"Linux","password":true,"vac":true,"version":"7757534","steam_id":85568392924515187,"keywords":["nocrits","nodmgspread","payload","uncletopia"],"game_id":440,"stv_port":27036,"stv_name":"Uncletopia | Atlanta | 3 | Community | STV","players":null},{"server_id":401,"name":"Uncletopia | Atlanta | 4 | No Payload","name_short":"atl-4","host":"atl-1.us.uncletopia.com","port":27045,"enabled":true,"region":"us-east","cc":"us","latitude":33.753746,"longitude":-84.38633,"reserved":0,"last_update":"0001-01-01T00:00:00Z","name_a2s":"","protocol":0,"map":"","folder":"","game":"","app_id":0,"player_count":0,"max_players":0,"Bots":0,"server_type":"","server_os":"","password":false,"vac":false,"version":"","steam_id":0,"keywords":null,"game_id":0,"stv_port":0,"stv_name":"","players":null},{"server_id":2,"name":"Uncletopia | Chicago | 1 | All Maps","name_short":"chi-1","host":"chi-1.us.uncletopia.com","port":27015,"enabled":true,"region":"us-central","cc":"us","latitude":41.881832,"longitude":-87.62318,"reserved":0,"last_update":"0001-01-01T00:00:00Z","name_a2s":"Uncletopia | Chicago | 1 | All Maps","protocol":17,"map":"pl_borneo","folder":"tf","game":"Team Fortress","app_id":440,"player_count":24,"max_players":24,"Bots":0,"server_type":"Dedicated","server_os":"Linux","password":true,"vac":true,"version":"7757534","steam_id":85568392924469984,"keywords":["nocrits","nodmgspread","payload","uncletopia"],"game_id":440,"stv_port":27016,"stv_name":"Uncletopia | Chicago | 1 | All Maps | STV","players":[{"user_id":118,"name":"tsaide","steam_id":76561198384120999,"connected_time":209000000000,"state":"active","ping":72},{"user_id":111,"name":"The Notorious RBG","steam_id":76561198014275148,"connected_time":1008000000000,"state":"active","ping":77},{"user_id":122,"name":"crabapples","steam_id":76561198075818655,"connected_time":14000000000,"state":"active","ping":49},{"user_id":97,"name":"Leviathan","steam_id":76561197997528907,"connected_time":2677000000000,"state":"active","ping":59},{"user_id":104,"name":"momlovie","steam_id":76561198843933742,"connected_time":1674000000000,"state":"active","ping":119},{"user_id":29,"name":"RedSock","steam_id":76561198161243404,"connected_time":6447000000000,"state":"active","ping":44},{"user_id":83,"name":"Motreir","steam_id":76561198151717946,"connected_time":3584000000000,"state":"active","ping":80},{"user_id":116,"name":";-;","steam_id":76561198044443985,"connected_time":689000000000,"state":"active","ping":112},{"user_id":100,"name":"Big Phony","steam_id":76561199092395311,"connected_time":1704000000000,"state":"active","ping":60},{"user_id":109,"name":"nastypass","steam_id":76561198002601054,"connected_time":1160000000000,"state":"active","ping":62},{"user_id":112,"name":"ProtoFeveren","steam_id":76561198096196467,"connected_time":959000000000,"state":"active","ping":63},{"user_id":107,"name":"cow farmer","steam_id":76561198249206656,"connected_time":1298000000000,"state":"active","ping":58},{"user_id":89,"name":"Lotad","steam_id":76561199049331265,"connected_time":3344000000000,"state":"active","ping":75},{"user_id":99,"name":"TryX","steam_id":76561199356781475,"connected_time":2472000000000,"state":"active","ping":152},{"user_id":108,"name":"TheOtherBrush","steam_id":76561199048222977,"connected_time":1236000000000,"state":"active","ping":107},{"user_id":71,"name":"Zwahe✟","steam_id":76561198119750206,"connected_time":3986000000000,"state":"active","ping":75},{"user_id":117,"name":"☼  YOUVE BEEN HOODWINKED BABY","steam_id":76561198074180953,"connected_time":271000000000,"state":"active","ping":74},{"user_id":94,"name":"I DECIDE","steam_id":76561198011675372,"connected_time":2873000000000,"state":"active","ping":100},{"user_id":80,"name":"Ris","steam_id":76561198073840980,"connected_time":3611000000000,"state":"active","ping":65},{"user_id":120,"name":"Boo","steam_id":76561199052395729,"connected_time":173000000000,"state":"active","ping":60},{"user_id":121,"name":"Pixler544","steam_id":76561198240575132,"connected_time":169000000000,"state":"active","ping":80},{"user_id":50,"name":"Brown_Dream","steam_id":76561198975766145,"connected_time":5749000000000,"state":"active","ping":83},{"user_id":95,"name":"bwehhh","steam_id":76561198354473513,"connected_time":2873000000000,"state":"active","ping":47},{"user_id":102,"name":"mio","steam_id":76561198239286750,"connected_time":1702000000000,"state":"active","ping":70}]},{"server_id":106,"name":"Uncletopia | Chicago | 2 | All Maps","name_short":"chi-2","host":"chi-1.us.uncletopia.com","port":27025,"enabled":true,"region":"us-central","cc":"us","latitude":41.881832,"longitude":-87.62318,"reserved":0,"last_update":"0001-01-01T00:00:00Z","name_a2s":"Uncletopia | Chicago | 2 | All Maps","protocol":17,"map":"pl_snowycoast","folder":"tf","game":"Team Fortress","app_id":440,"player_count":24,"max_players":24,"Bots":0,"server_type":"Dedicated","server_os":"Linux","password":true,"vac":true,"version":"7757534","steam_id":85568392924469985,"keywords":["nocrits","nodmgspread","payload","uncletopia"],"game_id":440,"stv_port":27026,"stv_name":"Uncletopia | Chicago | 2 | All Maps | STV","players":[{"user_id":65,"name":"BNTF","steam_id":76561198062740087,"connected_time":2971000000000,"state":"active","ping":75},{"user_id":67,"name":"flat soda","steam_id":76561198074247207,"connected_time":2409000000000,"state":"active","ping":81},{"user_id":92,"name":"dishwasher","steam_id":76561199189255498,"connected_time":384000000000,"state":"active","ping":109},{"user_id":81,"name":"Mission Critical Man","steam_id":76561198050395918,"connected_time":1209000000000,"state":"active","ping":67},{"user_id":68,"name":"Draconic Ballad","steam_id":76561198027191515,"connected_time":2332000000000,"state":"active","ping":45},{"user_id":80,"name":"Rhutebeer","steam_id":76561198018302761,"connected_time":1212000000000,"state":"active","ping":99},{"user_id":97,"name":"beastierbeast","steam_id":76561199030645530,"connected_time":179000000000,"state":"active","ping":56},{"user_id":83,"name":"j o n","steam_id":76561199229511741,"connected_time":1178000000000,"state":"active","ping":143},{"user_id":70,"name":"bobletoob","steam_id":76561199184464900,"connected_time":2124000000000,"state":"active","ping":101},{"user_id":79,"name":"spherewithahat","steam_id":76561199122192660,"connected_time":1221000000000,"state":"active","ping":72},{"user_id":95,"name":"lui","steam_id":76561198332887622,"connected_time":301000000000,"state":"active","ping":67},{"user_id":93,"name":"vid_","steam_id":76561198065159053,"connected_time":377000000000,"state":"active","ping":69},{"user_id":96,"name":"eloressa","steam_id":76561198120330867,"connected_time":229000000000,"state":"active","ping":57},{"user_id":73,"name":"Shichinitzi","steam_id":76561198003833732,"connected_time":1670000000000,"state":"active","ping":54},{"user_id":84,"name":"Tyler\u0026Fingers","steam_id":76561198085154485,"connected_time":1168000000000,"state":"active","ping":87},{"user_id":49,"name":"arrow","steam_id":76561198328109873,"connected_time":3641000000000,"state":"active","ping":68},{"user_id":85,"name":"ButterScotch","steam_id":76561199389314894,"connected_time":1101000000000,"state":"active","ping":66},{"user_id":87,"name":"DrCinnnamon","steam_id":76561199123142319,"connected_time":921000000000,"state":"active","ping":65},{"user_id":35,"name":"viper","steam_id":76561198839942937,"connected_time":4309000000000,"state":"active","ping":61},{"user_id":88,"name":"relay","steam_id":76561198314662811,"connected_time":732000000000,"state":"active","ping":101},{"user_id":98,"name":"-=Bits=-Dinkleberg","steam_id":76561198080367616,"connected_time":95000000000,"state":"active","ping":73},{"user_id":94,"name":"poy","steam_id":76561198114063534,"connected_time":358000000000,"state":"active","ping":140},{"user_id":74,"name":"conscripted monk","steam_id":76561199029246232,"connected_time":1644000000000,"state":"active","ping":70},{"user_id":44,"name":"TF2 Scout","steam_id":76561199211023244,"connected_time":4112000000000,"state":"active","ping":185}]},{"server_id":402,"name":"Uncletopia | Chicago | 3 | All Maps","name_short":"chi-3","host":"chi-1.us.uncletopia.com","port":27035,"enabled":true,"region":"us-central","cc":"us","latitude":41.881832,"longitude":-87.62318,"reserved":0,"last_update":"0001-01-01T00:00:00Z","name_a2s":"Uncletopia | Chicago | 3 | All Maps","protocol":17,"map":"koth_cascade","folder":"tf","game":"Team Fortress","app_id":440,"player_count":24,"max_players":24,"Bots":0,"server_type":"Dedicated","server_os":"Linux","password":true,"vac":true,"version":"7757534","steam_id":85568392924515191,"keywords":["cp","nocrits","nodmgspread","uncletopia"],"game_id":440,"stv_port":27036,"stv_name":"Uncletopia | Chicago | 3 | All Maps | STV","players":[{"user_id":42,"name":"SCARY MONSTERS","steam_id":76561198042034176,"connected_time":348000000000,"state":"active","ping":60},{"user_id":35,"name":"Still-Icarus","steam_id":76561198391481385,"connected_time":1118000000000,"state":"active","ping":82},{"user_id":6,"name":"Reedobad","steam_id":76561198259576490,"connected_time":1765000000000,"state":"active","ping":53},{"user_id":33,"name":"Apple Crisp","steam_id":76561198129518886,"connected_time":1198000000000,"state":"active","ping":83},{"user_id":8,"name":"gritty 2024 (PUB brother)","steam_id":76561198165567310,"connected_time":1701000000000,"state":"active","ping":57},{"user_id":36,"name":"Baconiumo","steam_id":76561198966160534,"connected_time":1110000000000,"state":"active","ping":71},{"user_id":10,"name":"Huey","steam_id":76561198972816386,"connected_time":1682000000000,"state":"active","ping":76},{"user_id":39,"name":"OrangeShoes","steam_id":76561197971249940,"connected_time":775000000000,"state":"active","ping":73},{"user_id":19,"name":"Chris","steam_id":76561197970315094,"connected_time":1382000000000,"state":"active","ping":60},{"user_id":16,"name":"Macro","steam_id":76561199442846226,"connected_time":1413000000000,"state":"active","ping":87},{"user_id":43,"name":"CuSO4","steam_id":76561199278147589,"connected_time":335000000000,"state":"active","ping":71},{"user_id":20,"name":"♥ thedittoguy ♥","steam_id":76561199013129784,"connected_time":1371000000000,"state":"active","ping":78},{"user_id":21,"name":"Soundproof","steam_id":76561198133392504,"connected_time":1368000000000,"state":"active","ping":64},{"user_id":22,"name":"i should go","steam_id":76561198194614289,"connected_time":1340000000000,"state":"active","ping":56},{"user_id":40,"name":"corporation","steam_id":76561198281612642,"connected_time":743000000000,"state":"active","ping":95},{"user_id":24,"name":"wolsne","steam_id":76561197960315263,"connected_time":1294000000000,"state":"active","ping":75},{"user_id":38,"name":"Bakucon","steam_id":76561198153667638,"connected_time":834000000000,"state":"active","ping":58},{"user_id":26,"name":"still bad at video games","steam_id":76561198328675913,"connected_time":1265000000000,"state":"active","ping":115},{"user_id":27,"name":"fyg;","steam_id":76561198027610614,"connected_time":1263000000000,"state":"active","ping":54},{"user_id":28,"name":"Father","steam_id":76561197961561251,"connected_time":1260000000000,"state":"active","ping":77},{"user_id":29,"name":"nav","steam_id":76561198872608266,"connected_time":1247000000000,"state":"active","ping":87},{"user_id":30,"name":"yitz","steam_id":76561198375575841,"connected_time":1242000000000,"state":"active","ping":57},{"user_id":31,"name":"SCATTER","steam_id":76561198405168492,"connected_time":1234000000000,"state":"active","ping":88},{"user_id":41,"name":"Slazaa","steam_id":76561197993252446,"connected_time":681000000000,"state":"active","ping":146}]},{"server_id":403,"name":"Uncletopia | Chicago | 4 | All Maps","name_short":"chi-4","host":"chi-1.us.uncletopia.com","port":27045,"enabled":true,"region":"us-central","cc":"us","latitude":41.881832,"longitude":-87.62318,"reserved":0,"last_update":"0001-01-01T00:00:00Z","name_a2s":"Uncletopia | Chicago | 4 | All Maps","protocol":17,"map":"pl_badwater","folder":"tf","game":"Team Fortress","app_id":440,"player_count":24,"max_players":24,"Bots":0,"server_type":"Dedicated","server_os":"Linux","password":true,"vac":true,"version":"7757534","steam_id":85568392924515193,"keywords":["nocrits","nodmgspread","payload","uncletopia"],"game_id":440,"stv_port":27046,"stv_name":"Uncletopia | Chicago | 4 | All Maps | STV","players":[{"user_id":125,"name":"Marauding Morty","steam_id":76561198013159528,"connected_time":1007000000000,"state":"active","ping":55},{"user_id":118,"name":"1,000,000 merged Chihuahuas","steam_id":76561198130772096,"connected_time":2166000000000,"state":"active","ping":54},{"user_id":85,"name":"Chafn","steam_id":76561197969386702,"connected_time":3557000000000,"state":"active","ping":107},{"user_id":127,"name":"DeeRedPanda","steam_id":76561199101853184,"connected_time":595000000000,"state":"active","ping":169},{"user_id":130,"name":"King Col","steam_id":76561198033384990,"connected_time":262000000000,"state":"active","ping":60},{"user_id":128,"name":"Cerabond","steam_id":76561199230915333,"connected_time":578000000000,"state":"active","ping":83},{"user_id":94,"name":"im using tilt controls!","steam_id":76561198295690725,"connected_time":2920000000000,"state":"active","ping":69},{"user_id":129,"name":"epitome","steam_id":76561198834412436,"connected_time":408000000000,"state":"active","ping":80},{"user_id":123,"name":"hunter gatherer gaming","steam_id":76561198191587983,"connected_time":1020000000000,"state":"active","ping":75},{"user_id":97,"name":"JelloMotion","steam_id":76561198045892038,"connected_time":2858000000000,"state":"active","ping":60},{"user_id":98,"name":"vacuum cleaner","steam_id":76561198073474255,"connected_time":2849000000000,"state":"active","ping":75},{"user_id":99,"name":"AutisticMOFO","steam_id":76561198428723559,"connected_time":2842000000000,"state":"active","ping":70},{"user_id":100,"name":"Focus On God","steam_id":76561198047136927,"connected_time":2836000000000,"state":"active","ping":66},{"user_id":121,"name":"judesro","steam_id":76561198352244888,"connected_time":1056000000000,"state":"active","ping":68},{"user_id":119,"name":"Carson","steam_id":76561198076771071,"connected_time":2016000000000,"state":"active","ping":47},{"user_id":104,"name":"Censing Auto, The Challenger","steam_id":76561198060926681,"connected_time":2792000000000,"state":"active","ping":57},{"user_id":114,"name":"theholyhealer99","steam_id":76561199045905872,"connected_time":2521000000000,"state":"active","ping":51},{"user_id":106,"name":"CulperRing","steam_id":76561198556615605,"connected_time":2789000000000,"state":"active","ping":81},{"user_id":107,"name":"dinguskun","steam_id":76561199264132508,"connected_time":2764000000000,"state":"active","ping":128},{"user_id":122,"name":"Slashes","steam_id":76561197968573499,"connected_time":1044000000000,"state":"active","ping":56},{"user_id":111,"name":"Quakedad","steam_id":76561198055811307,"connected_time":2715000000000,"state":"active","ping":131},{"user_id":120,"name":"AlexV_0","steam_id":76561199200780913,"connected_time":1220000000000,"state":"active","ping":129},{"user_id":113,"name":"shinon","steam_id":76561198373626848,"connected_time":2692000000000,"state":"active","ping":77},{"user_id":124,"name":"Chrisjongun","steam_id":76561198331685904,"connected_time":1019000000000,"state":"active","ping":93}]},{"server_id":36,"name":"Uncletopia | Chicago | 5 | All Maps","name_short":"chi-5","host":"chi-2.us.uncletopia.com","port":27015,"enabled":true,"region":"us-central","cc":"us","latitude":41.881832,"longitude":-87.62318,"reserved":0,"last_update":"0001-01-01T00:00:00Z","name_a2s":"Uncletopia | Chicago | 5 | All Maps","protocol":17,"map":"koth_lakeside_final","folder":"tf","game":"Team Fortress","app_id":440,"player_count":0,"max_players":24,"Bots":0,"server_type":"Dedicated","server_os":"Linux","password":true,"vac":true,"version":"7757534","steam_id":85568392924866362,"keywords":["cp","nocrits","nodmgspread","uncletopia"],"game_id":440,"stv_port":27016,"stv_name":"Uncletopia | Chicago | 5 | All Maps | STV","players":null},{"server_id":37,"name":"Uncletopia | Chicago | 6 | All Maps","name_short":"chi-6","host":"chi-2.us.uncletopia.com","port":27025,"enabled":true,"region":"us-central","cc":"us","latitude":41.881832,"longitude":-87.62318,"reserved":0,"last_update":"0001-01-01T00:00:00Z","name_a2s":"Uncletopia | Chicago | 6 | All Maps","protocol":17,"map":"cp_dustbowl","folder":"tf","game":"Team Fortress","app_id":440,"player_count":0,"max_players":24,"Bots":0,"server_type":"Dedicated","server_os":"Linux","password":true,"vac":true,"version":"7757534","steam_id":85568392924866363,"keywords":["cp","nocrits","nodmgspread","uncletopia"],"game_id":440,"stv_port":27026,"stv_name":"Uncletopia | Chicago | 6 | All Maps | STV","players":null},{"server_id":38,"name":"Uncletopia | Chicago | 7 | Stopwatch Beta","name_short":"chi-7","host":"chi-2.us.uncletopia.com","port":27035,"enabled":true,"region":"us-central","cc":"us","latitude":41.881832,"longitude":-87.62318,"reserved":0,"last_update":"0001-01-01T00:00:00Z","name_a2s":"Uncletopia | Chicago | 7 | Stopwatch Beta","protocol":17,"map":"koth_viaduct","folder":"tf","game":"Team Fortress","app_id":440,"player_count":4,"max_players":24,"Bots":0,"server_type":"Dedicated","server_os":"Linux","password":true,"vac":true,"version":"7757534","steam_id":85568392924866364,"keywords":["cp","nocrits","nodmgspread","uncletopia"],"game_id":440,"stv_port":27036,"stv_name":"Uncletopia | Chicago | 7 | Stopwatch Beta | STV","players":[{"user_id":4,"name":"SpartanOne22","steam_id":76561199006361788,"connected_time":1064000000000,"state":"active","ping":63},{"user_id":5,"name":"Jestiere","steam_id":76561199334300357,"connected_time":1048000000000,"state":"active","ping":73},{"user_id":7,"name":"Purple Guy","steam_id":76561198967165948,"connected_time":861000000000,"state":"active","ping":63},{"user_id":8,"name":"Monsterjessy","steam_id":76561198035630985,"connected_time":258000000000,"state":"active","ping":50}]},{"server_id":39,"name":"Uncletopia | Chicago | 8 | Community","name_short":"chi-8","host":"chi-2.us.uncletopia.com","port":27045,"enabled":true,"region":"us-central","cc":"us","latitude":41.881832,"longitude":-87.62318,"reserved":0,"last_update":"0001-01-01T00:00:00Z","name_a2s":"Uncletopia | Chicago | 8 | Community","protocol":17,"map":"koth_lakeside_final","folder":"tf","game":"Team Fortress","app_id":440,"player_count":0,"max_players":24,"Bots":0,"server_type":"Dedicated","server_os":"Linux","password":true,"vac":true,"version":"7757534","steam_id":85568392924866365,"keywords":["cp","nocrits","nodmgspread","uncletopia"],"game_id":440,"stv_port":27046,"stv_name":"Uncletopia | Chicago | 8 | Community | STV","players":null},{"server_id":8,"name":"Uncletopia | Dallas | 1 | All Maps","name_short":"dal-1","host":"dal-1.us.uncletopia.com","port":27015,"enabled":true,"region":"us-central","cc":"us","latitude":32.779167,"longitude":-96.80889,"reserved":0,"last_update":"0001-01-01T00:00:00Z","name_a2s":"Uncletopia | Dallas | 1 | All Maps","protocol":17,"map":"cp_process_final","folder":"tf","game":"Team Fortress","app_id":440,"player_count":0,"max_players":24,"Bots":0,"server_type":"Dedicated","server_os":"Linux","password":true,"vac":true,"version":"7757534","steam_id":85568392924469986,"keywords":["cp","nocrits","nodmgspread","uncletopia"],"game_id":440,"stv_port":27016,"stv_name":"Uncletopia | Dallas | 1 | All Maps | STV","players":null},{"server_id":108,"name":"Uncletopia | Dallas | 2 | All Maps","name_short":"dal-2","host":"dal-1.us.uncletopia.com","port":27025,"enabled":true,"region":"us-central","cc":"us","latitude":32.779167,"longitude":-96.80889,"reserved":0,"last_update":"0001-01-01T00:00:00Z","name_a2s":"Uncletopia | Dallas | 2 | All Maps","protocol":17,"map":"cp_altitude","folder":"tf","game":"Team Fortress","app_id":440,"player_count":0,"max_players":24,"Bots":0,"server_type":"Dedicated","server_os":"Linux","password":true,"vac":true,"version":"7757534","steam_id":85568392924469988,"keywords":["cp","nocrits","nodmgspread","uncletopia"],"game_id":440,"stv_port":27026,"stv_name":"Uncletopia | Dallas | 2 | All Maps | STV","players":null},{"server_id":5,"name":"Uncletopia | Frankfurt | 1 | All Maps","name_short":"frk-1","host":"frk-1.de.uncletopia.com","port":27015,"enabled":true,"region":"eu","cc":"de","latitude":50.110924,"longitude":8.682127,"reserved":0,"last_update":"0001-01-01T00:00:00Z","name_a2s":"Uncletopia | Frankfurt | 1 | All Maps","protocol":17,"map":"pl_barnblitz","folder":"tf","game":"Team Fortress","app_id":440,"player_count":24,"max_players":24,"Bots":0,"server_type":"Dedicated","server_os":"Linux","password":true,"vac":true,"version":"7757534","steam_id":85568392924469989,"keywords":["nocrits","nodmgspread","payload","uncletopia"],"game_id":440,"stv_port":27016,"stv_name":"Uncletopia | Frankfurt | 1 | All Maps | STV","players":[{"user_id":338,"name":"magic kid","steam_id":76561198748720555,"connected_time":565000000000,"state":"active","ping":67},{"user_id":322,"name":"Shruk","steam_id":76561198126398022,"connected_time":3397000000000,"state":"active","ping":81},{"user_id":331,"name":"ghost","steam_id":76561198189940229,"connected_time":1960000000000,"state":"active","ping":59},{"user_id":302,"name":"pablo","steam_id":76561198002913482,"connected_time":5266000000000,"state":"active","ping":114},{"user_id":330,"name":"Potat Master |Potato Industries","steam_id":76561199112380553,"connected_time":1991000000000,"state":"active","ping":78},{"user_id":343,"name":"LuCroGi","steam_id":76561198057283891,"connected_time":188000000000,"state":"active","ping":57},{"user_id":326,"name":"Wario","steam_id":76561198356089255,"connected_time":2868000000000,"state":"active","ping":67},{"user_id":325,"name":"gta_sa","steam_id":76561199433578516,"connected_time":3170000000000,"state":"active","ping":84},{"user_id":291,"name":"Lexios","steam_id":76561198079780864,"connected_time":5699000000000,"state":"active","ping":58},{"user_id":341,"name":"Heisenberg","steam_id":76561198842650212,"connected_time":230000000000,"state":"active","ping":71},{"user_id":323,"name":"lyudmilakh","steam_id":76561198362779878,"connected_time":3369000000000,"state":"active","ping":84},{"user_id":336,"name":"sAmasam","steam_id":76561198114953928,"connected_time":915000000000,"state":"active","ping":62},{"user_id":300,"name":"cazador","steam_id":76561198123096922,"connected_time":5444000000000,"state":"active","ping":98},{"user_id":203,"name":"Kyon","steam_id":76561198024098353,"connected_time":11736000000000,"state":"active","ping":150},{"user_id":339,"name":"lemao","steam_id":76561198058366676,"connected_time":420000000000,"state":"active","ping":86},{"user_id":344,"name":"EEEEEH","steam_id":76561198126717413,"connected_time":74000000000,"state":"active","ping":83},{"user_id":312,"name":"Marcos","steam_id":76561198798925721,"connected_time":4632000000000,"state":"active","ping":74},{"user_id":332,"name":"dAg","steam_id":76561198047819527,"connected_time":1926000000000,"state":"active","ping":111},{"user_id":299,"name":"After8","steam_id":76561198090750865,"connected_time":5529000000000,"state":"active","ping":61},{"user_id":333,"name":"hourglass","steam_id":76561198166613799,"connected_time":1401000000000,"state":"active","ping":90},{"user_id":335,"name":"yush","steam_id":76561198121688934,"connected_time":1140000000000,"state":"active","ping":78},{"user_id":318,"name":"cracker","steam_id":76561198062107879,"connected_time":3515000000000,"state":"active","ping":79},{"user_id":324,"name":"dob:cob","steam_id":76561198253323044,"connected_time":3297000000000,"state":"active","ping":73},{"user_id":329,"name":"xelez","steam_id":76561198052199492,"connected_time":2039000000000,"state":"active","ping":144}]},{"server_id":110,"name":"Uncletopia | Frankfurt | 2 | All Maps","name_short":"frk-2","host":"frk-1.de.uncletopia.com","port":27025,"enabled":true,"region":"eu","cc":"de","latitude":50.110924,"longitude":8.682127,"reserved":0,"last_update":"0001-01-01T00:00:00Z","name_a2s":"Uncletopia | Frankfurt | 2 | All Maps","protocol":17,"map":"pl_swiftwater_final1","folder":"tf","game":"Team Fortress","app_id":440,"player_count":24,"max_players":24,"Bots":0,"server_type":"Dedicated","server_os":"Linux","password":true,"vac":true,"version":"7757534","steam_id":85568392924469990,"keywords":["nocrits","nodmgspread","payload","uncletopia"],"game_id":440,"stv_port":27026,"stv_name":"Uncletopia | Frankfurt | 2 | All Maps | STV","players":[{"user_id":767,"name":"overpriced pitogyro","steam_id":76561199103991437,"connected_time":5058000000000,"state":"active","ping":96},{"user_id":776,"name":"dominus.","steam_id":76561199065917088,"connected_time":4035000000000,"state":"active","ping":65},{"user_id":822,"name":"pat-rick","steam_id":76561198382472309,"connected_time":874000000000,"state":"active","ping":106},{"user_id":824,"name":"lezginka dubstep rmx","steam_id":76561198320336543,"connected_time":844000000000,"state":"active","ping":93},{"user_id":812,"name":"nachtraaf","steam_id":76561197960473205,"connected_time":1877000000000,"state":"active","ping":53},{"user_id":830,"name":"mt","steam_id":76561197961319303,"connected_time":524000000000,"state":"active","ping":56},{"user_id":823,"name":"Luna","steam_id":76561199140738350,"connected_time":862000000000,"state":"active","ping":59},{"user_id":795,"name":"Langers","steam_id":76561198046966693,"connected_time":2848000000000,"state":"active","ping":57},{"user_id":819,"name":"truly rare balls inspector","steam_id":76561198315772174,"connected_time":1170000000000,"state":"active","ping":67},{"user_id":807,"name":"Flostro","steam_id":76561198259793697,"connected_time":2477000000000,"state":"active","ping":62},{"user_id":816,"name":"jmp","steam_id":76561198168283286,"connected_time":1194000000000,"state":"active","ping":75},{"user_id":783,"name":"dochris.2","steam_id":76561198026478625,"connected_time":3873000000000,"state":"active","ping":46},{"user_id":820,"name":"Goom's guard","steam_id":76561198126634202,"connected_time":1139000000000,"state":"active","ping":73},{"user_id":794,"name":"...","steam_id":76561198969234594,"connected_time":2927000000000,"state":"active","ping":66},{"user_id":832,"name":"Руинер","steam_id":76561198166980992,"connected_time":301000000000,"state":"active","ping":103},{"user_id":825,"name":"AwZooom","steam_id":76561198154061149,"connected_time":839000000000,"state":"active","ping":45},{"user_id":784,"name":"Miatthew","steam_id":76561198034102895,"connected_time":3515000000000,"state":"active","ping":54},{"user_id":829,"name":"Piek","steam_id":76561199212421275,"connected_time":560000000000,"state":"active","ping":56},{"user_id":833,"name":"wouris","steam_id":76561198876188003,"connected_time":196000000000,"state":"active","ping":52},{"user_id":473,"name":"sareena","steam_id":76561198810194062,"connected_time":5560000000000,"state":"active","ping":76},{"user_id":813,"name":"yeh","steam_id":76561198061197114,"connected_time":1716000000000,"state":"active","ping":65},{"user_id":821,"name":"Egor Pomidor","steam_id":76561199175688390,"connected_time":1133000000000,"state":"active","ping":75},{"user_id":831,"name":"Stinkyeseses","steam_id":76561198402218127,"connected_time":490000000000,"state":"active","ping":93},{"user_id":828,"name":"Ryfili","steam_id":76561198167001433,"connected_time":697000000000,"state":"active","ping":98}]},{"server_id":308,"name":"Uncletopia | Frankfurt | 3 | All Maps","name_short":"frk-3","host":"frk-1.de.uncletopia.com","port":27035,"enabled":true,"region":"eu","cc":"de","latitude":50.110924,"longitude":8.682127,"reserved":0,"last_update":"0001-01-01T00:00:00Z","name_a2s":"Uncletopia | Frankfurt | 3 | All Maps","protocol":17,"map":"koth_harvest_final","folder":"tf","game":"Team Fortress","app_id":440,"player_count":24,"max_players":24,"Bots":0,"server_type":"Dedicated","server_os":"Linux","password":true,"vac":true,"version":"7757534","steam_id":85568392924504274,"keywords":["cp","nocrits","nodmgspread","uncletopia"],"game_id":440,"stv_port":27036,"stv_name":"Uncletopia | Frankfurt | 3 | All Maps | STV","players":[{"user_id":154,"name":"biggest dark souls 2 hater","steam_id":76561198055389492,"connected_time":1556000000000,"state":"active","ping":54},{"user_id":161,"name":"result","steam_id":76561198269200388,"connected_time":1179000000000,"state":"active","ping":72},{"user_id":110,"name":"night.s","steam_id":76561198326287823,"connected_time":4963000000000,"state":"active","ping":74},{"user_id":152,"name":"cloud","steam_id":76561198179768931,"connected_time":1585000000000,"state":"active","ping":47},{"user_id":147,"name":"No,Why?","steam_id":76561198888755969,"connected_time":1724000000000,"state":"active","ping":76},{"user_id":61,"name":"Mugelzz","steam_id":76561198048528709,"connected_time":9373000000000,"state":"active","ping":101},{"user_id":133,"name":"spearfishNL","steam_id":76561199077022985,"connected_time":3469000000000,"state":"active","ping":60},{"user_id":134,"name":"Marco","steam_id":76561198327333965,"connected_time":3391000000000,"state":"active","ping":67},{"user_id":166,"name":"Fish 'n' Chips","steam_id":76561198033476886,"connected_time":448000000000,"state":"active","ping":45},{"user_id":168,"name":"FANTANO MELON HEAD","steam_id":76561198146194820,"connected_time":377000000000,"state":"active","ping":53},{"user_id":167,"name":"Ted Kaczynski","steam_id":76561198064795519,"connected_time":400000000000,"state":"active","ping":73},{"user_id":79,"name":"Silent Person","steam_id":76561198107763537,"connected_time":8499000000000,"state":"active","ping":71},{"user_id":158,"name":"guys? guys?","steam_id":76561198157749464,"connected_time":1334000000000,"state":"active","ping":88},{"user_id":162,"name":"Bottom of the barrel terrorist","steam_id":76561198929386604,"connected_time":1117000000000,"state":"active","ping":94},{"user_id":164,"name":"gjhkgfkjfh","steam_id":76561198031181349,"connected_time":778000000000,"state":"active","ping":80},{"user_id":155,"name":"?","steam_id":76561198267167505,"connected_time":1556000000000,"state":"active","ping":75},{"user_id":85,"name":"Trash Cortex","steam_id":76561198991110334,"connected_time":7276000000000,"state":"active","ping":70},{"user_id":171,"name":"DeCypher [She/Her]","steam_id":76561198171992619,"connected_time":298000000000,"state":"active","ping":65},{"user_id":173,"name":"Bilbo Ballbaggins","steam_id":76561198070593514,"connected_time":203000000000,"state":"active","ping":60},{"user_id":170,"name":"Jughead","steam_id":76561198000355410,"connected_time":330000000000,"state":"active","ping":55},{"user_id":159,"name":"xoxoji19910501","steam_id":76561199037007405,"connected_time":1294000000000,"state":"active","ping":86},{"user_id":128,"name":"addicted","steam_id":76561199129801006,"connected_time":4027000000000,"state":"active","ping":52},{"user_id":165,"name":"REN","steam_id":76561198000596385,"connected_time":542000000000,"state":"active","ping":68},{"user_id":172,"name":"kotamine","steam_id":76561198068907991,"connected_time":278000000000,"state":"active","ping":61}]},{"server_id":309,"name":"Uncletopia | Frankfurt | 4 | All Maps","name_short":"frk-4","host":"frk-1.de.uncletopia.com","port":27045,"enabled":true,"region":"eu","cc":"de","latitude":50.110924,"longitude":8.682127,"reserved":0,"last_update":"0001-01-01T00:00:00Z","name_a2s":"Uncletopia | Frankfurt | 4 | All Maps","protocol":17,"map":"plr_hightower","folder":"tf","game":"Team Fortress","app_id":440,"player_count":5,"max_players":24,"Bots":0,"server_type":"Dedicated","server_os":"Linux","password":true,"vac":true,"version":"7757534","steam_id":85568392924504275,"keywords":["nocrits","nodmgspread","payload","uncletopia"],"game_id":440,"stv_port":27046,"stv_name":"Uncletopia | Frankfurt | 4 | All Maps | STV","players":[{"user_id":18,"name":"sputnik-666","steam_id":76561199125992135,"connected_time":700000000000,"state":"active","ping":100},{"user_id":19,"name":"korn","steam_id":76561198894300385,"connected_time":583000000000,"state":"active","ping":63},{"user_id":20,"name":"dogburg","steam_id":76561199248912868,"connected_time":454000000000,"state":"active","ping":75},{"user_id":21,"name":"Truegr","steam_id":76561198811912339,"connected_time":435000000000,"state":"active","ping":63},{"user_id":26,"name":"Docmouse","steam_id":76561198877990866,"connected_time":101000000000,"state":"active","ping":57}]},{"server_id":310,"name":"Uncletopia | Frankfurt | 5 | All Maps","name_short":"frk-5","host":"frk-1.de.uncletopia.com","port":27055,"enabled":true,"region":"eu","cc":"de","latitude":50.110924,"longitude":8.682127,"reserved":0,"last_update":"0001-01-01T00:00:00Z","name_a2s":"Uncletopia | Frankfurt | 5 | All Maps","protocol":17,"map":"koth_lakeside_final","folder":"tf","game":"Team Fortress","app_id":440,"player_count":0,"max_players":24,"Bots":0,"server_type":"Dedicated","server_os":"Linux","password":true,"vac":true,"version":"7757534","steam_id":85568392924504277,"keywords":["cp","nocrits","nodmgspread","uncletopia"],"game_id":440,"stv_port":27056,"stv_name":"Uncletopia | Frankfurt | 5 | All Maps | STV","players":null},{"server_id":311,"name":"Uncletopia | Frankfurt | 6 | All Maps","name_short":"frk-6","host":"frk-1.de.uncletopia.com","port":27065,"enabled":true,"region":"eu","cc":"de","latitude":50.110924,"longitude":8.682127,"reserved":0,"last_update":"0001-01-01T00:00:00Z","name_a2s":"Uncletopia | Frankfurt | 6 | All Maps","protocol":17,"map":"pl_borneo","folder":"tf","game":"Team Fortress","app_id":440,"player_count":24,"max_players":24,"Bots":0,"server_type":"Dedicated","server_os":"Linux","password":true,"vac":true,"version":"7757534","steam_id":85568392924504278,"keywords":["nocrits","nodmgspread","payload","uncletopia"],"game_id":440,"stv_port":27066,"stv_name":"Uncletopia | Frankfurt | 6 | All Maps | STV","players":[{"user_id":278,"name":"Dark Mimo","steam_id":76561198349648942,"connected_time":1159000000000,"state":"active","ping":90},{"user_id":295,"name":"Denialman (Muted)","steam_id":76561198309182092,"connected_time":330000000000,"state":"active","ping":49},{"user_id":273,"name":"EGirl | Klarra","steam_id":76561198077745407,"connected_time":1419000000000,"state":"active","ping":68},{"user_id":209,"name":"Samplee","steam_id":76561198063406140,"connected_time":5986000000000,"state":"active","ping":76},{"user_id":214,"name":"Ablativus","steam_id":76561198025698470,"connected_time":5778000000000,"state":"active","ping":64},{"user_id":221,"name":"gfjhsdf","steam_id":76561198136736426,"connected_time":4581000000000,"state":"active","ping":59},{"user_id":255,"name":"nyanezt","steam_id":76561198253734265,"connected_time":2859000000000,"state":"active","ping":105},{"user_id":294,"name":"Hyperek","steam_id":76561198130797464,"connected_time":365000000000,"state":"active","ping":73},{"user_id":258,"name":"Pingu","steam_id":76561198207966532,"connected_time":2429000000000,"state":"active","ping":68},{"user_id":290,"name":"galaxy","steam_id":76561198164819022,"connected_time":427000000000,"state":"active","ping":66},{"user_id":306,"name":"Pyrolander","steam_id":76561198050785450,"connected_time":58000000000,"state":"active","ping":56},{"user_id":296,"name":"TJ1212","steam_id":76561199013575313,"connected_time":263000000000,"state":"active","ping":81},{"user_id":297,"name":"Dr. Cox","steam_id":76561198246629218,"connected_time":263000000000,"state":"active","ping":81},{"user_id":244,"name":"Rezkey","steam_id":76561198206079048,"connected_time":3552000000000,"state":"active","ping":60},{"user_id":305,"name":"Bombilla","steam_id":76561198084281798,"connected_time":81000000000,"state":"active","ping":81},{"user_id":303,"name":"holykyckling","steam_id":76561198040661615,"connected_time":177000000000,"state":"active","ping":75},{"user_id":299,"name":"Xx_えななんxX69","steam_id":76561199427679148,"connected_time":251000000000,"state":"active","ping":139},{"user_id":252,"name":"gGABEsz","steam_id":76561198117199068,"connected_time":3207000000000,"state":"active","ping":61},{"user_id":286,"name":"Mike Rizzowski","steam_id":76561198798657045,"connected_time":658000000000,"state":"active","ping":78},{"user_id":206,"name":"ID3NTITY???????????CRISIS/003","steam_id":76561197994492154,"connected_time":6222000000000,"state":"active","ping":74},{"user_id":300,"name":"Chambersite","steam_id":76561198197022399,"connected_time":227000000000,"state":"active","ping":68},{"user_id":301,"name":"Octopixel","steam_id":76561198346310753,"connected_time":221000000000,"state":"active","ping":86},{"user_id":302,"name":"Kepucz","steam_id":76561197977634244,"connected_time":213000000000,"state":"active","ping":65},{"user_id":304,"name":"Dolcelatte","steam_id":76561198038501770,"connected_time":103000000000,"state":"active","ping":52}]},{"server_id":23,"name":"Uncletopia | Frankfurt | 7 | Stopwatch Beta","name_short":"frk-7","host":"frk-1.de.uncletopia.com","port":27075,"enabled":true,"region":"eu","cc":"de","latitude":50.110924,"longitude":8.682127,"reserved":0,"last_update":"0001-01-01T00:00:00Z","name_a2s":"Uncletopia | Frankfurt | 7 | Stopwatch Beta","protocol":17,"map":"pl_borneo","folder":"tf","game":"Team Fortress","app_id":440,"player_count":0,"max_players":24,"Bots":0,"server_type":"Dedicated","server_os":"Linux","password":true,"vac":true,"version":"7757534","steam_id":85568392924742827,"keywords":["nocrits","nodmgspread","payload","uncletopia"],"game_id":440,"stv_port":27076,"stv_name":"Uncletopia | Frankfurt | 7 | Stopwatch Beta | STV","players":null},{"server_id":24,"name":"Uncletopia | Frankfurt | 8 | Community","name_short":"frk-8","host":"frk-1.de.uncletopia.com","port":27085,"enabled":true,"region":"eu","cc":"de","latitude":50.110924,"longitude":8.682127,"reserved":0,"last_update":"0001-01-01T00:00:00Z","name_a2s":"Uncletopia | Frankfurt | 8 | Community","protocol":17,"map":"workshop/cp_kalinka_rc6a.ugc1272700588","folder":"tf","game":"Team Fortress","app_id":440,"player_count":0,"max_players":24,"Bots":0,"server_type":"Dedicated","server_os":"Linux","password":true,"vac":true,"version":"7757534","steam_id":85568392924742828,"keywords":["cp","nocrits","nodmgspread","uncletopia"],"game_id":440,"stv_port":27086,"stv_name":"Uncletopia | Frankfurt | 8 | Community | STV","players":null},{"server_id":202,"name":"Uncletopia | Hong Kong | 1 | All Maps","name_short":"hgk-1","host":"hgk-1.hk.uncletopia.com","port":27015,"enabled":true,"region":"asia","cc":"hk","latitude":22.302711,"longitude":114.177216,"reserved":0,"last_update":"0001-01-01T00:00:00Z","name_a2s":"Uncletopia | Hong Kong | 1 | All Maps","protocol":17,"map":"cp_dustbowl","folder":"tf","game":"Team Fortress","app_id":440,"player_count":0,"max_players":24,"Bots":0,"server_type":"Dedicated","server_os":"Linux","password":true,"vac":true,"version":"7757534","steam_id":85568392924494504,"keywords":["cp","nocrits","nodmgspread","uncletopia"],"game_id":440,"stv_port":27016,"stv_name":"Uncletopia | Hong Kong | 1 | All Maps | STV","players":null},{"server_id":1,"name":"Uncletopia | Los Angeles | 1 | All Maps","name_short":"lax-1","host":"lax-1.us.uncletopia.com","port":27015,"enabled":true,"region":"us-west","cc":"us","latitude":33.94279,"longitude":-118.41004,"reserved":0,"last_update":"0001-01-01T00:00:00Z","name_a2s":"Uncletopia | Los Angeles | 1 | All Maps","protocol":17,"map":"cp_process_final","folder":"tf","game":"Team Fortress","app_id":440,"player_count":0,"max_players":24,"Bots":0,"server_type":"Dedicated","server_os":"Linux","password":true,"vac":true,"version":"7757534","steam_id":85568392924469991,"keywords":["cp","nocrits","nodmgspread","uncletopia"],"game_id":440,"stv_port":27016,"stv_name":"Uncletopia | Los Angeles | 1 | All Maps | STV","players":null},{"server_id":112,"name":"Uncletopia | Los Angeles | 2 | All Maps","name_short":"lax-2","host":"lax-1.us.uncletopia.com","port":27025,"enabled":true,"region":"us-west","cc":"us","latitude":33.94279,"longitude":-118.41004,"reserved":0,"last_update":"0001-01-01T00:00:00Z","name_a2s":"Uncletopia | Los Angeles | 2 | All Maps","protocol":17,"map":"koth_viaduct","folder":"tf","game":"Team Fortress","app_id":440,"player_count":0,"max_players":24,"Bots":0,"server_type":"Dedicated","server_os":"Linux","password":true,"vac":true,"version":"7757534","steam_id":85568392924469992,"keywords":["cp","nocrits","nodmgspread","uncletopia"],"game_id":440,"stv_port":27026,"stv_name":"Uncletopia | Los Angeles | 2 | All Maps | STV","players":null},{"server_id":324,"name":"Uncletopia | Los Angeles | 3 | All Maps","name_short":"lax-3","host":"lax-1.us.uncletopia.com","port":27035,"enabled":true,"region":"us-west","cc":"us","latitude":33.94279,"longitude":-118.41004,"reserved":0,"last_update":"0001-01-01T00:00:00Z","name_a2s":"Uncletopia | Los Angeles | 3 | All Maps","protocol":17,"map":"cp_altitude","folder":"tf","game":"Team Fortress","app_id":440,"player_count":0,"max_players":24,"Bots":0,"server_type":"Dedicated","server_os":"Linux","password":true,"vac":true,"version":"7757534","steam_id":85568392924510198,"keywords":["cp","nocrits","nodmgspread","uncletopia"],"game_id":440,"stv_port":27036,"stv_name":"Uncletopia | Los Angeles | 3 | All Maps | STV","players":null},{"server_id":25,"name":"Uncletopia | Los Angeles | 4 | Stopwatch Beta","name_short":"lax-4","host":"lax-1.us.uncletopia.com","port":27045,"enabled":true,"region":"us-west","cc":"us","latitude":33.94279,"longitude":-118.41004,"reserved":0,"last_update":"0001-01-01T00:00:00Z","name_a2s":"Uncletopia | Los Angeles | 4 | Stopwatch Beta","protocol":17,"map":"cp_dustbowl","folder":"tf","game":"Team Fortress","app_id":440,"player_count":0,"max_players":24,"Bots":0,"server_type":"Dedicated","server_os":"Linux","password":true,"vac":true,"version":"7757534","steam_id":85568392924510199,"keywords":["cp","nocrits","nodmgspread","uncletopia"],"game_id":440,"stv_port":27046,"stv_name":"Uncletopia | Los Angeles | 4 | Stopwatch Beta | STV","players":null},{"server_id":11,"name":"Uncletopia | London | 1 | All Maps","name_short":"lon-1","host":"lon-1.uk.uncletopia.com","port":27015,"enabled":true,"region":"eu","cc":"gb","latitude":51.509865,"longitude":-0.118092,"reserved":0,"last_update":"0001-01-01T00:00:00Z","name_a2s":"Uncletopia | London | 1 | All Maps","protocol":17,"map":"pl_swiftwater_final1","folder":"tf","game":"Team Fortress","app_id":440,"player_count":24,"max_players":24,"Bots":0,"server_type":"Dedicated","server_os":"Linux","password":true,"vac":true,"version":"7757534","steam_id":85568392924367362,"keywords":["nocrits","nodmgspread","payload","uncletopia"],"game_id":440,"stv_port":27016,"stv_name":"Uncletopia | London | 1 | All Maps | STV","players":[{"user_id":88,"name":"MEDiUM","steam_id":76561198112328561,"connected_time":3737000000000,"state":"active","ping":87},{"user_id":122,"name":"CrusherUK","steam_id":76561198153173185,"connected_time":849000000000,"state":"active","ping":54},{"user_id":96,"name":"Mancubruh BRUB 046","steam_id":76561199158803718,"connected_time":2931000000000,"state":"active","ping":56},{"user_id":128,"name":"pond","steam_id":76561198214849363,"connected_time":171000000000,"state":"active","ping":87},{"user_id":109,"name":"Exodeliwood HUNTING SENPAI","steam_id":76561198102579647,"connected_time":1637000000000,"state":"active","ping":112},{"user_id":133,"name":"Tywhip","steam_id":76561199207545191,"connected_time":33000000000,"state":"active","ping":55},{"user_id":115,"name":"The Godmonkey","steam_id":76561198204670361,"connected_time":1219000000000,"state":"active","ping":83},{"user_id":129,"name":"skai","steam_id":76561198184881255,"connected_time":159000000000,"state":"active","ping":63},{"user_id":117,"name":"SirToastSlice","steam_id":76561199229729107,"connected_time":1118000000000,"state":"active","ping":67},{"user_id":84,"name":"JOHN GAMING (based)","steam_id":76561199085822219,"connected_time":3846000000000,"state":"active","ping":90},{"user_id":110,"name":"CiVillain","steam_id":76561198059617732,"connected_time":1630000000000,"state":"active","ping":65},{"user_id":134,"name":"Tryrn","steam_id":76561198075487436,"connected_time":32000000000,"state":"active","ping":94},{"user_id":70,"name":"LordTrap.exe","steam_id":76561198318089716,"connected_time":4498000000000,"state":"active","ping":46},{"user_id":123,"name":"efrasierhead","steam_id":76561198060646182,"connected_time":673000000000,"state":"active","ping":47},{"user_id":89,"name":"123","steam_id":76561198113733477,"connected_time":3686000000000,"state":"active","ping":42},{"user_id":105,"name":"leminsc8","steam_id":76561198825084995,"connected_time":1848000000000,"state":"active","ping":43},{"user_id":42,"name":"I-I","steam_id":76561198267969436,"connected_time":5544000000000,"state":"active","ping":68},{"user_id":86,"name":"xd","steam_id":76561198066523881,"connected_time":3772000000000,"state":"active","ping":67},{"user_id":131,"name":"stupid fucking anime girl","steam_id":76561198166773704,"connected_time":134000000000,"state":"active","ping":103},{"user_id":75,"name":"Españaa","steam_id":76561198879587832,"connected_time":4335000000000,"state":"active","ping":92},{"user_id":132,"name":"Weeb exterminator","steam_id":76561198078964973,"connected_time":114000000000,"state":"active","ping":88},{"user_id":119,"name":"Holtzer","steam_id":76561198031573426,"connected_time":1113000000000,"state":"active","ping":70},{"user_id":120,"name":"Skagzilla| trade.tf","steam_id":76561198260114743,"connected_time":1096000000000,"state":"active","ping":49},{"user_id":94,"name":"shr1mple","steam_id":76561198173537027,"connected_time":3072000000000,"state":"active","ping":47}]},{"server_id":114,"name":"Uncletopia | London | 2 | All Maps","name_short":"lon-2","host":"lon-1.uk.uncletopia.com","port":27025,"enabled":true,"region":"eu","cc":"gb","latitude":51.509865,"longitude":-0.118092,"reserved":0,"last_update":"0001-01-01T00:00:00Z","name_a2s":"Uncletopia | London | 2 | All Maps","protocol":17,"map":"cp_altitude","folder":"tf","game":"Team Fortress","app_id":440,"player_count":24,"max_players":24,"Bots":0,"server_type":"Dedicated","server_os":"Linux","password":true,"vac":true,"version":"7757534","steam_id":85568392924470941,"keywords":["cp","nocrits","nodmgspread","uncletopia"],"game_id":440,"stv_port":27026,"stv_name":"Uncletopia | London | 2 | All Maps | STV","players":[{"user_id":103,"name":"DrExplosive","steam_id":76561198063678579,"connected_time":9228000000000,"state":"active","ping":48},{"user_id":212,"name":"Tomau5","steam_id":76561198027409468,"connected_time":1089000000000,"state":"active","ping":55},{"user_id":229,"name":"vixel","steam_id":76561198450168311,"connected_time":116000000000,"state":"active","ping":87},{"user_id":227,"name":"Top Boffin","steam_id":76561197992232691,"connected_time":226000000000,"state":"active","ping":44},{"user_id":231,"name":"Dingus","steam_id":76561198140514058,"connected_time":91000000000,"state":"active","ping":38},{"user_id":214,"name":"romaingallo","steam_id":76561198268112907,"connected_time":1004000000000,"state":"active","ping":60},{"user_id":219,"name":"gneeda","steam_id":76561198147249160,"connected_time":976000000000,"state":"active","ping":111},{"user_id":215,"name":"Latgaul","steam_id":76561199009145544,"connected_time":1001000000000,"state":"active","ping":92},{"user_id":47,"name":"Zerfesh","steam_id":76561198117534358,"connected_time":13099000000000,"state":"active","ping":100},{"user_id":230,"name":"mark the shot misser","steam_id":76561198309246388,"connected_time":114000000000,"state":"active","ping":46},{"user_id":141,"name":"Breizbuc","steam_id":76561198118220633,"connected_time":6467000000000,"state":"active","ping":64},{"user_id":223,"name":"sethlington14","steam_id":76561199438357690,"connected_time":566000000000,"state":"active","ping":59},{"user_id":199,"name":"CODSWOLOP","steam_id":76561199114598660,"connected_time":2255000000000,"state":"active","ping":141},{"user_id":109,"name":"Dr. Uberschwein","steam_id":76561198111367431,"connected_time":9026000000000,"state":"active","ping":72},{"user_id":222,"name":"2(S),3(R)-methoxy aids","steam_id":76561198030556873,"connected_time":834000000000,"state":"active","ping":64},{"user_id":232,"name":"Palex","steam_id":76561198093219465,"connected_time":75000000000,"state":"active","ping":46},{"user_id":158,"name":"Lognes","steam_id":76561198076569769,"connected_time":4931000000000,"state":"active","ping":59},{"user_id":226,"name":"silicon based life form","steam_id":76561199127121346,"connected_time":274000000000,"state":"active","ping":68},{"user_id":186,"name":"Wardruna96","steam_id":76561199057083828,"connected_time":3309000000000,"state":"active","ping":86},{"user_id":233,"name":"marceloose","steam_id":76561198360009237,"connected_time":59000000000,"state":"active","ping":49},{"user_id":173,"name":"LemonLeCitron","steam_id":76561198215545267,"connected_time":3833000000000,"state":"active","ping":66},{"user_id":200,"name":"Hexagon","steam_id":76561198151205758,"connected_time":2190000000000,"state":"active","ping":56},{"user_id":207,"name":"PGAndy","steam_id":76561199218070297,"connected_time":1188000000000,"state":"active","ping":89},{"user_id":164,"name":"fl1p","steam_id":76561198148565659,"connected_time":4864000000000,"state":"active","ping":65}]},{"server_id":320,"name":"Uncletopia | London | 3 | All Maps","name_short":"lon-3","host":"lon-1.uk.uncletopia.com","port":27035,"enabled":true,"region":"eu","cc":"gb","latitude":51.509865,"longitude":-0.118092,"reserved":0,"last_update":"0001-01-01T00:00:00Z","name_a2s":"Uncletopia | London | 3 | All Maps","protocol":17,"map":"pl_borneo","folder":"tf","game":"Team Fortress","app_id":440,"player_count":21,"max_players":24,"Bots":0,"server_type":"Dedicated","server_os":"Linux","password":true,"vac":true,"version":"7757534","steam_id":85568392924510192,"keywords":["nocrits","nodmgspread","payload","uncletopia"],"game_id":440,"stv_port":27036,"stv_name":"Uncletopia | London | 3 | All Maps | STV","players":[{"user_id":433,"name":"relic_","steam_id":76561199053114167,"connected_time":887000000000,"state":"active","ping":125},{"user_id":406,"name":"B4R10N","steam_id":76561198047167954,"connected_time":2120000000000,"state":"active","ping":30},{"user_id":426,"name":"jankomit","steam_id":76561198043024857,"connected_time":1172000000000,"state":"active","ping":79},{"user_id":435,"name":"spiderman 3 enjoyer","steam_id":76561198332712960,"connected_time":377000000000,"state":"active","ping":52},{"user_id":399,"name":"JOÃO MIGUEL","steam_id":76561198066297489,"connected_time":2828000000000,"state":"active","ping":73},{"user_id":269,"name":"Autumnsky","steam_id":76561198055161203,"connected_time":6383000000000,"state":"active","ping":60},{"user_id":428,"name":"Nydra","steam_id":76561198063916730,"connected_time":1147000000000,"state":"active","ping":59},{"user_id":434,"name":"Clueless","steam_id":76561199212834268,"connected_time":833000000000,"state":"active","ping":74},{"user_id":438,"name":"Kan0_","steam_id":76561198129596771,"connected_time":124000000000,"state":"active","ping":62},{"user_id":367,"name":"jawA","steam_id":76561198070341774,"connected_time":5077000000000,"state":"active","ping":90},{"user_id":430,"name":"CuteButDeadInside(f2p)","steam_id":76561199170424238,"connected_time":1135000000000,"state":"active","ping":57},{"user_id":432,"name":"bob","steam_id":76561197983903900,"connected_time":1051000000000,"state":"active","ping":60},{"user_id":409,"name":"Acrithrope","steam_id":76561198079196707,"connected_time":2108000000000,"state":"active","ping":54},{"user_id":418,"name":"Kotlet schabowy","steam_id":76561198048983509,"connected_time":1899000000000,"state":"active","ping":84},{"user_id":411,"name":"Kurage","steam_id":76561198021221288,"connected_time":2045000000000,"state":"active","ping":74},{"user_id":413,"name":"Rohnus","steam_id":76561198074049934,"connected_time":2013000000000,"state":"active","ping":55},{"user_id":425,"name":"Sora The Fox","steam_id":76561198072998702,"connected_time":1235000000000,"state":"active","ping":45},{"user_id":397,"name":"TheBeardedM1G","steam_id":76561198040208946,"connected_time":2915000000000,"state":"active","ping":45},{"user_id":398,"name":"robsan","steam_id":76561198137375391,"connected_time":2910000000000,"state":"active","ping":77},{"user_id":439,"name":"Solarium","steam_id":76561198083941858,"connected_time":27000000000,"state":"spawning","ping":44},{"user_id":371,"name":"Welder","steam_id":76561198355300561,"connected_time":4875000000000,"state":"active","ping":61}]},{"server_id":321,"name":"Uncletopia | London | 4 | All Maps","name_short":"lon-4","host":"lon-1.uk.uncletopia.com","port":27045,"enabled":true,"region":"eu","cc":"gb","latitude":51.509865,"longitude":-0.118092,"reserved":0,"last_update":"0001-01-01T00:00:00Z","name_a2s":"Uncletopia | London | 4 | All Maps","protocol":17,"map":"pl_upward","folder":"tf","game":"Team Fortress","app_id":440,"player_count":23,"max_players":24,"Bots":0,"server_type":"Dedicated","server_os":"Linux","password":true,"vac":true,"version":"7757534","steam_id":85568392924510193,"keywords":["nocrits","nodmgspread","payload","uncletopia"],"game_id":440,"stv_port":27046,"stv_name":"Uncletopia | London | 4 | All Maps | STV","players":[{"user_id":77,"name":"alshep00","steam_id":76561198079585198,"connected_time":449000000000,"state":"active","ping":56},{"user_id":48,"name":"cheetofinger","steam_id":76561198064052251,"connected_time":3037000000000,"state":"active","ping":59},{"user_id":45,"name":"RiX","steam_id":76561197969053733,"connected_time":3339000000000,"state":"active","ping":68},{"user_id":68,"name":"garry","steam_id":76561198019078145,"connected_time":873000000000,"state":"active","ping":85},{"user_id":78,"name":"Spliffendor","steam_id":76561198144020209,"connected_time":377000000000,"state":"active","ping":52},{"user_id":60,"name":"bAdmon","steam_id":76561197961785793,"connected_time":2154000000000,"state":"active","ping":51},{"user_id":69,"name":"PWizard","steam_id":76561198026458489,"connected_time":866000000000,"state":"active","ping":72},{"user_id":25,"name":"ඞbominasus 2137  #SaveTF2","steam_id":76561198030062981,"connected_time":3766000000000,"state":"active","ping":73},{"user_id":67,"name":"Pachakamakk","steam_id":76561197989010401,"connected_time":1416000000000,"state":"active","ping":54},{"user_id":81,"name":"Пес Патрон","steam_id":76561198273199378,"connected_time":93000000000,"state":"active","ping":74},{"user_id":75,"name":"Fran","steam_id":76561199070516960,"connected_time":632000000000,"state":"active","ping":72},{"user_id":64,"name":"owlsie","steam_id":76561198094883280,"connected_time":1734000000000,"state":"active","ping":68},{"user_id":65,"name":"Boil em mash em","steam_id":76561198026508026,"connected_time":1728000000000,"state":"active","ping":72},{"user_id":55,"name":"MuffinConsumer","steam_id":76561199472498725,"connected_time":2750000000000,"state":"active","ping":146},{"user_id":76,"name":"A TOXIC PIECE OF SHIT","steam_id":76561198094993151,"connected_time":575000000000,"state":"active","ping":36},{"user_id":74,"name":"Mr Lidl","steam_id":76561198426522902,"connected_time":663000000000,"state":"active","ping":55},{"user_id":49,"name":"☜(ﾟヮﾟ☜) fribs","steam_id":76561198000461999,"connected_time":3016000000000,"state":"active","ping":46},{"user_id":37,"name":"Senator Armstrong","steam_id":76561198984346408,"connected_time":3477000000000,"state":"active","ping":80},{"user_id":38,"name":"heavy sings (real)","steam_id":76561199023804405,"connected_time":3452000000000,"state":"active","ping":72},{"user_id":66,"name":"♥ TRANS RIGHTS ♥","steam_id":76561198066258544,"connected_time":1697000000000,"state":"active","ping":68},{"user_id":50,"name":"rubadub rocker","steam_id":76561197984763237,"connected_time":2994000000000,"state":"active","ping":30},{"user_id":58,"name":"Aspartus","steam_id":76561198101385763,"connected_time":2376000000000,"state":"active","ping":40},{"user_id":47,"name":"festry","steam_id":76561198873296090,"connected_time":3208000000000,"state":"active","ping":75}]},{"server_id":21,"name":"Uncletopia | London | 5 | All Maps","name_short":"lon-5","host":"lon-1.uk.uncletopia.com","port":27055,"enabled":true,"region":"eu","cc":"gb","latitude":51.509865,"longitude":-0.118092,"reserved":0,"last_update":"0001-01-01T00:00:00Z","name_a2s":"Uncletopia | London | 5 | All Maps","protocol":17,"map":"pl_pier","folder":"tf","game":"Team Fortress","app_id":440,"player_count":0,"max_players":24,"Bots":0,"server_type":"Dedicated","server_os":"Linux","password":true,"vac":true,"version":"7757534","steam_id":85568392924742829,"keywords":["nocrits","nodmgspread","payload","uncletopia"],"game_id":440,"stv_port":27056,"stv_name":"Uncletopia | London | 5 | All Maps | STV","players":null},{"server_id":22,"name":"Uncletopia | London | 6 | All Maps","name_short":"lon-6","host":"lon-1.uk.uncletopia.com","port":27065,"enabled":true,"region":"eu","cc":"gb","latitude":51.509865,"longitude":-0.118092,"reserved":0,"last_update":"0001-01-01T00:00:00Z","name_a2s":"Uncletopia | London | 6 | All Maps","protocol":17,"map":"koth_highpass","folder":"tf","game":"Team Fortress","app_id":440,"player_count":0,"max_players":24,"Bots":0,"server_type":"Dedicated","server_os":"Linux","password":true,"vac":true,"version":"7757534","steam_id":85568392924742830,"keywords":["cp","nocrits","nodmgspread","uncletopia"],"game_id":440,"stv_port":27066,"stv_name":"Uncletopia | London | 6 | All Maps | STV","players":null},{"server_id":40,"name":"Uncletopia | London | 7 | No Payload","name_short":"lon-7","host":"lon-1.uk.uncletopia.com","port":27075,"enabled":true,"region":"eu","cc":"gb","latitude":51.509865,"longitude":-0.118092,"reserved":0,"last_update":"0001-01-01T00:00:00Z","name_a2s":"Uncletopia | London | 7 | No Payload","protocol":17,"map":"koth_highpass","folder":"tf","game":"Team Fortress","app_id":440,"player_count":0,"max_players":24,"Bots":0,"server_type":"Dedicated","server_os":"Linux","password":true,"vac":true,"version":"7757534","steam_id":85568392924964314,"keywords":["cp","nocrits","nodmgspread","uncletopia"],"game_id":440,"stv_port":27076,"stv_name":"Uncletopia | London | 7 | No Payload | STV","players":null},{"server_id":41,"name":"Uncletopia | London | 8 | Community","name_short":"lon-8","host":"lon-1.uk.uncletopia.com","port":27085,"enabled":true,"region":"eu","cc":"gb","latitude":51.509865,"longitude":-0.118092,"reserved":0,"last_update":"0001-01-01T00:00:00Z","name_a2s":"Uncletopia | London | 8 | Community","protocol":17,"map":"workshop/pl_badwater_pro_v12.ugc2142942074","folder":"tf","game":"Team Fortress","app_id":440,"player_count":14,"max_players":24,"Bots":0,"server_type":"Dedicated","server_os":"Linux","password":true,"vac":true,"version":"7757534","steam_id":85568392924964315,"keywords":["nocrits","nodmgspread","payload","uncletopia"],"game_id":440,"stv_port":27086,"stv_name":"Uncletopia | London | 8 | Community | STV","players":[{"user_id":186,"name":"mr. biggs","steam_id":76561199118911288,"connected_time":1468000000000,"state":"active","ping":138},{"user_id":187,"name":"B0B","steam_id":76561199222523175,"connected_time":1444000000000,"state":"active","ping":71},{"user_id":188,"name":"Scent Tree","steam_id":76561198444371121,"connected_time":1210000000000,"state":"active","ping":144},{"user_id":209,"name":"Potentially","steam_id":76561198821984325,"connected_time":391000000000,"state":"active","ping":58},{"user_id":190,"name":"EkmeK","steam_id":76561198077212595,"connected_time":1095000000000,"state":"active","ping":156},{"user_id":191,"name":"fried","steam_id":76561198307522022,"connected_time":1061000000000,"state":"active","ping":46},{"user_id":212,"name":"Mata_FM","steam_id":76561198044824504,"connected_time":207000000000,"state":"active","ping":75},{"user_id":193,"name":"shinji crank that soulja boy","steam_id":76561198099696876,"connected_time":775000000000,"state":"active","ping":75},{"user_id":210,"name":"Rez","steam_id":76561198410598772,"connected_time":297000000000,"state":"active","ping":55},{"user_id":213,"name":"Vecchia Maniera","steam_id":76561199233979726,"connected_time":193000000000,"state":"active","ping":89},{"user_id":196,"name":"Augustus","steam_id":76561198138526984,"connected_time":731000000000,"state":"active","ping":66},{"user_id":214,"name":"_AntonPRO_2010_","steam_id":76561199471462962,"connected_time":40000000000,"state":"active","ping":76},{"user_id":199,"name":"bad at tf2 episode 2","steam_id":76561198002451113,"connected_time":678000000000,"state":"active","ping":101},{"user_id":202,"name":"Perämiehenä","steam_id":76561197968945306,"connected_time":531000000000,"state":"active","ping":82}]},{"server_id":300,"name":"Uncletopia | Montréal | 1 | All Maps","name_short":"mtl-1","host":"mtl-1.ca.uncletopia.com","port":27015,"enabled":true,"region":"us-east","cc":"ca","latitude":45.50889,"longitude":-73.56167,"reserved":0,"last_update":"0001-01-01T00:00:00Z","name_a2s":"Uncletopia | Montréal | 1 | All Maps","protocol":17,"map":"cp_altitude","folder":"tf","game":"Team Fortress","app_id":440,"player_count":0,"max_players":24,"Bots":0,"server_type":"Dedicated","server_os":"Linux","password":true,"vac":true,"version":"7757534","steam_id":85568392924500087,"keywords":["cp","nocrits","nodmgspread","uncletopia"],"game_id":440,"stv_port":27016,"stv_name":"Uncletopia | Montréal | 1 | All Maps | STV","players":null},{"server_id":301,"name":"Uncletopia | Montréal | 2 | All Maps","name_short":"mtl-2","host":"mtl-1.ca.uncletopia.com","port":27025,"enabled":true,"region":"us-east","cc":"ca","latitude":45.50889,"longitude":-73.56167,"reserved":0,"last_update":"0001-01-01T00:00:00Z","name_a2s":"Uncletopia | Montréal | 2 | All Maps","protocol":17,"map":"cp_sunshine","folder":"tf","game":"Team Fortress","app_id":440,"player_count":0,"max_players":24,"Bots":0,"server_type":"Dedicated","server_os":"Linux","password":true,"vac":true,"version":"7757534","steam_id":85568392924500088,"keywords":["cp","nocrits","nodmgspread","uncletopia"],"game_id":440,"stv_port":27026,"stv_name":"Uncletopia | Montréal | 2 | All Maps | STV","players":null},{"server_id":302,"name":"Uncletopia | Montréal | 3 | All Maps","name_short":"mtl-3","host":"mtl-1.ca.uncletopia.com","port":27035,"enabled":true,"region":"us-east","cc":"ca","latitude":45.50889,"longitude":-73.56167,"reserved":0,"last_update":"0001-01-01T00:00:00Z","name_a2s":"Uncletopia | Montréal | 3 | All Maps","protocol":17,"map":"pl_frontier_final","folder":"tf","game":"Team Fortress","app_id":440,"player_count":0,"max_players":24,"Bots":0,"server_type":"Dedicated","server_os":"Linux","password":true,"vac":true,"version":"7757534","steam_id":85568392924500089,"keywords":["nocrits","nodmgspread","payload","uncletopia"],"game_id":440,"stv_port":27036,"stv_name":"Uncletopia | Montréal | 3 | All Maps | STV","players":null},{"server_id":303,"name":"Uncletopia | Montréal | 4 | No Payload","name_short":"mtl-4","host":"mtl-1.ca.uncletopia.com","port":27045,"enabled":true,"region":"us-east","cc":"ca","latitude":45.50889,"longitude":-73.56167,"reserved":0,"last_update":"0001-01-01T00:00:00Z","name_a2s":"Uncletopia | Montréal | 4 | No Payload","protocol":17,"map":"pl_pier","folder":"tf","game":"Team Fortress","app_id":440,"player_count":0,"max_players":24,"Bots":0,"server_type":"Dedicated","server_os":"Linux","password":true,"vac":true,"version":"7757534","steam_id":85568392924500090,"keywords":["nocrits","nodmgspread","payload","uncletopia"],"game_id":440,"stv_port":27046,"stv_name":"Uncletopia | Montréal | 4 | No Payload | STV","players":null},{"server_id":13,"name":"Uncletopia | New York City | 1 | All Maps","name_short":"nyc-1","host":"nyc-1.us.uncletopia.com","port":27015,"enabled":true,"region":"us-east","cc":"us","latitude":40.73061,"longitude":-73.93524,"reserved":0,"last_update":"0001-01-01T00:00:00Z","name_a2s":"Uncletopia | New York City | 1 | All Maps","protocol":17,"map":"koth_cascade","folder":"tf","game":"Team Fortress","app_id":440,"player_count":0,"max_players":24,"Bots":0,"server_type":"Dedicated","server_os":"Linux","password":true,"vac":true,"version":"7757534","steam_id":85568392924469993,"keywords":["cp","nocrits","nodmgspread","uncletopia"],"game_id":440,"stv_port":27016,"stv_name":"Uncletopia | New York City | 1 | All Maps | STV","players":null},{"server_id":14,"name":"Uncletopia | New York City | 2 | All Maps","name_short":"nyc-2","host":"nyc-1.us.uncletopia.com","port":27025,"enabled":true,"region":"us-east","cc":"us","latitude":40.73061,"longitude":-73.93524,"reserved":0,"last_update":"0001-01-01T00:00:00Z","name_a2s":"Uncletopia | New York City | 2 | All Maps","protocol":17,"map":"cp_dustbowl","folder":"tf","game":"Team Fortress","app_id":440,"player_count":0,"max_players":24,"Bots":0,"server_type":"Dedicated","server_os":"Linux","password":true,"vac":true,"version":"7757534","steam_id":85568392924469994,"keywords":["cp","nocrits","nodmgspread","uncletopia"],"game_id":440,"stv_port":27026,"stv_name":"Uncletopia | New York City | 2 | All Maps | STV","players":null},{"server_id":15,"name":"Uncletopia | New York City | 3 | Stopwatch Beta","name_short":"nyc-3","host":"nyc-1.us.uncletopia.com","port":27035,"enabled":true,"region":"us-east","cc":"us","latitude":40.73061,"longitude":-73.93524,"reserved":0,"last_update":"0001-01-01T00:00:00Z","name_a2s":"Uncletopia | New York City | 3 | Stopwatch Beta","protocol":17,"map":"workshop/pl_summercoast_rc8e.ugc1761528829","folder":"tf","game":"Team Fortress","app_id":440,"player_count":0,"max_players":24,"Bots":0,"server_type":"Dedicated","server_os":"Linux","password":true,"vac":true,"version":"7757534","steam_id":85568392924742820,"keywords":["nocrits","nodmgspread","payload","uncletopia"],"game_id":440,"stv_port":27036,"stv_name":"Uncletopia | New York City | 3 | Stopwatch Beta | STV","players":null},{"server_id":16,"name":"Uncletopia | New York City | 4 | Community","name_short":"nyc-4","host":"nyc-1.us.uncletopia.com","port":27045,"enabled":true,"region":"us-east","cc":"us","latitude":40.73061,"longitude":-73.93524,"reserved":0,"last_update":"0001-01-01T00:00:00Z","name_a2s":"Uncletopia | New York City | 4 | Community","protocol":17,"map":"pl_frontier_final","folder":"tf","game":"Team Fortress","app_id":440,"player_count":0,"max_players":24,"Bots":0,"server_type":"Dedicated","server_os":"Linux","password":true,"vac":true,"version":"7757534","steam_id":85568392924742821,"keywords":["nocrits","nodmgspread","payload","uncletopia"],"game_id":440,"stv_port":27046,"stv_name":"Uncletopia | New York City | 4 | Community | STV","players":null},{"server_id":142,"name":"Uncletopia | São Paulo | 1 | All Maps","name_short":"sao-1","host":"sao-1.br.uncletopia.com","port":27015,"enabled":true,"region":"sa","cc":"br","latitude":-23.533773,"longitude":-46.62529,"reserved":0,"last_update":"0001-01-01T00:00:00Z","name_a2s":"Uncletopia | São Paulo | 1 | All Maps","protocol":17,"map":"cp_altitude","folder":"tf","game":"Team Fortress","app_id":440,"player_count":0,"max_players":24,"Bots":0,"server_type":"Dedicated","server_os":"Linux","password":true,"vac":true,"version":"7757534","steam_id":85568392924469996,"keywords":["cp","nocrits","nodmgspread","uncletopia"],"game_id":440,"stv_port":27016,"stv_name":"Uncletopia | São Paulo | 1 | All Maps | STV","players":null},{"server_id":143,"name":"Uncletopia | São Paulo | 2 | All Maps","name_short":"sao-2","host":"sao-2.br.uncletopia.com","port":27015,"enabled":true,"region":"sa","cc":"br","latitude":-23.533773,"longitude":-46.62529,"reserved":0,"last_update":"0001-01-01T00:00:00Z","name_a2s":"Uncletopia | São Paulo | 2 | All Maps","protocol":17,"map":"koth_viaduct","folder":"tf","game":"Team Fortress","app_id":440,"player_count":0,"max_players":24,"Bots":0,"server_type":"Dedicated","server_os":"Linux","password":true,"vac":true,"version":"7757534","steam_id":85568392924485349,"keywords":["cp","nocrits","nodmgspread","uncletopia"],"game_id":440,"stv_port":27016,"stv_name":"Uncletopia | São Paulo | 2 | All Maps | STV","players":null},{"server_id":7,"name":"Uncletopia | Seattle | 1 | All Maps","name_short":"sea-1","host":"sea-1.us.uncletopia.com","port":27015,"enabled":true,"region":"us-west","cc":"us","latitude":47.608013,"longitude":-122.33517,"reserved":0,"last_update":"0001-01-01T00:00:00Z","name_a2s":"Uncletopia | Seattle | 1 | All Maps","protocol":17,"map":"pl_frontier_final","folder":"tf","game":"Team Fortress","app_id":440,"player_count":25,"max_players":24,"Bots":0,"server_type":"Dedicated","server_os":"Linux","password":true,"vac":true,"version":"7757534","steam_id":85568392924469997,"keywords":["nocrits","nodmgspread","payload","uncletopia"],"game_id":440,"stv_port":27016,"stv_name":"Uncletopia | Seattle | 1 | All Maps | STV","players":[{"user_id":75,"name":"vartion","steam_id":76561198272996824,"connected_time":4613000000000,"state":"active","ping":46},{"user_id":123,"name":"Leandro","steam_id":76561198041358925,"connected_time":123000000000,"state":"active","ping":119},{"user_id":86,"name":"York Oxmall","steam_id":76561198381203143,"connected_time":3866000000000,"state":"active","ping":48},{"user_id":108,"name":"HarryjusttHarry","steam_id":76561198982810452,"connected_time":1589000000000,"state":"active","ping":131},{"user_id":90,"name":"amagicowl","steam_id":76561199060487814,"connected_time":3775000000000,"state":"active","ping":59},{"user_id":120,"name":"heimdall","steam_id":76561198069380992,"connected_time":486000000000,"state":"active","ping":110},{"user_id":9,"name":"rebel","steam_id":76561198026049308,"connected_time":8065000000000,"state":"active","ping":45},{"user_id":93,"name":"mobe","steam_id":76561198121633820,"connected_time":3347000000000,"state":"active","ping":77},{"user_id":87,"name":"CYBER","steam_id":76561197963237357,"connected_time":3835000000000,"state":"active","ping":71},{"user_id":95,"name":"〣dust〣 -she/it-","steam_id":76561198045218909,"connected_time":3008000000000,"state":"active","ping":36},{"user_id":124,"name":"DogSpoon","steam_id":76561198012485990,"connected_time":82000000000,"state":"active","ping":181},{"user_id":115,"name":"Doof","steam_id":76561198034031819,"connected_time":655000000000,"state":"active","ping":106},{"user_id":109,"name":"Themasterman75","steam_id":76561199385573293,"connected_time":1387000000000,"state":"active","ping":70},{"user_id":125,"name":"ADHDking","steam_id":76561198116099017,"connected_time":37000000000,"state":"active","ping":109},{"user_id":88,"name":"Eduardo Dinero[v][\\]","steam_id":76561198011582976,"connected_time":3801000000000,"state":"active","ping":71},{"user_id":107,"name":"Moon","steam_id":76561198007449103,"connected_time":1693000000000,"state":"active","ping":131},{"user_id":97,"name":"Chasubi","steam_id":76561197971618983,"connected_time":2490000000000,"state":"active","ping":105},{"user_id":114,"name":"summerof69","steam_id":76561198069049410,"connected_time":709000000000,"state":"active","ping":100},{"user_id":55,"name":"Little Linguine","steam_id":76561198816986370,"connected_time":5892000000000,"state":"active","ping":61},{"user_id":126,"name":"Mirari","steam_id":76561198126889358,"connected_time":21000000000,"state":"active","ping":136},{"user_id":117,"name":"Zenix","steam_id":76561198261817732,"connected_time":600000000000,"state":"active","ping":95},{"user_id":37,"name":"THE NUT","steam_id":76561198067813626,"connected_time":7137000000000,"state":"active","ping":50},{"user_id":127,"name":"Chew","steam_id":76561198118307413,"connected_time":1000000000,"state":"spawning","ping":54},{"user_id":122,"name":"DuckMann","steam_id":76561198197058638,"connected_time":280000000000,"state":"active","ping":113},{"user_id":92,"name":"Unban Level Eater (She/They)","steam_id":76561198823616667,"connected_time":3672000000000,"state":"active","ping":108}]},{"server_id":119,"name":"Uncletopia | Seattle | 2 | All Maps","name_short":"sea-2","host":"sea-1.us.uncletopia.com","port":27025,"enabled":true,"region":"us-west","cc":"us","latitude":47.608013,"longitude":-122.33517,"reserved":0,"last_update":"0001-01-01T00:00:00Z","name_a2s":"Uncletopia | Seattle | 2 | All Maps","protocol":17,"map":"pl_pier","folder":"tf","game":"Team Fortress","app_id":440,"player_count":0,"max_players":24,"Bots":0,"server_type":"Dedicated","server_os":"Linux","password":true,"vac":true,"version":"7757534","steam_id":85568392924469998,"keywords":["nocrits","nodmgspread","payload","uncletopia"],"game_id":440,"stv_port":27026,"stv_name":"Uncletopia | Seattle | 2 | All Maps | STV","players":null},{"server_id":406,"name":"Uncletopia | Seattle | 3 | Stopwatch Beta","name_short":"sea-3","host":"sea-1.us.uncletopia.com","port":27035,"enabled":true,"region":"us-west","cc":"us","latitude":47.608013,"longitude":-122.33517,"reserved":0,"last_update":"0001-01-01T00:00:00Z","name_a2s":"Uncletopia | Seattle | 3 | Stopwatch Beta","protocol":17,"map":"cp_process_final","folder":"tf","game":"Team Fortress","app_id":440,"player_count":0,"max_players":24,"Bots":0,"server_type":"Dedicated","server_os":"Linux","password":true,"vac":true,"version":"7757534","steam_id":85568392924515217,"keywords":["cp","nocrits","nodmgspread","uncletopia"],"game_id":440,"stv_port":27036,"stv_name":"Uncletopia | Seattle | 3 | Stopwatch Beta | STV","players":null},{"server_id":17,"name":"Uncletopia | San Francisco | 1 | All Maps","name_short":"sfo-1","host":"sfo-1.us.uncletopia.com","port":27015,"enabled":true,"region":"us-west","cc":"us","latitude":37.77397,"longitude":-122.4313,"reserved":0,"last_update":"0001-01-01T00:00:00Z","name_a2s":"Uncletopia | San Francisco | 1 | All Maps","protocol":17,"map":"koth_lakeside_final","folder":"tf","game":"Team Fortress","app_id":440,"player_count":6,"max_players":24,"Bots":0,"server_type":"Dedicated","server_os":"Linux","password":true,"vac":true,"version":"7757534","steam_id":85568392924469999,"keywords":["cp","nocrits","nodmgspread","uncletopia"],"game_id":440,"stv_port":27016,"stv_name":"Uncletopia | San Francisco | 1 | All Maps | STV","players":[{"user_id":15,"name":"SpaghettiMaster420","steam_id":76561199024321120,"connected_time":1637000000000,"state":"active","ping":65},{"user_id":16,"name":"hersheybargame","steam_id":76561199162003623,"connected_time":1449000000000,"state":"active","ping":49},{"user_id":23,"name":"bingonja","steam_id":76561198818346067,"connected_time":155000000000,"state":"active","ping":220},{"user_id":18,"name":"diet sausage enthusiast","steam_id":76561198175643053,"connected_time":975000000000,"state":"active","ping":96},{"user_id":19,"name":"hoOmIN","steam_id":76561198334947079,"connected_time":849000000000,"state":"active","ping":53},{"user_id":20,"name":"Spartanfoks","steam_id":76561197991498628,"connected_time":741000000000,"state":"active","ping":75}]},{"server_id":18,"name":"Uncletopia | San Francisco | 2 | All Maps","name_short":"sfo-2","host":"sfo-1.us.uncletopia.com","port":27025,"enabled":true,"region":"us-west","cc":"us","latitude":37.77397,"longitude":-122.4313,"reserved":0,"last_update":"0001-01-01T00:00:00Z","name_a2s":"Uncletopia | San Francisco | 2 | All Maps","protocol":17,"map":"koth_viaduct","folder":"tf","game":"Team Fortress","app_id":440,"player_count":0,"max_players":24,"Bots":0,"server_type":"Dedicated","server_os":"Linux","password":true,"vac":true,"version":"7757534","steam_id":85568392924470000,"keywords":["cp","nocrits","nodmgspread","uncletopia"],"game_id":440,"stv_port":27026,"stv_name":"Uncletopia | San Francisco | 2 | All Maps | STV","players":null},{"server_id":19,"name":"Uncletopia | San Francisco | 3 | Stopwatch Beta","name_short":"sfo-3","host":"sfo-1.us.uncletopia.com","port":27035,"enabled":true,"region":"us-west","cc":"us","latitude":37.77397,"longitude":-122.4313,"reserved":0,"last_update":"0001-01-01T00:00:00Z","name_a2s":"Uncletopia | San Francisco | 3 | Stopwatch Beta","protocol":17,"map":"workshop/pl_barnblitz_pro7.ugc582280235","folder":"tf","game":"Team Fortress","app_id":440,"player_count":0,"max_players":24,"Bots":0,"server_type":"Dedicated","server_os":"Linux","password":true,"vac":true,"version":"7757534","steam_id":85568392924742824,"keywords":["nocrits","nodmgspread","payload","uncletopia"],"game_id":440,"stv_port":27036,"stv_name":"Uncletopia | San Francisco | 3 | Stopwatch Beta | STV","players":null},{"server_id":20,"name":"Uncletopia | San Francisco | 4 | Community","name_short":"sfo-4","host":"sfo-1.us.uncletopia.com","port":27045,"enabled":true,"region":"us-west","cc":"us","latitude":37.77397,"longitude":-122.4313,"reserved":0,"last_update":"0001-01-01T00:00:00Z","name_a2s":"Uncletopia | San Francisco | 4 | Community","protocol":17,"map":"pl_frontier_final","folder":"tf","game":"Team Fortress","app_id":440,"player_count":0,"max_players":24,"Bots":0,"server_type":"Dedicated","server_os":"Linux","password":true,"vac":true,"version":"7757534","steam_id":85568392924742826,"keywords":["nocrits","nodmgspread","payload","uncletopia"],"game_id":440,"stv_port":27046,"stv_name":"Uncletopia | San Francisco | 4 | Community | STV","players":null},{"server_id":141,"name":"Uncletopia | Sydney | 1 | All Maps","name_short":"syd-1","host":"syd-1.au.uncletopia.com","port":27015,"enabled":true,"region":"au","cc":"au","latitude":-33.865143,"longitude":151.2099,"reserved":0,"last_update":"0001-01-01T00:00:00Z","name_a2s":"Uncletopia | Sydney | 1 | All Maps","protocol":17,"map":"pl_frontier_final","folder":"tf","game":"Team Fortress","app_id":440,"player_count":0,"max_players":24,"Bots":0,"server_type":"Dedicated","server_os":"Linux","password":true,"vac":true,"version":"7757534","steam_id":85568392924470001,"keywords":["nocrits","nodmgspread","payload","uncletopia"],"game_id":440,"stv_port":27016,"stv_name":"Uncletopia | Sydney | 1 | All Maps | STV","players":null},{"server_id":123,"name":"Uncletopia | Sydney | 2 | All Maps","name_short":"syd-2","host":"syd-1.au.uncletopia.com","port":27025,"enabled":true,"region":"au","cc":"au","latitude":-33.865143,"longitude":151.2099,"reserved":0,"last_update":"0001-01-01T00:00:00Z","name_a2s":"Uncletopia | Sydney | 2 | All Maps","protocol":17,"map":"cp_altitude","folder":"tf","game":"Team Fortress","app_id":440,"player_count":0,"max_players":24,"Bots":0,"server_type":"Dedicated","server_os":"Linux","password":true,"vac":true,"version":"7757534","steam_id":85568392924470002,"keywords":["cp","nocrits","nodmgspread","uncletopia"],"game_id":440,"stv_port":27026,"stv_name":"Uncletopia | Sydney | 2 | All Maps | STV","players":null},{"server_id":395,"name":"Uncletopia | Sydney | 3 | All Maps","name_short":"syd-3","host":"syd-1.au.uncletopia.com","port":27035,"enabled":true,"region":"au","cc":"au","latitude":-33.865143,"longitude":151.2099,"reserved":0,"last_update":"0001-01-01T00:00:00Z","name_a2s":"Uncletopia | Sydney | 3 | All Maps","protocol":17,"map":"koth_lakeside_final","folder":"tf","game":"Team Fortress","app_id":440,"player_count":0,"max_players":24,"Bots":0,"server_type":"Dedicated","server_os":"Linux","password":true,"vac":true,"version":"7757534","steam_id":85568392925194467,"keywords":["cp","nocrits","nodmgspread","uncletopia"],"game_id":440,"stv_port":27036,"stv_name":"Uncletopia | Sydney | 3 | All Maps | STV","players":null},{"server_id":396,"name":"Uncletopia | Sydney | 4 | All Maps","name_short":"syd-4","host":"syd-1.au.uncletopia.com","port":27045,"enabled":true,"region":"au","cc":"au","latitude":-33.865143,"longitude":151.2099,"reserved":0,"last_update":"0001-01-01T00:00:00Z","name_a2s":"Uncletopia | Sydney | 4 | All Maps","protocol":17,"map":"koth_viaduct","folder":"tf","game":"Team Fortress","app_id":440,"player_count":0,"max_players":24,"Bots":0,"server_type":"Dedicated","server_os":"Linux","password":true,"vac":true,"version":"7757534","steam_id":85568392925397958,"keywords":["cp","nocrits","nodmgspread","uncletopia"],"game_id":440,"stv_port":27046,"stv_name":"Uncletopia | Sydney | 4 | All Maps | STV","players":null},{"server_id":58,"name":"Uncletopia | Sydney | 5 | Stopwatch Beta","name_short":"syd-5","host":"syd-1.au.uncletopia.com","port":27055,"enabled":true,"region":"au","cc":"au","latitude":-33.865143,"longitude":151.2099,"reserved":0,"last_update":"0001-01-01T00:00:00Z","name_a2s":"Uncletopia | Sydney | 5 | Stopwatch Beta","protocol":17,"map":"koth_cascade","folder":"tf","game":"Team Fortress","app_id":440,"player_count":0,"max_players":24,"Bots":0,"server_type":"Dedicated","server_os":"Linux","password":true,"vac":true,"version":"7757534","steam_id":85568392925397959,"keywords":["cp","nocrits","nodmgspread","uncletopia"],"game_id":440,"stv_port":27056,"stv_name":"Uncletopia | Sydney | 5 | Stopwatch Beta | STV","players":null},{"server_id":59,"name":"Uncletopia | Sydney | 6 | Community","name_short":"syd-6","host":"syd-1.au.uncletopia.com","port":27065,"enabled":true,"region":"au","cc":"au","latitude":-33.865143,"longitude":151.2099,"reserved":0,"last_update":"0001-01-01T00:00:00Z","name_a2s":"Uncletopia | Sydney | 6 | Community","protocol":17,"map":"workshop/cp_glassworks_rc6a.ugc454118349","folder":"tf","game":"Team Fortress","app_id":440,"player_count":0,"max_players":24,"Bots":0,"server_type":"Dedicated","server_os":"Linux","password":true,"vac":true,"version":"7757534","steam_id":85568392925397960,"keywords":["cp","nocrits","nodmgspread","uncletopia"],"game_id":440,"stv_port":27066,"stv_name":"Uncletopia | Sydney | 6 | Community | STV","players":null},{"server_id":49,"name":"Uncletopia | Warsaw | 1 | All Maps","name_short":"waw-1","host":"waw-1.pl.uncletopia.com","port":27015,"enabled":true,"region":"eu","cc":"pl","latitude":52.2297,"longitude":21.017532,"reserved":0,"last_update":"0001-01-01T00:00:00Z","name_a2s":"","protocol":0,"map":"","folder":"","game":"","app_id":0,"player_count":0,"max_players":0,"Bots":0,"server_type":"","server_os":"","password":false,"vac":false,"version":"","steam_id":0,"keywords":null,"game_id":0,"stv_port":0,"stv_name":"","players":null},{"server_id":50,"name":"Uncletopia | Warsaw | 2 | All Maps","name_short":"waw-2","host":"waw-1.pl.uncletopia.com","port":27025,"enabled":true,"region":"eu","cc":"pl","latitude":52.2297,"longitude":21.017532,"reserved":0,"last_update":"0001-01-01T00:00:00Z","name_a2s":"Uncletopia | Warsaw | 2 | All Maps","protocol":17,"map":"koth_cascade","folder":"tf","game":"Team Fortress","app_id":440,"player_count":2,"max_players":24,"Bots":0,"server_type":"Dedicated","server_os":"Linux","password":true,"vac":true,"version":"7757534","steam_id":85568392925397851,"keywords":["cp","nocrits","nodmgspread","uncletopia"],"game_id":440,"stv_port":27026,"stv_name":"Uncletopia | Warsaw | 2 | All Maps | STV","players":[{"user_id":27,"name":"Ates164","steam_id":76561199123074978,"connected_time":218000000000,"state":"active","ping":69},{"user_id":28,"name":"KiritoL06","steam_id":76561199354427717,"connected_time":199000000000,"state":"active","ping":83}]},{"server_id":51,"name":"Uncletopia | Warsaw | 3 | All Maps","name_short":"waw-3","host":"waw-1.pl.uncletopia.com","port":27035,"enabled":true,"region":"eu","cc":"pl","latitude":52.2297,"longitude":21.017532,"reserved":0,"last_update":"0001-01-01T00:00:00Z","name_a2s":"Uncletopia | Warsaw | 3 | All Maps","protocol":17,"map":"koth_lakeside_final","folder":"tf","game":"Team Fortress","app_id":440,"player_count":0,"max_players":24,"Bots":0,"server_type":"Dedicated","server_os":"Linux","password":true,"vac":true,"version":"7757534","steam_id":85568392925397852,"keywords":["cp","nocrits","nodmgspread","uncletopia"],"game_id":440,"stv_port":27036,"stv_name":"Uncletopia | Warsaw | 3 | All Maps | STV","players":null},{"server_id":52,"name":"Uncletopia | Warsaw | 4 | All Maps","name_short":"waw-4","host":"waw-1.pl.uncletopia.com","port":27045,"enabled":true,"region":"eu","cc":"pl","latitude":52.2297,"longitude":21.017532,"reserved":0,"last_update":"0001-01-01T00:00:00Z","name_a2s":"Uncletopia | Warsaw | 4 | All Maps","protocol":17,"map":"cp_process_final","folder":"tf","game":"Team Fortress","app_id":440,"player_count":0,"max_players":24,"Bots":0,"server_type":"Dedicated","server_os":"Linux","password":true,"vac":true,"version":"7757534","steam_id":85568392925397853,"keywords":["cp","nocrits","nodmgspread","uncletopia"],"game_id":440,"stv_port":27046,"stv_name":"Uncletopia | Warsaw | 4 | All Maps | STV","players":null},{"server_id":53,"name":"Uncletopia | Warsaw | 5 | Stopwatch Beta","name_short":"waw-5","host":"waw-1.pl.uncletopia.com","port":27055,"enabled":true,"region":"eu","cc":"pl","latitude":52.2297,"longitude":21.017532,"reserved":0,"last_update":"0001-01-01T00:00:00Z","name_a2s":"Uncletopia | Warsaw | 5 | Stopwatch Beta","protocol":17,"map":"pl_pier","folder":"tf","game":"Team Fortress","app_id":440,"player_count":0,"max_players":24,"Bots":0,"server_type":"Dedicated","server_os":"Linux","password":true,"vac":true,"version":"7757534","steam_id":85568392925397854,"keywords":["nocrits","nodmgspread","payload","uncletopia"],"game_id":440,"stv_port":27056,"stv_name":"Uncletopia | Warsaw | 5 | Stopwatch Beta | STV","players":null},{"server_id":54,"name":"Uncletopia | Warsaw | 6 | Community","name_short":"waw-6","host":"waw-1.pl.uncletopia.com","port":27065,"enabled":true,"region":"eu","cc":"pl","latitude":52.2297,"longitude":21.017532,"reserved":0,"last_update":"0001-01-01T00:00:00Z","name_a2s":"Uncletopia | Warsaw | 6 | Community","protocol":17,"map":"koth_highpass","folder":"tf","game":"Team Fortress","app_id":440,"player_count":0,"max_players":24,"Bots":0,"server_type":"Dedicated","server_os":"Linux","password":true,"vac":true,"version":"7757534","steam_id":85568392925397856,"keywords":["cp","nocrits","nodmgspread","uncletopia"],"game_id":440,"stv_port":27066,"stv_name":"Uncletopia | Warsaw | 6 | Community | STV","players":null}]}