{"status":true,"message":"","result":[{"server_id":2,"name":"Uncletopia | Chicago | 1 | All Maps","name_short":"chi-1","host":"chi-1.us.uncletopia.com","port":27015,"enabled":true,"region":"us-central","cc":"us","latitude":41.881832,"longitude":-87.62318,"reserved":0,"last_update":"0001-01-01T00:00:00Z","name_a2s":"Uncletopia | Chicago | 1 | All Maps","protocol":17,"map":"pl_frontier_final","folder":"tf","game":"Team Fortress","app_id":440,"player_count":22,"max_players":24,"Bots":0,"server_type":"Dedicated","server_os":"Linux","password":true,"vac":true,"version":"7932396","steam_id":85568392924469984,"keywords":["nocrits","nodmgspread","payload","uncletopia"],"game_id":440,"stv_port":27016,"stv_name":"Uncletopia | Chicago | 1 | All Maps | STV","players":[{"user_id":508,"name":"MrVegasAguitar","steam_id":76561198084466946,"connected_time":704000000000,"state":"active","ping":93},{"user_id":491,"name":"Dreszerg","steam_id":76561198838757422,"connected_time":1941000000000,"state":"active","ping":81},{"user_id":468,"name":"ᓀ‸ᓂ","steam_id":76561198046055673,"connected_time":4031000000000,"state":"active","ping":74},{"user_id":509,"name":"Gabagool","steam_id":76561198365935179,"connected_time":683000000000,"state":"active","ping":63},{"user_id":516,"name":"leumas","steam_id":76561198240408540,"connected_time":396000000000,"state":"active","ping":56},{"user_id":464,"name":"all pain no gain","steam_id":76561199468119975,"connected_time":4447000000000,"state":"active","ping":102},{"user_id":513,"name":"wonkytookthethrone","steam_id":76561199190356691,"connected_time":546000000000,"state":"active","ping":111},{"user_id":470,"name":"Norman","steam_id":76561198154715990,"connected_time":4016000000000,"state":"active","ping":101},{"user_id":517,"name":"gromit","steam_id":76561198037746805,"connected_time":366000000000,"state":"active","ping":73},{"user_id":471,"name":"Cider Lia","steam_id":76561198151569597,"connected_time":4010000000000,"state":"active","ping":140},{"user_id":504,"name":"Grunkie_Chubs","steam_id":76561198272017187,"connected_time":736000000000,"state":"active","ping":68},{"user_id":500,"name":"Lavalace","steam_id":76561198073757592,"connected_time":827000000000,"state":"active","ping":135},{"user_id":482,"name":"󠀡󠀡","steam_id":76561198348035053,"connected_time":3165000000000,"state":"active","ping":126},{"user_id":479,"name":"Ras","steam_id":76561198123546775,"connected_time":3527000000000,"state":"active","ping":76},{"user_id":510,"name":"JoeFalco","steam_id":76561198064005012,"connected_time":678000000000,"state":"active","ping":85},{"user_id":507,"name":"auts","steam_id":76561198055198646,"connected_time":710000000000,"state":"active","ping":75},{"user_id":511,"name":"The Dreamer","steam_id":76561198047638312,"connected_time":648000000000,"state":"active","ping":104},{"user_id":514,"name":"Kinbo2487","steam_id":76561198184714198,"connected_time":536000000000,"state":"active","ping":82},{"user_id":484,"name":"Jennifer Aniston's Nipples","steam_id":76561198086107548,"connected_time":3093000000000,"state":"active","ping":85},{"user_id":518,"name":"aintnowaiyboi","steam_id":76561198301372369,"connected_time":363000000000,"state":"active","ping":68},{"user_id":501,"name":"hdmi_3","steam_id":76561199122704479,"connected_time":822000000000,"state":"active","ping":82},{"user_id":493,"name":"GooniOoni","steam_id":76561198102154561,"connected_time":1757000000000,"state":"active","ping":42}]},{"server_id":106,"name":"Uncletopia | Chicago | 2 | All Maps","name_short":"chi-2","host":"chi-1.us.uncletopia.com","port":27025,"enabled":true,"region":"us-central","cc":"us","latitude":41.881832,"longitude":-87.62318,"reserved":0,"last_update":"0001-01-01T00:00:00Z","name_a2s":"Uncletopia | Chicago | 2 | All Maps","protocol":17,"map":"pl_borneo","folder":"tf","game":"Team Fortress","app_id":440,"player_count":24,"max_players":24,"Bots":0,"server_type":"Dedicated","server_os":"Linux","password":true,"vac":true,"version":"7932396","steam_id":85568392924469985,"keywords":["nocrits","nodmgspread","payload","uncletopia"],"game_id":440,"stv_port":27026,"stv_name":"Uncletopia | Chicago | 2 | All Maps | STV","players":[{"user_id":177,"name":"newport menthol 100s CEO","steam_id":76561198050976060,"connected_time":846000000000,"state":"active","ping":44},{"user_id":193,"name":"MY LOVE DRIPS IN RED","steam_id":76561198072179483,"connected_time":76000000000,"state":"active","ping":93},{"user_id":189,"name":"Big Ears","steam_id":76561198851363077,"connected_time":420000000000,"state":"active","ping":71},{"user_id":182,"name":"Pink","steam_id":76561198168842467,"connected_time":510000000000,"state":"active","ping":45},{"user_id":127,"name":"Sableye","steam_id":76561198061247147,"connected_time":4044000000000,"state":"active","ping":70},{"user_id":170,"name":"thecal","steam_id":76561198307893384,"connected_time":1146000000000,"state":"active","ping":59},{"user_id":135,"name":"Rambly Dambly","steam_id":76561198844496567,"connected_time":3660000000000,"state":"active","ping":52},{"user_id":154,"name":"bonk","steam_id":76561199132598729,"connected_time":2238000000000,"state":"active","ping":181},{"user_id":194,"name":"Tinnitus Enjoyer","steam_id":76561198046526036,"connected_time":52000000000,"state":"active","ping":100},{"user_id":178,"name":"beans","steam_id":76561198074275991,"connected_time":817000000000,"state":"active","ping":50},{"user_id":25,"name":"Gentoo Linux Gaming","steam_id":76561197999657118,"connected_time":9646000000000,"state":"active","ping":82},{"user_id":151,"name":"Rappitor","steam_id":76561198105613110,"connected_time":2638000000000,"state":"active","ping":55},{"user_id":190,"name":"TheAlmightyG","steam_id":76561198235946096,"connected_time":324000000000,"state":"active","ping":97},{"user_id":180,"name":"Spike Bones","steam_id":76561198234926120,"connected_time":745000000000,"state":"active","ping":93},{"user_id":183,"name":"ash","steam_id":76561198127890645,"connected_time":505000000000,"state":"active","ping":80},{"user_id":185,"name":"Sigiferd","steam_id":76561198148788110,"connected_time":478000000000,"state":"active","ping":110},{"user_id":140,"name":"how do i girl???","steam_id":76561198050290565,"connected_time":2928000000000,"state":"active","ping":78},{"user_id":166,"name":"cl_showpaws 1","steam_id":76561198160455073,"connected_time":1472000000000,"state":"active","ping":63},{"user_id":181,"name":"rabscootle","steam_id":76561198045619076,"connected_time":735000000000,"state":"active","ping":95},{"user_id":153,"name":"scapegoat","steam_id":76561198188722751,"connected_time":2342000000000,"state":"active","ping":107},{"user_id":144,"name":"pogo","steam_id":76561198148913461,"connected_time":2834000000000,"state":"active","ping":60},{"user_id":186,"name":"GamingJuice42","steam_id":76561198110469437,"connected_time":473000000000,"state":"active","ping":68},{"user_id":187,"name":"Poofartman56","steam_id":76561199235400970,"connected_time":468000000000,"state":"active","ping":99},{"user_id":145,"name":"Musical Magician","steam_id":76561198985893163,"connected_time":2826000000000,"state":"active","ping":88}]},{"server_id":402,"name":"Uncletopia | Chicago | 3 | All Maps","name_short":"chi-3","host":"chi-1.us.uncletopia.com","port":27035,"enabled":true,"region":"us-central","cc":"us","latitude":41.881832,"longitude":-87.62318,"reserved":0,"last_update":"0001-01-01T00:00:00Z","name_a2s":"Uncletopia | Chicago | 3 | All Maps","protocol":17,"map":"cp_5gorge","folder":"tf","game":"Team Fortress","app_id":440,"player_count":23,"max_players":24,"Bots":0,"server_type":"Dedicated","server_os":"Linux","password":true,"vac":true,"version":"7932396","steam_id":85568392924515191,"keywords":["cp","nocrits","nodmgspread","uncletopia"],"game_id":440,"stv_port":27036,"stv_name":"Uncletopia | Chicago | 3 | All Maps | STV","players":[{"user_id":145,"name":"piping plover","steam_id":76561198869347071,"connected_time":635000000000,"state":"active","ping":64},{"user_id":110,"name":"Osrio","steam_id":76561198083428069,"connected_time":3351000000000,"state":"active","ping":87},{"user_id":149,"name":"David De Bergerac","steam_id":76561198010306294,"connected_time":437000000000,"state":"active","ping":86},{"user_id":111,"name":"RyInc","steam_id":76561198874261643,"connected_time":3300000000000,"state":"active","ping":43},{"user_id":54,"name":"Mythical Lag","steam_id":76561198347031281,"connected_time":7264000000000,"state":"active","ping":70},{"user_id":89,"name":"gIBBY","steam_id":76561198080099598,"connected_time":4620000000000,"state":"active","ping":59},{"user_id":127,"name":"clavin_","steam_id":76561198046398447,"connected_time":2990000000000,"state":"active","ping":54},{"user_id":152,"name":"IlTrashPanda","steam_id":76561198447864095,"connected_time":330000000000,"state":"active","ping":84},{"user_id":130,"name":"sex real","steam_id":76561198248636560,"connected_time":2173000000000,"state":"active","ping":97},{"user_id":142,"name":"nori_420","steam_id":76561199117134203,"connected_time":949000000000,"state":"active","ping":108},{"user_id":153,"name":"Acro","steam_id":76561198092451804,"connected_time":312000000000,"state":"active","ping":68},{"user_id":65,"name":"Mephistopheles","steam_id":76561198253731826,"connected_time":5963000000000,"state":"active","ping":70},{"user_id":67,"name":"Earl S","steam_id":76561198064273772,"connected_time":5811000000000,"state":"active","ping":74},{"user_id":154,"name":"Orca?","steam_id":76561198164341099,"connected_time":256000000000,"state":"active","ping":84},{"user_id":134,"name":"MIKESAVAGE","steam_id":76561198996777622,"connected_time":2019000000000,"state":"active","ping":94},{"user_id":140,"name":"octojosh2","steam_id":76561199304269609,"connected_time":1015000000000,"state":"active","ping":77},{"user_id":151,"name":"az_noob","steam_id":76561199382983284,"connected_time":367000000000,"state":"active","ping":85},{"user_id":101,"name":"I gotta fart really bad","steam_id":76561197986530028,"connected_time":4113000000000,"state":"active","ping":97},{"user_id":150,"name":"InstantOzone","steam_id":76561198067556825,"connected_time":410000000000,"state":"active","ping":59},{"user_id":155,"name":"i looove boobies !!!1!","steam_id":76561198353456379,"connected_time":72000000000,"state":"active","ping":65},{"user_id":133,"name":"davos","steam_id":76561198041072099,"connected_time":2165000000000,"state":"active","ping":60},{"user_id":117,"name":"TheFriendlyPybro","steam_id":76561198119425604,"connected_time":3181000000000,"state":"active","ping":79},{"user_id":141,"name":"NeonBean","steam_id":76561198088335827,"connected_time":996000000000,"state":"active","ping":87}]},{"server_id":403,"name":"Uncletopia | Chicago | 4 | All Maps","name_short":"chi-4","host":"chi-1.us.uncletopia.com","port":27045,"enabled":true,"region":"us-central","cc":"us","latitude":41.881832,"longitude":-87.62318,"reserved":0,"last_update":"0001-01-01T00:00:00Z","name_a2s":"Uncletopia | Chicago | 4 | All Maps","protocol":17,"map":"cp_sunshine","folder":"tf","game":"Team Fortress","app_id":440,"player_count":21,"max_players":24,"Bots":0,"server_type":"Dedicated","server_os":"Linux","password":true,"vac":true,"version":"7932396","steam_id":85568392924515193,"keywords":["cp","nocrits","nodmgspread","uncletopia"],"game_id":440,"stv_port":27046,"stv_name":"Uncletopia | Chicago | 4 | All Maps | STV","players":[{"user_id":234,"name":"lilixdust","steam_id":76561199391478575,"connected_time":4693000000000,"state":"active","ping":99},{"user_id":281,"name":"orange porridge","steam_id":76561198044102244,"connected_time":73000000000,"state":"active","ping":63},{"user_id":261,"name":"bubbles","steam_id":76561198974276335,"connected_time":1794000000000,"state":"active","ping":53},{"user_id":271,"name":"battle clown","steam_id":76561198045788371,"connected_time":913000000000,"state":"active","ping":70},{"user_id":238,"name":"Brown_Dream","steam_id":76561198975766145,"connected_time":4200000000000,"state":"active","ping":89},{"user_id":260,"name":"Scotty","steam_id":76561198268006443,"connected_time":1882000000000,"state":"active","ping":87},{"user_id":246,"name":"_SCOOBER_","steam_id":76561199239122502,"connected_time":3495000000000,"state":"active","ping":119},{"user_id":273,"name":"Qwerty","steam_id":76561198023525894,"connected_time":457000000000,"state":"active","ping":164},{"user_id":250,"name":"Tom","steam_id":76561198070630154,"connected_time":3151000000000,"state":"active","ping":88},{"user_id":278,"name":"Flubby","steam_id":76561198069171252,"connected_time":262000000000,"state":"active","ping":60},{"user_id":283,"name":"oog","steam_id":76561198272986152,"connected_time":42000000000,"state":"active","ping":81},{"user_id":284,"name":"lu","steam_id":76561198080731872,"connected_time":41000000000,"state":"active","ping":68},{"user_id":272,"name":"M3L","steam_id":76561199474189433,"connected_time":840000000000,"state":"active","ping":73},{"user_id":269,"name":"abcdefghijklmnopqrstuvwxyz","steam_id":76561198175741741,"connected_time":1262000000000,"state":"active","ping":74},{"user_id":263,"name":"cataconik","steam_id":76561198145530829,"connected_time":1769000000000,"state":"active","ping":72},{"user_id":268,"name":"viego","steam_id":76561198273568117,"connected_time":1501000000000,"state":"active","ping":62},{"user_id":280,"name":"purple diesel","steam_id":76561197976548449,"connected_time":150000000000,"state":"active","ping":90},{"user_id":264,"name":"King","steam_id":76561198039763676,"connected_time":1714000000000,"state":"active","ping":69},{"user_id":265,"name":"Mkwhackertracker","steam_id":76561198128343704,"connected_time":1672000000000,"state":"active","ping":60},{"user_id":236,"name":"22moo","steam_id":76561199075331630,"connected_time":4591000000000,"state":"active","ping":67}]},{"server_id":36,"name":"Uncletopia | Chicago | 5 | All Maps","name_short":"chi-5","host":"chi-2.us.uncletopia.com","port":27015,"enabled":true,"region":"us-central","cc":"us","latitude":41.881832,"longitude":-87.62318,"reserved":0,"last_update":"0001-01-01T00:00:00Z","name_a2s":"Uncletopia | Chicago | 5 | All Maps","protocol":17,"map":"pl_badwater","folder":"tf","game":"Team Fortress","app_id":440,"player_count":24,"max_players":24,"Bots":0,"server_type":"Dedicated","server_os":"Linux","password":true,"vac":true,"version":"7932396","steam_id":85568392924866362,"keywords":["nocrits","nodmgspread","payload","uncletopia"],"game_id":440,"stv_port":27016,"stv_name":"Uncletopia | Chicago | 5 | All Maps | STV","players":[{"user_id":60,"name":"caption cool","steam_id":76561197990612056,"connected_time":2544000000000,"state":"active","ping":53},{"user_id":59,"name":"fazaness","steam_id":76561198851525394,"connected_time":2556000000000,"state":"active","ping":84},{"user_id":76,"name":"C Papi","steam_id":76561198027779564,"connected_time":536000000000,"state":"active","ping":53},{"user_id":39,"name":"Winter the Witchie","steam_id":76561198151971178,"connected_time":4057000000000,"state":"active","ping":66},{"user_id":68,"name":"D(b) Hell","steam_id":76561198067869016,"connected_time":1590000000000,"state":"active","ping":44},{"user_id":17,"name":"WarpDrive489","steam_id":76561198320395110,"connected_time":4717000000000,"state":"active","ping":82},{"user_id":75,"name":"pablo","steam_id":76561198395577807,"connected_time":575000000000,"state":"active","ping":60},{"user_id":54,"name":"Captain Dusk","steam_id":76561199093333752,"connected_time":3082000000000,"state":"active","ping":69},{"user_id":20,"name":"Waluigi Kujo","steam_id":76561198845735243,"connected_time":4700000000000,"state":"active","ping":83},{"user_id":21,"name":"gretchling","steam_id":76561198046111695,"connected_time":4662000000000,"state":"active","ping":70},{"user_id":23,"name":"10 FPS Gaymer","steam_id":76561199200969139,"connected_time":4620000000000,"state":"active","ping":115},{"user_id":69,"name":"D.E.O","steam_id":76561198096992957,"connected_time":1154000000000,"state":"active","ping":126},{"user_id":55,"name":"comet sooicidy","steam_id":76561198025173479,"connected_time":3079000000000,"state":"active","ping":92},{"user_id":49,"name":"The Worst Sniper","steam_id":76561198104086771,"connected_time":3382000000000,"state":"active","ping":97},{"user_id":36,"name":"Tysteemo","steam_id":76561198395917737,"connected_time":4145000000000,"state":"active","ping":116},{"user_id":48,"name":"Two Homeless Men","steam_id":76561199179400763,"connected_time":3441000000000,"state":"active","ping":50},{"user_id":65,"name":"Engi","steam_id":76561198430985020,"connected_time":2445000000000,"state":"active","ping":75},{"user_id":31,"name":"Paradox","steam_id":76561198284164847,"connected_time":4387000000000,"state":"active","ping":75},{"user_id":70,"name":"Fstev ✘","steam_id":76561198358766202,"connected_time":1114000000000,"state":"active","ping":156},{"user_id":66,"name":"thatguy_luigi","steam_id":76561198968055462,"connected_time":2444000000000,"state":"active","ping":103},{"user_id":71,"name":"Fightin Cow","steam_id":76561198080941486,"connected_time":992000000000,"state":"active","ping":85},{"user_id":42,"name":"Shoko of Hellwound","steam_id":76561198095277549,"connected_time":4033000000000,"state":"active","ping":160},{"user_id":45,"name":"*sneaky snitch starts playing*","steam_id":76561198335160895,"connected_time":3652000000000,"state":"active","ping":71},{"user_id":67,"name":"Willem Dafoe","steam_id":76561198037453253,"connected_time":2421000000000,"state":"active","ping":58}]},{"server_id":37,"name":"Uncletopia | Chicago | 6 | All Maps","name_short":"chi-6","host":"chi-2.us.uncletopia.com","port":27025,"enabled":true,"region":"us-central","cc":"us","latitude":41.881832,"longitude":-87.62318,"reserved":0,"last_update":"0001-01-01T00:00:00Z","name_a2s":"Uncletopia | Chicago | 6 | All Maps","protocol":17,"map":"cp_dustbowl","folder":"tf","game":"Team Fortress","app_id":440,"player_count":21,"max_players":24,"Bots":0,"server_type":"Dedicated","server_os":"Linux","password":true,"vac":true,"version":"7932396","steam_id":85568392924866363,"keywords":["cp","nocrits","nodmgspread","uncletopia"],"game_id":440,"stv_port":27026,"stv_name":"Uncletopia | Chicago | 6 | All Maps | STV","players":[{"user_id":17,"name":"BugsAreMyWorstEnemy","steam_id":76561199440395505,"connected_time":2728000000000,"state":"active","ping":208},{"user_id":18,"name":"Varie","steam_id":76561199454930210,"connected_time":2257000000000,"state":"active","ping":72},{"user_id":32,"name":"Yankee_Pirate","steam_id":76561198260667117,"connected_time":728000000000,"state":"active","ping":74},{"user_id":37,"name":"Autechture","steam_id":76561198099043734,"connected_time":630000000000,"state":"active","ping":74},{"user_id":22,"name":"Rec","steam_id":76561198022813906,"connected_time":1180000000000,"state":"active","ping":46},{"user_id":24,"name":"TransSammie","steam_id":76561198046331930,"connected_time":1133000000000,"state":"active","ping":90},{"user_id":25,"name":"Huey","steam_id":76561198972816386,"connected_time":1089000000000,"state":"active","ping":89},{"user_id":26,"name":"andyiscolorless","steam_id":76561199239870921,"connected_time":1070000000000,"state":"active","ping":169},{"user_id":27,"name":"TheLastGreatKingdomKeeper","steam_id":76561198403263193,"connected_time":943000000000,"state":"active","ping":70},{"user_id":28,"name":"daemon","steam_id":76561198001541433,"connected_time":927000000000,"state":"active","ping":48},{"user_id":52,"name":"büddeh","steam_id":76561198070735936,"connected_time":17000000000,"state":"spawning","ping":72},{"user_id":30,"name":"「Mage」","steam_id":76561198150620467,"connected_time":863000000000,"state":"active","ping":60},{"user_id":31,"name":"IMM0RTAL","steam_id":76561198013747901,"connected_time":769000000000,"state":"active","ping":73},{"user_id":33,"name":"rabbitboy","steam_id":76561199021219781,"connected_time":669000000000,"state":"active","ping":53},{"user_id":34,"name":"Chezaus","steam_id":76561198317397837,"connected_time":665000000000,"state":"active","ping":65},{"user_id":45,"name":"SCARRING THE HOES (i am lonely)","steam_id":76561198397009880,"connected_time":502000000000,"state":"active","ping":60},{"user_id":38,"name":"com lag","steam_id":76561198019019392,"connected_time":581000000000,"state":"active","ping":45},{"user_id":39,"name":"sardien","steam_id":76561198256184467,"connected_time":578000000000,"state":"active","ping":45},{"user_id":51,"name":"I'm trying my best","steam_id":76561198886157874,"connected_time":231000000000,"state":"active","ping":67},{"user_id":50,"name":"pray the gay away","steam_id":76561198319869378,"connected_time":281000000000,"state":"active","ping":62},{"user_id":46,"name":"silly jester","steam_id":76561198079609974,"connected_time":489000000000,"state":"active","ping":112}]},{"server_id":38,"name":"Uncletopia | Chicago | 7 | Stopwatch Beta","name_short":"chi-7","host":"chi-2.us.uncletopia.com","port":27035,"enabled":true,"region":"us-central","cc":"us","latitude":41.881832,"longitude":-87.62318,"reserved":0,"last_update":"0001-01-01T00:00:00Z","name_a2s":"Uncletopia | Chicago | 7 | Stopwatch Beta","protocol":17,"map":"pl_borneo","folder":"tf","game":"Team Fortress","app_id":440,"player_count":0,"max_players":24,"Bots":0,"server_type":"Dedicated","server_os":"Linux","password":true,"vac":true,"version":"7932396","steam_id":85568392924866364,"keywords":["nocrits","nodmgspread","payload","uncletopia"],"game_id":440,"stv_port":27036,"stv_name":"Uncletopia | Chicago | 7 | Stopwatch Beta | STV","players":null},{"server_id":39,"name":"Uncletopia | Chicago | 8 | Community","name_short":"chi-8","host":"chi-2.us.uncletopia.com","port":27045,"enabled":true,"region":"us-central","cc":"us","latitude":41.881832,"longitude":-87.62318,"reserved":0,"last_update":"0001-01-01T00:00:00Z","name_a2s":"Uncletopia | Chicago | 8 | Community","protocol":17,"map":"workshop/cp_logjam_rc12.ugc454812035","folder":"tf","game":"Team Fortress","app_id":440,"player_count":21,"max_players":24,"Bots":0,"server_type":"Dedicated","server_os":"Linux","password":true,"vac":true,"version":"7932396","steam_id":85568392924866365,"keywords":["cp","nocrits","nodmgspread","uncletopia"],"game_id":440,"stv_port":27046,"stv_name":"Uncletopia | Chicago | 8 | Community | STV","players":[{"user_id":288,"name":"pong_","steam_id":76561198166982558,"connected_time":1372000000000,"state":"connecting","ping":97},{"user_id":257,"name":"melvinsaurus56430","steam_id":76561198170276601,"connected_time":3771000000000,"state":"connecting","ping":97},{"user_id":192,"name":"ohio survivor","steam_id":76561198031675881,"connected_time":8104000000000,"state":"connecting","ping":48},{"user_id":291,"name":"*Gage*","steam_id":76561197975233869,"connected_time":1195000000000,"state":"connecting","ping":93},{"user_id":303,"name":"shitass | troutsupply.net","steam_id":76561198210572481,"connected_time":28000000000,"state":"connecting","ping":104},{"user_id":302,"name":"Sora the Sorcerer","steam_id":76561198162077961,"connected_time":115000000000,"state":"connecting","ping":80},{"user_id":285,"name":"TrenchcoatCraig","steam_id":76561198295599533,"connected_time":2157000000000,"state":"connecting","ping":78},{"user_id":278,"name":"Wang of Wall St","steam_id":76561198047460598,"connected_time":2372000000000,"state":"connecting","ping":86},{"user_id":293,"name":"LukeLeal","steam_id":76561198049822995,"connected_time":1134000000000,"state":"connecting","ping":207},{"user_id":297,"name":"NotNamedBob","steam_id":76561199482149729,"connected_time":626000000000,"state":"connecting","ping":68},{"user_id":275,"name":"Dullahan","steam_id":76561198119668908,"connected_time":2624000000000,"state":"connecting","ping":132},{"user_id":299,"name":"Relix6136","steam_id":76561199249256218,"connected_time":376000000000,"state":"connecting","ping":60},{"user_id":295,"name":"Doctor Glocktorpus [NGC]","steam_id":76561198049194645,"connected_time":979000000000,"state":"connecting","ping":89},{"user_id":271,"name":"Node⋄","steam_id":76561198219359475,"connected_time":2720000000000,"state":"connecting","ping":80},{"user_id":290,"name":"xX BoobKicker Xx","steam_id":76561198006569710,"connected_time":1210000000000,"state":"connecting","ping":88},{"user_id":300,"name":"Lincs","steam_id":76561198049851872,"connected_time":246000000000,"state":"connecting","ping":80},{"user_id":286,"name":"the pest","steam_id":76561198826298849,"connected_time":1886000000000,"state":"connecting","ping":94},{"user_id":276,"name":"GreenApples","steam_id":76561198120559543,"connected_time":2589000000000,"state":"connecting","ping":135},{"user_id":282,"name":"CapnKris22","steam_id":76561198049010994,"connected_time":2336000000000,"state":"connecting","ping":71},{"user_id":283,"name":"AmazingA","steam_id":76561198193497343,"connected_time":2278000000000,"state":"connecting","ping":69},{"user_id":301,"name":"who is gavin?","steam_id":76561198069415057,"connected_time":180000000000,"state":"connecting","ping":84}]},{"server_id":8,"name":"Uncletopia | Dallas | 1 | All Maps","name_short":"dal-1","host":"dal-1.us.uncletopia.com","port":27015,"enabled":true,"region":"us-central","cc":"us","latitude":32.779167,"longitude":-96.80889,"reserved":0,"last_update":"0001-01-01T00:00:00Z","name_a2s":"Uncletopia | Dallas | 1 | All Maps","protocol":17,"map":"cp_mercenarypark","folder":"tf","game":"Team Fortress","app_id":440,"player_count":24,"max_players":24,"Bots":0,"server_type":"Dedicated","server_os":"Linux","password":true,"vac":true,"version":"7932396","steam_id":85568392924469986,"keywords":["cp","nocrits","nodmgspread","uncletopia"],"game_id":440,"stv_port":27016,"stv_name":"Uncletopia | Dallas | 1 | All Maps | STV","players":[{"user_id":279,"name":"Fat Kid","steam_id":76561198304180941,"connected_time":1287000000000,"state":"active","ping":70},{"user_id":280,"name":"blinksuarez","steam_id":76561199387729966,"connected_time":1267000000000,"state":"active","ping":87},{"user_id":246,"name":"BigBattleToaster","steam_id":76561199087551431,"connected_time":4503000000000,"state":"active","ping":69},{"user_id":294,"name":"(Past Tense)","steam_id":76561197996279335,"connected_time":209000000000,"state":"active","ping":64},{"user_id":281,"name":"Coach Twig","steam_id":76561198058831591,"connected_time":1253000000000,"state":"active","ping":49},{"user_id":242,"name":"TheGFG","steam_id":76561198166150556,"connected_time":4809000000000,"state":"active","ping":64},{"user_id":283,"name":"Boss","steam_id":76561198148606597,"connected_time":1114000000000,"state":"active","ping":95},{"user_id":264,"name":"Kalir","steam_id":76561197996125658,"connected_time":2406000000000,"state":"active","ping":85},{"user_id":236,"name":"schmuck","steam_id":76561198143789773,"connected_time":5217000000000,"state":"active","ping":55},{"user_id":289,"name":"SizableChap","steam_id":76561199148162904,"connected_time":465000000000,"state":"active","ping":69},{"user_id":290,"name":"helen keller","steam_id":76561197979870540,"connected_time":347000000000,"state":"active","ping":82},{"user_id":282,"name":"K","steam_id":76561198233616048,"connected_time":1198000000000,"state":"active","ping":99},{"user_id":288,"name":"Zer0Educati0n","steam_id":76561198093939709,"connected_time":819000000000,"state":"active","ping":74},{"user_id":268,"name":"orange rind (3 cent wifi)","steam_id":76561198130242461,"connected_time":2318000000000,"state":"active","ping":56},{"user_id":291,"name":"ZodiacThundaga","steam_id":76561199025117814,"connected_time":334000000000,"state":"active","ping":99},{"user_id":292,"name":"BurningKev","steam_id":76561198057688837,"connected_time":331000000000,"state":"active","ping":75},{"user_id":295,"name":"StayFrosty","steam_id":76561198343553078,"connected_time":193000000000,"state":"active","ping":102},{"user_id":251,"name":"EverythingZen","steam_id":76561198257384503,"connected_time":3659000000000,"state":"active","ping":65},{"user_id":202,"name":"Sahbi (she/they)","steam_id":76561199196292242,"connected_time":8457000000000,"state":"active","ping":68},{"user_id":275,"name":"corned beef","steam_id":76561199366782761,"connected_time":1452000000000,"state":"active","ping":146},{"user_id":249,"name":"Crack Addict","steam_id":76561198166681494,"connected_time":3724000000000,"state":"active","ping":45},{"user_id":293,"name":"Hector Salamanca","steam_id":76561199103213955,"connected_time":237000000000,"state":"active","ping":109},{"user_id":263,"name":"Imrgrim","steam_id":76561198135866481,"connected_time":2556000000000,"state":"active","ping":72},{"user_id":257,"name":"penzfan","steam_id":76561198230422640,"connected_time":3586000000000,"state":"active","ping":63}]},{"server_id":108,"name":"Uncletopia | Dallas | 2 | All Maps","name_short":"dal-2","host":"dal-1.us.uncletopia.com","port":27025,"enabled":true,"region":"us-central","cc":"us","latitude":32.779167,"longitude":-96.80889,"reserved":0,"last_update":"0001-01-01T00:00:00Z","name_a2s":"Uncletopia | Dallas | 2 | All Maps","protocol":17,"map":"pl_barnblitz","folder":"tf","game":"Team Fortress","app_id":440,"player_count":24,"max_players":24,"Bots":0,"server_type":"Dedicated","server_os":"Linux","password":true,"vac":true,"version":"7932396","steam_id":85568392924469988,"keywords":["nocrits","nodmgspread","payload","uncletopia"],"game_id":440,"stv_port":27026,"stv_name":"Uncletopia | Dallas | 2 | All Maps | STV","players":[{"user_id":85,"name":"Aleph","steam_id":76561198020484549,"connected_time":1493000000000,"state":"active","ping":101},{"user_id":99,"name":"loadedboi12345","steam_id":76561199213709661,"connected_time":233000000000,"state":"active","ping":88},{"user_id":93,"name":"Nervere","steam_id":76561198102214687,"connected_time":778000000000,"state":"active","ping":78},{"user_id":73,"name":"Raziel","steam_id":76561198404168839,"connected_time":2230000000000,"state":"active","ping":118},{"user_id":95,"name":"DFR DeezNoodlez","steam_id":76561198246700372,"connected_time":677000000000,"state":"active","ping":75},{"user_id":90,"name":"herb","steam_id":76561198185980055,"connected_time":1308000000000,"state":"active","ping":71},{"user_id":35,"name":"Reague","steam_id":76561199092175631,"connected_time":4070000000000,"state":"active","ping":71},{"user_id":94,"name":"artichoke","steam_id":76561198980994364,"connected_time":740000000000,"state":"active","ping":108},{"user_id":96,"name":"Scorpianswag","steam_id":76561198260651036,"connected_time":628000000000,"state":"active","ping":74},{"user_id":42,"name":"Kelly","steam_id":76561199074198653,"connected_time":3750000000000,"state":"active","ping":111},{"user_id":44,"name":"I can smell you.","steam_id":76561199007079402,"connected_time":3522000000000,"state":"active","ping":81},{"user_id":79,"name":"2JZ_","steam_id":76561198064027289,"connected_time":1929000000000,"state":"active","ping":80},{"user_id":69,"name":"Punished Eric","steam_id":76561198074482804,"connected_time":2267000000000,"state":"active","ping":102},{"user_id":68,"name":"AmberSkies","steam_id":76561198890042793,"connected_time":2290000000000,"state":"active","ping":87},{"user_id":97,"name":"lfty","steam_id":76561198283841707,"connected_time":440000000000,"state":"active","ping":94},{"user_id":86,"name":"swift","steam_id":76561198190461447,"connected_time":1416000000000,"state":"active","ping":72},{"user_id":101,"name":"stick","steam_id":76561198134334367,"connected_time":30000000000,"state":"spawning","ping":127},{"user_id":91,"name":"DuragGod69","steam_id":76561198067814426,"connected_time":1172000000000,"state":"active","ping":84},{"user_id":83,"name":"doug demodome","steam_id":76561198048882285,"connected_time":1589000000000,"state":"active","ping":76},{"user_id":55,"name":"surrender to the void","steam_id":76561198055494039,"connected_time":2981000000000,"state":"active","ping":95},{"user_id":56,"name":"Aeris","steam_id":76561198287271028,"connected_time":2977000000000,"state":"active","ping":82},{"user_id":57,"name":"nanakan","steam_id":76561198415577499,"connected_time":2951000000000,"state":"active","ping":52},{"user_id":65,"name":"Momma Anarchy","steam_id":76561198370212718,"connected_time":2432000000000,"state":"active","ping":59},{"user_id":80,"name":"twizted","steam_id":76561197960407274,"connected_time":1826000000000,"state":"active","ping":93}]},{"server_id":5,"name":"Uncletopia | Frankfurt | 1 | All Maps","name_short":"frk-1","host":"frk-1.de.uncletopia.com","port":27015,"enabled":true,"region":"eu","cc":"de","latitude":50.110924,"longitude":8.682127,"reserved":0,"last_update":"0001-01-01T00:00:00Z","name_a2s":"Uncletopia | Frankfurt | 1 | All Maps","protocol":17,"map":"pl_badwater","folder":"tf","game":"Team Fortress","app_id":440,"player_count":23,"max_players":24,"Bots":0,"server_type":"Dedicated","server_os":"Linux","password":true,"vac":true,"version":"7932396","steam_id":85568392924469989,"keywords":["nocrits","nodmgspread","payload","uncletopia"],"game_id":440,"stv_port":27016,"stv_name":"Uncletopia | Frankfurt | 1 | All Maps | STV","players":[{"user_id":439,"name":"askulap","steam_id":76561197992018795,"connected_time":5616000000000,"state":"active","ping":77},{"user_id":628,"name":"THE Grosser","steam_id":76561197995530666,"connected_time":1178000000000,"state":"active","ping":49},{"user_id":646,"name":"Zero","steam_id":76561198939711234,"connected_time":624000000000,"state":"active","ping":103},{"user_id":654,"name":"beep!","steam_id":76561198111674607,"connected_time":153000000000,"state":"active","ping":53},{"user_id":653,"name":"M4R1O","steam_id":76561198050528464,"connected_time":318000000000,"state":"active","ping":60},{"user_id":652,"name":"cursedbygod♡","steam_id":76561198318291047,"connected_time":416000000000,"state":"active","ping":110},{"user_id":601,"name":"nobodyy","steam_id":76561198027735766,"connected_time":1803000000000,"state":"active","ping":74},{"user_id":570,"name":"METhOphetamine","steam_id":76561198068216224,"connected_time":2825000000000,"state":"active","ping":58},{"user_id":571,"name":"Lux","steam_id":76561198060417740,"connected_time":2805000000000,"state":"active","ping":54},{"user_id":640,"name":"Beehive","steam_id":76561198003357205,"connected_time":768000000000,"state":"active","ping":63},{"user_id":647,"name":"XNorec","steam_id":76561198015778815,"connected_time":615000000000,"state":"active","ping":67},{"user_id":641,"name":"SteveFrench","steam_id":76561198151553383,"connected_time":735000000000,"state":"active","ping":78},{"user_id":620,"name":"M A G E","steam_id":76561198063072513,"connected_time":1418000000000,"state":"active","ping":93},{"user_id":635,"name":"Will","steam_id":76561198173329977,"connected_time":835000000000,"state":"active","ping":66},{"user_id":627,"name":"Raeews","steam_id":76561198254646517,"connected_time":1214000000000,"state":"active","ping":55},{"user_id":615,"name":"_420_StopItDudeCmon","steam_id":76561197997146481,"connected_time":1517000000000,"state":"active","ping":68},{"user_id":650,"name":"Megapuncher","steam_id":76561198023536780,"connected_time":544000000000,"state":"active","ping":48},{"user_id":637,"name":"Urfangonultasadana","steam_id":76561199389286151,"connected_time":820000000000,"state":"active","ping":113},{"user_id":540,"name":"Piss Mann","steam_id":76561198152576682,"connected_time":3492000000000,"state":"active","ping":82},{"user_id":629,"name":"someguyinatree_","steam_id":76561198115945265,"connected_time":1174000000000,"state":"active","ping":64},{"user_id":582,"name":"ZaneLu","steam_id":76561198164208668,"connected_time":2484000000000,"state":"active","ping":79},{"user_id":639,"name":"miiq130","steam_id":76561198188010666,"connected_time":807000000000,"state":"active","ping":76},{"user_id":643,"name":"sloppy transgirl toppy","steam_id":76561198057092208,"connected_time":721000000000,"state":"active","ping":61}]},{"server_id":110,"name":"Uncletopia | Frankfurt | 2 | All Maps","name_short":"frk-2","host":"frk-1.de.uncletopia.com","port":27025,"enabled":true,"region":"eu","cc":"de","latitude":50.110924,"longitude":8.682127,"reserved":0,"last_update":"0001-01-01T00:00:00Z","name_a2s":"Uncletopia | Frankfurt | 2 | All Maps","protocol":17,"map":"pl_borneo","folder":"tf","game":"Team Fortress","app_id":440,"player_count":24,"max_players":24,"Bots":0,"server_type":"Dedicated","server_os":"Linux","password":true,"vac":true,"version":"7932396","steam_id":85568392924469990,"keywords":["nocrits","nodmgspread","payload","uncletopia"],"game_id":440,"stv_port":27026,"stv_name":"Uncletopia | Frankfurt | 2 | All Maps | STV","players":[{"user_id":804,"name":"willus212","steam_id":76561199182615246,"connected_time":1226000000000,"state":"active","ping":83},{"user_id":824,"name":"Plain Toast","steam_id":76561198451580251,"connected_time":311000000000,"state":"active","ping":179},{"user_id":825,"name":"liu","steam_id":76561198269154534,"connected_time":300000000000,"state":"active","ping":60},{"user_id":817,"name":"AC/DC=A/D","steam_id":76561198101114695,"connected_time":523000000000,"state":"active","ping":97},{"user_id":767,"name":"limbicsystem","steam_id":76561198025612680,"connected_time":2938000000000,"state":"active","ping":70},{"user_id":827,"name":"XxBenShapiro420xX","steam_id":76561199229373972,"connected_time":202000000000,"state":"active","ping":73},{"user_id":822,"name":"Dr Pepper online clinic","steam_id":76561198068213670,"connected_time":344000000000,"state":"active","ping":51},{"user_id":800,"name":"pringle","steam_id":76561198801246799,"connected_time":1306000000000,"state":"active","ping":57},{"user_id":782,"name":"Klifton","steam_id":76561198803743443,"connected_time":2186000000000,"state":"active","ping":74},{"user_id":810,"name":"perry the platypus","steam_id":76561199379159771,"connected_time":1043000000000,"state":"active","ping":138},{"user_id":829,"name":"Krabs","steam_id":76561198161679477,"connected_time":190000000000,"state":"active","ping":53},{"user_id":808,"name":"simon","steam_id":76561198880361394,"connected_time":1148000000000,"state":"active","ping":49},{"user_id":823,"name":"SHPC skai","steam_id":76561198184881255,"connected_time":330000000000,"state":"active","ping":74},{"user_id":828,"name":"SHPC azzii","steam_id":76561198043939280,"connected_time":201000000000,"state":"active","ping":59},{"user_id":830,"name":"r06u3","steam_id":76561198254099253,"connected_time":180000000000,"state":"active","ping":165},{"user_id":821,"name":"Jasu Juntti","steam_id":76561198133631796,"connected_time":428000000000,"state":"active","ping":80},{"user_id":736,"name":"burgz","steam_id":76561198109955787,"connected_time":4503000000000,"state":"active","ping":58},{"user_id":831,"name":"KaasKrans","steam_id":76561198240451972,"connected_time":101000000000,"state":"active","ping":68},{"user_id":832,"name":"zak","steam_id":76561197998895428,"connected_time":80000000000,"state":"active","ping":48},{"user_id":708,"name":"ROX","steam_id":76561198272289320,"connected_time":5725000000000,"state":"active","ping":89},{"user_id":739,"name":"The Chip-Damage Creeper","steam_id":76561198032359132,"connected_time":4475000000000,"state":"active","ping":60},{"user_id":764,"name":"willem dafoe fan","steam_id":76561198795590054,"connected_time":3229000000000,"state":"active","ping":83},{"user_id":816,"name":"leminsc8","steam_id":76561198825084995,"connected_time":610000000000,"state":"active","ping":44},{"user_id":784,"name":"Cosmetic brain","steam_id":76561198055936410,"connected_time":2160000000000,"state":"active","ping":82}]},{"server_id":308,"name":"Uncletopia | Frankfurt | 3 | All Maps","name_short":"frk-3","host":"frk-1.de.uncletopia.com","port":27035,"enabled":true,"region":"eu","cc":"de","latitude":50.110924,"longitude":8.682127,"reserved":0,"last_update":"0001-01-01T00:00:00Z","name_a2s":"Uncletopia | Frankfurt | 3 | All Maps","protocol":17,"map":"pl_barnblitz","folder":"tf","game":"Team Fortress","app_id":440,"player_count":23,"max_players":24,"Bots":0,"server_type":"Dedicated","server_os":"Linux","password":true,"vac":true,"version":"7932396","steam_id":85568392924504274,"keywords":["nocrits","nodmgspread","payload","uncletopia"],"game_id":440,"stv_port":27036,"stv_name":"Uncletopia | Frankfurt | 3 | All Maps | STV","players":[{"user_id":300,"name":"Waffle","steam_id":76561198397024973,"connected_time":4658000000000,"state":"active","ping":53},{"user_id":301,"name":"N.","steam_id":76561198017274851,"connected_time":4645000000000,"state":"active","ping":44},{"user_id":365,"name":"69JoséFortnite42 El Gamer777","steam_id":76561198435666326,"connected_time":935000000000,"state":"active","ping":101},{"user_id":334,"name":"Grey","steam_id":76561198187190267,"connected_time":2830000000000,"state":"active","ping":57},{"user_id":372,"name":"beef estrogenoff","steam_id":76561198106455841,"connected_time":677000000000,"state":"active","ping":84},{"user_id":366,"name":"SpacePig","steam_id":76561198044662873,"connected_time":808000000000,"state":"active","ping":90},{"user_id":367,"name":"Xx_ElprojugadorM4ri0Fornite09_x","steam_id":76561198275946276,"connected_time":802000000000,"state":"active","ping":96},{"user_id":373,"name":"najed","steam_id":76561198107767664,"connected_time":654000000000,"state":"active","ping":63},{"user_id":369,"name":"Alice in Rubberland","steam_id":76561198087328346,"connected_time":768000000000,"state":"active","ping":149},{"user_id":370,"name":"WhyDoIFeed?","steam_id":76561198003117441,"connected_time":715000000000,"state":"active","ping":49},{"user_id":371,"name":"tunamayo","steam_id":76561198127099299,"connected_time":706000000000,"state":"active","ping":53},{"user_id":374,"name":"Went To Florida (Almost Died)","steam_id":76561199073404214,"connected_time":646000000000,"state":"active","ping":179},{"user_id":356,"name":"Mr. Master","steam_id":76561199198569317,"connected_time":1615000000000,"state":"active","ping":53},{"user_id":375,"name":"Choccy Dates","steam_id":76561198056790920,"connected_time":614000000000,"state":"active","ping":70},{"user_id":387,"name":"\u003cJACK\u003e","steam_id":76561198090405664,"connected_time":164000000000,"state":"active","ping":61},{"user_id":383,"name":"Andy","steam_id":76561198046918834,"connected_time":462000000000,"state":"active","ping":70},{"user_id":377,"name":"Wattoz","steam_id":76561198127779511,"connected_time":591000000000,"state":"active","ping":73},{"user_id":388,"name":"✧ Ghosty ✧","steam_id":76561198312022168,"connected_time":62000000000,"state":"active","ping":72},{"user_id":327,"name":"VampiuS","steam_id":76561197998827007,"connected_time":3318000000000,"state":"active","ping":60},{"user_id":328,"name":"madijo","steam_id":76561198012617400,"connected_time":3316000000000,"state":"active","ping":58},{"user_id":380,"name":"shankz","steam_id":76561198128803260,"connected_time":566000000000,"state":"active","ping":63},{"user_id":384,"name":"Raulca25","steam_id":76561199068256964,"connected_time":427000000000,"state":"active","ping":89},{"user_id":382,"name":"Rigby","steam_id":76561198021552128,"connected_time":525000000000,"state":"active","ping":101}]},{"server_id":309,"name":"Uncletopia | Frankfurt | 4 | All Maps","name_short":"frk-4","host":"frk-1.de.uncletopia.com","port":27045,"enabled":true,"region":"eu","cc":"de","latitude":50.110924,"longitude":8.682127,"reserved":0,"last_update":"0001-01-01T00:00:00Z","name_a2s":"Uncletopia | Frankfurt | 4 | All Maps","protocol":17,"map":"pl_borneo","folder":"tf","game":"Team Fortress","app_id":440,"player_count":0,"max_players":24,"Bots":0,"server_type":"Dedicated","server_os":"Linux","password":true,"vac":true,"version":"7932396","steam_id":85568392924504275,"keywords":["nocrits","nodmgspread","payload","uncletopia"],"game_id":440,"stv_port":27046,"stv_name":"Uncletopia | Frankfurt | 4 | All Maps | STV","players":null},{"server_id":310,"name":"Uncletopia | Frankfurt | 5 | All Maps","name_short":"frk-5","host":"frk-1.de.uncletopia.com","port":27055,"enabled":true,"region":"eu","cc":"de","latitude":50.110924,"longitude":8.682127,"reserved":0,"last_update":"0001-01-01T00:00:00Z","name_a2s":"Uncletopia | Frankfurt | 5 | All Maps","protocol":17,"map":"koth_viaduct","folder":"tf","game":"Team Fortress","app_id":440,"player_count":0,"max_players":24,"Bots":0,"server_type":"Dedicated","server_os":"Linux","password":true,"vac":true,"version":"7932396","steam_id":85568392924504277,"keywords":["cp","nocrits","nodmgspread","uncletopia"],"game_id":440,"stv_port":27056,"stv_name":"Uncletopia | Frankfurt | 5 | All Maps | STV","players":null},{"server_id":311,"name":"Uncletopia | Frankfurt | 6 | All Maps","name_short":"frk-6","host":"frk-1.de.uncletopia.com","port":27065,"enabled":true,"region":"eu","cc":"de","latitude":50.110924,"longitude":8.682127,"reserved":0,"last_update":"0001-01-01T00:00:00Z","name_a2s":"Uncletopia | Frankfurt | 6 | All Maps","protocol":17,"map":"cp_dustbowl","folder":"tf","game":"Team Fortress","app_id":440,"player_count":0,"max_players":24,"Bots":0,"server_type":"Dedicated","server_os":"Linux","password":true,"vac":true,"version":"7932396","steam_id":85568392924504278,"keywords":["cp","nocrits","nodmgspread","uncletopia"],"game_id":440,"stv_port":27066,"stv_name":"Uncletopia | Frankfurt | 6 | All Maps | STV","players":null},{"server_id":23,"name":"Uncletopia | Frankfurt | 7 | Stopwatch Beta","name_short":"frk-7","host":"frk-1.de.uncletopia.com","port":27075,"enabled":true,"region":"eu","cc":"de","latitude":50.110924,"longitude":8.682127,"reserved":0,"last_update":"0001-01-01T00:00:00Z","name_a2s":"Uncletopia | Frankfurt | 7 | Stopwatch Beta","protocol":17,"map":"pl_snowycoast","folder":"tf","game":"Team Fortress","app_id":440,"player_count":0,"max_players":24,"Bots":0,"server_type":"Dedicated","server_os":"Linux","password":true,"vac":true,"version":"7932396","steam_id":85568392924742827,"keywords":["nocrits","nodmgspread","payload","uncletopia"],"game_id":440,"stv_port":27076,"stv_name":"Uncletopia | Frankfurt | 7 | Stopwatch Beta | STV","players":null},{"server_id":24,"name":"Uncletopia | Frankfurt | 8 | Community","name_short":"frk-8","host":"frk-1.de.uncletopia.com","port":27085,"enabled":true,"region":"eu","cc":"de","latitude":50.110924,"longitude":8.682127,"reserved":0,"last_update":"0001-01-01T00:00:00Z","name_a2s":"Uncletopia | Frankfurt | 8 | Community","protocol":17,"map":"workshop/koth_product_final.ugc454272353","folder":"tf","game":"Team Fortress","app_id":440,"player_count":0,"max_players":24,"Bots":0,"server_type":"Dedicated","server_os":"Linux","password":true,"vac":true,"version":"7932396","steam_id":85568392924742828,"keywords":["cp","nocrits","nodmgspread","uncletopia"],"game_id":440,"stv_port":27086,"stv_name":"Uncletopia | Frankfurt | 8 | Community | STV","players":null},{"server_id":202,"name":"Uncletopia | Hong Kong | 1 | All Maps","name_short":"hgk-1","host":"hgk-1.hk.uncletopia.com","port":27015,"enabled":true,"region":"asia","cc":"hk","latitude":22.302711,"longitude":114.177216,"reserved":0,"last_update":"0001-01-01T00:00:00Z","name_a2s":"Uncletopia | Hong Kong | 1 | All Maps","protocol":17,"map":"koth_harvest_final","folder":"tf","game":"Team Fortress","app_id":440,"player_count":3,"max_players":24,"Bots":0,"server_type":"Dedicated","server_os":"Linux","password":true,"vac":true,"version":"7932396","steam_id":85568392924494504,"keywords":["cp","nocrits","nodmgspread","uncletopia"],"game_id":440,"stv_port":27016,"stv_name":"Uncletopia | Hong Kong | 1 | All Maps | STV","players":[{"user_id":299,"name":"NotKomori","steam_id":76561198845165975,"connected_time":316000000000,"state":"active","ping":124},{"user_id":300,"name":"Raiden00","steam_id":76561197994078111,"connected_time":305000000000,"state":"active","ping":73},{"user_id":301,"name":"TheInfiniteK","steam_id":76561198353173330,"connected_time":200000000000,"state":"active","ping":221}]},{"server_id":1,"name":"Uncletopia | Los Angeles | 1 | All Maps","name_short":"lax-1","host":"lax-1.us.uncletopia.com","port":27015,"enabled":true,"region":"us-west","cc":"us","latitude":33.94279,"longitude":-118.41004,"reserved":0,"last_update":"0001-01-01T00:00:00Z","name_a2s":"Uncletopia | Los Angeles | 1 | All Maps","protocol":17,"map":"cp_dustbowl","folder":"tf","game":"Team Fortress","app_id":440,"player_count":0,"max_players":24,"Bots":0,"server_type":"Dedicated","server_os":"Linux","password":true,"vac":true,"version":"7932396","steam_id":85568392924469991,"keywords":["cp","nocrits","nodmgspread","uncletopia"],"game_id":440,"stv_port":27016,"stv_name":"Uncletopia | Los Angeles | 1 | All Maps | STV","players":null},{"server_id":112,"name":"Uncletopia | Los Angeles | 2 | All Maps","name_short":"lax-2","host":"lax-1.us.uncletopia.com","port":27025,"enabled":true,"region":"us-west","cc":"us","latitude":33.94279,"longitude":-118.41004,"reserved":0,"last_update":"0001-01-01T00:00:00Z","name_a2s":"Uncletopia | Los Angeles | 2 | All Maps","protocol":17,"map":"pl_upward","folder":"tf","game":"Team Fortress","app_id":440,"player_count":14,"max_players":24,"Bots":0,"server_type":"Dedicated","server_os":"Linux","password":true,"vac":true,"version":"7932396","steam_id":85568392924469992,"keywords":["nocrits","nodmgspread","payload","uncletopia"],"game_id":440,"stv_port":27026,"stv_name":"Uncletopia | Los Angeles | 2 | All Maps | STV","players":[{"user_id":102,"name":"ScoutBox","steam_id":76561198111539895,"connected_time":179000000000,"state":"active","ping":45},{"user_id":70,"name":"spurious george","steam_id":76561198043558709,"connected_time":2318000000000,"state":"active","ping":66},{"user_id":103,"name":"johndeerwarrior#farmville","steam_id":76561198178049845,"connected_time":119000000000,"state":"active","ping":94},{"user_id":104,"name":"imby","steam_id":76561198103642134,"connected_time":50000000000,"state":"active","ping":89},{"user_id":105,"name":"yeah","steam_id":76561198070553195,"connected_time":39000000000,"state":"spawning","ping":77},{"user_id":96,"name":"gateron red","steam_id":76561198178228075,"connected_time":512000000000,"state":"active","ping":41},{"user_id":101,"name":"dAiLyGrInD","steam_id":76561198163531915,"connected_time":253000000000,"state":"active","ping":78},{"user_id":93,"name":"Mom","steam_id":76561198207936000,"connected_time":968000000000,"state":"active","ping":40},{"user_id":53,"name":"cream team","steam_id":76561198139043953,"connected_time":3818000000000,"state":"active","ping":71},{"user_id":94,"name":"ShadowZiki","steam_id":76561198145930013,"connected_time":677000000000,"state":"active","ping":44},{"user_id":92,"name":"Blue Sea","steam_id":76561198156077339,"connected_time":1385000000000,"state":"active","ping":100},{"user_id":90,"name":"McLovin","steam_id":76561198114934503,"connected_time":1605000000000,"state":"active","ping":75},{"user_id":91,"name":"Temmie500","steam_id":76561199067942631,"connected_time":1407000000000,"state":"active","ping":36},{"user_id":95,"name":"exx","steam_id":76561198090552145,"connected_time":560000000000,"state":"active","ping":44}]},{"server_id":324,"name":"Uncletopia | Los Angeles | 3 | All Maps","name_short":"lax-3","host":"lax-1.us.uncletopia.com","port":27035,"enabled":true,"region":"us-west","cc":"us","latitude":33.94279,"longitude":-118.41004,"reserved":0,"last_update":"0001-01-01T00:00:00Z","name_a2s":"Uncletopia | Los Angeles | 3 | All Maps","protocol":17,"map":"pl_pier","folder":"tf","game":"Team Fortress","app_id":440,"player_count":25,"max_players":24,"Bots":0,"server_type":"Dedicated","server_os":"Linux","password":true,"vac":true,"version":"7932396","steam_id":85568392924510198,"keywords":["nocrits","nodmgspread","payload","uncletopia"],"game_id":440,"stv_port":27036,"stv_name":"Uncletopia | Los Angeles | 3 | All Maps | STV","players":[{"user_id":370,"name":"[chef] iron","steam_id":76561197970888616,"connected_time":2401000000000,"state":"active","ping":89},{"user_id":371,"name":"Dr Nefario","steam_id":76561198254646194,"connected_time":2385000000000,"state":"active","ping":105},{"user_id":326,"name":"RoastedGoldfish","steam_id":76561198065110989,"connected_time":6208000000000,"state":"active","ping":85},{"user_id":320,"name":"Immortal8Reaper","steam_id":76561198297661559,"connected_time":6443000000000,"state":"active","ping":120},{"user_id":373,"name":"30-50 feral hogs","steam_id":76561198073587145,"connected_time":2255000000000,"state":"active","ping":83},{"user_id":340,"name":"Torikaesu","steam_id":76561198277813823,"connected_time":5266000000000,"state":"active","ping":50},{"user_id":374,"name":"Linkedfurhire","steam_id":76561198149363268,"connected_time":2202000000000,"state":"active","ping":62},{"user_id":367,"name":"zain","steam_id":76561198139243305,"connected_time":3134000000000,"state":"active","ping":45},{"user_id":342,"name":"Brain damage squirrel","steam_id":76561198846344452,"connected_time":5120000000000,"state":"active","ping":47},{"user_id":385,"name":"LockHeart","steam_id":76561198868205853,"connected_time":1414000000000,"state":"active","ping":65},{"user_id":389,"name":"OctillionaireSigmaMale","steam_id":76561198816005207,"connected_time":1114000000000,"state":"active","ping":134},{"user_id":390,"name":"||BassMan||","steam_id":76561198279865229,"connected_time":1111000000000,"state":"active","ping":81},{"user_id":376,"name":"The Hoagie Hero","steam_id":76561198057569298,"connected_time":2016000000000,"state":"active","ping":127},{"user_id":321,"name":"The_Skull","steam_id":76561198121244647,"connected_time":6430000000000,"state":"active","ping":98},{"user_id":360,"name":"Anotherordinary1","steam_id":76561199258223335,"connected_time":3713000000000,"state":"active","ping":57},{"user_id":391,"name":"Andalite Warrior","steam_id":76561198057999536,"connected_time":1089000000000,"state":"active","ping":60},{"user_id":387,"name":"SpingyDigleDong","steam_id":76561198500184997,"connected_time":1290000000000,"state":"active","ping":120},{"user_id":384,"name":"The Super Mario Bros. Movie","steam_id":76561198871692156,"connected_time":1528000000000,"state":"active","ping":84},{"user_id":392,"name":"gatorbelt","steam_id":76561198145784505,"connected_time":1075000000000,"state":"active","ping":45},{"user_id":388,"name":"red","steam_id":76561198067289381,"connected_time":1188000000000,"state":"active","ping":86},{"user_id":394,"name":"Sad Sapling","steam_id":76561198075612150,"connected_time":1020000000000,"state":"active","ping":74},{"user_id":307,"name":"lol","steam_id":76561198026491738,"connected_time":6862000000000,"state":"active","ping":55},{"user_id":395,"name":"SomeRandomBetaFish","steam_id":76561198827731399,"connected_time":894000000000,"state":"active","ping":138},{"user_id":309,"name":"Ken","steam_id":76561198190992453,"connected_time":6861000000000,"state":"active","ping":59},{"user_id":403,"name":"Talulah","steam_id":76561198348354629,"connected_time":0,"state":"spawning","ping":17}]},{"server_id":25,"name":"Uncletopia | Los Angeles | 4 | Stopwatch Beta","name_short":"lax-4","host":"lax-1.us.uncletopia.com","port":27045,"enabled":true,"region":"us-west","cc":"us","latitude":33.94279,"longitude":-118.41004,"reserved":0,"last_update":"0001-01-01T00:00:00Z","name_a2s":"Uncletopia | Los Angeles | 4 | Stopwatch Beta","protocol":17,"map":"cp_altitude","folder":"tf","game":"Team Fortress","app_id":440,"player_count":0,"max_players":24,"Bots":0,"server_type":"Dedicated","server_os":"Linux","password":true,"vac":true,"version":"7932396","steam_id":85568392924510199,"keywords":["cp","nocrits","nodmgspread","uncletopia"],"game_id":440,"stv_port":27046,"stv_name":"Uncletopia | Los Angeles | 4 | Stopwatch Beta | STV","players":null},{"server_id":11,"name":"Uncletopia | London | 1 | All Maps","name_short":"lon-1","host":"lon-1.uk.uncletopia.com","port":27015,"enabled":true,"region":"eu","cc":"gb","latitude":51.509865,"longitude":-0.118092,"reserved":0,"last_update":"0001-01-01T00:00:00Z","name_a2s":"Uncletopia | London | 1 | All Maps","protocol":17,"map":"cp_snakewater_final1","folder":"tf","game":"Team Fortress","app_id":440,"player_count":19,"max_players":24,"Bots":0,"server_type":"Dedicated","server_os":"Linux","password":true,"vac":true,"version":"7932396","steam_id":85568392924367362,"keywords":["cp","nocrits","nodmgspread","uncletopia"],"game_id":440,"stv_port":27016,"stv_name":"Uncletopia | London | 1 | All Maps | STV","players":[{"user_id":756,"name":"flappi","steam_id":76561198072892783,"connected_time":3016000000000,"state":"active","ping":62},{"user_id":789,"name":"Mael\u003c3","steam_id":76561197996852498,"connected_time":71000000000,"state":"active","ping":50},{"user_id":761,"name":"Gubbly Bubbins","steam_id":76561198101451654,"connected_time":1756000000000,"state":"active","ping":50},{"user_id":782,"name":"Charles Darwin","steam_id":76561197973496139,"connected_time":530000000000,"state":"active","ping":65},{"user_id":780,"name":"Asmodeus","steam_id":76561198283156425,"connected_time":682000000000,"state":"active","ping":84},{"user_id":791,"name":"where my shitters at","steam_id":76561198139303045,"connected_time":11000000000,"state":"active","ping":99},{"user_id":787,"name":"The Blue Moon","steam_id":76561198368140755,"connected_time":235000000000,"state":"active","ping":43},{"user_id":759,"name":"Fish","steam_id":76561198152128484,"connected_time":2485000000000,"state":"active","ping":46},{"user_id":755,"name":"Bonca","steam_id":76561198137503531,"connected_time":3315000000000,"state":"active","ping":74},{"user_id":790,"name":"slippin jimmy","steam_id":76561198090788590,"connected_time":64000000000,"state":"active","ping":38},{"user_id":763,"name":"sushii","steam_id":76561198297987372,"connected_time":1738000000000,"state":"active","ping":52},{"user_id":754,"name":"shooer!","steam_id":76561198110531281,"connected_time":3706000000000,"state":"active","ping":65},{"user_id":783,"name":"Ed","steam_id":76561198184360615,"connected_time":463000000000,"state":"active","ping":95},{"user_id":721,"name":"something","steam_id":76561198198581615,"connected_time":5224000000000,"state":"active","ping":71},{"user_id":741,"name":"Sixie","steam_id":76561198251675360,"connected_time":4584000000000,"state":"active","ping":58},{"user_id":785,"name":"Slifer The Sky Dragon","steam_id":76561198062255803,"connected_time":320000000000,"state":"active","ping":68},{"user_id":766,"name":"[O\u0026O]YaboiDucki","steam_id":76561198195976589,"connected_time":1560000000000,"state":"active","ping":92},{"user_id":784,"name":"Labia in Fishnets","steam_id":76561198061382104,"connected_time":446000000000,"state":"active","ping":61},{"user_id":735,"name":"Snake-chan","steam_id":76561199044755854,"connected_time":4654000000000,"state":"active","ping":75}]},{"server_id":114,"name":"Uncletopia | London | 2 | All Maps","name_short":"lon-2","host":"lon-1.uk.uncletopia.com","port":27025,"enabled":true,"region":"eu","cc":"gb","latitude":51.509865,"longitude":-0.118092,"reserved":0,"last_update":"0001-01-01T00:00:00Z","name_a2s":"Uncletopia | London | 2 | All Maps","protocol":17,"map":"cp_process_final","folder":"tf","game":"Team Fortress","app_id":440,"player_count":21,"max_players":24,"Bots":0,"server_type":"Dedicated","server_os":"Linux","password":true,"vac":true,"version":"7932396","steam_id":85568392924470941,"keywords":["cp","nocrits","nodmgspread","uncletopia"],"game_id":440,"stv_port":27026,"stv_name":"Uncletopia | London | 2 | All Maps | STV","players":[{"user_id":639,"name":"armadillo","steam_id":76561198324656652,"connected_time":1563000000000,"state":"active","ping":48},{"user_id":588,"name":"Vershal Smershal","steam_id":76561198116223995,"connected_time":5948000000000,"state":"active","ping":57},{"user_id":649,"name":"sareena","steam_id":76561198810194062,"connected_time":551000000000,"state":"active","ping":66},{"user_id":626,"name":"TobMan","steam_id":76561199132167284,"connected_time":3293000000000,"state":"active","ping":60},{"user_id":604,"name":"finbar","steam_id":76561198056812396,"connected_time":4521000000000,"state":"active","ping":81},{"user_id":613,"name":"Koli","steam_id":76561197992428783,"connected_time":3828000000000,"state":"active","ping":60},{"user_id":571,"name":"xavier","steam_id":76561198076494034,"connected_time":7448000000000,"state":"active","ping":48},{"user_id":586,"name":"Bobirulez","steam_id":76561198009125458,"connected_time":6314000000000,"state":"active","ping":74},{"user_id":644,"name":"Flying Squirrel","steam_id":76561198005202791,"connected_time":1086000000000,"state":"active","ping":73},{"user_id":635,"name":"The Lady","steam_id":76561198029895809,"connected_time":1761000000000,"state":"active","ping":83},{"user_id":646,"name":"Zizman","steam_id":76561198446562910,"connected_time":923000000000,"state":"active","ping":140},{"user_id":592,"name":"static","steam_id":76561198836825741,"connected_time":5603000000000,"state":"active","ping":52},{"user_id":647,"name":"Townsend And Sons","steam_id":76561199072698153,"connected_time":900000000000,"state":"active","ping":71},{"user_id":617,"name":"MEOWMEOWMEOWMEOWMEOWMEOWMEOWMEO","steam_id":76561198723244199,"connected_time":3733000000000,"state":"active","ping":76},{"user_id":638,"name":"Cataleptic","steam_id":76561197997966949,"connected_time":1614000000000,"state":"active","ping":59},{"user_id":630,"name":"bkktrans","steam_id":76561198264393359,"connected_time":3065000000000,"state":"active","ping":41},{"user_id":643,"name":"Sgt. Hellbot","steam_id":76561198002839795,"connected_time":1211000000000,"state":"active","ping":85},{"user_id":599,"name":"Ceiling fan enthusiast","steam_id":76561197989214268,"connected_time":5380000000000,"state":"active","ping":63},{"user_id":633,"name":"Bajas","steam_id":76561198179339326,"connected_time":2190000000000,"state":"active","ping":75},{"user_id":640,"name":"Dr. No Name","steam_id":76561198058656869,"connected_time":1559000000000,"state":"active","ping":133},{"user_id":648,"name":"Pantroglodytestherapy","steam_id":76561198236015392,"connected_time":838000000000,"state":"active","ping":119}]},{"server_id":320,"name":"Uncletopia | London | 3 | All Maps","name_short":"lon-3","host":"lon-1.uk.uncletopia.com","port":27035,"enabled":true,"region":"eu","cc":"gb","latitude":51.509865,"longitude":-0.118092,"reserved":0,"last_update":"0001-01-01T00:00:00Z","name_a2s":"Uncletopia | London | 3 | All Maps","protocol":17,"map":"pl_frontier_final","folder":"tf","game":"Team Fortress","app_id":440,"player_count":18,"max_players":24,"Bots":0,"server_type":"Dedicated","server_os":"Linux","password":true,"vac":true,"version":"7932396","steam_id":85568392924510192,"keywords":["nocrits","nodmgspread","payload","uncletopia"],"game_id":440,"stv_port":27036,"stv_name":"Uncletopia | London | 3 | All Maps | STV","players":[{"user_id":362,"name":"Popbob (notorious griefer)","steam_id":76561198100730234,"connected_time":492000000000,"state":"active","ping":130},{"user_id":313,"name":"Aroo","steam_id":76561198132601368,"connected_time":5679000000000,"state":"active","ping":84},{"user_id":360,"name":"gerg","steam_id":76561198041663219,"connected_time":762000000000,"state":"active","ping":54},{"user_id":348,"name":"\u003cGNGWD\u003e CrocAsaurus","steam_id":76561198213982408,"connected_time":2257000000000,"state":"active","ping":59},{"user_id":316,"name":"s a i","steam_id":76561197970379754,"connected_time":5279000000000,"state":"active","ping":62},{"user_id":363,"name":"AAAAAAAAAAAAAAAAAAAAAAAAAAAAAAA","steam_id":76561198336492287,"connected_time":487000000000,"state":"active","ping":118},{"user_id":364,"name":"Spectre","steam_id":76561198163819482,"connected_time":467000000000,"state":"active","ping":66},{"user_id":365,"name":"Banatical Bean","steam_id":76561198122356617,"connected_time":436000000000,"state":"active","ping":67},{"user_id":366,"name":"Magnificent Marie","steam_id":76561198067928790,"connected_time":419000000000,"state":"active","ping":57},{"user_id":367,"name":"mr meeseeks","steam_id":76561198176978061,"connected_time":405000000000,"state":"active","ping":55},{"user_id":368,"name":"Hodood","steam_id":76561198167443476,"connected_time":172000000000,"state":"active","ping":57},{"user_id":369,"name":"Pan Pan","steam_id":76561199074670515,"connected_time":118000000000,"state":"active","ping":314},{"user_id":370,"name":"Deputy Dog","steam_id":76561197960441667,"connected_time":80000000000,"state":"active","ping":150},{"user_id":371,"name":"unhappy mink","steam_id":76561198199117446,"connected_time":58000000000,"state":"active","ping":51},{"user_id":372,"name":"Pedro","steam_id":76561198419583460,"connected_time":54000000000,"state":"active","ping":67},{"user_id":373,"name":"breeeh","steam_id":76561198263260743,"connected_time":22000000000,"state":"active","ping":105},{"user_id":331,"name":"Lord of Birds","steam_id":76561198268952995,"connected_time":4036000000000,"state":"active","ping":73},{"user_id":351,"name":"Operable2694","steam_id":76561199486377532,"connected_time":1468000000000,"state":"active","ping":52}]},{"server_id":321,"name":"Uncletopia | London | 4 | All Maps","name_short":"lon-4","host":"lon-1.uk.uncletopia.com","port":27045,"enabled":true,"region":"eu","cc":"gb","latitude":51.509865,"longitude":-0.118092,"reserved":0,"last_update":"0001-01-01T00:00:00Z","name_a2s":"Uncletopia | London | 4 | All Maps","protocol":17,"map":"cp_dustbowl","folder":"tf","game":"Team Fortress","app_id":440,"player_count":24,"max_players":24,"Bots":0,"server_type":"Dedicated","server_os":"Linux","password":true,"vac":true,"version":"7932396","steam_id":85568392924510193,"keywords":["cp","nocrits","nodmgspread","uncletopia"],"game_id":440,"stv_port":27046,"stv_name":"Uncletopia | London | 4 | All Maps | STV","players":[{"user_id":301,"name":"handsmans","steam_id":76561199159858846,"connected_time":3897000000000,"state":"active","ping":134},{"user_id":320,"name":"Oki (Bon)","steam_id":76561199047748534,"connected_time":2808000000000,"state":"active","ping":55},{"user_id":354,"name":"Nameless","steam_id":76561198084215731,"connected_time":1050000000000,"state":"active","ping":44},{"user_id":314,"name":"Milosz52","steam_id":76561199060940204,"connected_time":3419000000000,"state":"active","ping":84},{"user_id":343,"name":"Ladimir Lengin","steam_id":76561199438120787,"connected_time":1678000000000,"state":"active","ping":56},{"user_id":364,"name":"laser","steam_id":76561198036030697,"connected_time":372000000000,"state":"active","ping":69},{"user_id":349,"name":"ran is running","steam_id":76561199443185667,"connected_time":1327000000000,"state":"active","ping":141},{"user_id":322,"name":"engineer","steam_id":76561199124566752,"connected_time":2795000000000,"state":"active","ping":131},{"user_id":362,"name":"Jinxie","steam_id":76561198008762303,"connected_time":407000000000,"state":"active","ping":66},{"user_id":296,"name":"Xallog","steam_id":76561198050061597,"connected_time":4198000000000,"state":"active","ping":35},{"user_id":358,"name":"Doctor Marijuana","steam_id":76561198288289879,"connected_time":712000000000,"state":"active","ping":47},{"user_id":344,"name":"Far ∞","steam_id":76561199166149359,"connected_time":1666000000000,"state":"active","ping":69},{"user_id":329,"name":"alcheminty","steam_id":76561198166021485,"connected_time":2500000000000,"state":"active","ping":44},{"user_id":363,"name":"Skadush","steam_id":76561198006553629,"connected_time":398000000000,"state":"active","ping":55},{"user_id":309,"name":"Olaf Gasbrigi","steam_id":76561198000618491,"connected_time":3727000000000,"state":"active","ping":70},{"user_id":365,"name":"Uncle Moomin","steam_id":76561198011628656,"connected_time":296000000000,"state":"active","ping":83},{"user_id":331,"name":"marfull89","steam_id":76561199059363362,"connected_time":2428000000000,"state":"active","ping":87},{"user_id":327,"name":"Programmer Socks Gaming","steam_id":76561198982674420,"connected_time":2731000000000,"state":"active","ping":43},{"user_id":336,"name":"Egtu","steam_id":76561198013757235,"connected_time":2105000000000,"state":"active","ping":71},{"user_id":366,"name":"The Power","steam_id":76561198060566884,"connected_time":244000000000,"state":"active","ping":43},{"user_id":306,"name":"jj","steam_id":76561198079200985,"connected_time":3845000000000,"state":"active","ping":73},{"user_id":351,"name":"lugi","steam_id":76561198121971994,"connected_time":1169000000000,"state":"active","ping":88},{"user_id":316,"name":"ABbott_","steam_id":76561198030528873,"connected_time":3291000000000,"state":"active","ping":54},{"user_id":334,"name":"Alpha","steam_id":76561198133229149,"connected_time":2244000000000,"state":"active","ping":100}]},{"server_id":21,"name":"Uncletopia | London | 5 | All Maps","name_short":"lon-5","host":"lon-1.uk.uncletopia.com","port":27055,"enabled":true,"region":"eu","cc":"gb","latitude":51.509865,"longitude":-0.118092,"reserved":0,"last_update":"0001-01-01T00:00:00Z","name_a2s":"Uncletopia | London | 5 | All Maps","protocol":17,"map":"pl_upward","folder":"tf","game":"Team Fortress","app_id":440,"player_count":24,"max_players":24,"Bots":0,"server_type":"Dedicated","server_os":"Linux","password":true,"vac":true,"version":"7932396","steam_id":85568392924742829,"keywords":["nocrits","nodmgspread","payload","uncletopia"],"game_id":440,"stv_port":27056,"stv_name":"Uncletopia | London | 5 | All Maps | STV","players":[{"user_id":458,"name":"Splattted","steam_id":76561199327476294,"connected_time":2894000000000,"state":"active","ping":66},{"user_id":506,"name":"YOU DON'T SHOOT ON DEMO","steam_id":76561198798803845,"connected_time":824000000000,"state":"active","ping":46},{"user_id":488,"name":"Fairy","steam_id":76561198936758395,"connected_time":1545000000000,"state":"active","ping":45},{"user_id":456,"name":"V1 Ultrakill","steam_id":76561198860424456,"connected_time":2908000000000,"state":"active","ping":80},{"user_id":489,"name":"VisualFlow","steam_id":76561198856825137,"connected_time":1530000000000,"state":"active","ping":47},{"user_id":492,"name":"jjvthou(GetCaughtLOAFING)","steam_id":76561199403071554,"connected_time":1442000000000,"state":"active","ping":131},{"user_id":478,"name":"Hoxton","steam_id":76561198129209505,"connected_time":2307000000000,"state":"active","ping":71},{"user_id":491,"name":"Truegear","steam_id":76561198059511386,"connected_time":1486000000000,"state":"active","ping":71},{"user_id":460,"name":"Jerryx01","steam_id":76561198145236247,"connected_time":2868000000000,"state":"active","ping":84},{"user_id":502,"name":"TheEventGuy","steam_id":76561197972797744,"connected_time":1001000000000,"state":"active","ping":73},{"user_id":493,"name":"Donutella","steam_id":76561198193972491,"connected_time":1432000000000,"state":"active","ping":49},{"user_id":455,"name":"sachiko #","steam_id":76561198139615715,"connected_time":2982000000000,"state":"active","ping":59},{"user_id":508,"name":"Umbraprism","steam_id":76561197984504910,"connected_time":699000000000,"state":"active","ping":60},{"user_id":494,"name":"n//?!bu","steam_id":76561198307037169,"connected_time":1419000000000,"state":"active","ping":53},{"user_id":485,"name":"NeonNewt","steam_id":76561198066699212,"connected_time":1878000000000,"state":"active","ping":55},{"user_id":496,"name":"yaaayayyay","steam_id":76561198088624259,"connected_time":1404000000000,"state":"active","ping":59},{"user_id":469,"name":"p1","steam_id":76561198125266153,"connected_time":2679000000000,"state":"active","ping":98},{"user_id":500,"name":"Ronnie Pickering","steam_id":76561198248567360,"connected_time":1383000000000,"state":"active","ping":44},{"user_id":498,"name":"HOT WINDS BLOWING","steam_id":76561198090146457,"connected_time":1395000000000,"state":"active","ping":43},{"user_id":447,"name":"Bob Sacamano","steam_id":76561198085610701,"connected_time":3794000000000,"state":"active","ping":98},{"user_id":511,"name":"OutOfDucks","steam_id":76561198166376227,"connected_time":507000000000,"state":"active","ping":55},{"user_id":486,"name":"Purplenoogie","steam_id":76561198081872160,"connected_time":1861000000000,"state":"active","ping":61},{"user_id":507,"name":"Catface","steam_id":76561198963378933,"connected_time":823000000000,"state":"active","ping":47},{"user_id":474,"name":"The Griffin-Man","steam_id":76561198173218318,"connected_time":2597000000000,"state":"active","ping":47}]},{"server_id":22,"name":"Uncletopia | London | 6 | All Maps","name_short":"lon-6","host":"lon-1.uk.uncletopia.com","port":27065,"enabled":true,"region":"eu","cc":"gb","latitude":51.509865,"longitude":-0.118092,"reserved":0,"last_update":"0001-01-01T00:00:00Z","name_a2s":"Uncletopia | London | 6 | All Maps","protocol":17,"map":"pl_swiftwater_final1","folder":"tf","game":"Team Fortress","app_id":440,"player_count":23,"max_players":24,"Bots":0,"server_type":"Dedicated","server_os":"Linux","password":true,"vac":true,"version":"7932396","steam_id":85568392924742830,"keywords":["nocrits","nodmgspread","payload","uncletopia"],"game_id":440,"stv_port":27066,"stv_name":"Uncletopia | London | 6 | All Maps | STV","players":[{"user_id":84,"name":"crazycalumrock","steam_id":76561198049890080,"connected_time":95000000000,"state":"active","ping":45},{"user_id":85,"name":"Turtle","steam_id":76561198053254139,"connected_time":90000000000,"state":"active","ping":37},{"user_id":86,"name":"Slaw","steam_id":76561198051155450,"connected_time":76000000000,"state":"active","ping":44},{"user_id":78,"name":"LiterallyRyanGosling","steam_id":76561199017856691,"connected_time":410000000000,"state":"active","ping":57},{"user_id":76,"name":"s .-word","steam_id":76561198060849026,"connected_time":531000000000,"state":"active","ping":57},{"user_id":79,"name":"DelaNo","steam_id":76561199125086655,"connected_time":403000000000,"state":"active","ping":37},{"user_id":60,"name":"nyanezt","steam_id":76561198253734265,"connected_time":1677000000000,"state":"active","ping":113},{"user_id":72,"name":"CiVillain","steam_id":76561198059617732,"connected_time":920000000000,"state":"active","ping":62},{"user_id":47,"name":"Mittenz","steam_id":76561198017368659,"connected_time":2420000000000,"state":"active","ping":75},{"user_id":50,"name":"yuno appreciator","steam_id":76561198083286511,"connected_time":2347000000000,"state":"active","ping":41},{"user_id":87,"name":"Door","steam_id":76561198111462976,"connected_time":58000000000,"state":"active","ping":55},{"user_id":66,"name":"jello_hey","steam_id":76561199176327650,"connected_time":1129000000000,"state":"active","ping":135},{"user_id":67,"name":"Goblin (Real)","steam_id":76561199160926985,"connected_time":1122000000000,"state":"active","ping":141},{"user_id":42,"name":"Carrotcracker","steam_id":76561198034862396,"connected_time":3190000000000,"state":"active","ping":77},{"user_id":88,"name":"TylowStar","steam_id":76561198357107806,"connected_time":45000000000,"state":"active","ping":61},{"user_id":69,"name":"KittyKate ❤","steam_id":76561198116340817,"connected_time":1008000000000,"state":"active","ping":60},{"user_id":89,"name":"8 Ball","steam_id":76561197960988736,"connected_time":44000000000,"state":"active","ping":45},{"user_id":74,"name":"SynthBox3","steam_id":76561199094075745,"connected_time":575000000000,"state":"active","ping":92},{"user_id":71,"name":"BuzzBees ❤","steam_id":76561198101502273,"connected_time":942000000000,"state":"active","ping":53},{"user_id":58,"name":"sarii ☆","steam_id":76561199155102111,"connected_time":1838000000000,"state":"active","ping":77},{"user_id":59,"name":"ralph62x","steam_id":76561198865294231,"connected_time":1695000000000,"state":"active","ping":56},{"user_id":57,"name":"Finn","steam_id":76561198179960193,"connected_time":2103000000000,"state":"active","ping":39},{"user_id":80,"name":"Da Gus","steam_id":76561198435032627,"connected_time":400000000000,"state":"active","ping":88}]},{"server_id":40,"name":"Uncletopia | London | 7 | No Payload","name_short":"lon-7","host":"lon-1.uk.uncletopia.com","port":27075,"enabled":true,"region":"eu","cc":"gb","latitude":51.509865,"longitude":-0.118092,"reserved":0,"last_update":"0001-01-01T00:00:00Z","name_a2s":"Uncletopia | London | 7 | No Payload","protocol":17,"map":"koth_cascade","folder":"tf","game":"Team Fortress","app_id":440,"player_count":24,"max_players":24,"Bots":0,"server_type":"Dedicated","server_os":"Linux","password":true,"vac":true,"version":"7932396","steam_id":85568392924964314,"keywords":["cp","nocrits","nodmgspread","uncletopia"],"game_id":440,"stv_port":27076,"stv_name":"Uncletopia | London | 7 | No Payload | STV","players":[{"user_id":126,"name":"t0ksi","steam_id":76561198107240798,"connected_time":23000000000,"state":"active","ping":78},{"user_id":43,"name":"GunGuy","steam_id":76561198124510978,"connected_time":5072000000000,"state":"active","ping":42},{"user_id":33,"name":"Nobody","steam_id":76561198151116796,"connected_time":5930000000000,"state":"active","ping":91},{"user_id":78,"name":"P3rsErkki","steam_id":76561198063093495,"connected_time":3781000000000,"state":"active","ping":75},{"user_id":82,"name":"♂ Animan ♂ Studios ♂","steam_id":76561198308302932,"connected_time":3345000000000,"state":"active","ping":103},{"user_id":124,"name":"meow (they/them)","steam_id":76561198416657815,"connected_time":284000000000,"state":"active","ping":141},{"user_id":67,"name":"the joy of recycling","steam_id":76561198138509827,"connected_time":4566000000000,"state":"active","ping":89},{"user_id":103,"name":"Juliderkek","steam_id":76561198962270674,"connected_time":1734000000000,"state":"active","ping":82},{"user_id":114,"name":"Aspartus","steam_id":76561198101385763,"connected_time":1299000000000,"state":"active","ping":45},{"user_id":83,"name":"htraB","steam_id":76561198043122677,"connected_time":3296000000000,"state":"active","ping":61},{"user_id":80,"name":"Fat Pigeon","steam_id":76561198817940142,"connected_time":3666000000000,"state":"active","ping":46},{"user_id":121,"name":"The Spy from teamfortress 2","steam_id":76561198061332068,"connected_time":806000000000,"state":"active","ping":58},{"user_id":125,"name":"Lukas","steam_id":76561198009118452,"connected_time":237000000000,"state":"active","ping":69},{"user_id":107,"name":"monaskick","steam_id":76561198326190912,"connected_time":1713000000000,"state":"active","ping":76},{"user_id":84,"name":"Pixie","steam_id":76561198044038797,"connected_time":3270000000000,"state":"active","ping":86},{"user_id":109,"name":"FirePenguin","steam_id":76561198151468340,"connected_time":1649000000000,"state":"active","ping":38},{"user_id":123,"name":"Landmine","steam_id":76561198066054610,"connected_time":592000000000,"state":"active","ping":70},{"user_id":54,"name":"sAmasam","steam_id":76561198114953928,"connected_time":4830000000000,"state":"active","ping":75},{"user_id":112,"name":"Jadeypup","steam_id":76561198353866599,"connected_time":1580000000000,"state":"active","ping":54},{"user_id":110,"name":"Envy","steam_id":76561198132723219,"connected_time":1645000000000,"state":"active","ping":106},{"user_id":91,"name":"Omyskull","steam_id":76561198131711758,"connected_time":2972000000000,"state":"active","ping":70},{"user_id":111,"name":"TazerMonkey55","steam_id":76561198151547551,"connected_time":1641000000000,"state":"active","ping":53},{"user_id":59,"name":"Huskey","steam_id":76561198152392309,"connected_time":4814000000000,"state":"active","ping":45},{"user_id":122,"name":"lunaire","steam_id":76561198163344452,"connected_time":756000000000,"state":"active","ping":101}]},{"server_id":41,"name":"Uncletopia | London | 8 | Community","name_short":"lon-8","host":"lon-1.uk.uncletopia.com","port":27085,"enabled":true,"region":"eu","cc":"gb","latitude":51.509865,"longitude":-0.118092,"reserved":0,"last_update":"0001-01-01T00:00:00Z","name_a2s":"Uncletopia | London | 8 | Community","protocol":17,"map":"workshop/cp_bruhstbowl_b6.ugc2878604990","folder":"tf","game":"Team Fortress","app_id":440,"player_count":2,"max_players":24,"Bots":0,"server_type":"Dedicated","server_os":"Linux","password":true,"vac":true,"version":"7932396","steam_id":85568392924964315,"keywords":["cp","nocrits","nodmgspread","uncletopia"],"game_id":440,"stv_port":27086,"stv_name":"Uncletopia | London | 8 | Community | STV","players":[{"user_id":10,"name":"pokemonsuper9","steam_id":76561198120530545,"connected_time":3441000000000,"state":"active","ping":69},{"user_id":11,"name":"Soaya","steam_id":76561199101510855,"connected_time":2069000000000,"state":"active","ping":44}]},{"server_id":300,"name":"Uncletopia | Montréal | 1 | All Maps","name_short":"mtl-1","host":"mtl-1.ca.uncletopia.com","port":27015,"enabled":true,"region":"us-east","cc":"ca","latitude":45.50889,"longitude":-73.56167,"reserved":0,"last_update":"0001-01-01T00:00:00Z","name_a2s":"Uncletopia | Montréal | 1 | All Maps","protocol":17,"map":"cp_altitude","folder":"tf","game":"Team Fortress","app_id":440,"player_count":0,"max_players":24,"Bots":0,"server_type":"Dedicated","server_os":"Linux","password":true,"vac":true,"version":"7932396","steam_id":85568392924500087,"keywords":["cp","nocrits","nodmgspread","uncletopia"],"game_id":440,"stv_port":27016,"stv_name":"Uncletopia | Montréal | 1 | All Maps | STV","players":null},{"server_id":301,"name":"Uncletopia | Montréal | 2 | All Maps","name_short":"mtl-2","host":"mtl-1.ca.uncletopia.com","port":27025,"enabled":true,"region":"us-east","cc":"ca","latitude":45.50889,"longitude":-73.56167,"reserved":0,"last_update":"0001-01-01T00:00:00Z","name_a2s":"Uncletopia | Montréal | 2 | All Maps","protocol":17,"map":"pl_upward","folder":"tf","game":"Team Fortress","app_id":440,"player_count":0,"max_players":24,"Bots":0,"server_type":"Dedicated","server_os":"Linux","password":true,"vac":true,"version":"7932396","steam_id":85568392924500088,"keywords":["nocrits","nodmgspread","payload","uncletopia"],"game_id":440,"stv_port":27026,"stv_name":"Uncletopia | Montréal | 2 | All Maps | STV","players":null},{"server_id":302,"name":"Uncletopia | Montréal | 3 | All Maps","name_short":"mtl-3","host":"mtl-1.ca.uncletopia.com","port":27035,"enabled":true,"region":"us-east","cc":"ca","latitude":45.50889,"longitude":-73.56167,"reserved":0,"last_update":"0001-01-01T00:00:00Z","name_a2s":"Uncletopia | Montréal | 3 | All Maps","protocol":17,"map":"cp_process_final","folder":"tf","game":"Team Fortress","app_id":440,"player_count":0,"max_players":24,"Bots":0,"server_type":"Dedicated","server_os":"Linux","password":true,"vac":true,"version":"7932396","steam_id":85568392924500089,"keywords":["cp","nocrits","nodmgspread","uncletopia"],"game_id":440,"stv_port":27036,"stv_name":"Uncletopia | Montréal | 3 | All Maps | STV","players":null},{"server_id":303,"name":"Uncletopia | Montréal | 4 | No Payload","name_short":"mtl-4","host":"mtl-1.ca.uncletopia.com","port":27045,"enabled":true,"region":"us-east","cc":"ca","latitude":45.50889,"longitude":-73.56167,"reserved":0,"last_update":"0001-01-01T00:00:00Z","name_a2s":"Uncletopia | Montréal | 4 | No Payload","protocol":17,"map":"cp_snakewater_final1","folder":"tf","game":"Team Fortress","app_id":440,"player_count":0,"max_players":24,"Bots":0,"server_type":"Dedicated","server_os":"Linux","password":true,"vac":true,"version":"7932396","steam_id":85568392924500090,"keywords":["cp","nocrits","nodmgspread","uncletopia"],"game_id":440,"stv_port":27046,"stv_name":"Uncletopia | Montréal | 4 | No Payload | STV","players":null},{"server_id":13,"name":"Uncletopia | New York City | 1 | All Maps","name_short":"nyc-1","host":"nyc-1.us.uncletopia.com","port":27015,"enabled":true,"region":"us-east","cc":"us","latitude":40.73061,"longitude":-73.93524,"reserved":0,"last_update":"0001-01-01T00:00:00Z","name_a2s":"Uncletopia | New York City | 1 | All Maps","protocol":17,"map":"koth_cascade","folder":"tf","game":"Team Fortress","app_id":440,"player_count":0,"max_players":24,"Bots":0,"server_type":"Dedicated","server_os":"Linux","password":true,"vac":true,"version":"7932396","steam_id":85568392924469993,"keywords":["cp","nocrits","nodmgspread","uncletopia"],"game_id":440,"stv_port":27016,"stv_name":"Uncletopia | New York City | 1 | All Maps | STV","players":null},{"server_id":14,"name":"Uncletopia | New York City | 2 | All Maps","name_short":"nyc-2","host":"nyc-1.us.uncletopia.com","port":27025,"enabled":true,"region":"us-east","cc":"us","latitude":40.73061,"longitude":-73.93524,"reserved":0,"last_update":"0001-01-01T00:00:00Z","name_a2s":"Uncletopia | New York City | 2 | All Maps","protocol":17,"map":"koth_lakeside_final","folder":"tf","game":"Team Fortress","app_id":440,"player_count":0,"max_players":24,"Bots":0,"server_type":"Dedicated","server_os":"Linux","password":true,"vac":true,"version":"7932396","steam_id":85568392924469994,"keywords":["cp","nocrits","nodmgspread","uncletopia"],"game_id":440,"stv_port":27026,"stv_name":"Uncletopia | New York City | 2 | All Maps | STV","players":null},{"server_id":15,"name":"Uncletopia | New York City | 3 | Stopwatch Beta","name_short":"nyc-3","host":"nyc-1.us.uncletopia.com","port":27035,"enabled":true,"region":"us-east","cc":"us","latitude":40.73061,"longitude":-73.93524,"reserved":0,"last_update":"0001-01-01T00:00:00Z","name_a2s":"Uncletopia | New York City | 3 | Stopwatch Beta","protocol":17,"map":"cp_sunshine","folder":"tf","game":"Team Fortress","app_id":440,"player_count":0,"max_players":24,"Bots":0,"server_type":"Dedicated","server_os":"Linux","password":true,"vac":true,"version":"7932396","steam_id":85568392924742820,"keywords":["cp","nocrits","nodmgspread","uncletopia"],"game_id":440,"stv_port":27036,"stv_name":"Uncletopia | New York City | 3 | Stopwatch Beta | STV","players":null},{"server_id":16,"name":"Uncletopia | New York City | 4 | Community","name_short":"nyc-4","host":"nyc-1.us.uncletopia.com","port":27045,"enabled":true,"region":"us-east","cc":"us","latitude":40.73061,"longitude":-73.93524,"reserved":0,"last_update":"0001-01-01T00:00:00Z","name_a2s":"Uncletopia | New York City | 4 | Community","protocol":17,"map":"workshop/cp_kalinka_rc6a.ugc1272700588","folder":"tf","game":"Team Fortress","app_id":440,"player_count":0,"max_players":24,"Bots":0,"server_type":"Dedicated","server_os":"Linux","password":true,"vac":true,"version":"7932396","steam_id":85568392924742821,"keywords":["cp","nocrits","nodmgspread","uncletopia"],"game_id":440,"stv_port":27046,"stv_name":"Uncletopia | New York City | 4 | Community | STV","players":null},{"server_id":142,"name":"Uncletopia | São Paulo | 1 | All Maps","name_short":"sao-1","host":"sao-1.br.uncletopia.com","port":27015,"enabled":true,"region":"sa","cc":"br","latitude":-23.533773,"longitude":-46.62529,"reserved":0,"last_update":"0001-01-01T00:00:00Z","name_a2s":"Uncletopia | São Paulo | 1 | All Maps","protocol":17,"map":"pl_frontier_final","folder":"tf","game":"Team Fortress","app_id":440,"player_count":0,"max_players":24,"Bots":0,"server_type":"Dedicated","server_os":"Linux","password":true,"vac":true,"version":"7932396","steam_id":85568392924469996,"keywords":["nocrits","nodmgspread","payload","uncletopia"],"game_id":440,"stv_port":27016,"stv_name":"Uncletopia | São Paulo | 1 | All Maps | STV","players":null},{"server_id":143,"name":"Uncletopia | São Paulo | 2 | All Maps","name_short":"sao-2","host":"sao-2.br.uncletopia.com","port":27015,"enabled":true,"region":"sa","cc":"br","latitude":-23.533773,"longitude":-46.62529,"reserved":0,"last_update":"0001-01-01T00:00:00Z","name_a2s":"Uncletopia | São Paulo | 2 | All Maps","protocol":17,"map":"cp_altitude","folder":"tf","game":"Team Fortress","app_id":440,"player_count":0,"max_players":24,"Bots":0,"server_type":"Dedicated","server_os":"Linux","password":true,"vac":true,"version":"7932396","steam_id":85568392924485349,"keywords":["cp","nocrits","nodmgspread","uncletopia"],"game_id":440,"stv_port":27016,"stv_name":"Uncletopia | São Paulo | 2 | All Maps | STV","players":null},{"server_id":7,"name":"Uncletopia | Seattle | 1 | All Maps","name_short":"sea-1","host":"sea-1.us.uncletopia.com","port":27015,"enabled":true,"region":"us-west","cc":"us","latitude":47.608013,"longitude":-122.33517,"reserved":0,"last_update":"0001-01-01T00:00:00Z","name_a2s":"Uncletopia | Seattle | 1 | All Maps","protocol":17,"map":"pl_thundermountain","folder":"tf","game":"Team Fortress","app_id":440,"player_count":24,"max_players":24,"Bots":0,"server_type":"Dedicated","server_os":"Linux","password":true,"vac":true,"version":"7932396","steam_id":85568392924469997,"keywords":["nocrits","nodmgspread","payload","uncletopia"],"game_id":440,"stv_port":27016,"stv_name":"Uncletopia | Seattle | 1 | All Maps | STV","players":[{"user_id":391,"name":"chunkysquare","steam_id":76561199076468383,"connected_time":996000000000,"state":"active","ping":104},{"user_id":390,"name":"righteous ethical moral being","steam_id":76561198136535844,"connected_time":1099000000000,"state":"active","ping":47},{"user_id":361,"name":"Guybrush Threepwood","steam_id":76561198014128141,"connected_time":3275000000000,"state":"active","ping":56},{"user_id":398,"name":"Toaster","steam_id":76561198039891934,"connected_time":407000000000,"state":"active","ping":79},{"user_id":374,"name":"xXPhloggersXx","steam_id":76561198861711988,"connected_time":2348000000000,"state":"active","ping":40},{"user_id":254,"name":"Hope","steam_id":76561199182558088,"connected_time":11141000000000,"state":"active","ping":75},{"user_id":401,"name":"pizzalover_2014","steam_id":76561198870649125,"connected_time":378000000000,"state":"active","ping":77},{"user_id":352,"name":"dust | she/it","steam_id":76561198045218909,"connected_time":3765000000000,"state":"active","ping":40},{"user_id":394,"name":"SHADOW (he/him)","steam_id":76561198207768148,"connected_time":469000000000,"state":"active","ping":115},{"user_id":330,"name":"Lé Mon","steam_id":76561198078626283,"connected_time":4970000000000,"state":"active","ping":120},{"user_id":382,"name":"if looks could krill","steam_id":76561198424248616,"connected_time":2094000000000,"state":"active","ping":75},{"user_id":388,"name":"MacchuPeachu","steam_id":76561199093242587,"connected_time":1332000000000,"state":"active","ping":61},{"user_id":396,"name":"Dreamzapp","steam_id":76561199084936632,"connected_time":451000000000,"state":"active","ping":94},{"user_id":399,"name":"Uncle Dale","steam_id":76561199144302768,"connected_time":404000000000,"state":"active","ping":124},{"user_id":363,"name":"laggy mcstab","steam_id":76561198106379962,"connected_time":2955000000000,"state":"active","ping":55},{"user_id":351,"name":"rbstat","steam_id":76561198050169034,"connected_time":3778000000000,"state":"active","ping":92},{"user_id":383,"name":"BlazedBunny","steam_id":76561198243610560,"connected_time":2017000000000,"state":"active","ping":86},{"user_id":387,"name":"Underscorn","steam_id":76561198374209415,"connected_time":1638000000000,"state":"active","ping":112},{"user_id":385,"name":"yaya","steam_id":76561198086291976,"connected_time":1728000000000,"state":"active","ping":58},{"user_id":367,"name":"Gitgudgame","steam_id":76561198354761942,"connected_time":2810000000000,"state":"active","ping":154},{"user_id":405,"name":"Craftyjumper","steam_id":76561198126421562,"connected_time":213000000000,"state":"active","ping":81},{"user_id":406,"name":"thelostrobotmusic","steam_id":76561199013230288,"connected_time":179000000000,"state":"active","ping":53},{"user_id":404,"name":"o o o o o o o o o","steam_id":76561197993757506,"connected_time":218000000000,"state":"active","ping":74},{"user_id":371,"name":"Antwan","steam_id":76561198246200638,"connected_time":2392000000000,"state":"active","ping":95}]},{"server_id":119,"name":"Uncletopia | Seattle | 2 | All Maps","name_short":"sea-2","host":"sea-1.us.uncletopia.com","port":27025,"enabled":true,"region":"us-west","cc":"us","latitude":47.608013,"longitude":-122.33517,"reserved":0,"last_update":"0001-01-01T00:00:00Z","name_a2s":"Uncletopia | Seattle | 2 | All Maps","protocol":17,"map":"cp_gravelpit","folder":"tf","game":"Team Fortress","app_id":440,"player_count":23,"max_players":24,"Bots":0,"server_type":"Dedicated","server_os":"Linux","password":true,"vac":true,"version":"7932396","steam_id":85568392924469998,"keywords":["cp","nocrits","nodmgspread","uncletopia"],"game_id":440,"stv_port":27026,"stv_name":"Uncletopia | Seattle | 2 | All Maps | STV","players":[{"user_id":91,"name":"fox news goblin","steam_id":76561198167648580,"connected_time":7749000000000,"state":"active","ping":75},{"user_id":150,"name":"Muralo","steam_id":76561198202160268,"connected_time":3662000000000,"state":"active","ping":54},{"user_id":186,"name":"SLEEPY-Class NHP","steam_id":76561198064583865,"connected_time":1641000000000,"state":"active","ping":113},{"user_id":208,"name":"Kravixx","steam_id":76561197995777255,"connected_time":735000000000,"state":"active","ping":109},{"user_id":188,"name":"Shark Sandwich","steam_id":76561198025007938,"connected_time":1609000000000,"state":"active","ping":55},{"user_id":216,"name":"Captain Underbelly","steam_id":76561198811270935,"connected_time":541000000000,"state":"active","ping":70},{"user_id":204,"name":"็","steam_id":76561198067666595,"connected_time":1026000000000,"state":"active","ping":42},{"user_id":202,"name":"Maniac9","steam_id":76561197960530967,"connected_time":1159000000000,"state":"active","ping":75},{"user_id":217,"name":"BrightOrangeMango","steam_id":76561198023144607,"connected_time":487000000000,"state":"active","ping":97},{"user_id":219,"name":"Dimple #TF2Center","steam_id":76561198980324190,"connected_time":181000000000,"state":"active","ping":61},{"user_id":180,"name":"blossom","steam_id":76561198042735130,"connected_time":2058000000000,"state":"active","ping":59},{"user_id":182,"name":"[TTV]slendermansmoom","steam_id":76561199053946374,"connected_time":1960000000000,"state":"active","ping":62},{"user_id":193,"name":"SirKnight5067","steam_id":76561198377306047,"connected_time":1490000000000,"state":"active","ping":112},{"user_id":211,"name":"Redcat79","steam_id":76561199109688591,"connected_time":602000000000,"state":"active","ping":40},{"user_id":197,"name":"Su1tCas3","steam_id":76561198035989471,"connected_time":1255000000000,"state":"active","ping":47},{"user_id":191,"name":"King0500","steam_id":76561198402396167,"connected_time":1526000000000,"state":"active","ping":111},{"user_id":215,"name":"Your cousin Throckmorton","steam_id":76561198055430804,"connected_time":548000000000,"state":"active","ping":129},{"user_id":196,"name":"giveit5","steam_id":76561198030815437,"connected_time":1380000000000,"state":"active","ping":89},{"user_id":198,"name":"Kazmirl","steam_id":76561198116008410,"connected_time":1223000000000,"state":"active","ping":104},{"user_id":156,"name":"spiderland","steam_id":76561198335992132,"connected_time":3586000000000,"state":"active","ping":44},{"user_id":199,"name":"CykoCI","steam_id":76561199069161030,"connected_time":1215000000000,"state":"active","ping":85},{"user_id":200,"name":"Andy the Hoff","steam_id":76561198043115724,"connected_time":1213000000000,"state":"active","ping":72},{"user_id":201,"name":"Another Horny Trans Person","steam_id":76561199035402139,"connected_time":1213000000000,"state":"active","ping":48}]},{"server_id":406,"name":"Uncletopia | Seattle | 3 | Stopwatch Beta","name_short":"sea-3","host":"sea-1.us.uncletopia.com","port":27035,"enabled":true,"region":"us-west","cc":"us","latitude":47.608013,"longitude":-122.33517,"reserved":0,"last_update":"0001-01-01T00:00:00Z","name_a2s":"Uncletopia | Seattle | 3 | Stopwatch Beta","protocol":17,"map":"pl_borneo","folder":"tf","game":"Team Fortress","app_id":440,"player_count":0,"max_players":24,"Bots":0,"server_type":"Dedicated","server_os":"Linux","password":true,"vac":true,"version":"7932396","steam_id":85568392924515217,"keywords":["nocrits","nodmgspread","payload","uncletopia"],"game_id":440,"stv_port":27036,"stv_name":"Uncletopia | Seattle | 3 | Stopwatch Beta | STV","players":null},{"server_id":17,"name":"Uncletopia | San Francisco | 1 | All Maps","name_short":"sfo-1","host":"sfo-1.us.uncletopia.com","port":27015,"enabled":true,"region":"us-west","cc":"us","latitude":37.77397,"longitude":-122.4313,"reserved":0,"last_update":"0001-01-01T00:00:00Z","name_a2s":"Uncletopia | San Francisco | 1 | All Maps","protocol":17,"map":"pl_rumford_event","folder":"tf","game":"Team Fortress","app_id":440,"player_count":2,"max_players":24,"Bots":0,"server_type":"Dedicated","server_os":"Linux","password":true,"vac":true,"version":"7932396","steam_id":85568392924469999,"keywords":["nocrits","nodmgspread","payload","uncletopia"],"game_id":440,"stv_port":27016,"stv_name":"Uncletopia | San Francisco | 1 | All Maps | STV","players":[{"user_id":13,"name":"old birb man","steam_id":76561199410269097,"connected_time":3022000000000,"state":"active","ping":94},{"user_id":16,"name":"Petrivus","steam_id":76561198202152453,"connected_time":1883000000000,"state":"active","ping":55}]},{"server_id":18,"name":"Uncletopia | San Francisco | 2 | All Maps","name_short":"sfo-2","host":"sfo-1.us.uncletopia.com","port":27025,"enabled":true,"region":"us-west","cc":"us","latitude":37.77397,"longitude":-122.4313,"reserved":0,"last_update":"0001-01-01T00:00:00Z","name_a2s":"Uncletopia | San Francisco | 2 | All Maps","protocol":17,"map":"koth_highpass","folder":"tf","game":"Team Fortress","app_id":440,"player_count":0,"max_players":24,"Bots":0,"server_type":"Dedicated","server_os":"Linux","password":true,"vac":true,"version":"7932396","steam_id":85568392924470000,"keywords":["cp","nocrits","nodmgspread","uncletopia"],"game_id":440,"stv_port":27026,"stv_name":"Uncletopia | San Francisco | 2 | All Maps | STV","players":null},{"server_id":19,"name":"Uncletopia | San Francisco | 3 | Stopwatch Beta","name_short":"sfo-3","host":"sfo-1.us.uncletopia.com","port":27035,"enabled":true,"region":"us-west","cc":"us","latitude":37.77397,"longitude":-122.4313,"reserved":0,"last_update":"0001-01-01T00:00:00Z","name_a2s":"Uncletopia | San Francisco | 3 | Stopwatch Beta","protocol":17,"map":"koth_lakeside_final","folder":"tf","game":"Team Fortress","app_id":440,"player_count":0,"max_players":24,"Bots":0,"server_type":"Dedicated","server_os":"Linux","password":true,"vac":true,"version":"7932396","steam_id":85568392924742824,"keywords":["cp","nocrits","nodmgspread","uncletopia"],"game_id":440,"stv_port":27036,"stv_name":"Uncletopia | San Francisco | 3 | Stopwatch Beta | STV","players":null},{"server_id":20,"name":"Uncletopia | San Francisco | 4 | Community","name_short":"sfo-4","host":"sfo-1.us.uncletopia.com","port":27045,"enabled":true,"region":"us-west","cc":"us","latitude":37.77397,"longitude":-122.4313,"reserved":0,"last_update":"0001-01-01T00:00:00Z","name_a2s":"Uncletopia | San Francisco | 4 | Community","protocol":17,"map":"workshop/koth_kemptown_rc1.ugc767410655","folder":"tf","game":"Team Fortress","app_id":440,"player_count":0,"max_players":24,"Bots":0,"server_type":"Dedicated","server_os":"Linux","password":true,"vac":true,"version":"7932396","steam_id":85568392924742826,"keywords":["cp","nocrits","nodmgspread","uncletopia"],"game_id":440,"stv_port":27046,"stv_name":"Uncletopia | San Francisco | 4 | Community | STV","players":null},{"server_id":141,"name":"Uncletopia | Sydney | 1 | All Maps","name_short":"syd-1","host":"syd-1.au.uncletopia.com","port":27015,"enabled":true,"region":"au","cc":"au","latitude":-33.865143,"longitude":151.2099,"reserved":0,"last_update":"0001-01-01T00:00:00Z","name_a2s":"Uncletopia | Sydney | 1 | All Maps","protocol":17,"map":"pl_pier","folder":"tf","game":"Team Fortress","app_id":440,"player_count":0,"max_players":24,"Bots":0,"server_type":"Dedicated","server_os":"Linux","password":true,"vac":true,"version":"7932396","steam_id":85568392924470001,"keywords":["nocrits","nodmgspread","payload","uncletopia"],"game_id":440,"stv_port":27016,"stv_name":"Uncletopia | Sydney | 1 | All Maps | STV","players":null},{"server_id":123,"name":"Uncletopia | Sydney | 2 | All Maps","name_short":"syd-2","host":"syd-1.au.uncletopia.com","port":27025,"enabled":true,"region":"au","cc":"au","latitude":-33.865143,"longitude":151.2099,"reserved":0,"last_update":"0001-01-01T00:00:00Z","name_a2s":"Uncletopia | Sydney | 2 | All Maps","protocol":17,"map":"koth_lakeside_final","folder":"tf","game":"Team Fortress","app_id":440,"player_count":0,"max_players":24,"Bots":0,"server_type":"Dedicated","server_os":"Linux","password":true,"vac":true,"version":"7932396","steam_id":85568392924470002,"keywords":["cp","nocrits","nodmgspread","uncletopia"],"game_id":440,"stv_port":27026,"stv_name":"Uncletopia | Sydney | 2 | All Maps | STV","players":null},{"server_id":395,"name":"Uncletopia | Sydney | 3 | All Maps","name_short":"syd-3","host":"syd-1.au.uncletopia.com","port":27035,"enabled":true,"region":"au","cc":"au","latitude":-33.865143,"longitude":151.2099,"reserved":0,"last_update":"0001-01-01T00:00:00Z","name_a2s":"Uncletopia | Sydney | 3 | All Maps","protocol":17,"map":"pl_barnblitz","folder":"tf","game":"Team Fortress","app_id":440,"player_count":0,"max_players":24,"Bots":0,"server_type":"Dedicated","server_os":"Linux","password":true,"vac":true,"version":"7932396","steam_id":85568392925194467,"keywords":["nocrits","nodmgspread","payload","uncletopia"],"game_id":440,"stv_port":27036,"stv_name":"Uncletopia | Sydney | 3 | All Maps | STV","players":null},{"server_id":396,"name":"Uncletopia | Sydney | 4 | All Maps","name_short":"syd-4","host":"syd-1.au.uncletopia.com","port":27045,"enabled":true,"region":"au","cc":"au","latitude":-33.865143,"longitude":151.2099,"reserved":0,"last_update":"0001-01-01T00:00:00Z","name_a2s":"Uncletopia | Sydney | 4 | All Maps","protocol":17,"map":"pl_pier","folder":"tf","game":"Team Fortress","app_id":440,"player_count":0,"max_players":24,"Bots":0,"server_type":"Dedicated","server_os":"Linux","password":true,"vac":true,"version":"7932396","steam_id":85568392925397958,"keywords":["nocrits","nodmgspread","payload","uncletopia"],"game_id":440,"stv_port":27046,"stv_name":"Uncletopia | Sydney | 4 | All Maps | STV","players":null},{"server_id":58,"name":"Uncletopia | Sydney | 5 | Stopwatch Beta","name_short":"syd-5","host":"syd-1.au.uncletopia.com","port":27055,"enabled":true,"region":"au","cc":"au","latitude":-33.865143,"longitude":151.2099,"reserved":0,"last_update":"0001-01-01T00:00:00Z","name_a2s":"Uncletopia | Sydney | 5 | Stopwatch Beta","protocol":17,"map":"pl_borneo","folder":"tf","game":"Team Fortress","app_id":440,"player_count":0,"max_players":24,"Bots":0,"server_type":"Dedicated","server_os":"Linux","password":true,"vac":true,"version":"7932396","steam_id":85568392925397959,"keywords":["nocrits","nodmgspread","payload","uncletopia"],"game_id":440,"stv_port":27056,"stv_name":"Uncletopia | Sydney | 5 | Stopwatch Beta | STV","players":null},{"server_id":59,"name":"Uncletopia | Sydney | 6 | Community","name_short":"syd-6","host":"syd-1.au.uncletopia.com","port":27065,"enabled":true,"region":"au","cc":"au","latitude":-33.865143,"longitude":151.2099,"reserved":0,"last_update":"0001-01-01T00:00:00Z","name_a2s":"Uncletopia | Sydney | 6 | Community","protocol":17,"map":"pl_badwater","folder":"tf","game":"Team Fortress","app_id":440,"player_count":0,"max_players":24,"Bots":0,"server_type":"Dedicated","server_os":"Linux","password":true,"vac":true,"version":"7932396","steam_id":85568392925397960,"keywords":["nocrits","nodmgspread","payload","uncletopia"],"game_id":440,"stv_port":27066,"stv_name":"Uncletopia | Sydney | 6 | Community | STV","players":null},{"server_id":49,"name":"Uncletopia | Warsaw | 1 | All Maps","name_short":"waw-1","host":"waw-1.pl.uncletopia.com","port":27015,"enabled":true,"region":"eu","cc":"pl","latitude":52.2297,"longitude":21.017532,"reserved":0,"last_update":"0001-01-01T00:00:00Z","name_a2s":"","protocol":0,"map":"","folder":"","game":"","app_id":0,"player_count":0,"max_players":0,"Bots":0,"server_type":"","server_os":"","password":false,"vac":false,"version":"","steam_id":0,"keywords":null,"game_id":0,"stv_port":0,"stv_name":"","players":null},{"server_id":50,"name":"Uncletopia | Warsaw | 2 | All Maps","name_short":"waw-2","host":"waw-1.pl.uncletopia.com","port":27025,"enabled":true,"region":"eu","cc":"pl","latitude":52.2297,"longitude":21.017532,"reserved":0,"last_update":"0001-01-01T00:00:00Z","name_a2s":"Uncletopia | Warsaw | 2 | All Maps","protocol":17,"map":"koth_cascade","folder":"tf","game":"Team Fortress","app_id":440,"player_count":11,"max_players":24,"Bots":0,"server_type":"Dedicated","server_os":"Linux","password":true,"vac":true,"version":"7932396","steam_id":85568392925397851,"keywords":["cp","nocrits","nodmgspread","uncletopia"],"game_id":440,"stv_port":27026,"stv_name":"Uncletopia | Warsaw | 2 | All Maps | STV","players":[{"user_id":128,"name":"Advokat","steam_id":76561198307121174,"connected_time":480000000000,"state":"active","ping":42},{"user_id":102,"name":"Meki","steam_id":76561198225299640,"connected_time":2255000000000,"state":"active","ping":79},{"user_id":129,"name":"demoman","steam_id":76561199101808144,"connected_time":282000000000,"state":"active","ping":203},{"user_id":114,"name":"Joejee","steam_id":76561199122423976,"connected_time":1702000000000,"state":"active","ping":97},{"user_id":74,"name":"Mischail","steam_id":76561198016127010,"connected_time":3435000000000,"state":"active","ping":89},{"user_id":95,"name":"halow","steam_id":76561198061505163,"connected_time":2752000000000,"state":"active","ping":74},{"user_id":115,"name":"NO1PABLO","steam_id":76561198968173239,"connected_time":1698000000000,"state":"active","ping":98},{"user_id":109,"name":"Rorugnak [try-hard]","steam_id":76561198850972149,"connected_time":2002000000000,"state":"active","ping":100},{"user_id":119,"name":"nemelex","steam_id":76561198958005865,"connected_time":1605000000000,"state":"active","ping":71},{"user_id":125,"name":"Rai","steam_id":76561199408923294,"connected_time":834000000000,"state":"active","ping":89},{"user_id":52,"name":"ozwk","steam_id":76561198062257357,"connected_time":4565000000000,"state":"active","ping":62}]},{"server_id":51,"name":"Uncletopia | Warsaw | 3 | All Maps","name_short":"waw-3","host":"waw-1.pl.uncletopia.com","port":27035,"enabled":true,"region":"eu","cc":"pl","latitude":52.2297,"longitude":21.017532,"reserved":0,"last_update":"0001-01-01T00:00:00Z","name_a2s":"Uncletopia | Warsaw | 3 | All Maps","protocol":17,"map":"koth_lakeside_final","folder":"tf","game":"Team Fortress","app_id":440,"player_count":0,"max_players":24,"Bots":0,"server_type":"Dedicated","server_os":"Linux","password":true,"vac":true,"version":"7932396","steam_id":85568392925397852,"keywords":["cp","nocrits","nodmgspread","uncletopia"],"game_id":440,"stv_port":27036,"stv_name":"Uncletopia | Warsaw | 3 | All Maps | STV","players":null},{"server_id":52,"name":"Uncletopia | Warsaw | 4 | All Maps","name_short":"waw-4","host":"waw-1.pl.uncletopia.com","port":27045,"enabled":true,"region":"eu","cc":"pl","latitude":52.2297,"longitude":21.017532,"reserved":0,"last_update":"0001-01-01T00:00:00Z","name_a2s":"Uncletopia | Warsaw | 4 | All Maps","protocol":17,"map":"koth_lakeside_final","folder":"tf","game":"Team Fortress","app_id":440,"player_count":0,"max_players":24,"Bots":0,"server_type":"Dedicated","server_os":"Linux","password":true,"vac":true,"version":"7932396","steam_id":85568392925397853,"keywords":["cp","nocrits","nodmgspread","uncletopia"],"game_id":440,"stv_port":27046,"stv_name":"Uncletopia | Warsaw | 4 | All Maps | STV","players":null},{"server_id":53,"name":"Uncletopia | Warsaw | 5 | Stopwatch Beta","name_short":"waw-5","host":"waw-1.pl.uncletopia.com","port":27055,"enabled":true,"region":"eu","cc":"pl","latitude":52.2297,"longitude":21.017532,"reserved":0,"last_update":"0001-01-01T00:00:00Z","name_a2s":"Uncletopia | Warsaw | 5 | Stopwatch Beta","protocol":17,"map":"workshop/koth_ramjam_rc1.ugc459778887","folder":"tf","game":"Team Fortress","app_id":440,"player_count":0,"max_players":24,"Bots":0,"server_type":"Dedicated","server_os":"Linux","password":true,"vac":true,"version":"7932396","steam_id":85568392925397854,"keywords":["cp","nocrits","nodmgspread","uncletopia"],"game_id":440,"stv_port":27056,"stv_name":"Uncletopia | Warsaw | 5 | Stopwatch Beta | STV","players":null},{"server_id":54,"name":"Uncletopia | Warsaw | 6 | Community","name_short":"waw-6","host":"waw-1.pl.uncletopia.com","port":27065,"enabled":true,"region":"eu","cc":"pl","latitude":52.2297,"longitude":21.017532,"reserved":0,"last_update":"0001-01-01T00:00:00Z","name_a2s":"Uncletopia | Warsaw | 6 | Community","protocol":17,"map":"workshop/koth_product_final.ugc454272353","folder":"tf","game":"Team Fortress","app_id":440,"player_count":0,"max_players":24,"Bots":0,"server_type":"Dedicated","server_os":"Linux","password":true,"vac":true,"version":"7932396","steam_id":85568392925397856,"keywords":["cp","nocrits","nodmgspread","uncletopia"],"game_id":440,"stv_port":27066,"stv_name":"Uncletopia | Warsaw | 6 | Community | STV","players":null}]}