{"status":true,"message":"","result":[{"server_id":9,"name":"Uncletopia | Atlanta | 1 | All Maps","name_short":"atl-1","host":"atl-1.us.uncletopia.com","port":27015,"enabled":true,"region":"us-east","cc":"us","latitude":33.753746,"longitude":-84.38633,"reserved":0,"last_update":"0001-01-01T00:00:00Z","name_a2s":"Uncletopia | Atlanta | 1 | All Maps","protocol":17,"map":"cp_mountainlab","folder":"tf","game":"Team Fortress","app_id":440,"player_count":0,"max_players":24,"Bots":0,"server_type":"Dedicated","server_os":"Linux","password":true,"vac":true,"version":"7961495","steam_id":85568392924469982,"keywords":["cp","nocrits","nodmgspread","uncletopia"],"game_id":440,"stv_port":27016,"stv_name":"Uncletopia | Atlanta | 1 | All Maps | STV","players":null},{"server_id":104,"name":"Uncletopia | Atlanta | 2 | All Maps","name_short":"atl-2","host":"atl-1.us.uncletopia.com","port":27025,"enabled":true,"region":"us-east","cc":"us","latitude":33.753746,"longitude":-84.38633,"reserved":0,"last_update":"0001-01-01T00:00:00Z","name_a2s":"Uncletopia | Atlanta | 2 | All Maps","protocol":17,"map":"koth_cascade","folder":"tf","game":"Team Fortress","app_id":440,"player_count":0,"max_players":24,"Bots":0,"server_type":"Dedicated","server_os":"Linux","password":true,"vac":true,"version":"7961495","steam_id":85568392924469983,"keywords":["cp","nocrits","nodmgspread","uncletopia"],"game_id":440,"stv_port":27026,"stv_name":"Uncletopia | Atlanta | 2 | All Maps | STV","players":null},{"server_id":400,"name":"Uncletopia | Atlanta | 3 | Stopwatch","name_short":"atl-3","host":"atl-1.us.uncletopia.com","port":27035,"enabled":true,"region":"us-east","cc":"us","latitude":33.753746,"longitude":-84.38633,"reserved":0,"last_update":"0001-01-01T00:00:00Z","name_a2s":"Uncletopia | Atlanta | 3 | Stopwatch","protocol":17,"map":"pl_badwater","folder":"tf","game":"Team Fortress","app_id":440,"player_count":0,"max_players":24,"Bots":0,"server_type":"Dedicated","server_os":"Linux","password":true,"vac":true,"version":"7961495","steam_id":85568392924515187,"keywords":["nocrits","nodmgspread","payload","uncletopia"],"game_id":440,"stv_port":27036,"stv_name":"Uncletopia | Atlanta | 3 | Stopwatch | STV","players":null},{"server_id":401,"name":"Uncletopia | Atlanta | 4 | Community","name_short":"atl-4","host":"atl-1.us.uncletopia.com","port":27045,"enabled":true,"region":"us-east","cc":"us","latitude":33.753746,"longitude":-84.38633,"reserved":0,"last_update":"0001-01-01T00:00:00Z","name_a2s":"Uncletopia | Atlanta | 4 | Community","protocol":17,"map":"cp_sunshine","folder":"tf","game":"Team Fortress","app_id":440,"player_count":0,"max_players":24,"Bots":0,"server_type":"Dedicated","server_os":"Linux","password":true,"vac":true,"version":"7961495","steam_id":85568392924515188,"keywords":["cp","nocrits","nodmgspread","uncletopia"],"game_id":440,"stv_port":27046,"stv_name":"Uncletopia | Atlanta | 4 | Community | STV","players":null},{"server_id":2,"name":"Uncletopia | Chicago | 1 | All Maps","name_short":"chi-1","host":"chi-1.us.uncletopia.com","port":27015,"enabled":true,"region":"us-central","cc":"us","latitude":41.881832,"longitude":-87.62318,"reserved":0,"last_update":"0001-01-01T00:00:00Z","name_a2s":"Uncletopia | Chicago | 1 | All Maps","protocol":17,"map":"koth_viaduct","folder":"tf","game":"Team Fortress","app_id":440,"player_count":0,"max_players":24,"Bots":0,"server_type":"Dedicated","server_os":"Linux","password":true,"vac":true,"version":"7961495","steam_id":85568392924469984,"keywords":["cp","nocrits","nodmgspread","uncletopia"],"game_id":440,"stv_port":27016,"stv_name":"Uncletopia | Chicago | 1 | All Maps | STV","players":null},{"server_id":106,"name":"Uncletopia | Chicago | 2 | All Maps","name_short":"chi-2","host":"chi-1.us.uncletopia.com","port":27025,"enabled":true,"region":"us-central","cc":"us","latitude":41.881832,"longitude":-87.62318,"reserved":0,"last_update":"0001-01-01T00:00:00Z","name_a2s":"Uncletopia | Chicago | 2 | All Maps","protocol":17,"map":"pl_pier","folder":"tf","game":"Team Fortress","app_id":440,"player_count":24,"max_players":24,"Bots":0,"server_type":"Dedicated","server_os":"Linux","password":true,"vac":true,"version":"7961495","steam_id":85568392924469985,"keywords":["nocrits","nodmgspread","payload","uncletopia"],"game_id":440,"stv_port":27026,"stv_name":"Uncletopia | Chicago | 2 | All Maps | STV","players":[{"user_id":790,"name":"Shrebbie","steam_id":76561198875230824,"connected_time":3487000000000,"state":"active","ping":58},{"user_id":823,"name":"ultralisk52","steam_id":76561198051666604,"connected_time":1525000000000,"state":"active","ping":60},{"user_id":822,"name":"Squeeshmallow","steam_id":76561199103451097,"connected_time":1586000000000,"state":"active","ping":88},{"user_id":833,"name":"cyclops","steam_id":76561197970370198,"connected_time":1009000000000,"state":"active","ping":55},{"user_id":798,"name":"Skipz","steam_id":76561198425244550,"connected_time":2902000000000,"state":"active","ping":80},{"user_id":834,"name":"Anstorner","steam_id":76561198274026015,"connected_time":894000000000,"state":"active","ping":98},{"user_id":814,"name":"Soladach","steam_id":76561198091616441,"connected_time":2011000000000,"state":"active","ping":79},{"user_id":836,"name":"Person","steam_id":76561198093244204,"connected_time":775000000000,"state":"active","ping":74},{"user_id":831,"name":"Shadow Steak Ramen","steam_id":76561198077838946,"connected_time":1188000000000,"state":"active","ping":67},{"user_id":810,"name":"bunnyly enough","steam_id":76561198094119347,"connected_time":2432000000000,"state":"active","ping":74},{"user_id":811,"name":"birbneedsumseed","steam_id":76561198853439850,"connected_time":2422000000000,"state":"active","ping":90},{"user_id":804,"name":"badboy6996","steam_id":76561197969386201,"connected_time":2591000000000,"state":"active","ping":59},{"user_id":819,"name":"yomommasabitch","steam_id":76561198323217150,"connected_time":1670000000000,"state":"active","ping":62},{"user_id":837,"name":"Anubis","steam_id":76561198290954535,"connected_time":237000000000,"state":"active","ping":81},{"user_id":816,"name":"clue","steam_id":76561198299379768,"connected_time":1766000000000,"state":"active","ping":85},{"user_id":812,"name":"The Iron Clorch","steam_id":76561198412310827,"connected_time":2422000000000,"state":"active","ping":84},{"user_id":807,"name":"LVL","steam_id":76561198334403617,"connected_time":2542000000000,"state":"active","ping":57},{"user_id":813,"name":"Dwaggy","steam_id":76561198027369555,"connected_time":2409000000000,"state":"active","ping":70},{"user_id":832,"name":"MR. BEEEEEEEEEEEEEAAAAAAAAAAST","steam_id":76561198205346760,"connected_time":1172000000000,"state":"active","ping":44},{"user_id":827,"name":"blackcum22","steam_id":76561198401326874,"connected_time":1419000000000,"state":"active","ping":103},{"user_id":795,"name":"Dzhoshua","steam_id":76561198071915251,"connected_time":3208000000000,"state":"active","ping":69},{"user_id":828,"name":"Blast","steam_id":76561198081697090,"connected_time":1410000000000,"state":"active","ping":77},{"user_id":806,"name":"bill","steam_id":76561199142779872,"connected_time":2564000000000,"state":"active","ping":63},{"user_id":835,"name":"guy","steam_id":76561198079925551,"connected_time":890000000000,"state":"active","ping":61}]},{"server_id":402,"name":"Uncletopia | Chicago | 3 | All Maps","name_short":"chi-3","host":"chi-1.us.uncletopia.com","port":27035,"enabled":true,"region":"us-central","cc":"us","latitude":41.881832,"longitude":-87.62318,"reserved":0,"last_update":"0001-01-01T00:00:00Z","name_a2s":"Uncletopia | Chicago | 3 | All Maps","protocol":17,"map":"koth_highpass","folder":"tf","game":"Team Fortress","app_id":440,"player_count":0,"max_players":24,"Bots":0,"server_type":"Dedicated","server_os":"Linux","password":true,"vac":true,"version":"7961495","steam_id":85568392924515191,"keywords":["cp","nocrits","nodmgspread","uncletopia"],"game_id":440,"stv_port":27036,"stv_name":"Uncletopia | Chicago | 3 | All Maps | STV","players":null},{"server_id":403,"name":"Uncletopia | Chicago | 4 | All Maps","name_short":"chi-4","host":"chi-1.us.uncletopia.com","port":27045,"enabled":true,"region":"us-central","cc":"us","latitude":41.881832,"longitude":-87.62318,"reserved":0,"last_update":"0001-01-01T00:00:00Z","name_a2s":"Uncletopia | Chicago | 4 | All Maps","protocol":17,"map":"pl_barnblitz","folder":"tf","game":"Team Fortress","app_id":440,"player_count":24,"max_players":24,"Bots":0,"server_type":"Dedicated","server_os":"Linux","password":true,"vac":true,"version":"7961495","steam_id":85568392924515193,"keywords":["nocrits","nodmgspread","payload","uncletopia"],"game_id":440,"stv_port":27046,"stv_name":"Uncletopia | Chicago | 4 | All Maps | STV","players":[{"user_id":521,"name":"xFactr","steam_id":76561198129007422,"connected_time":554000000000,"state":"active","ping":58},{"user_id":472,"name":"boneswaggler","steam_id":76561199121973199,"connected_time":3767000000000,"state":"active","ping":58},{"user_id":522,"name":"MrMind","steam_id":76561199321657653,"connected_time":527000000000,"state":"active","ping":95},{"user_id":501,"name":"King","steam_id":76561198123927752,"connected_time":1591000000000,"state":"active","ping":48},{"user_id":444,"name":"breathing meat donut","steam_id":76561198123566649,"connected_time":5213000000000,"state":"active","ping":75},{"user_id":513,"name":"Caster","steam_id":76561198131592341,"connected_time":800000000000,"state":"active","ping":110},{"user_id":528,"name":"Blehnder","steam_id":76561198172097526,"connected_time":89000000000,"state":"active","ping":77},{"user_id":520,"name":"roman","steam_id":76561198170066797,"connected_time":611000000000,"state":"active","ping":53},{"user_id":512,"name":"DWSkilltonTTV","steam_id":76561197967027880,"connected_time":813000000000,"state":"active","ping":100},{"user_id":514,"name":"Spike","steam_id":76561198141356571,"connected_time":800000000000,"state":"active","ping":59},{"user_id":515,"name":"starry","steam_id":76561198989740125,"connected_time":796000000000,"state":"active","ping":81},{"user_id":525,"name":"staks","steam_id":76561198059570070,"connected_time":163000000000,"state":"active","ping":48},{"user_id":443,"name":"cofi","steam_id":76561198077504898,"connected_time":5238000000000,"state":"active","ping":66},{"user_id":503,"name":"Pete","steam_id":76561198044797506,"connected_time":1552000000000,"state":"active","ping":78},{"user_id":527,"name":"IosephVII","steam_id":76561198101116197,"connected_time":135000000000,"state":"active","ping":104},{"user_id":459,"name":"zuma deluxe","steam_id":76561198059041027,"connected_time":4875000000000,"state":"active","ping":110},{"user_id":504,"name":"MilliePop","steam_id":76561198146233078,"connected_time":1543000000000,"state":"active","ping":103},{"user_id":517,"name":"DW codeN1nj4","steam_id":76561198025558856,"connected_time":795000000000,"state":"active","ping":112},{"user_id":518,"name":"It's the Juice","steam_id":76561198017333301,"connected_time":760000000000,"state":"active","ping":104},{"user_id":505,"name":"HooHay","steam_id":76561199350870177,"connected_time":1467000000000,"state":"active","ping":58},{"user_id":495,"name":"Ryoko","steam_id":76561198084725087,"connected_time":2584000000000,"state":"active","ping":71},{"user_id":523,"name":"professional cereal eater","steam_id":76561198320039669,"connected_time":468000000000,"state":"active","ping":164},{"user_id":498,"name":"dipp","steam_id":76561198395577807,"connected_time":2548000000000,"state":"active","ping":72},{"user_id":471,"name":"Jerms","steam_id":76561198382814378,"connected_time":3828000000000,"state":"active","ping":51}]},{"server_id":36,"name":"Uncletopia | Chicago | 5 | All Maps","name_short":"chi-5","host":"chi-2.us.uncletopia.com","port":27015,"enabled":true,"region":"us-central","cc":"us","latitude":41.881832,"longitude":-87.62318,"reserved":0,"last_update":"0001-01-01T00:00:00Z","name_a2s":"Uncletopia | Chicago | 5 | All Maps","protocol":17,"map":"koth_highpass","folder":"tf","game":"Team Fortress","app_id":440,"player_count":0,"max_players":24,"Bots":0,"server_type":"Dedicated","server_os":"Linux","password":true,"vac":true,"version":"7961495","steam_id":85568392924866362,"keywords":["cp","nocrits","nodmgspread","uncletopia"],"game_id":440,"stv_port":27016,"stv_name":"Uncletopia | Chicago | 5 | All Maps | STV","players":null},{"server_id":37,"name":"Uncletopia | Chicago | 6 | All Maps","name_short":"chi-6","host":"chi-2.us.uncletopia.com","port":27025,"enabled":true,"region":"us-central","cc":"us","latitude":41.881832,"longitude":-87.62318,"reserved":0,"last_update":"0001-01-01T00:00:00Z","name_a2s":"Uncletopia | Chicago | 6 | All Maps","protocol":17,"map":"plr_bananabay","folder":"tf","game":"Team Fortress","app_id":440,"player_count":0,"max_players":24,"Bots":0,"server_type":"Dedicated","server_os":"Linux","password":true,"vac":true,"version":"7961495","steam_id":85568392924866363,"keywords":["nocrits","nodmgspread","payload","uncletopia"],"game_id":440,"stv_port":27026,"stv_name":"Uncletopia | Chicago | 6 | All Maps | STV","players":null},{"server_id":38,"name":"Uncletopia | Chicago | 7 | Stopwatch","name_short":"chi-7","host":"chi-2.us.uncletopia.com","port":27035,"enabled":true,"region":"us-central","cc":"us","latitude":41.881832,"longitude":-87.62318,"reserved":0,"last_update":"0001-01-01T00:00:00Z","name_a2s":"Uncletopia | Chicago | 7 | Stopwatch","protocol":17,"map":"workshop/koth_ramjam_rc1.ugc459778887","folder":"tf","game":"Team Fortress","app_id":440,"player_count":0,"max_players":24,"Bots":0,"server_type":"Dedicated","server_os":"Linux","password":true,"vac":true,"version":"7961495","steam_id":85568392924866364,"keywords":["cp","nocrits","nodmgspread","uncletopia"],"game_id":440,"stv_port":27036,"stv_name":"Uncletopia | Chicago | 7 | Stopwatch | STV","players":null},{"server_id":39,"name":"Uncletopia | Chicago | 8 | Community","name_short":"chi-8","host":"chi-2.us.uncletopia.com","port":27045,"enabled":true,"region":"us-central","cc":"us","latitude":41.881832,"longitude":-87.62318,"reserved":0,"last_update":"0001-01-01T00:00:00Z","name_a2s":"Uncletopia | Chicago | 8 | Community","protocol":17,"map":"workshop/koth_trenchfoot_b1a.ugc731436616","folder":"tf","game":"Team Fortress","app_id":440,"player_count":0,"max_players":24,"Bots":0,"server_type":"Dedicated","server_os":"Linux","password":true,"vac":true,"version":"7961495","steam_id":85568392924866365,"keywords":["cp","nocrits","nodmgspread","uncletopia"],"game_id":440,"stv_port":27046,"stv_name":"Uncletopia | Chicago | 8 | Community | STV","players":null},{"server_id":8,"name":"Uncletopia | Dallas | 1 | All Maps","name_short":"dal-1","host":"dal-1.us.uncletopia.com","port":27015,"enabled":true,"region":"us-central","cc":"us","latitude":32.779167,"longitude":-96.80889,"reserved":0,"last_update":"0001-01-01T00:00:00Z","name_a2s":"Uncletopia | Dallas | 1 | All Maps","protocol":17,"map":"pl_badwater","folder":"tf","game":"Team Fortress","app_id":440,"player_count":22,"max_players":24,"Bots":0,"server_type":"Dedicated","server_os":"Linux","password":true,"vac":true,"version":"7961495","steam_id":85568392924469986,"keywords":["nocrits","nodmgspread","payload","uncletopia"],"game_id":440,"stv_port":27016,"stv_name":"Uncletopia | Dallas | 1 | All Maps | STV","players":[{"user_id":726,"name":"LargeAll","steam_id":76561198130252456,"connected_time":20000000000,"state":"active","ping":63},{"user_id":700,"name":"Rafl","steam_id":76561198055222756,"connected_time":2052000000000,"state":"active","ping":45},{"user_id":695,"name":"substance","steam_id":76561198050103868,"connected_time":2439000000000,"state":"active","ping":116},{"user_id":704,"name":"HalfDead","steam_id":76561198049700226,"connected_time":2002000000000,"state":"active","ping":103},{"user_id":682,"name":"dave","steam_id":76561198135961731,"connected_time":3248000000000,"state":"active","ping":60},{"user_id":687,"name":"small meth pouch","steam_id":76561198130412963,"connected_time":2625000000000,"state":"active","ping":68},{"user_id":653,"name":"Yackaboi","steam_id":76561199444911765,"connected_time":4623000000000,"state":"active","ping":93},{"user_id":707,"name":"AzuriousAlex","steam_id":76561198158026405,"connected_time":1911000000000,"state":"active","ping":79},{"user_id":721,"name":"sora","steam_id":76561198094256973,"connected_time":689000000000,"state":"active","ping":90},{"user_id":712,"name":"JJ","steam_id":76561198040955086,"connected_time":984000000000,"state":"active","ping":52},{"user_id":723,"name":"â™¡Doing Adeptsâ™¡","steam_id":76561198158902875,"connected_time":501000000000,"state":"active","ping":72},{"user_id":713,"name":"Techo","steam_id":76561199169405285,"connected_time":938000000000,"state":"active","ping":118},{"user_id":718,"name":"victordead121","steam_id":76561199180843121,"connected_time":794000000000,"state":"active","ping":98},{"user_id":711,"name":"amjugan","steam_id":76561198018488216,"connected_time":995000000000,"state":"active","ping":95},{"user_id":719,"name":"Unlicensed Fed","steam_id":76561198166040449,"connected_time":780000000000,"state":"active","ping":87},{"user_id":710,"name":"Noe-El","steam_id":76561198853526597,"connected_time":1600000000000,"state":"active","ping":66},{"user_id":688,"name":"lil hog","steam_id":76561199230929836,"connected_time":2608000000000,"state":"active","ping":65},{"user_id":706,"name":"RSephâ„¢","steam_id":76561198107908797,"connected_time":1954000000000,"state":"active","ping":164},{"user_id":716,"name":"PyroMorphik","steam_id":76561198157628007,"connected_time":865000000000,"state":"active","ping":68},{"user_id":722,"name":"tomandjerry085","steam_id":76561198800789071,"connected_time":584000000000,"state":"active","ping":79},{"user_id":725,"name":"blast a hoe","steam_id":76561198294281809,"connected_time":253000000000,"state":"active","ping":71},{"user_id":724,"name":"on that zaza?","steam_id":76561198038713198,"connected_time":265000000000,"state":"active","ping":90}]},{"server_id":108,"name":"Uncletopia | Dallas | 2 | All Maps","name_short":"dal-2","host":"dal-1.us.uncletopia.com","port":27025,"enabled":true,"region":"us-central","cc":"us","latitude":32.779167,"longitude":-96.80889,"reserved":0,"last_update":"0001-01-01T00:00:00Z","name_a2s":"Uncletopia | Dallas | 2 | All Maps","protocol":17,"map":"pl_borneo","folder":"tf","game":"Team Fortress","app_id":440,"player_count":24,"max_players":24,"Bots":0,"server_type":"Dedicated","server_os":"Linux","password":true,"vac":true,"version":"7961495","steam_id":85568392924469988,"keywords":["nocrits","nodmgspread","payload","uncletopia"],"game_id":440,"stv_port":27026,"stv_name":"Uncletopia | Dallas | 2 | All Maps | STV","players":[{"user_id":608,"name":"Ojen","steam_id":76561197998414482,"connected_time":2617000000000,"state":"active","ping":79},{"user_id":624,"name":"W1CKEDY","steam_id":76561198353447602,"connected_time":1135000000000,"state":"active","ping":92},{"user_id":578,"name":"ieatboogersAGAGAGAGAGAGA","steam_id":76561198096737300,"connected_time":6524000000000,"state":"active","ping":92},{"user_id":616,"name":"wentilyator","steam_id":76561198173626526,"connected_time":1953000000000,"state":"active","ping":183},{"user_id":646,"name":"omnitrix_wielder7000","steam_id":76561198309010627,"connected_time":231000000000,"state":"active","ping":98},{"user_id":622,"name":"OddSlaush","steam_id":76561198043898488,"connected_time":1263000000000,"state":"active","ping":62},{"user_id":623,"name":"SQU1DDY","steam_id":76561198027757551,"connected_time":1139000000000,"state":"active","ping":94},{"user_id":603,"name":"njokuani","steam_id":76561199061380038,"connected_time":2801000000000,"state":"active","ping":74},{"user_id":636,"name":"denzell05","steam_id":76561198086987061,"connected_time":700000000000,"state":"active","ping":85},{"user_id":630,"name":"48","steam_id":76561198156422760,"connected_time":1012000000000,"state":"active","ping":84},{"user_id":640,"name":"Ice Man","steam_id":76561198073249999,"connected_time":382000000000,"state":"active","ping":99},{"user_id":641,"name":"Wilma","steam_id":76561198138420251,"connected_time":379000000000,"state":"active","ping":81},{"user_id":548,"name":"chud smoker","steam_id":76561198120973162,"connected_time":9115000000000,"state":"active","ping":91},{"user_id":647,"name":"Toon","steam_id":76561198227601072,"connected_time":223000000000,"state":"active","ping":45},{"user_id":649,"name":"Female Gamer","steam_id":76561199366482682,"connected_time":42000000000,"state":"active","ping":114},{"user_id":557,"name":"chud packer","steam_id":76561198051310816,"connected_time":8699000000000,"state":"active","ping":41},{"user_id":605,"name":"Kamin","steam_id":76561198255299559,"connected_time":2750000000000,"state":"active","ping":67},{"user_id":586,"name":"itchy pretzel","steam_id":76561198090412935,"connected_time":5644000000000,"state":"active","ping":57},{"user_id":634,"name":"Snoopy","steam_id":76561198273735974,"connected_time":862000000000,"state":"active","ping":71},{"user_id":614,"name":"I love you","steam_id":76561198250371792,"connected_time":2067000000000,"state":"active","ping":72},{"user_id":650,"name":"L + Maidenless + Tarnished","steam_id":76561198978605490,"connected_time":19000000000,"state":"active","ping":77},{"user_id":633,"name":"Bankito","steam_id":76561198972260865,"connected_time":880000000000,"state":"active","ping":89},{"user_id":648,"name":"=^_^=","steam_id":76561199189127781,"connected_time":218000000000,"state":"active","ping":91},{"user_id":561,"name":"kaputon","steam_id":76561198146299782,"connected_time":8552000000000,"state":"active","ping":77}]},{"server_id":404,"name":"Uncletopia | Dallas | 3 | All Maps","name_short":"dal-3","host":"dal-1.us.uncletopia.com","port":27035,"enabled":true,"region":"us-central","cc":"us","latitude":32.779167,"longitude":-96.80889,"reserved":0,"last_update":"0001-01-01T00:00:00Z","name_a2s":"Uncletopia | Dallas | 3 | All Maps","protocol":17,"map":"koth_viaduct","folder":"tf","game":"Team Fortress","app_id":440,"player_count":0,"max_players":24,"Bots":0,"server_type":"Dedicated","server_os":"Linux","password":true,"vac":true,"version":"7961495","steam_id":85568392924515219,"keywords":["cp","nocrits","nodmgspread","uncletopia"],"game_id":440,"stv_port":27036,"stv_name":"Uncletopia | Dallas | 3 | All Maps | STV","players":null},{"server_id":405,"name":"Uncletopia | Dallas | 4 | Community","name_short":"dal-4","host":"dal-1.us.uncletopia.com","port":27045,"enabled":true,"region":"us-central","cc":"us","latitude":32.779167,"longitude":-96.80889,"reserved":0,"last_update":"0001-01-01T00:00:00Z","name_a2s":"Uncletopia | Dallas | 4 | Community","protocol":17,"map":"workshop/cp_snowbase_b18.ugc2081770490","folder":"tf","game":"Team Fortress","app_id":440,"player_count":0,"max_players":24,"Bots":0,"server_type":"Dedicated","server_os":"Linux","password":true,"vac":true,"version":"7961495","steam_id":85568392924515220,"keywords":["cp","nocrits","nodmgspread","uncletopia"],"game_id":440,"stv_port":27046,"stv_name":"Uncletopia | Dallas | 4 | Community | STV","players":null},{"server_id":5,"name":"Uncletopia | Frankfurt | 1 | All Maps","name_short":"frk-1","host":"frk-1.de.uncletopia.com","port":27015,"enabled":true,"region":"eu","cc":"de","latitude":50.110924,"longitude":8.682127,"reserved":0,"last_update":"0001-01-01T00:00:00Z","name_a2s":"Uncletopia | Frankfurt | 1 | All Maps","protocol":17,"map":"koth_highpass","folder":"tf","game":"Team Fortress","app_id":440,"player_count":0,"max_players":24,"Bots":0,"server_type":"Dedicated","server_os":"Linux","password":true,"vac":true,"version":"7961495","steam_id":85568392924469989,"keywords":["cp","nocrits","nodmgspread","uncletopia"],"game_id":440,"stv_port":27016,"stv_name":"Uncletopia | Frankfurt | 1 | All Maps | STV","players":null},{"server_id":110,"name":"Uncletopia | Frankfurt | 2 | All Maps","name_short":"frk-2","host":"frk-1.de.uncletopia.com","port":27025,"enabled":true,"region":"eu","cc":"de","latitude":50.110924,"longitude":8.682127,"reserved":0,"last_update":"0001-01-01T00:00:00Z","name_a2s":"Uncletopia | Frankfurt | 2 | All Maps","protocol":17,"map":"pl_pier","folder":"tf","game":"Team Fortress","app_id":440,"player_count":5,"max_players":24,"Bots":0,"server_type":"Dedicated","server_os":"Linux","password":true,"vac":true,"version":"7961495","steam_id":85568392924469990,"keywords":["nocrits","nodmgspread","payload","uncletopia"],"game_id":440,"stv_port":27026,"stv_name":"Uncletopia | Frankfurt | 2 | All Maps | STV","players":[{"user_id":7,"name":"Â¡!Ulexos!Â¡","steam_id":76561198087502998,"connected_time":697000000000,"state":"active","ping":45},{"user_id":8,"name":"Conni243","steam_id":76561198900177514,"connected_time":589000000000,"state":"active","ping":55},{"user_id":9,"name":"GregerUlander","steam_id":76561198152375055,"connected_time":549000000000,"state":"active","ping":79},{"user_id":10,"name":"Macro","steam_id":76561197975676092,"connected_time":477000000000,"state":"active","ping":70},{"user_id":12,"name":"ashsbhop","steam_id":76561199155075476,"connected_time":373000000000,"state":"active","ping":79}]},{"server_id":308,"name":"Uncletopia | Frankfurt | 3 | All Maps","name_short":"frk-3","host":"frk-1.de.uncletopia.com","port":27035,"enabled":true,"region":"eu","cc":"de","latitude":50.110924,"longitude":8.682127,"reserved":0,"last_update":"0001-01-01T00:00:00Z","name_a2s":"Uncletopia | Frankfurt | 3 | All Maps","protocol":17,"map":"pl_borneo","folder":"tf","game":"Team Fortress","app_id":440,"player_count":0,"max_players":24,"Bots":0,"server_type":"Dedicated","server_os":"Linux","password":true,"vac":true,"version":"7961495","steam_id":85568392924504274,"keywords":["nocrits","nodmgspread","payload","uncletopia"],"game_id":440,"stv_port":27036,"stv_name":"Uncletopia | Frankfurt | 3 | All Maps | STV","players":null},{"server_id":309,"name":"Uncletopia | Frankfurt | 4 | All Maps","name_short":"frk-4","host":"frk-1.de.uncletopia.com","port":27045,"enabled":true,"region":"eu","cc":"de","latitude":50.110924,"longitude":8.682127,"reserved":0,"last_update":"0001-01-01T00:00:00Z","name_a2s":"Uncletopia | Frankfurt | 4 | All Maps","protocol":17,"map":"koth_highpass","folder":"tf","game":"Team Fortress","app_id":440,"player_count":0,"max_players":24,"Bots":0,"server_type":"Dedicated","server_os":"Linux","password":true,"vac":true,"version":"7961495","steam_id":85568392924504275,"keywords":["cp","nocrits","nodmgspread","uncletopia"],"game_id":440,"stv_port":27046,"stv_name":"Uncletopia | Frankfurt | 4 | All Maps | STV","players":null},{"server_id":310,"name":"Uncletopia | Frankfurt | 5 | All Maps","name_short":"frk-5","host":"frk-1.de.uncletopia.com","port":27055,"enabled":true,"region":"eu","cc":"de","latitude":50.110924,"longitude":8.682127,"reserved":0,"last_update":"0001-01-01T00:00:00Z","name_a2s":"Uncletopia | Frankfurt | 5 | All Maps","protocol":17,"map":"pl_badwater","folder":"tf","game":"Team Fortress","app_id":440,"player_count":2,"max_players":24,"Bots":0,"server_type":"Dedicated","server_os":"Linux","password":true,"vac":true,"version":"7961495","steam_id":85568392924504277,"keywords":["nocrits","nodmgspread","payload","uncletopia"],"game_id":440,"stv_port":27056,"stv_name":"Uncletopia | Frankfurt | 5 | All Maps | STV","players":[{"user_id":3,"name":"ZakkoTheArtist","steam_id":76561199125964838,"connected_time":417000000000,"state":"active","ping":285},{"user_id":4,"name":"Darkness","steam_id":76561198878820690,"connected_time":411000000000,"state":"active","ping":205}]},{"server_id":311,"name":"Uncletopia | Frankfurt | 6 | All Maps","name_short":"frk-6","host":"frk-1.de.uncletopia.com","port":27065,"enabled":true,"region":"eu","cc":"de","latitude":50.110924,"longitude":8.682127,"reserved":0,"last_update":"0001-01-01T00:00:00Z","name_a2s":"Uncletopia | Frankfurt | 6 | All Maps","protocol":17,"map":"cp_altitude","folder":"tf","game":"Team Fortress","app_id":440,"player_count":0,"max_players":24,"Bots":0,"server_type":"Dedicated","server_os":"Linux","password":true,"vac":true,"version":"7961495","steam_id":85568392924504278,"keywords":["cp","nocrits","nodmgspread","uncletopia"],"game_id":440,"stv_port":27066,"stv_name":"Uncletopia | Frankfurt | 6 | All Maps | STV","players":null},{"server_id":23,"name":"Uncletopia | Frankfurt | 7 | Stopwatch","name_short":"frk-7","host":"frk-1.de.uncletopia.com","port":27075,"enabled":true,"region":"eu","cc":"de","latitude":50.110924,"longitude":8.682127,"reserved":0,"last_update":"0001-01-01T00:00:00Z","name_a2s":"Uncletopia | Frankfurt | 7 | Stopwatch","protocol":17,"map":"pl_borneo","folder":"tf","game":"Team Fortress","app_id":440,"player_count":0,"max_players":24,"Bots":0,"server_type":"Dedicated","server_os":"Linux","password":true,"vac":true,"version":"7961495","steam_id":85568392924742827,"keywords":["nocrits","nodmgspread","payload","uncletopia"],"game_id":440,"stv_port":27076,"stv_name":"Uncletopia | Frankfurt | 7 | Stopwatch | STV","players":null},{"server_id":24,"name":"Uncletopia | Frankfurt | 8 | Community","name_short":"frk-8","host":"frk-1.de.uncletopia.com","port":27085,"enabled":true,"region":"eu","cc":"de","latitude":50.110924,"longitude":8.682127,"reserved":0,"last_update":"0001-01-01T00:00:00Z","name_a2s":"Uncletopia | Frankfurt | 8 | Community","protocol":17,"map":"workshop/koth_bagel_rc6.ugc2514036946","folder":"tf","game":"Team Fortress","app_id":440,"player_count":21,"max_players":24,"Bots":0,"server_type":"Dedicated","server_os":"Linux","password":true,"vac":true,"version":"7961495","steam_id":85568392924742828,"keywords":["cp","nocrits","nodmgspread","uncletopia"],"game_id":440,"stv_port":27086,"stv_name":"Uncletopia | Frankfurt | 8 | Community | STV","players":[{"user_id":75,"name":"The Wolf Leader","steam_id":76561198038007462,"connected_time":1661000000000,"state":"active","ping":79},{"user_id":50,"name":"Jokudami","steam_id":76561198346604154,"connected_time":3373000000000,"state":"active","ping":51},{"user_id":96,"name":"OhMyGrosch","steam_id":76561198361193051,"connected_time":17000000000,"state":"spawning","ping":167},{"user_id":78,"name":"Whirlwind","steam_id":76561198942024930,"connected_time":1593000000000,"state":"active","ping":105},{"user_id":83,"name":"SashaSochi","steam_id":76561197991527867,"connected_time":1376000000000,"state":"active","ping":121},{"user_id":90,"name":"Umme","steam_id":76561198053809566,"connected_time":733000000000,"state":"active","ping":83},{"user_id":91,"name":"night.s","steam_id":76561198326287823,"connected_time":375000000000,"state":"active","ping":75},{"user_id":87,"name":"oozaru","steam_id":76561198236803694,"connected_time":1005000000000,"state":"active","ping":51},{"user_id":95,"name":"Perci","steam_id":76561198097789669,"connected_time":49000000000,"state":"active","ping":140},{"user_id":89,"name":"trans werewolf","steam_id":76561198107235989,"connected_time":839000000000,"state":"active","ping":52},{"user_id":80,"name":"WEEP","steam_id":76561199499933159,"connected_time":1572000000000,"state":"active","ping":61},{"user_id":34,"name":"FurbyZone","steam_id":76561198268344503,"connected_time":4406000000000,"state":"active","ping":57},{"user_id":35,"name":"Enjoyer","steam_id":76561198147399855,"connected_time":4242000000000,"state":"active","ping":130},{"user_id":63,"name":"Yassine","steam_id":76561198140565712,"connected_time":2254000000000,"state":"active","ping":49},{"user_id":93,"name":"grr","steam_id":76561199429407130,"connected_time":93000000000,"state":"active","ping":97},{"user_id":65,"name":"que movida","steam_id":76561197966125354,"connected_time":2175000000000,"state":"active","ping":81},{"user_id":84,"name":"bp","steam_id":76561198353083018,"connected_time":1316000000000,"state":"active","ping":68},{"user_id":92,"name":"Celty niiâ€“chan","steam_id":76561199001431715,"connected_time":300000000000,"state":"active","ping":81},{"user_id":85,"name":"releng0","steam_id":76561198120708390,"connected_time":1251000000000,"state":"active","ping":75},{"user_id":94,"name":"hud_saytext_time 0","steam_id":76561198010327228,"connected_time":77000000000,"state":"active","ping":58},{"user_id":73,"name":"Czebosak","steam_id":76561198958118225,"connected_time":1844000000000,"state":"active","ping":121}]},{"server_id":202,"name":"Uncletopia | Hong Kong | 1 | All Maps","name_short":"hgk-1","host":"hgk-1.hk.uncletopia.com","port":27015,"enabled":true,"region":"asia","cc":"hk","latitude":22.302711,"longitude":114.177216,"reserved":0,"last_update":"0001-01-01T00:00:00Z","name_a2s":"Uncletopia | Hong Kong | 1 | All Maps","protocol":17,"map":"cp_mountainlab","folder":"tf","game":"Team Fortress","app_id":440,"player_count":24,"max_players":24,"Bots":0,"server_type":"Dedicated","server_os":"Linux","password":true,"vac":true,"version":"7961495","steam_id":85568392924494504,"keywords":["cp","nocrits","nodmgspread","uncletopia"],"game_id":440,"stv_port":27016,"stv_name":"Uncletopia | Hong Kong | 1 | All Maps | STV","players":[{"user_id":139,"name":"V :3","steam_id":76561199034546642,"connected_time":3951000000000,"state":"active","ping":100},{"user_id":141,"name":"Lerroy","steam_id":76561199137927625,"connected_time":3890000000000,"state":"active","ping":96},{"user_id":145,"name":"14 #lft","steam_id":76561198113401862,"connected_time":3422000000000,"state":"active","ping":85},{"user_id":163,"name":"17","steam_id":76561198241530712,"connected_time":2450000000000,"state":"active","ping":59},{"user_id":159,"name":"screaming sniper","steam_id":76561199085568674,"connected_time":2487000000000,"state":"active","ping":55},{"user_id":116,"name":"yveth","steam_id":76561198320532821,"connected_time":6040000000000,"state":"active","ping":57},{"user_id":123,"name":"Kage","steam_id":76561199248933724,"connected_time":5716000000000,"state":"active","ping":68},{"user_id":151,"name":"Shinobimono","steam_id":76561198343322788,"connected_time":2887000000000,"state":"active","ping":133},{"user_id":137,"name":"Mahoxen","steam_id":76561199121861959,"connected_time":4171000000000,"state":"active","ping":90},{"user_id":172,"name":"condiment king","steam_id":76561199039560921,"connected_time":890000000000,"state":"active","ping":75},{"user_id":130,"name":"Wx","steam_id":76561199217780897,"connected_time":5280000000000,"state":"active","ping":117},{"user_id":171,"name":"Makima's Chair","steam_id":76561199174449723,"connected_time":1253000000000,"state":"active","ping":118},{"user_id":169,"name":"Talkk More","steam_id":76561198305424433,"connected_time":1540000000000,"state":"active","ping":81},{"user_id":173,"name":"CaptainBozo","steam_id":76561199151959977,"connected_time":860000000000,"state":"active","ping":60},{"user_id":134,"name":"CakeMaestor","steam_id":76561198331763015,"connected_time":4664000000000,"state":"active","ping":80},{"user_id":170,"name":"Dr. Piss Rat","steam_id":76561199074809838,"connected_time":1539000000000,"state":"active","ping":74},{"user_id":117,"name":"Drutzhfer","steam_id":76561198299948446,"connected_time":5980000000000,"state":"active","ping":111},{"user_id":175,"name":"Spookie","steam_id":76561199158560796,"connected_time":720000000000,"state":"active","ping":112},{"user_id":144,"name":"big beaver","steam_id":76561199219484527,"connected_time":3652000000000,"state":"active","ping":176},{"user_id":167,"name":"Pillboi","steam_id":76561198011172886,"connected_time":1550000000000,"state":"active","ping":41},{"user_id":125,"name":"bhuy8698","steam_id":76561199367301967,"connected_time":5681000000000,"state":"active","ping":71},{"user_id":127,"name":"water tastes good","steam_id":76561199375947670,"connected_time":5456000000000,"state":"active","ping":69},{"user_id":112,"name":"pyroman51","steam_id":76561198074339034,"connected_time":6541000000000,"state":"active","ping":76},{"user_id":168,"name":"Kek","steam_id":76561199004616229,"connected_time":1547000000000,"state":"active","ping":106}]},{"server_id":1,"name":"Uncletopia | Los Angeles | 1 | All Maps","name_short":"lax-1","host":"lax-1.us.uncletopia.com","port":27015,"enabled":true,"region":"us-west","cc":"us","latitude":33.94279,"longitude":-118.41004,"reserved":0,"last_update":"0001-01-01T00:00:00Z","name_a2s":"Uncletopia | Los Angeles | 1 | All Maps","protocol":17,"map":"pl_upward","folder":"tf","game":"Team Fortress","app_id":440,"player_count":24,"max_players":24,"Bots":0,"server_type":"Dedicated","server_os":"Linux","password":true,"vac":true,"version":"7961495","steam_id":85568392924469991,"keywords":["nocrits","nodmgspread","payload","uncletopia"],"game_id":440,"stv_port":27016,"stv_name":"Uncletopia | Los Angeles | 1 | All Maps | STV","players":[{"user_id":574,"name":"netoc6","steam_id":76561199065312168,"connected_time":3165000000000,"state":"spawning","ping":138},{"user_id":575,"name":"moe","steam_id":76561198929586245,"connected_time":2856000000000,"state":"spawning","ping":106},{"user_id":585,"name":"Justtophat","steam_id":76561198308787175,"connected_time":1326000000000,"state":"spawning","ping":50},{"user_id":583,"name":"(1)Eggs","steam_id":76561198060148916,"connected_time":1478000000000,"state":"spawning","ping":35},{"user_id":610,"name":"kx","steam_id":76561198088952425,"connected_time":723000000000,"state":"spawning","ping":71},{"user_id":586,"name":"Testicular Torsion","steam_id":76561198025207814,"connected_time":1307000000000,"state":"spawning","ping":85},{"user_id":587,"name":"A-Sauccy","steam_id":76561198110836462,"connected_time":1223000000000,"state":"spawning","ping":75},{"user_id":588,"name":"Mr Wishy Fish","steam_id":76561198154702399,"connected_time":1216000000000,"state":"spawning","ping":77},{"user_id":589,"name":"President Porpoise","steam_id":76561198229434512,"connected_time":1215000000000,"state":"spawning","ping":77},{"user_id":662,"name":"Juiced","steam_id":76561198975824400,"connected_time":6000000000,"state":"spawning","ping":80},{"user_id":560,"name":"lime creator","steam_id":76561198074047574,"connected_time":4784000000000,"state":"spawning","ping":70},{"user_id":525,"name":"dougrocks421","steam_id":76561198165063918,"connected_time":6973000000000,"state":"spawning","ping":81},{"user_id":663,"name":"PocketTieAMPLFY","steam_id":76561199080485881,"connected_time":1000000000,"state":"spawning","ping":104},{"user_id":550,"name":"Board","steam_id":76561198134326473,"connected_time":5295000000000,"state":"spawning","ping":48},{"user_id":577,"name":"pat","steam_id":76561198040595468,"connected_time":2667000000000,"state":"spawning","ping":51},{"user_id":570,"name":"Bene Tlailax","steam_id":76561198131567365,"connected_time":3675000000000,"state":"spawning","ping":152},{"user_id":526,"name":"Dad","steam_id":76561198083941413,"connected_time":6968000000000,"state":"spawning","ping":62},{"user_id":660,"name":"hhhhhorsehhh","steam_id":76561198035695376,"connected_time":36000000000,"state":"spawning","ping":73},{"user_id":597,"name":"Dorso","steam_id":76561198380590080,"connected_time":1026000000000,"state":"spawning","ping":35},{"user_id":600,"name":"keppo","steam_id":76561198154768384,"connected_time":874000000000,"state":"active","ping":336},{"user_id":557,"name":"Eggs","steam_id":76561199099416355,"connected_time":5082000000000,"state":"spawning","ping":62},{"user_id":661,"name":"rose","steam_id":76561197995200743,"connected_time":36000000000,"state":"connecting","ping":45},{"user_id":599,"name":"Daz","steam_id":76561198041431938,"connected_time":885000000000,"state":"spawning","ping":75},{"user_id":605,"name":"Dog","steam_id":76561198041841128,"connected_time":812000000000,"state":"spawning","ping":53}]},{"server_id":112,"name":"Uncletopia | Los Angeles | 2 | All Maps","name_short":"lax-2","host":"lax-1.us.uncletopia.com","port":27025,"enabled":true,"region":"us-west","cc":"us","latitude":33.94279,"longitude":-118.41004,"reserved":0,"last_update":"0001-01-01T00:00:00Z","name_a2s":"Uncletopia | Los Angeles | 2 | All Maps","protocol":17,"map":"pl_frontier_final","folder":"tf","game":"Team Fortress","app_id":440,"player_count":23,"max_players":24,"Bots":0,"server_type":"Dedicated","server_os":"Linux","password":true,"vac":true,"version":"7961495","steam_id":85568392924469992,"keywords":["nocrits","nodmgspread","payload","uncletopia"],"game_id":440,"stv_port":27026,"stv_name":"Uncletopia | Los Angeles | 2 | All Maps | STV","players":[{"user_id":380,"name":"qq","steam_id":76561198079098075,"connected_time":499000000000,"state":"active","ping":45},{"user_id":372,"name":"Irony is pretty cringy","steam_id":76561198120391460,"connected_time":890000000000,"state":"active","ping":46},{"user_id":384,"name":"Scoops M'Gooch","steam_id":76561198048423812,"connected_time":463000000000,"state":"active","ping":62},{"user_id":348,"name":"Lj3online","steam_id":76561198009960926,"connected_time":2378000000000,"state":"active","ping":67},{"user_id":367,"name":"vuldrin","steam_id":76561198383695069,"connected_time":1589000000000,"state":"active","ping":65},{"user_id":375,"name":"zig","steam_id":76561199020345303,"connected_time":633000000000,"state":"active","ping":60},{"user_id":374,"name":"Mommy's Good Boy","steam_id":76561198150601678,"connected_time":772000000000,"state":"active","ping":127},{"user_id":305,"name":"Vaccine Eater","steam_id":76561198026301425,"connected_time":3965000000000,"state":"active","ping":55},{"user_id":220,"name":"shitass (Reaping and Sowing)","steam_id":76561198210572481,"connected_time":10521000000000,"state":"active","ping":45},{"user_id":385,"name":"SneekiCheekiQbone","steam_id":76561198045077980,"connected_time":439000000000,"state":"active","ping":44},{"user_id":353,"name":"greens beans","steam_id":76561198153611491,"connected_time":2310000000000,"state":"active","ping":73},{"user_id":376,"name":"Assassin","steam_id":76561198321410235,"connected_time":531000000000,"state":"active","ping":39},{"user_id":373,"name":"yiporyeah591","steam_id":76561199032317570,"connected_time":831000000000,"state":"active","ping":182},{"user_id":295,"name":"l u n a r .","steam_id":76561198075773796,"connected_time":4789000000000,"state":"active","ping":70},{"user_id":303,"name":"TÃ¼Cold","steam_id":76561198111278197,"connected_time":4193000000000,"state":"active","ping":60},{"user_id":377,"name":"Penguinammo","steam_id":76561198165774711,"connected_time":527000000000,"state":"active","ping":104},{"user_id":386,"name":"doodoo bing","steam_id":76561198099980149,"connected_time":218000000000,"state":"active","ping":57},{"user_id":378,"name":"ruben!","steam_id":76561198248731498,"connected_time":526000000000,"state":"active","ping":56},{"user_id":273,"name":"Run 'n gun","steam_id":76561198081173302,"connected_time":6257000000000,"state":"active","ping":72},{"user_id":360,"name":"RoastyToast408","steam_id":76561198273018783,"connected_time":2000000000000,"state":"active","ping":63},{"user_id":383,"name":"00","steam_id":76561198041700636,"connected_time":490000000000,"state":"active","ping":45},{"user_id":336,"name":"mine diam","steam_id":76561198119123981,"connected_time":2476000000000,"state":"active","ping":81},{"user_id":317,"name":"Frostyfoods257","steam_id":76561198332197599,"connected_time":3286000000000,"state":"active","ping":47}]},{"server_id":324,"name":"Uncletopia | Los Angeles | 3 | All Maps","name_short":"lax-3","host":"lax-1.us.uncletopia.com","port":27035,"enabled":true,"region":"us-west","cc":"us","latitude":33.94279,"longitude":-118.41004,"reserved":0,"last_update":"0001-01-01T00:00:00Z","name_a2s":"Uncletopia | Los Angeles | 3 | All Maps","protocol":17,"map":"koth_lakeside_final","folder":"tf","game":"Team Fortress","app_id":440,"player_count":0,"max_players":24,"Bots":0,"server_type":"Dedicated","server_os":"Linux","password":true,"vac":true,"version":"7961495","steam_id":85568392924510198,"keywords":["cp","nocrits","nodmgspread","uncletopia"],"game_id":440,"stv_port":27036,"stv_name":"Uncletopia | Los Angeles | 3 | All Maps | STV","players":null},{"server_id":25,"name":"Uncletopia | Los Angeles | 4 | Stopwatch","name_short":"lax-4","host":"lax-1.us.uncletopia.com","port":27045,"enabled":true,"region":"us-west","cc":"us","latitude":33.94279,"longitude":-118.41004,"reserved":0,"last_update":"0001-01-01T00:00:00Z","name_a2s":"Uncletopia | Los Angeles | 4 | Stopwatch","protocol":17,"map":"cp_snakewater_final1","folder":"tf","game":"Team Fortress","app_id":440,"player_count":0,"max_players":24,"Bots":0,"server_type":"Dedicated","server_os":"Linux","password":true,"vac":true,"version":"7961495","steam_id":85568392924510199,"keywords":["cp","nocrits","nodmgspread","uncletopia"],"game_id":440,"stv_port":27046,"stv_name":"Uncletopia | Los Angeles | 4 | Stopwatch | STV","players":null},{"server_id":11,"name":"Uncletopia | London | 1 | All Maps","name_short":"lon-1","host":"lon-1.uk.uncletopia.com","port":27015,"enabled":true,"region":"eu","cc":"gb","latitude":51.509865,"longitude":-0.118092,"reserved":0,"last_update":"0001-01-01T00:00:00Z","name_a2s":"Uncletopia | London | 1 | All Maps","protocol":17,"map":"koth_highpass","folder":"tf","game":"Team Fortress","app_id":440,"player_count":0,"max_players":24,"Bots":0,"server_type":"Dedicated","server_os":"Linux","password":true,"vac":true,"version":"7961495","steam_id":85568392924367362,"keywords":["cp","nocrits","nodmgspread","uncletopia"],"game_id":440,"stv_port":27016,"stv_name":"Uncletopia | London | 1 | All Maps | STV","players":null},{"server_id":114,"name":"Uncletopia | London | 2 | All Maps","name_short":"lon-2","host":"lon-1.uk.uncletopia.com","port":27025,"enabled":true,"region":"eu","cc":"gb","latitude":51.509865,"longitude":-0.118092,"reserved":0,"last_update":"0001-01-01T00:00:00Z","name_a2s":"Uncletopia | London | 2 | All Maps","protocol":17,"map":"koth_lakeside_final","folder":"tf","game":"Team Fortress","app_id":440,"player_count":1,"max_players":24,"Bots":0,"server_type":"Dedicated","server_os":"Linux","password":true,"vac":true,"version":"7961495","steam_id":85568392924470941,"keywords":["cp","nocrits","nodmgspread","uncletopia"],"game_id":440,"stv_port":27026,"stv_name":"Uncletopia | London | 2 | All Maps | STV","players":[{"user_id":4,"name":"Child Mangler 5000","steam_id":76561199490118091,"connected_time":118000000000,"state":"active","ping":95}]},{"server_id":320,"name":"Uncletopia | London | 3 | All Maps","name_short":"lon-3","host":"lon-1.uk.uncletopia.com","port":27035,"enabled":true,"region":"eu","cc":"gb","latitude":51.509865,"longitude":-0.118092,"reserved":0,"last_update":"0001-01-01T00:00:00Z","name_a2s":"Uncletopia | London | 3 | All Maps","protocol":17,"map":"cp_process_final","folder":"tf","game":"Team Fortress","app_id":440,"player_count":0,"max_players":24,"Bots":0,"server_type":"Dedicated","server_os":"Linux","password":true,"vac":true,"version":"7961495","steam_id":85568392924510192,"keywords":["cp","nocrits","nodmgspread","uncletopia"],"game_id":440,"stv_port":27036,"stv_name":"Uncletopia | London | 3 | All Maps | STV","players":null},{"server_id":321,"name":"Uncletopia | London | 4 | All Maps","name_short":"lon-4","host":"lon-1.uk.uncletopia.com","port":27045,"enabled":true,"region":"eu","cc":"gb","latitude":51.509865,"longitude":-0.118092,"reserved":0,"last_update":"0001-01-01T00:00:00Z","name_a2s":"Uncletopia | London | 4 | All Maps","protocol":17,"map":"koth_cascade","folder":"tf","game":"Team Fortress","app_id":440,"player_count":0,"max_players":24,"Bots":0,"server_type":"Dedicated","server_os":"Linux","password":true,"vac":true,"version":"7961495","steam_id":85568392924510193,"keywords":["cp","nocrits","nodmgspread","uncletopia"],"game_id":440,"stv_port":27046,"stv_name":"Uncletopia | London | 4 | All Maps | STV","players":null},{"server_id":21,"name":"Uncletopia | London | 5 | All Maps","name_short":"lon-5","host":"lon-1.uk.uncletopia.com","port":27055,"enabled":true,"region":"eu","cc":"gb","latitude":51.509865,"longitude":-0.118092,"reserved":0,"last_update":"0001-01-01T00:00:00Z","name_a2s":"Uncletopia | London | 5 | All Maps","protocol":17,"map":"koth_lakeside_final","folder":"tf","game":"Team Fortress","app_id":440,"player_count":0,"max_players":24,"Bots":0,"server_type":"Dedicated","server_os":"Linux","password":true,"vac":true,"version":"7961495","steam_id":85568392924742829,"keywords":["cp","nocrits","nodmgspread","uncletopia"],"game_id":440,"stv_port":27056,"stv_name":"Uncletopia | London | 5 | All Maps | STV","players":null},{"server_id":22,"name":"Uncletopia | London | 6 | All Maps","name_short":"lon-6","host":"lon-1.uk.uncletopia.com","port":27065,"enabled":true,"region":"eu","cc":"gb","latitude":51.509865,"longitude":-0.118092,"reserved":0,"last_update":"0001-01-01T00:00:00Z","name_a2s":"Uncletopia | London | 6 | All Maps","protocol":17,"map":"cp_snakewater_final1","folder":"tf","game":"Team Fortress","app_id":440,"player_count":24,"max_players":24,"Bots":0,"server_type":"Dedicated","server_os":"Linux","password":true,"vac":true,"version":"7961495","steam_id":85568392924742830,"keywords":["cp","nocrits","nodmgspread","uncletopia"],"game_id":440,"stv_port":27066,"stv_name":"Uncletopia | London | 6 | All Maps | STV","players":[{"user_id":7,"name":"DeemaskÃ©","steam_id":76561199225833593,"connected_time":2557000000000,"state":"active","ping":47},{"user_id":32,"name":"Cezaru7252","steam_id":76561198815955374,"connected_time":862000000000,"state":"active","ping":95},{"user_id":6,"name":"I have","steam_id":76561199184873889,"connected_time":2604000000000,"state":"active","ping":69},{"user_id":8,"name":"Avitz","steam_id":76561197986150359,"connected_time":2534000000000,"state":"active","ping":43},{"user_id":30,"name":"fÃ¶nÃ¶kÃ¶m","steam_id":76561198107656465,"connected_time":932000000000,"state":"active","ping":71},{"user_id":10,"name":"Senior","steam_id":76561198065014164,"connected_time":2302000000000,"state":"active","ping":50},{"user_id":39,"name":"ðŸƒ” Katarina","steam_id":76561198065652251,"connected_time":408000000000,"state":"active","ping":46},{"user_id":12,"name":"Bobo","steam_id":76561198052308399,"connected_time":2130000000000,"state":"active","ping":66},{"user_id":13,"name":"Jewix","steam_id":76561198063457899,"connected_time":1656000000000,"state":"active","ping":75},{"user_id":31,"name":"Fruit Juice","steam_id":76561198111017139,"connected_time":922000000000,"state":"active","ping":54},{"user_id":19,"name":"halo1v2","steam_id":76561198032106750,"connected_time":1241000000000,"state":"active","ping":54},{"user_id":17,"name":"tolis","steam_id":76561198838534804,"connected_time":1336000000000,"state":"active","ping":103},{"user_id":43,"name":"saltyy","steam_id":76561198124055526,"connected_time":194000000000,"state":"active","ping":45},{"user_id":40,"name":"Xanics","steam_id":76561198187813929,"connected_time":390000000000,"state":"active","ping":68},{"user_id":21,"name":"Joe Swanson","steam_id":76561198178175462,"connected_time":1151000000000,"state":"active","ping":49},{"user_id":22,"name":"Hugh","steam_id":76561198976348754,"connected_time":1132000000000,"state":"active","ping":56},{"user_id":37,"name":"Someone","steam_id":76561199030195879,"connected_time":682000000000,"state":"active","ping":53},{"user_id":24,"name":"eidis","steam_id":76561198314954479,"connected_time":1093000000000,"state":"active","ping":113},{"user_id":34,"name":"I I | #SaveTF2","steam_id":76561199101935057,"connected_time":826000000000,"state":"active","ping":113},{"user_id":44,"name":"ThatJoJoGuy","steam_id":76561199208152141,"connected_time":162000000000,"state":"active","ping":711},{"user_id":27,"name":"767-223ER","steam_id":76561198214827371,"connected_time":1017000000000,"state":"active","ping":72},{"user_id":41,"name":"FilipeskoBro","steam_id":76561198831347261,"connected_time":369000000000,"state":"active","ping":70},{"user_id":29,"name":"Sir Cauterize","steam_id":76561198047079422,"connected_time":956000000000,"state":"active","ping":49},{"user_id":36,"name":"Bonduelle#Savetf2","steam_id":76561199041992422,"connected_time":765000000000,"state":"active","ping":158}]},{"server_id":40,"name":"Uncletopia | London | 7 | Stopwatch","name_short":"lon-7","host":"lon-1.uk.uncletopia.com","port":27075,"enabled":true,"region":"eu","cc":"gb","latitude":51.509865,"longitude":-0.118092,"reserved":0,"last_update":"0001-01-01T00:00:00Z","name_a2s":"Uncletopia | London | 7 | Stopwatch","protocol":17,"map":"koth_lakeside_final","folder":"tf","game":"Team Fortress","app_id":440,"player_count":0,"max_players":24,"Bots":0,"server_type":"Dedicated","server_os":"Linux","password":true,"vac":true,"version":"7961495","steam_id":85568392924964314,"keywords":["cp","nocrits","nodmgspread","uncletopia"],"game_id":440,"stv_port":27076,"stv_name":"Uncletopia | London | 7 | Stopwatch | STV","players":null},{"server_id":41,"name":"Uncletopia | London | 8 | Community","name_short":"lon-8","host":"lon-1.uk.uncletopia.com","port":27085,"enabled":true,"region":"eu","cc":"gb","latitude":51.509865,"longitude":-0.118092,"reserved":0,"last_update":"0001-01-01T00:00:00Z","name_a2s":"Uncletopia | London | 8 | Community","protocol":17,"map":"cp_snakewater_final1","folder":"tf","game":"Team Fortress","app_id":440,"player_count":0,"max_players":24,"Bots":0,"server_type":"Dedicated","server_os":"Linux","password":true,"vac":true,"version":"7961495","steam_id":85568392924964315,"keywords":["cp","nocrits","nodmgspread","uncletopia"],"game_id":440,"stv_port":27086,"stv_name":"Uncletopia | London | 8 | Community | STV","players":null},{"server_id":300,"name":"Uncletopia | MontrÃ©al | 1 | One Thousand Uncles","name_short":"mtl-1","host":"mtl-1.ca.uncletopia.com","port":27015,"enabled":true,"region":"us-east","cc":"ca","latitude":45.50889,"longitude":-73.56167,"reserved":0,"last_update":"0001-01-01T00:00:00Z","name_a2s":"","protocol":0,"map":"","folder":"","game":"","app_id":0,"player_count":0,"max_players":0,"Bots":0,"server_type":"","server_os":"","password":false,"vac":false,"version":"","steam_id":0,"keywords":null,"game_id":0,"stv_port":0,"stv_name":"","players":null},{"server_id":301,"name":"Uncletopia | MontrÃ©al | 2 | One Thousand Uncles","name_short":"mtl-2","host":"mtl-1.ca.uncletopia.com","port":27025,"enabled":true,"region":"us-east","cc":"ca","latitude":45.50889,"longitude":-73.56167,"reserved":0,"last_update":"0001-01-01T00:00:00Z","name_a2s":"","protocol":0,"map":"","folder":"","game":"","app_id":0,"player_count":0,"max_players":0,"Bots":0,"server_type":"","server_os":"","password":false,"vac":false,"version":"","steam_id":0,"keywords":null,"game_id":0,"stv_port":0,"stv_name":"","players":null},{"server_id":302,"name":"Uncletopia | MontrÃ©al | 3 | One Thousand Uncles","name_short":"mtl-3","host":"mtl-1.ca.uncletopia.com","port":27035,"enabled":true,"region":"us-east","cc":"ca","latitude":45.50889,"longitude":-73.56167,"reserved":0,"last_update":"0001-01-01T00:00:00Z","name_a2s":"","protocol":0,"map":"","folder":"","game":"","app_id":0,"player_count":0,"max_players":0,"Bots":0,"server_type":"","server_os":"","password":false,"vac":false,"version":"","steam_id":0,"keywords":null,"game_id":0,"stv_port":0,"stv_name":"","players":null},{"server_id":13,"name":"Uncletopia | New York City | 1 | All Maps","name_short":"nyc-1","host":"nyc-1.us.uncletopia.com","port":27015,"enabled":true,"region":"us-east","cc":"us","latitude":40.73061,"longitude":-73.93524,"reserved":0,"last_update":"0001-01-01T00:00:00Z","name_a2s":"Uncletopia | New York City | 1 | All Maps","protocol":17,"map":"koth_harvest_final","folder":"tf","game":"Team Fortress","app_id":440,"player_count":0,"max_players":24,"Bots":0,"server_type":"Dedicated","server_os":"Linux","password":true,"vac":true,"version":"7961495","steam_id":85568392924469993,"keywords":["cp","nocrits","nodmgspread","uncletopia"],"game_id":440,"stv_port":27016,"stv_name":"Uncletopia | New York City | 1 | All Maps | STV","players":null},{"server_id":14,"name":"Uncletopia | New York City | 2 | All Maps","name_short":"nyc-2","host":"nyc-1.us.uncletopia.com","port":27025,"enabled":true,"region":"us-east","cc":"us","latitude":40.73061,"longitude":-73.93524,"reserved":0,"last_update":"0001-01-01T00:00:00Z","name_a2s":"Uncletopia | New York City | 2 | All Maps","protocol":17,"map":"koth_harvest_final","folder":"tf","game":"Team Fortress","app_id":440,"player_count":20,"max_players":24,"Bots":0,"server_type":"Dedicated","server_os":"Linux","password":true,"vac":true,"version":"7961495","steam_id":85568392924469994,"keywords":["cp","nocrits","nodmgspread","uncletopia"],"game_id":440,"stv_port":27026,"stv_name":"Uncletopia | New York City | 2 | All Maps | STV","players":[{"user_id":595,"name":"DragonslayerEE","steam_id":76561199023041492,"connected_time":551000000000,"state":"active","ping":128},{"user_id":582,"name":"Bee_Pirate","steam_id":76561199000599111,"connected_time":5146000000000,"state":"active","ping":61},{"user_id":586,"name":"big sump","steam_id":76561198113364714,"connected_time":1492000000000,"state":"active","ping":44},{"user_id":587,"name":"zod","steam_id":76561198071374501,"connected_time":1474000000000,"state":"active","ping":74},{"user_id":588,"name":"Stosh on Jream","steam_id":76561198043256782,"connected_time":1465000000000,"state":"active","ping":64},{"user_id":589,"name":"LIMIT TESTING RN","steam_id":76561198332877441,"connected_time":1427000000000,"state":"active","ping":47},{"user_id":590,"name":"johnathan wimble","steam_id":76561198029162828,"connected_time":1144000000000,"state":"active","ping":106},{"user_id":594,"name":"jebs strognest soljer","steam_id":76561198056622157,"connected_time":685000000000,"state":"active","ping":46},{"user_id":600,"name":"IMM0RTAL","steam_id":76561198013747901,"connected_time":390000000000,"state":"active","ping":60},{"user_id":603,"name":"hops_a_pops","steam_id":76561198210902109,"connected_time":223000000000,"state":"active","ping":83},{"user_id":607,"name":"Gensin","steam_id":76561198010224854,"connected_time":42000000000,"state":"active","ping":107},{"user_id":602,"name":"kikikikoboy","steam_id":76561198073380271,"connected_time":252000000000,"state":"active","ping":65},{"user_id":604,"name":"quite the notorious scoundrel","steam_id":76561198163993775,"connected_time":168000000000,"state":"active","ping":74},{"user_id":537,"name":"GOLDIE","steam_id":76561199375258674,"connected_time":10031000000000,"state":"active","ping":113},{"user_id":605,"name":"raspberry sorbet","steam_id":76561198143371128,"connected_time":111000000000,"state":"active","ping":142},{"user_id":606,"name":"JaminDamin","steam_id":76561199465916540,"connected_time":101000000000,"state":"active","ping":92},{"user_id":608,"name":"Kristopher Kardashian Columbus","steam_id":76561198004882625,"connected_time":21000000000,"state":"active","ping":123},{"user_id":609,"name":"Lumi","steam_id":76561198089978036,"connected_time":13000000000,"state":"spawning","ping":72},{"user_id":610,"name":"ðŸ’butaðŸ’","steam_id":76561198135538212,"connected_time":9000000000,"state":"active","ping":73},{"user_id":611,"name":"KYLE KYLESON","steam_id":76561198021920887,"connected_time":7000000000,"state":"active","ping":240}]},{"server_id":15,"name":"Uncletopia | New York City | 3 | Stopwatch","name_short":"nyc-3","host":"nyc-1.us.uncletopia.com","port":27035,"enabled":true,"region":"us-east","cc":"us","latitude":40.73061,"longitude":-73.93524,"reserved":0,"last_update":"0001-01-01T00:00:00Z","name_a2s":"Uncletopia | New York City | 3 | Stopwatch","protocol":17,"map":"workshop/koth_product_final.ugc454272353","folder":"tf","game":"Team Fortress","app_id":440,"player_count":0,"max_players":24,"Bots":0,"server_type":"Dedicated","server_os":"Linux","password":true,"vac":true,"version":"7961495","steam_id":85568392924742820,"keywords":["cp","nocrits","nodmgspread","uncletopia"],"game_id":440,"stv_port":27036,"stv_name":"Uncletopia | New York City | 3 | Stopwatch | STV","players":null},{"server_id":16,"name":"Uncletopia | New York City | 4 | Community","name_short":"nyc-4","host":"nyc-1.us.uncletopia.com","port":27045,"enabled":true,"region":"us-east","cc":"us","latitude":40.73061,"longitude":-73.93524,"reserved":0,"last_update":"0001-01-01T00:00:00Z","name_a2s":"Uncletopia | New York City | 4 | Community","protocol":17,"map":"workshop/pl_highwood_b13.ugc1769496557","folder":"tf","game":"Team Fortress","app_id":440,"player_count":2,"max_players":24,"Bots":0,"server_type":"Dedicated","server_os":"Linux","password":true,"vac":true,"version":"7961495","steam_id":85568392924742821,"keywords":["nocrits","nodmgspread","payload","uncletopia"],"game_id":440,"stv_port":27046,"stv_name":"Uncletopia | New York City | 4 | Community | STV","players":[{"user_id":324,"name":"Foloan","steam_id":76561199229528791,"connected_time":921000000000,"state":"active","ping":91},{"user_id":308,"name":"Mario","steam_id":76561198321794277,"connected_time":3940000000000,"state":"active","ping":89}]},{"server_id":142,"name":"Uncletopia | SÃ£o Paulo | 1 | All Maps","name_short":"sao-1","host":"sao-1.br.uncletopia.com","port":27015,"enabled":true,"region":"sa","cc":"br","latitude":-23.533773,"longitude":-46.62529,"reserved":0,"last_update":"0001-01-01T00:00:00Z","name_a2s":"Uncletopia | SÃ£o Paulo | 1 | All Maps","protocol":17,"map":"koth_highpass","folder":"tf","game":"Team Fortress","app_id":440,"player_count":0,"max_players":24,"Bots":0,"server_type":"Dedicated","server_os":"Linux","password":true,"vac":true,"version":"7961495","steam_id":85568392924469996,"keywords":["cp","nocrits","nodmgspread","uncletopia"],"game_id":440,"stv_port":27016,"stv_name":"Uncletopia | SÃ£o Paulo | 1 | All Maps | STV","players":null},{"server_id":143,"name":"Uncletopia | SÃ£o Paulo | 2 | Community","name_short":"sao-2","host":"sao-2.br.uncletopia.com","port":27015,"enabled":true,"region":"sa","cc":"br","latitude":-23.533773,"longitude":-46.62529,"reserved":0,"last_update":"0001-01-01T00:00:00Z","name_a2s":"Uncletopia | SÃ£o Paulo | 2 | Community","protocol":17,"map":"workshop/koth_product_final.ugc454272353","folder":"tf","game":"Team Fortress","app_id":440,"player_count":0,"max_players":24,"Bots":0,"server_type":"Dedicated","server_os":"Linux","password":true,"vac":true,"version":"7961495","steam_id":85568392924485349,"keywords":["cp","nocrits","nodmgspread","uncletopia"],"game_id":440,"stv_port":27016,"stv_name":"Uncletopia | SÃ£o Paulo | 2 | Community | STV","players":null},{"server_id":7,"name":"Uncletopia | Seattle | 1 | All Maps","name_short":"sea-1","host":"sea-1.us.uncletopia.com","port":27015,"enabled":true,"region":"us-west","cc":"us","latitude":47.608013,"longitude":-122.33517,"reserved":0,"last_update":"0001-01-01T00:00:00Z","name_a2s":"Uncletopia | Seattle | 1 | All Maps","protocol":17,"map":"pl_pier","folder":"tf","game":"Team Fortress","app_id":440,"player_count":25,"max_players":24,"Bots":0,"server_type":"Dedicated","server_os":"Linux","password":true,"vac":true,"version":"7961495","steam_id":85568392924469997,"keywords":["nocrits","nodmgspread","payload","uncletopia"],"game_id":440,"stv_port":27016,"stv_name":"Uncletopia | Seattle | 1 | All Maps | STV","players":[{"user_id":700,"name":"Alltrex","steam_id":76561198202254225,"connected_time":7309000000000,"state":"active","ping":49},{"user_id":783,"name":"jadeite","steam_id":76561198022298676,"connected_time":26000000000,"state":"active","ping":33},{"user_id":761,"name":"SKRRRT IN THE FERRARI","steam_id":76561198877518016,"connected_time":1622000000000,"state":"active","ping":131},{"user_id":708,"name":"Sweets","steam_id":76561198998446307,"connected_time":6371000000000,"state":"active","ping":67},{"user_id":737,"name":"NEBULA","steam_id":76561198086878595,"connected_time":4056000000000,"state":"active","ping":69},{"user_id":681,"name":"Cheezbeargur","steam_id":76561198164702899,"connected_time":8192000000000,"state":"active","ping":67},{"user_id":777,"name":"Scorpianswag","steam_id":76561198260651036,"connected_time":101000000000,"state":"active","ping":61},{"user_id":772,"name":"smeasly","steam_id":76561198028718812,"connected_time":887000000000,"state":"active","ping":45},{"user_id":755,"name":"tkeati","steam_id":76561198056356574,"connected_time":2548000000000,"state":"active","ping":45},{"user_id":773,"name":"Sniff","steam_id":76561198010270922,"connected_time":862000000000,"state":"active","ping":49},{"user_id":776,"name":"rushy :))","steam_id":76561198065825165,"connected_time":474000000000,"state":"active","ping":105},{"user_id":781,"name":"INFRAMENTARIUS","steam_id":76561198300550331,"connected_time":50000000000,"state":"active","ping":96},{"user_id":702,"name":"Nom Skirrett","steam_id":76561198014600788,"connected_time":7050000000000,"state":"active","ping":64},{"user_id":745,"name":"fungi","steam_id":76561198169755734,"connected_time":3039000000000,"state":"active","ping":61},{"user_id":726,"name":"Quadkill Dingle","steam_id":76561198418288939,"connected_time":5126000000000,"state":"active","ping":66},{"user_id":779,"name":"Grweb","steam_id":76561198316741856,"connected_time":70000000000,"state":"active","ping":48},{"user_id":754,"name":"Quaalude","steam_id":76561198100177449,"connected_time":2586000000000,"state":"active","ping":94},{"user_id":784,"name":"Îµ:","steam_id":76561198080475712,"connected_time":2000000000,"state":"spawning","ping":58},{"user_id":744,"name":"Toaster (Hamilton Beach)","steam_id":76561198039891934,"connected_time":3044000000000,"state":"active","ping":60},{"user_id":765,"name":"delight","steam_id":76561197980280272,"connected_time":1613000000000,"state":"active","ping":44},{"user_id":709,"name":"Arsonist Goose","steam_id":76561198147441830,"connected_time":6328000000000,"state":"active","ping":69},{"user_id":767,"name":"nolove","steam_id":76561198274550638,"connected_time":1604000000000,"state":"active","ping":106},{"user_id":759,"name":"Octopus","steam_id":76561198114639980,"connected_time":1639000000000,"state":"active","ping":67},{"user_id":782,"name":"Smells","steam_id":76561197985297402,"connected_time":32000000000,"state":"active","ping":84},{"user_id":741,"name":"magocpotat (alltresk #1 friend.","steam_id":76561198116136297,"connected_time":3922000000000,"state":"active","ping":52}]},{"server_id":119,"name":"Uncletopia | Seattle | 2 | All Maps","name_short":"sea-2","host":"sea-1.us.uncletopia.com","port":27025,"enabled":true,"region":"us-west","cc":"us","latitude":47.608013,"longitude":-122.33517,"reserved":0,"last_update":"0001-01-01T00:00:00Z","name_a2s":"Uncletopia | Seattle | 2 | All Maps","protocol":17,"map":"pl_badwater","folder":"tf","game":"Team Fortress","app_id":440,"player_count":24,"max_players":24,"Bots":0,"server_type":"Dedicated","server_os":"Linux","password":true,"vac":true,"version":"7961495","steam_id":85568392924469998,"keywords":["nocrits","nodmgspread","payload","uncletopia"],"game_id":440,"stv_port":27026,"stv_name":"Uncletopia | Seattle | 2 | All Maps | STV","players":[{"user_id":684,"name":"family-friendly chainsaw man","steam_id":76561198007464245,"connected_time":2376000000000,"state":"active","ping":120},{"user_id":685,"name":"tomahto","steam_id":76561198260336564,"connected_time":2373000000000,"state":"active","ping":76},{"user_id":694,"name":"The Caretaker","steam_id":76561198125241411,"connected_time":1960000000000,"state":"active","ping":131},{"user_id":707,"name":"DK360","steam_id":76561198796783094,"connected_time":345000000000,"state":"active","ping":43},{"user_id":683,"name":"SeizedThoughts","steam_id":76561198802184359,"connected_time":2404000000000,"state":"active","ping":60},{"user_id":690,"name":"Kung fu Mungus","steam_id":76561198069281556,"connected_time":2234000000000,"state":"active","ping":76},{"user_id":661,"name":"A Parliament of Owls","steam_id":76561197996200417,"connected_time":3807000000000,"state":"active","ping":70},{"user_id":703,"name":"Enderkill777","steam_id":76561198876915153,"connected_time":936000000000,"state":"active","ping":61},{"user_id":700,"name":"Waesel","steam_id":76561198069188177,"connected_time":1339000000000,"state":"active","ping":84},{"user_id":686,"name":"Luthanicus","steam_id":76561198059473098,"connected_time":2330000000000,"state":"active","ping":72},{"user_id":679,"name":"Boogie03","steam_id":76561198995812187,"connected_time":2445000000000,"state":"active","ping":71},{"user_id":704,"name":"Â«DáµƒÊ³áµ.,,.Táµ‰áµáµ–Â»","steam_id":76561198018185884,"connected_time":933000000000,"state":"active","ping":32},{"user_id":699,"name":"Zebulon","steam_id":76561198025719753,"connected_time":1391000000000,"state":"active","ping":34},{"user_id":698,"name":"HUMBY","steam_id":76561198065045867,"connected_time":1648000000000,"state":"active","ping":79},{"user_id":680,"name":"cofferhead","steam_id":76561199191108449,"connected_time":2437000000000,"state":"active","ping":76},{"user_id":681,"name":"AvapXia","steam_id":76561198147476096,"connected_time":2423000000000,"state":"active","ping":63},{"user_id":710,"name":"self sufficient kitten","steam_id":76561197960592612,"connected_time":8000000000,"state":"active","ping":47},{"user_id":662,"name":"Vitae Kakon","steam_id":76561198307440313,"connected_time":3774000000000,"state":"active","ping":60},{"user_id":578,"name":"Lane","steam_id":76561197965828506,"connected_time":9931000000000,"state":"active","ping":95},{"user_id":705,"name":"SlimeFinger","steam_id":76561198317456244,"connected_time":889000000000,"state":"active","ping":69},{"user_id":688,"name":"Lokiamis","steam_id":76561197984914962,"connected_time":2307000000000,"state":"active","ping":103},{"user_id":701,"name":"Akordeon","steam_id":76561198079236383,"connected_time":1175000000000,"state":"active","ping":64},{"user_id":697,"name":"Donk2x","steam_id":76561198151664885,"connected_time":1655000000000,"state":"active","ping":45},{"user_id":706,"name":"Sovereign","steam_id":76561198018841787,"connected_time":888000000000,"state":"active","ping":42}]},{"server_id":406,"name":"Uncletopia | Seattle | 3 | Stopwatch","name_short":"sea-3","host":"sea-1.us.uncletopia.com","port":27035,"enabled":true,"region":"us-west","cc":"us","latitude":47.608013,"longitude":-122.33517,"reserved":0,"last_update":"0001-01-01T00:00:00Z","name_a2s":"Uncletopia | Seattle | 3 | Stopwatch","protocol":17,"map":"workshop/koth_ashville_final.ugc2130459942","folder":"tf","game":"Team Fortress","app_id":440,"player_count":0,"max_players":24,"Bots":0,"server_type":"Dedicated","server_os":"Linux","password":true,"vac":true,"version":"7961495","steam_id":85568392924515217,"keywords":["cp","nocrits","nodmgspread","uncletopia"],"game_id":440,"stv_port":27036,"stv_name":"Uncletopia | Seattle | 3 | Stopwatch | STV","players":null},{"server_id":17,"name":"Uncletopia | San Francisco | 1 | All Maps","name_short":"sfo-1","host":"sfo-1.us.uncletopia.com","port":27015,"enabled":true,"region":"us-west","cc":"us","latitude":37.77397,"longitude":-122.4313,"reserved":0,"last_update":"0001-01-01T00:00:00Z","name_a2s":"Uncletopia | San Francisco | 1 | All Maps","protocol":17,"map":"koth_highpass","folder":"tf","game":"Team Fortress","app_id":440,"player_count":0,"max_players":24,"Bots":0,"server_type":"Dedicated","server_os":"Linux","password":true,"vac":true,"version":"7961495","steam_id":85568392924469999,"keywords":["cp","nocrits","nodmgspread","uncletopia"],"game_id":440,"stv_port":27016,"stv_name":"Uncletopia | San Francisco | 1 | All Maps | STV","players":null},{"server_id":18,"name":"Uncletopia | San Francisco | 2 | All Maps","name_short":"sfo-2","host":"sfo-1.us.uncletopia.com","port":27025,"enabled":true,"region":"us-west","cc":"us","latitude":37.77397,"longitude":-122.4313,"reserved":0,"last_update":"0001-01-01T00:00:00Z","name_a2s":"Uncletopia | San Francisco | 2 | All Maps","protocol":17,"map":"cp_process_final","folder":"tf","game":"Team Fortress","app_id":440,"player_count":0,"max_players":24,"Bots":0,"server_type":"Dedicated","server_os":"Linux","password":true,"vac":true,"version":"7961495","steam_id":85568392924470000,"keywords":["cp","nocrits","nodmgspread","uncletopia"],"game_id":440,"stv_port":27026,"stv_name":"Uncletopia | San Francisco | 2 | All Maps | STV","players":null},{"server_id":19,"name":"Uncletopia | San Francisco | 3 | Stopwatch","name_short":"sfo-3","host":"sfo-1.us.uncletopia.com","port":27035,"enabled":true,"region":"us-west","cc":"us","latitude":37.77397,"longitude":-122.4313,"reserved":0,"last_update":"0001-01-01T00:00:00Z","name_a2s":"Uncletopia | San Francisco | 3 | Stopwatch","protocol":17,"map":"workshop/koth_bagel_rc6.ugc2514036946","folder":"tf","game":"Team Fortress","app_id":440,"player_count":0,"max_players":24,"Bots":0,"server_type":"Dedicated","server_os":"Linux","password":true,"vac":true,"version":"7961495","steam_id":85568392924742824,"keywords":["cp","nocrits","nodmgspread","uncletopia"],"game_id":440,"stv_port":27036,"stv_name":"Uncletopia | San Francisco | 3 | Stopwatch | STV","players":null},{"server_id":20,"name":"Uncletopia | San Francisco | 4 | Community","name_short":"sfo-4","host":"sfo-1.us.uncletopia.com","port":27045,"enabled":true,"region":"us-west","cc":"us","latitude":37.77397,"longitude":-122.4313,"reserved":0,"last_update":"0001-01-01T00:00:00Z","name_a2s":"Uncletopia | San Francisco | 4 | Community","protocol":17,"map":"pl_pier","folder":"tf","game":"Team Fortress","app_id":440,"player_count":0,"max_players":24,"Bots":0,"server_type":"Dedicated","server_os":"Linux","password":true,"vac":true,"version":"7961495","steam_id":85568392924742826,"keywords":["nocrits","nodmgspread","payload","uncletopia"],"game_id":440,"stv_port":27046,"stv_name":"Uncletopia | San Francisco | 4 | Community | STV","players":null},{"server_id":141,"name":"Uncletopia | Sydney | 1 | All Maps","name_short":"syd-1","host":"syd-1.au.uncletopia.com","port":27015,"enabled":true,"region":"au","cc":"au","latitude":-33.865143,"longitude":151.2099,"reserved":0,"last_update":"0001-01-01T00:00:00Z","name_a2s":"Uncletopia | Sydney | 1 | All Maps","protocol":17,"map":"pl_borneo","folder":"tf","game":"Team Fortress","app_id":440,"player_count":4,"max_players":24,"Bots":0,"server_type":"Dedicated","server_os":"Linux","password":true,"vac":true,"version":"7961495","steam_id":85568392924470001,"keywords":["nocrits","nodmgspread","payload","uncletopia"],"game_id":440,"stv_port":27016,"stv_name":"Uncletopia | Sydney | 1 | All Maps | STV","players":[{"user_id":420,"name":"Me when tryhards kill me","steam_id":76561199209207003,"connected_time":1726000000000,"state":"active","ping":201},{"user_id":433,"name":"SHREKWAZOWSKI","steam_id":76561199247062706,"connected_time":427000000000,"state":"active","ping":100},{"user_id":434,"name":"cola","steam_id":76561199484831234,"connected_time":336000000000,"state":"active","ping":59},{"user_id":435,"name":"TopazTheMan","steam_id":76561199172265732,"connected_time":292000000000,"state":"active","ping":254}]},{"server_id":123,"name":"Uncletopia | Sydney | 2 | All Maps","name_short":"syd-2","host":"syd-1.au.uncletopia.com","port":27025,"enabled":true,"region":"au","cc":"au","latitude":-33.865143,"longitude":151.2099,"reserved":0,"last_update":"0001-01-01T00:00:00Z","name_a2s":"Uncletopia | Sydney | 2 | All Maps","protocol":17,"map":"cp_junction_final","folder":"tf","game":"Team Fortress","app_id":440,"player_count":21,"max_players":24,"Bots":0,"server_type":"Dedicated","server_os":"Linux","password":true,"vac":true,"version":"7961495","steam_id":85568392924470002,"keywords":["cp","nocrits","nodmgspread","uncletopia"],"game_id":440,"stv_port":27026,"stv_name":"Uncletopia | Sydney | 2 | All Maps | STV","players":[{"user_id":140,"name":"El Roedor","steam_id":76561199304818360,"connected_time":367000000000,"state":"connecting","ping":85},{"user_id":126,"name":"dreamydoggy","steam_id":76561198448243169,"connected_time":802000000000,"state":"spawning","ping":55},{"user_id":147,"name":"Emii_Satourr","steam_id":76561199111228456,"connected_time":113000000000,"state":"spawning","ping":94},{"user_id":117,"name":"voxii","steam_id":76561198099698281,"connected_time":1635000000000,"state":"spawning","ping":107},{"user_id":120,"name":"mOnKe","steam_id":76561199188256398,"connected_time":1508000000000,"state":"spawning","ping":66},{"user_id":141,"name":"SilverPenguin","steam_id":76561199025744213,"connected_time":363000000000,"state":"spawning","ping":119},{"user_id":66,"name":"Grumbo","steam_id":76561198169116395,"connected_time":6074000000000,"state":"spawning","ping":82},{"user_id":125,"name":"BackyardBonanza19943214","steam_id":76561198383642609,"connected_time":1094000000000,"state":"spawning","ping":107},{"user_id":122,"name":"Second Lieutenant Pisser","steam_id":76561198866538028,"connected_time":1453000000000,"state":"spawning","ping":93},{"user_id":109,"name":"ãƒ„","steam_id":76561198025588321,"connected_time":2105000000000,"state":"spawning","ping":106},{"user_id":123,"name":"ramjamslam","steam_id":76561198084310292,"connected_time":1386000000000,"state":"spawning","ping":123},{"user_id":142,"name":"xanderthecommander","steam_id":76561198883218291,"connected_time":350000000000,"state":"spawning","ping":275},{"user_id":129,"name":"Tantei Rotana","steam_id":76561198041204323,"connected_time":637000000000,"state":"spawning","ping":113},{"user_id":135,"name":"MayoMan","steam_id":76561199140828165,"connected_time":463000000000,"state":"spawning","ping":60},{"user_id":136,"name":"ä»™å¥³å¤´å­äºŽè°¦","steam_id":76561199031075505,"connected_time":445000000000,"state":"spawning","ping":460},{"user_id":144,"name":"CRYNE","steam_id":76561198193512228,"connected_time":230000000000,"state":"spawning","ping":42},{"user_id":104,"name":"zoeyisputtingjellyinyourpillow","steam_id":76561198126153554,"connected_time":2683000000000,"state":"spawning","ping":122},{"user_id":137,"name":"Resin","steam_id":76561198054911792,"connected_time":430000000000,"state":"spawning","ping":69},{"user_id":145,"name":"DidjTerminator","steam_id":76561199152306885,"connected_time":219000000000,"state":"spawning","ping":85},{"user_id":115,"name":"itsame","steam_id":76561198059284918,"connected_time":1749000000000,"state":"spawning","ping":90},{"user_id":146,"name":"KikiTerminator","steam_id":76561199397433072,"connected_time":217000000000,"state":"spawning","ping":101}]},{"server_id":395,"name":"Uncletopia | Sydney | 3 | All Maps","name_short":"syd-3","host":"syd-1.au.uncletopia.com","port":27035,"enabled":true,"region":"au","cc":"au","latitude":-33.865143,"longitude":151.2099,"reserved":0,"last_update":"0001-01-01T00:00:00Z","name_a2s":"Uncletopia | Sydney | 3 | All Maps","protocol":17,"map":"koth_lakeside_final","folder":"tf","game":"Team Fortress","app_id":440,"player_count":0,"max_players":24,"Bots":0,"server_type":"Dedicated","server_os":"Linux","password":true,"vac":true,"version":"7961495","steam_id":85568392925194467,"keywords":["cp","nocrits","nodmgspread","uncletopia"],"game_id":440,"stv_port":27036,"stv_name":"Uncletopia | Sydney | 3 | All Maps | STV","players":null},{"server_id":396,"name":"Uncletopia | Sydney | 4 | All Maps","name_short":"syd-4","host":"syd-1.au.uncletopia.com","port":27045,"enabled":true,"region":"au","cc":"au","latitude":-33.865143,"longitude":151.2099,"reserved":0,"last_update":"0001-01-01T00:00:00Z","name_a2s":"Uncletopia | Sydney | 4 | All Maps","protocol":17,"map":"koth_viaduct","folder":"tf","game":"Team Fortress","app_id":440,"player_count":0,"max_players":24,"Bots":0,"server_type":"Dedicated","server_os":"Linux","password":true,"vac":true,"version":"7961495","steam_id":85568392925397958,"keywords":["cp","nocrits","nodmgspread","uncletopia"],"game_id":440,"stv_port":27046,"stv_name":"Uncletopia | Sydney | 4 | All Maps | STV","players":null},{"server_id":58,"name":"Uncletopia | Sydney | 5 | Stopwatch","name_short":"syd-5","host":"syd-1.au.uncletopia.com","port":27055,"enabled":true,"region":"au","cc":"au","latitude":-33.865143,"longitude":151.2099,"reserved":0,"last_update":"0001-01-01T00:00:00Z","name_a2s":"Uncletopia | Sydney | 5 | Stopwatch","protocol":17,"map":"pl_frontier_final","folder":"tf","game":"Team Fortress","app_id":440,"player_count":0,"max_players":24,"Bots":0,"server_type":"Dedicated","server_os":"Linux","password":true,"vac":true,"version":"7961495","steam_id":85568392925397959,"keywords":["nocrits","nodmgspread","payload","uncletopia"],"game_id":440,"stv_port":27056,"stv_name":"Uncletopia | Sydney | 5 | Stopwatch | STV","players":null},{"server_id":59,"name":"Uncletopia | Sydney | 6 | Community","name_short":"syd-6","host":"syd-1.au.uncletopia.com","port":27065,"enabled":true,"region":"au","cc":"au","latitude":-33.865143,"longitude":151.2099,"reserved":0,"last_update":"0001-01-01T00:00:00Z","name_a2s":"Uncletopia | Sydney | 6 | Community","protocol":17,"map":"workshop/pl_cashworks_final1.ugc2904065412","folder":"tf","game":"Team Fortress","app_id":440,"player_count":0,"max_players":24,"Bots":0,"server_type":"Dedicated","server_os":"Linux","password":true,"vac":true,"version":"7961495","steam_id":85568392925397960,"keywords":["nocrits","nodmgspread","payload","uncletopia"],"game_id":440,"stv_port":27066,"stv_name":"Uncletopia | Sydney | 6 | Community | STV","players":null},{"server_id":49,"name":"Uncletopia | Warsaw | 1 | One Thousand Uncles","name_short":"waw-1","host":"waw-1.pl.uncletopia.com","port":27015,"enabled":true,"region":"eu","cc":"pl","latitude":52.2297,"longitude":21.017532,"reserved":0,"last_update":"0001-01-01T00:00:00Z","name_a2s":"Uncletopia | Warsaw | 1 | One Thousand Uncles","protocol":17,"map":"koth_highpass","folder":"tf","game":"Team Fortress","app_id":440,"player_count":0,"max_players":32,"Bots":0,"server_type":"Dedicated","server_os":"Linux","password":true,"vac":true,"version":"7961495","steam_id":85568392925397850,"keywords":["alltalk","cp","danepve","increased_maxplayers","nocrits","norespawntime","uncletopia"],"game_id":440,"stv_port":0,"stv_name":"","players":null},{"server_id":50,"name":"Uncletopia | Warsaw | 2 | One Thousand Uncles","name_short":"waw-2","host":"waw-1.pl.uncletopia.com","port":27025,"enabled":true,"region":"eu","cc":"pl","latitude":52.2297,"longitude":21.017532,"reserved":0,"last_update":"0001-01-01T00:00:00Z","name_a2s":"Uncletopia | Warsaw | 2 | One Thousand Uncles","protocol":17,"map":"pl_barnblitz","folder":"tf","game":"Team Fortress","app_id":440,"player_count":0,"max_players":32,"Bots":0,"server_type":"Dedicated","server_os":"Linux","password":true,"vac":true,"version":"7961495","steam_id":85568392925397851,"keywords":["alltalk","danepve","increased_maxplayers","nocrits","norespawntime","payload","uncletopia"],"game_id":440,"stv_port":0,"stv_name":"","players":null},{"server_id":51,"name":"Uncletopia | Warsaw | 3 | All Maps","name_short":"waw-3","host":"waw-1.pl.uncletopia.com","port":27035,"enabled":true,"region":"eu","cc":"pl","latitude":52.2297,"longitude":21.017532,"reserved":0,"last_update":"0001-01-01T00:00:00Z","name_a2s":"Uncletopia | Warsaw | 3 | All Maps","protocol":17,"map":"plr_pipeline","folder":"tf","game":"Team Fortress","app_id":440,"player_count":0,"max_players":24,"Bots":0,"server_type":"Dedicated","server_os":"Linux","password":true,"vac":true,"version":"7961495","steam_id":85568392925397852,"keywords":["nocrits","nodmgspread","payload","uncletopia"],"game_id":440,"stv_port":27036,"stv_name":"Uncletopia | Warsaw | 3 | All Maps | STV","players":null},{"server_id":52,"name":"Uncletopia | Warsaw | 4 | All Maps","name_short":"waw-4","host":"waw-1.pl.uncletopia.com","port":27045,"enabled":true,"region":"eu","cc":"pl","latitude":52.2297,"longitude":21.017532,"reserved":0,"last_update":"0001-01-01T00:00:00Z","name_a2s":"Uncletopia | Warsaw | 4 | All Maps","protocol":17,"map":"cp_coldfront","folder":"tf","game":"Team Fortress","app_id":440,"player_count":0,"max_players":24,"Bots":0,"server_type":"Dedicated","server_os":"Linux","password":true,"vac":true,"version":"7961495","steam_id":85568392925397853,"keywords":["cp","nocrits","nodmgspread","uncletopia"],"game_id":440,"stv_port":27046,"stv_name":"Uncletopia | Warsaw | 4 | All Maps | STV","players":null},{"server_id":53,"name":"Uncletopia | Warsaw | 5 | Stopwatch","name_short":"waw-5","host":"waw-1.pl.uncletopia.com","port":27055,"enabled":true,"region":"eu","cc":"pl","latitude":52.2297,"longitude":21.017532,"reserved":0,"last_update":"0001-01-01T00:00:00Z","name_a2s":"Uncletopia | Warsaw | 5 | Stopwatch","protocol":17,"map":"workshop/koth_bagel_rc6.ugc2514036946","folder":"tf","game":"Team Fortress","app_id":440,"player_count":0,"max_players":24,"Bots":0,"server_type":"Dedicated","server_os":"Linux","password":true,"vac":true,"version":"7961495","steam_id":85568392925397854,"keywords":["cp","nocrits","nodmgspread","uncletopia"],"game_id":440,"stv_port":27056,"stv_name":"Uncletopia | Warsaw | 5 | Stopwatch | STV","players":null},{"server_id":54,"name":"Uncletopia | Warsaw | 6 | Community","name_short":"waw-6","host":"waw-1.pl.uncletopia.com","port":27065,"enabled":true,"region":"eu","cc":"pl","latitude":52.2297,"longitude":21.017532,"reserved":0,"last_update":"0001-01-01T00:00:00Z","name_a2s":"Uncletopia | Warsaw | 6 | Community","protocol":17,"map":"workshop/pl_badwater_pro_v12.ugc2142942074","folder":"tf","game":"Team Fortress","app_id":440,"player_count":0,"max_players":24,"Bots":0,"server_type":"Dedicated","server_os":"Linux","password":true,"vac":true,"version":"7961495","steam_id":85568392925397856,"keywords":["nocrits","nodmgspread","payload","uncletopia"],"game_id":440,"stv_port":27066,"stv_name":"Uncletopia | Warsaw | 6 | Community | STV","players":null}]}