{"status":true,"message":"","result":[{"server_id":9,"name":"Uncletopia | Atlanta | 1 | All Maps","name_short":"atl-1","host":"atl-1.us.uncletopia.com","port":27015,"enabled":true,"region":"us-east","cc":"us","latitude":33.753746,"longitude":-84.38633,"reserved":0,"last_update":"0001-01-01T00:00:00Z","name_a2s":"Uncletopia | Atlanta | 1 | All Maps","protocol":17,"map":"pl_frontier_final","folder":"tf","game":"Team Fortress","app_id":440,"player_count":24,"max_players":24,"Bots":0,"server_type":"Dedicated","server_os":"Linux","password":true,"vac":true,"version":"7742253","steam_id":85568392924469982,"keywords":["nocrits","nodmgspread","payload","uncletopia"],"game_id":440,"stv_port":27016,"stv_name":"Uncletopia | Atlanta | 1 | All Maps | STV","players":[{"user_id":520,"name":"Limbo_Darkness","steam_id":76561198127411819,"connected_time":3679000000000,"state":"active","ping":61},{"user_id":534,"name":"James","steam_id":76561198081313916,"connected_time":3116000000000,"state":"active","ping":49},{"user_id":523,"name":"indi","steam_id":76561198045917538,"connected_time":3547000000000,"state":"active","ping":60},{"user_id":556,"name":"com lag","steam_id":76561198019019392,"connected_time":1444000000000,"state":"active","ping":63},{"user_id":558,"name":"Kick Down Door 6:00AM TUCK☃RO","steam_id":76561197976146738,"connected_time":1217000000000,"state":"spawning","ping":89},{"user_id":513,"name":"Fat Man","steam_id":76561198118957055,"connected_time":4650000000000,"state":"active","ping":58},{"user_id":418,"name":"nnoby","steam_id":76561198878729277,"connected_time":11378000000000,"state":"active","ping":59},{"user_id":559,"name":"nomad","steam_id":76561197998740399,"connected_time":1182000000000,"state":"active","ping":61},{"user_id":544,"name":"Rockgraham101","steam_id":76561198171740458,"connected_time":2308000000000,"state":"active","ping":74},{"user_id":546,"name":"ford truck","steam_id":76561198051823844,"connected_time":1868000000000,"state":"active","ping":44},{"user_id":566,"name":"thomasdee725","steam_id":76561199189526173,"connected_time":69000000000,"state":"active","ping":78},{"user_id":567,"name":"legalizme223","steam_id":76561198051698391,"connected_time":62000000000,"state":"active","ping":81},{"user_id":487,"name":"EVIL CHRISTMAS Cherry Coke","steam_id":76561198178233006,"connected_time":6305000000000,"state":"active","ping":67},{"user_id":564,"name":"Smig","steam_id":76561198408846602,"connected_time":176000000000,"state":"active","ping":76},{"user_id":560,"name":"mos","steam_id":76561198146126212,"connected_time":633000000000,"state":"active","ping":59},{"user_id":563,"name":"new years forecast","steam_id":76561198042243083,"connected_time":392000000000,"state":"active","ping":59},{"user_id":537,"name":"oyasumi","steam_id":76561198072950262,"connected_time":3043000000000,"state":"active","ping":49},{"user_id":532,"name":"ATL1 | to4st","steam_id":76561198981009008,"connected_time":3174000000000,"state":"active","ping":67},{"user_id":512,"name":"Tay1Qr","steam_id":76561198082809935,"connected_time":4667000000000,"state":"active","ping":69},{"user_id":524,"name":"Alt","steam_id":76561197992591984,"connected_time":3510000000000,"state":"active","ping":90},{"user_id":547,"name":"ATL1 | Psionic Box","steam_id":76561198151019322,"connected_time":1860000000000,"state":"active","ping":70},{"user_id":492,"name":"ATL1 | SALEM","steam_id":76561198116281100,"connected_time":6011000000000,"state":"active","ping":42},{"user_id":518,"name":"scrambledeggs3","steam_id":76561198066112579,"connected_time":4233000000000,"state":"active","ping":77},{"user_id":555,"name":"Im High","steam_id":76561198049954886,"connected_time":1542000000000,"state":"active","ping":66}]},{"server_id":400,"name":"Uncletopia | Atlanta | 3 | Stopwatch Beta","name_short":"atl-3","host":"atl-1.us.uncletopia.com","port":27035,"enabled":true,"region":"us-east","cc":"us","latitude":33.753746,"longitude":-84.38633,"reserved":0,"last_update":"0001-01-01T00:00:00Z","name_a2s":"Uncletopia | Atlanta | 3 | Stopwatch Beta","protocol":17,"map":"workshop/pl_badwater_pro_v12.ugc2142942074","folder":"tf","game":"Team Fortress","app_id":440,"player_count":0,"max_players":24,"Bots":0,"server_type":"Dedicated","server_os":"Linux","password":true,"vac":true,"version":"7742253","steam_id":85568392924515187,"keywords":["nocrits","nodmgspread","payload","uncletopia"],"game_id":440,"stv_port":27036,"stv_name":"Uncletopia | Atlanta | 3 | Stopwatch Beta | STV","players":null},{"server_id":401,"name":"Uncletopia | Atlanta | 4 | No Payload","name_short":"atl-4","host":"atl-1.us.uncletopia.com","port":27045,"enabled":true,"region":"us-east","cc":"us","latitude":33.753746,"longitude":-84.38633,"reserved":0,"last_update":"0001-01-01T00:00:00Z","name_a2s":"Uncletopia | Atlanta | 4 | No Payload","protocol":17,"map":"pl_pier","folder":"tf","game":"Team Fortress","app_id":440,"player_count":0,"max_players":24,"Bots":0,"server_type":"Dedicated","server_os":"Linux","password":true,"vac":true,"version":"7723704","steam_id":85568392924515188,"keywords":["nocrits","nodmgspread","payload","uncletopia"],"game_id":440,"stv_port":27046,"stv_name":"Uncletopia | Atlanta | 4 | No Payload | STV","players":null},{"server_id":2,"name":"Uncletopia | Chicago | 1 | All Maps","name_short":"chi-1","host":"chi-1.us.uncletopia.com","port":27015,"enabled":true,"region":"us-central","cc":"us","latitude":41.881832,"longitude":-87.62318,"reserved":0,"last_update":"0001-01-01T00:00:00Z","name_a2s":"Uncletopia | Chicago | 1 | All Maps","protocol":17,"map":"cp_dustbowl","folder":"tf","game":"Team Fortress","app_id":440,"player_count":23,"max_players":24,"Bots":0,"server_type":"Dedicated","server_os":"Linux","password":true,"vac":true,"version":"7742253","steam_id":85568392924469984,"keywords":["cp","nocrits","nodmgspread","uncletopia"],"game_id":440,"stv_port":27016,"stv_name":"Uncletopia | Chicago | 1 | All Maps | STV","players":[{"user_id":738,"name":"det","steam_id":76561198170859755,"connected_time":1088000000000,"state":"active","ping":70},{"user_id":740,"name":"debin","steam_id":76561198070711217,"connected_time":873000000000,"state":"active","ping":56},{"user_id":724,"name":"Gabinator32","steam_id":76561198872467183,"connected_time":3006000000000,"state":"active","ping":45},{"user_id":745,"name":"MoonWolf","steam_id":76561198095735033,"connected_time":787000000000,"state":"active","ping":64},{"user_id":643,"name":"violetcassette","steam_id":76561199028224555,"connected_time":9275000000000,"state":"active","ping":118},{"user_id":579,"name":"the deadliest pyroshark","steam_id":76561198374227766,"connected_time":15329000000000,"state":"active","ping":62},{"user_id":751,"name":"ItsDonut","steam_id":76561198862163064,"connected_time":183000000000,"state":"active","ping":75},{"user_id":743,"name":"Ras","steam_id":76561198123546775,"connected_time":839000000000,"state":"active","ping":60},{"user_id":695,"name":"StonedGiant","steam_id":76561197984386932,"connected_time":4951000000000,"state":"active","ping":53},{"user_id":742,"name":"WalterMondale_84","steam_id":76561198979196151,"connected_time":855000000000,"state":"active","ping":61},{"user_id":733,"name":"Sokka of the water tribe","steam_id":76561198017081737,"connected_time":2527000000000,"state":"active","ping":64},{"user_id":753,"name":"Merchants of Misery","steam_id":76561199188142396,"connected_time":167000000000,"state":"active","ping":95},{"user_id":734,"name":"Snom","steam_id":76561198333827920,"connected_time":1657000000000,"state":"active","ping":90},{"user_id":759,"name":"shmevon","steam_id":76561198006638112,"connected_time":49000000000,"state":"active","ping":82},{"user_id":752,"name":"blob","steam_id":76561198122375328,"connected_time":181000000000,"state":"active","ping":57},{"user_id":749,"name":"Cleric","steam_id":76561198045887994,"connected_time":375000000000,"state":"active","ping":50},{"user_id":760,"name":"Ze_Über_Nerd","steam_id":76561198091148675,"connected_time":45000000000,"state":"active","ping":72},{"user_id":761,"name":"Neco-arc Astolfo","steam_id":76561198989682540,"connected_time":33000000000,"state":"active","ping":149},{"user_id":750,"name":"PKBEAST_7","steam_id":76561198177136537,"connected_time":253000000000,"state":"active","ping":79},{"user_id":757,"name":"Ground Control to Majortom","steam_id":76561198065589126,"connected_time":103000000000,"state":"active","ping":76},{"user_id":758,"name":"Jamendithas","steam_id":76561198119537716,"connected_time":98000000000,"state":"active","ping":66},{"user_id":730,"name":"Old Jingle","steam_id":76561198121651564,"connected_time":2546000000000,"state":"active","ping":57},{"user_id":748,"name":"Ye ( I Love Caulk ) West","steam_id":76561198068830312,"connected_time":466000000000,"state":"active","ping":46}]},{"server_id":106,"name":"Uncletopia | Chicago | 2 | All Maps","name_short":"chi-2","host":"chi-1.us.uncletopia.com","port":27025,"enabled":true,"region":"us-central","cc":"us","latitude":41.881832,"longitude":-87.62318,"reserved":0,"last_update":"0001-01-01T00:00:00Z","name_a2s":"Uncletopia | Chicago | 2 | All Maps","protocol":17,"map":"koth_harvest_final","folder":"tf","game":"Team Fortress","app_id":440,"player_count":24,"max_players":24,"Bots":0,"server_type":"Dedicated","server_os":"Linux","password":true,"vac":true,"version":"7742253","steam_id":85568392924469985,"keywords":["cp","nocrits","nodmgspread","uncletopia"],"game_id":440,"stv_port":27026,"stv_name":"Uncletopia | Chicago | 2 | All Maps | STV","players":[{"user_id":631,"name":"p00l","steam_id":76561198060142652,"connected_time":4639000000000,"state":"active","ping":67},{"user_id":644,"name":"Mad Cow※","steam_id":76561198132498594,"connected_time":3822000000000,"state":"active","ping":47},{"user_id":657,"name":"Your Local NPR Station","steam_id":76561198143830279,"connected_time":2104000000000,"state":"active","ping":58},{"user_id":690,"name":"chevy chevington","steam_id":76561198995705248,"connected_time":327000000000,"state":"active","ping":84},{"user_id":679,"name":"Shuzzilay","steam_id":76561197969138678,"connected_time":764000000000,"state":"active","ping":73},{"user_id":641,"name":"Baka!⑨⑨⑨⑨","steam_id":76561198152948254,"connected_time":4100000000000,"state":"active","ping":59},{"user_id":603,"name":"kairOs.fk","steam_id":76561197972421260,"connected_time":6389000000000,"state":"active","ping":55},{"user_id":674,"name":"Casual Crusader","steam_id":76561198153584395,"connected_time":1301000000000,"state":"active","ping":76},{"user_id":692,"name":"whizwit","steam_id":76561198011759651,"connected_time":145000000000,"state":"active","ping":141},{"user_id":677,"name":"Roz257","steam_id":76561198842844532,"connected_time":802000000000,"state":"active","ping":101},{"user_id":655,"name":"The government took my knife","steam_id":76561198038832034,"connected_time":2215000000000,"state":"active","ping":98},{"user_id":672,"name":"LABRAT","steam_id":76561199226732110,"connected_time":1382000000000,"state":"active","ping":77},{"user_id":602,"name":"you are loved","steam_id":76561198108524571,"connected_time":6390000000000,"state":"active","ping":74},{"user_id":689,"name":"Shiny Dunsparce","steam_id":76561197999111354,"connected_time":436000000000,"state":"active","ping":54},{"user_id":682,"name":"Shaw","steam_id":76561198019915537,"connected_time":731000000000,"state":"active","ping":49},{"user_id":666,"name":"Steve Jobs' cousin Hand Jobs","steam_id":76561198282766831,"connected_time":1830000000000,"state":"active","ping":52},{"user_id":683,"name":"BigSchwif","steam_id":76561198007976941,"connected_time":721000000000,"state":"active","ping":66},{"user_id":650,"name":"Rein","steam_id":76561198300340427,"connected_time":2500000000000,"state":"active","ping":60},{"user_id":647,"name":"A Puppy","steam_id":76561198828184456,"connected_time":3127000000000,"state":"active","ping":58},{"user_id":693,"name":"《W》","steam_id":76561198094829275,"connected_time":119000000000,"state":"active","ping":77},{"user_id":684,"name":"Crazd","steam_id":76561198125848198,"connected_time":714000000000,"state":"active","ping":70},{"user_id":685,"name":"Whapper","steam_id":76561198044029606,"connected_time":677000000000,"state":"active","ping":96},{"user_id":688,"name":"Cinder Roses","steam_id":76561198116369513,"connected_time":526000000000,"state":"active","ping":62},{"user_id":686,"name":"clam","steam_id":76561198010605517,"connected_time":649000000000,"state":"active","ping":80}]},{"server_id":402,"name":"Uncletopia | Chicago | 3 | All Maps","name_short":"chi-3","host":"chi-1.us.uncletopia.com","port":27035,"enabled":true,"region":"us-central","cc":"us","latitude":41.881832,"longitude":-87.62318,"reserved":0,"last_update":"0001-01-01T00:00:00Z","name_a2s":"Uncletopia | Chicago | 3 | All Maps","protocol":17,"map":"pl_pier","folder":"tf","game":"Team Fortress","app_id":440,"player_count":24,"max_players":24,"Bots":0,"server_type":"Dedicated","server_os":"Linux","password":true,"vac":true,"version":"7742253","steam_id":85568392924515191,"keywords":["nocrits","nodmgspread","payload","uncletopia"],"game_id":440,"stv_port":27036,"stv_name":"Uncletopia | Chicago | 3 | All Maps | STV","players":[{"user_id":561,"name":"speedy mozzarella","steam_id":76561198327703300,"connected_time":557000000000,"state":"active","ping":58},{"user_id":543,"name":"(Edited)","steam_id":76561198201657342,"connected_time":1423000000000,"state":"active","ping":58},{"user_id":509,"name":"jan kili","steam_id":76561198289894834,"connected_time":5054000000000,"state":"active","ping":61},{"user_id":558,"name":"Whorse","steam_id":76561198114141445,"connected_time":818000000000,"state":"active","ping":64},{"user_id":522,"name":"Revis","steam_id":76561198881184141,"connected_time":3287000000000,"state":"active","ping":123},{"user_id":563,"name":"crunchyrumble","steam_id":76561199049786946,"connected_time":348000000000,"state":"active","ping":279},{"user_id":567,"name":"BOT Bot","steam_id":76561197995225620,"connected_time":201000000000,"state":"active","ping":80},{"user_id":560,"name":"Rudy","steam_id":76561198013456828,"connected_time":572000000000,"state":"active","ping":59},{"user_id":546,"name":"Skeech","steam_id":76561198119215388,"connected_time":1363000000000,"state":"active","ping":72},{"user_id":541,"name":"Rusty","steam_id":76561198055585129,"connected_time":1533000000000,"state":"active","ping":97},{"user_id":544,"name":"5upermilk","steam_id":76561197978282744,"connected_time":1416000000000,"state":"active","ping":55},{"user_id":547,"name":"horrible gameplay","steam_id":76561199033480474,"connected_time":1351000000000,"state":"active","ping":89},{"user_id":548,"name":"Buttons :)","steam_id":76561198139478534,"connected_time":1350000000000,"state":"active","ping":106},{"user_id":516,"name":"Ozzyrockin","steam_id":76561198094899868,"connected_time":4265000000000,"state":"active","ping":56},{"user_id":564,"name":"JimmySquid","steam_id":76561198254242530,"connected_time":297000000000,"state":"active","ping":64},{"user_id":549,"name":"Myagic","steam_id":76561198123746755,"connected_time":1318000000000,"state":"active","ping":65},{"user_id":565,"name":"Sir, this is a Wendy's","steam_id":76561198983656317,"connected_time":253000000000,"state":"active","ping":68},{"user_id":519,"name":"GlazingDonut","steam_id":76561198847420641,"connected_time":3321000000000,"state":"active","ping":82},{"user_id":554,"name":"Coltoff","steam_id":76561199443720879,"connected_time":1231000000000,"state":"active","ping":94},{"user_id":566,"name":"Uncle","steam_id":76561197988647705,"connected_time":249000000000,"state":"active","ping":61},{"user_id":562,"name":"DeCorruption","steam_id":76561198174998374,"connected_time":413000000000,"state":"active","ping":164},{"user_id":451,"name":"Shaper Loks","steam_id":76561198207958144,"connected_time":8957000000000,"state":"active","ping":243},{"user_id":555,"name":"WildEvieAppears","steam_id":76561198004001828,"connected_time":1156000000000,"state":"active","ping":51},{"user_id":552,"name":"Bay of Pigs [猪湾事件]","steam_id":76561198255305326,"connected_time":1295000000000,"state":"active","ping":62}]},{"server_id":403,"name":"Uncletopia | Chicago | 4 | All Maps","name_short":"chi-4","host":"chi-1.us.uncletopia.com","port":27045,"enabled":true,"region":"us-central","cc":"us","latitude":41.881832,"longitude":-87.62318,"reserved":0,"last_update":"0001-01-01T00:00:00Z","name_a2s":"Uncletopia | Chicago | 4 | All Maps","protocol":17,"map":"pl_borneo","folder":"tf","game":"Team Fortress","app_id":440,"player_count":24,"max_players":24,"Bots":0,"server_type":"Dedicated","server_os":"Linux","password":true,"vac":true,"version":"7742253","steam_id":85568392924515193,"keywords":["nocrits","nodmgspread","payload","uncletopia"],"game_id":440,"stv_port":27046,"stv_name":"Uncletopia | Chicago | 4 | All Maps | STV","players":[{"user_id":386,"name":"Myracle","steam_id":76561198070916920,"connected_time":2969000000000,"state":"active","ping":56},{"user_id":413,"name":"KaiaDoggy","steam_id":76561197997096301,"connected_time":1043000000000,"state":"active","ping":72},{"user_id":418,"name":"Mr. J","steam_id":76561198101567155,"connected_time":656000000000,"state":"active","ping":69},{"user_id":405,"name":"Metalogic","steam_id":76561198049469629,"connected_time":1454000000000,"state":"active","ping":106},{"user_id":415,"name":"HumFreY","steam_id":76561198076639682,"connected_time":830000000000,"state":"active","ping":71},{"user_id":420,"name":"OMGPOP!","steam_id":76561197973294774,"connected_time":621000000000,"state":"active","ping":135},{"user_id":421,"name":"KFC☭","steam_id":76561199206815320,"connected_time":621000000000,"state":"active","ping":104},{"user_id":369,"name":"LizzyGizzyGuy","steam_id":76561199094073861,"connected_time":4320000000000,"state":"active","ping":58},{"user_id":427,"name":"mommy","steam_id":76561198129195009,"connected_time":383000000000,"state":"active","ping":76},{"user_id":425,"name":"Father Joker","steam_id":76561198232461944,"connected_time":491000000000,"state":"active","ping":97},{"user_id":428,"name":"Your very own loving mother","steam_id":76561199160073173,"connected_time":376000000000,"state":"active","ping":84},{"user_id":371,"name":"Guest","steam_id":76561198241004916,"connected_time":3618000000000,"state":"active","ping":95},{"user_id":387,"name":"Thilo","steam_id":76561197987278784,"connected_time":2959000000000,"state":"active","ping":65},{"user_id":429,"name":"fac","steam_id":76561198009818412,"connected_time":370000000000,"state":"active","ping":75},{"user_id":410,"name":"notmanhattan","steam_id":76561198143117561,"connected_time":1143000000000,"state":"active","ping":42},{"user_id":330,"name":"seats","steam_id":76561197998756039,"connected_time":6438000000000,"state":"active","ping":103},{"user_id":430,"name":"a soul must somehow strive","steam_id":76561198096806703,"connected_time":354000000000,"state":"active","ping":79},{"user_id":426,"name":"Aster","steam_id":76561198037920420,"connected_time":424000000000,"state":"active","ping":104},{"user_id":406,"name":"Jerma enthusiast","steam_id":76561198359466264,"connected_time":1452000000000,"state":"active","ping":72},{"user_id":364,"name":"LeRoy42","steam_id":76561198035591428,"connected_time":4855000000000,"state":"active","ping":75},{"user_id":424,"name":"coal","steam_id":76561198027252280,"connected_time":612000000000,"state":"active","ping":54},{"user_id":408,"name":"smuffy","steam_id":76561198091459506,"connected_time":1355000000000,"state":"active","ping":68},{"user_id":411,"name":"Sin","steam_id":76561198940055557,"connected_time":1122000000000,"state":"active","ping":70},{"user_id":412,"name":"Pepsi-Man","steam_id":76561198052061790,"connected_time":1078000000000,"state":"active","ping":89}]},{"server_id":36,"name":"Uncletopia | Chicago | 5 | All Maps","name_short":"chi-5","host":"chi-2.us.uncletopia.com","port":27015,"enabled":true,"region":"us-central","cc":"us","latitude":41.881832,"longitude":-87.62318,"reserved":0,"last_update":"0001-01-01T00:00:00Z","name_a2s":"Uncletopia | Chicago | 5 | All Maps","protocol":17,"map":"cp_process_final","folder":"tf","game":"Team Fortress","app_id":440,"player_count":0,"max_players":24,"Bots":0,"server_type":"Dedicated","server_os":"Linux","password":true,"vac":true,"version":"7742253","steam_id":85568392924866362,"keywords":["cp","nocrits","nodmgspread","uncletopia"],"game_id":440,"stv_port":27016,"stv_name":"Uncletopia | Chicago | 5 | All Maps | STV","players":null},{"server_id":37,"name":"Uncletopia | Chicago | 6 | All Maps","name_short":"chi-6","host":"chi-2.us.uncletopia.com","port":27025,"enabled":true,"region":"us-central","cc":"us","latitude":41.881832,"longitude":-87.62318,"reserved":0,"last_update":"0001-01-01T00:00:00Z","name_a2s":"Uncletopia | Chicago | 6 | All Maps","protocol":17,"map":"pl_badwater","folder":"tf","game":"Team Fortress","app_id":440,"player_count":7,"max_players":24,"Bots":0,"server_type":"Dedicated","server_os":"Linux","password":true,"vac":true,"version":"7742253","steam_id":85568392924866363,"keywords":["nocrits","nodmgspread","payload","uncletopia"],"game_id":440,"stv_port":27026,"stv_name":"Uncletopia | Chicago | 6 | All Maps | STV","players":[{"user_id":343,"name":"Spinch","steam_id":76561198296224166,"connected_time":6872000000000,"state":"active","ping":83},{"user_id":354,"name":"Publo","steam_id":76561198161777140,"connected_time":6427000000000,"state":"active","ping":70},{"user_id":423,"name":"BleeboBleebo","steam_id":76561198151549658,"connected_time":18000000000,"state":"active","ping":65},{"user_id":421,"name":"its personal","steam_id":76561199098408531,"connected_time":207000000000,"state":"active","ping":73},{"user_id":420,"name":"KistAce","steam_id":76561199095713754,"connected_time":366000000000,"state":"active","ping":59},{"user_id":422,"name":"Cooldogjoe","steam_id":76561198105543698,"connected_time":181000000000,"state":"active","ping":47},{"user_id":397,"name":"Fudgely","steam_id":76561198039425862,"connected_time":3629000000000,"state":"active","ping":74}]},{"server_id":38,"name":"Uncletopia | Chicago | 7 | Stopwatch Beta","name_short":"chi-7","host":"chi-2.us.uncletopia.com","port":27035,"enabled":true,"region":"us-central","cc":"us","latitude":41.881832,"longitude":-87.62318,"reserved":0,"last_update":"0001-01-01T00:00:00Z","name_a2s":"Uncletopia | Chicago | 7 | Stopwatch Beta","protocol":17,"map":"workshop/pl_barnblitz_pro7.ugc582280235","folder":"tf","game":"Team Fortress","app_id":440,"player_count":0,"max_players":24,"Bots":0,"server_type":"Dedicated","server_os":"Linux","password":true,"vac":true,"version":"7742253","steam_id":85568392924866364,"keywords":["nocrits","nodmgspread","payload","uncletopia"],"game_id":440,"stv_port":27036,"stv_name":"Uncletopia | Chicago | 7 | Stopwatch Beta | STV","players":null},{"server_id":39,"name":"Uncletopia | Chicago | 8 | Community","name_short":"chi-8","host":"chi-2.us.uncletopia.com","port":27045,"enabled":true,"region":"us-central","cc":"us","latitude":41.881832,"longitude":-87.62318,"reserved":0,"last_update":"0001-01-01T00:00:00Z","name_a2s":"Uncletopia | Chicago | 8 | Community","protocol":17,"map":"koth_lakeside_final","folder":"tf","game":"Team Fortress","app_id":440,"player_count":0,"max_players":24,"Bots":0,"server_type":"Dedicated","server_os":"Linux","password":true,"vac":true,"version":"7742253","steam_id":85568392924866365,"keywords":["cp","nocrits","nodmgspread","uncletopia"],"game_id":440,"stv_port":27046,"stv_name":"Uncletopia | Chicago | 8 | Community | STV","players":null},{"server_id":8,"name":"Uncletopia | Dallas | 1 | All Maps","name_short":"dal-1","host":"dal-1.us.uncletopia.com","port":27015,"enabled":true,"region":"us-central","cc":"us","latitude":32.779167,"longitude":-96.80889,"reserved":0,"last_update":"0001-01-01T00:00:00Z","name_a2s":"Uncletopia | Dallas | 1 | All Maps","protocol":17,"map":"pl_borneo","folder":"tf","game":"Team Fortress","app_id":440,"player_count":24,"max_players":24,"Bots":0,"server_type":"Dedicated","server_os":"Linux","password":true,"vac":true,"version":"7742253","steam_id":85568392924469986,"keywords":["nocrits","nodmgspread","payload","uncletopia"],"game_id":440,"stv_port":27016,"stv_name":"Uncletopia | Dallas | 1 | All Maps | STV","players":[{"user_id":343,"name":"gamer gunk","steam_id":76561198858328080,"connected_time":2502000000000,"state":"active","ping":74},{"user_id":362,"name":"Ferxxo","steam_id":76561198820199000,"connected_time":105000000000,"state":"active","ping":59},{"user_id":348,"name":"Arcana","steam_id":76561198120924164,"connected_time":1687000000000,"state":"active","ping":50},{"user_id":360,"name":"Protassium","steam_id":76561198084092694,"connected_time":377000000000,"state":"active","ping":47},{"user_id":310,"name":"❤ Ashley ❤","steam_id":76561198056428303,"connected_time":5176000000000,"state":"active","ping":88},{"user_id":294,"name":"-","steam_id":76561198021308963,"connected_time":6353000000000,"state":"active","ping":65},{"user_id":337,"name":"V.T. (Costis el Rasputin)","steam_id":76561198197187703,"connected_time":2803000000000,"state":"active","ping":92},{"user_id":328,"name":"Huge eevee fan","steam_id":76561198128057732,"connected_time":3565000000000,"state":"active","ping":90},{"user_id":212,"name":"dosimeter","steam_id":76561198039608940,"connected_time":11133000000000,"state":"active","ping":114},{"user_id":307,"name":"reneas chow mieng","steam_id":76561198061024704,"connected_time":5427000000000,"state":"active","ping":69},{"user_id":301,"name":"'the' professional","steam_id":76561199164971892,"connected_time":5868000000000,"state":"active","ping":93},{"user_id":364,"name":"Fry Enjoyer","steam_id":76561198987191738,"connected_time":64000000000,"state":"active","ping":39},{"user_id":347,"name":"The Krinkler","steam_id":76561198020308956,"connected_time":1966000000000,"state":"active","ping":78},{"user_id":350,"name":"Alphielyer Heinie","steam_id":76561198097701931,"connected_time":1644000000000,"state":"active","ping":79},{"user_id":358,"name":"UncleJunkle","steam_id":76561198289559487,"connected_time":1377000000000,"state":"active","ping":52},{"user_id":359,"name":"self sufficient kitten","steam_id":76561197960592612,"connected_time":556000000000,"state":"active","ping":90},{"user_id":361,"name":"mnmtortise","steam_id":76561198310540900,"connected_time":113000000000,"state":"active","ping":81},{"user_id":355,"name":"Krow","steam_id":76561198010392099,"connected_time":1521000000000,"state":"active","ping":52},{"user_id":160,"name":"Onyx","steam_id":76561198275349640,"connected_time":13533000000000,"state":"active","ping":68},{"user_id":356,"name":"citrus","steam_id":76561198294606679,"connected_time":1519000000000,"state":"active","ping":90},{"user_id":363,"name":"a bucket of chicken","steam_id":76561198023710042,"connected_time":104000000000,"state":"active","ping":53},{"user_id":365,"name":"IZISOO","steam_id":76561198970380577,"connected_time":23000000000,"state":"active","ping":72},{"user_id":319,"name":"SumTingWong","steam_id":76561198119286222,"connected_time":4616000000000,"state":"active","ping":65},{"user_id":334,"name":"epic fail","steam_id":76561198090531755,"connected_time":3486000000000,"state":"active","ping":45}]},{"server_id":108,"name":"Uncletopia | Dallas | 2 | All Maps","name_short":"dal-2","host":"dal-1.us.uncletopia.com","port":27025,"enabled":true,"region":"us-central","cc":"us","latitude":32.779167,"longitude":-96.80889,"reserved":0,"last_update":"0001-01-01T00:00:00Z","name_a2s":"Uncletopia | Dallas | 2 | All Maps","protocol":17,"map":"cp_dustbowl","folder":"tf","game":"Team Fortress","app_id":440,"player_count":18,"max_players":24,"Bots":0,"server_type":"Dedicated","server_os":"Linux","password":true,"vac":true,"version":"7742253","steam_id":85568392924469988,"keywords":["cp","nocrits","nodmgspread","uncletopia"],"game_id":440,"stv_port":27026,"stv_name":"Uncletopia | Dallas | 2 | All Maps | STV","players":[{"user_id":346,"name":"ChottoAMinute","steam_id":76561198873157775,"connected_time":3309000000000,"state":"active","ping":35},{"user_id":382,"name":"happy man!!! :D!!!!","steam_id":76561198128468316,"connected_time":1519000000000,"state":"active","ping":53},{"user_id":364,"name":"hello","steam_id":76561198063595962,"connected_time":2192000000000,"state":"active","ping":173},{"user_id":388,"name":"banana eaten","steam_id":76561198079634017,"connected_time":1259000000000,"state":"active","ping":63},{"user_id":396,"name":"Blan","steam_id":76561199214848695,"connected_time":84000000000,"state":"active","ping":91},{"user_id":385,"name":"GarretGood","steam_id":76561198071881495,"connected_time":1462000000000,"state":"active","ping":57},{"user_id":397,"name":"Jazztral","steam_id":76561198067827514,"connected_time":69000000000,"state":"active","ping":41},{"user_id":369,"name":"xZackAttack27x","steam_id":76561198035446639,"connected_time":1954000000000,"state":"active","ping":34},{"user_id":311,"name":"honked off the bobo","steam_id":76561198123287268,"connected_time":5985000000000,"state":"active","ping":75},{"user_id":354,"name":"Matches_                       ","steam_id":76561198048925904,"connected_time":2677000000000,"state":"active","ping":79},{"user_id":393,"name":"Ctrl+Cs your NFT","steam_id":76561199223646322,"connected_time":892000000000,"state":"active","ping":50},{"user_id":263,"name":"trobort","steam_id":76561198027150357,"connected_time":8171000000000,"state":"active","ping":52},{"user_id":319,"name":"rico suave","steam_id":76561198093252989,"connected_time":5554000000000,"state":"active","ping":59},{"user_id":305,"name":"Reyloko","steam_id":76561198172480913,"connected_time":6686000000000,"state":"active","ping":70},{"user_id":377,"name":"hunky dory","steam_id":76561198030422254,"connected_time":1795000000000,"state":"active","ping":104},{"user_id":390,"name":"Emperorsauce","steam_id":76561199212336335,"connected_time":967000000000,"state":"active","ping":66},{"user_id":373,"name":"Psychosis","steam_id":76561198078659070,"connected_time":1878000000000,"state":"active","ping":76},{"user_id":374,"name":"ClericsRose","steam_id":76561198011013806,"connected_time":1862000000000,"state":"active","ping":82}]},{"server_id":5,"name":"Uncletopia | Frankfurt | 1 | All Maps","name_short":"frk-1","host":"frk-1.de.uncletopia.com","port":27015,"enabled":true,"region":"eu","cc":"de","latitude":50.110924,"longitude":8.682127,"reserved":0,"last_update":"0001-01-01T00:00:00Z","name_a2s":"Uncletopia | Frankfurt | 1 | All Maps","protocol":17,"map":"pl_borneo","folder":"tf","game":"Team Fortress","app_id":440,"player_count":0,"max_players":24,"Bots":0,"server_type":"Dedicated","server_os":"Linux","password":true,"vac":true,"version":"7742253","steam_id":85568392924469989,"keywords":["nocrits","nodmgspread","payload","uncletopia"],"game_id":440,"stv_port":27016,"stv_name":"Uncletopia | Frankfurt | 1 | All Maps | STV","players":null},{"server_id":110,"name":"Uncletopia | Frankfurt | 2 | All Maps","name_short":"frk-2","host":"frk-1.de.uncletopia.com","port":27025,"enabled":true,"region":"eu","cc":"de","latitude":50.110924,"longitude":8.682127,"reserved":0,"last_update":"0001-01-01T00:00:00Z","name_a2s":"Uncletopia | Frankfurt | 2 | All Maps","protocol":17,"map":"koth_lakeside_final","folder":"tf","game":"Team Fortress","app_id":440,"player_count":0,"max_players":24,"Bots":0,"server_type":"Dedicated","server_os":"Linux","password":true,"vac":true,"version":"7742253","steam_id":85568392924469990,"keywords":["cp","nocrits","nodmgspread","uncletopia"],"game_id":440,"stv_port":27026,"stv_name":"Uncletopia | Frankfurt | 2 | All Maps | STV","players":null},{"server_id":308,"name":"Uncletopia | Frankfurt | 3 | All Maps","name_short":"frk-3","host":"frk-1.de.uncletopia.com","port":27035,"enabled":true,"region":"eu","cc":"de","latitude":50.110924,"longitude":8.682127,"reserved":0,"last_update":"0001-01-01T00:00:00Z","name_a2s":"Uncletopia | Frankfurt | 3 | All Maps","protocol":17,"map":"koth_cascade","folder":"tf","game":"Team Fortress","app_id":440,"player_count":0,"max_players":24,"Bots":0,"server_type":"Dedicated","server_os":"Linux","password":true,"vac":true,"version":"7742253","steam_id":85568392924504274,"keywords":["cp","nocrits","nodmgspread","uncletopia"],"game_id":440,"stv_port":27036,"stv_name":"Uncletopia | Frankfurt | 3 | All Maps | STV","players":null},{"server_id":309,"name":"Uncletopia | Frankfurt | 4 | All Maps","name_short":"frk-4","host":"frk-1.de.uncletopia.com","port":27045,"enabled":true,"region":"eu","cc":"de","latitude":50.110924,"longitude":8.682127,"reserved":0,"last_update":"0001-01-01T00:00:00Z","name_a2s":"Uncletopia | Frankfurt | 4 | All Maps","protocol":17,"map":"koth_viaduct","folder":"tf","game":"Team Fortress","app_id":440,"player_count":0,"max_players":24,"Bots":0,"server_type":"Dedicated","server_os":"Linux","password":true,"vac":true,"version":"7742253","steam_id":85568392924504275,"keywords":["cp","nocrits","nodmgspread","uncletopia"],"game_id":440,"stv_port":27046,"stv_name":"Uncletopia | Frankfurt | 4 | All Maps | STV","players":null},{"server_id":310,"name":"Uncletopia | Frankfurt | 5 | All Maps","name_short":"frk-5","host":"frk-1.de.uncletopia.com","port":27055,"enabled":true,"region":"eu","cc":"de","latitude":50.110924,"longitude":8.682127,"reserved":0,"last_update":"0001-01-01T00:00:00Z","name_a2s":"Uncletopia | Frankfurt | 5 | All Maps","protocol":17,"map":"koth_lakeside_final","folder":"tf","game":"Team Fortress","app_id":440,"player_count":0,"max_players":24,"Bots":0,"server_type":"Dedicated","server_os":"Linux","password":true,"vac":true,"version":"7742253","steam_id":85568392924504277,"keywords":["cp","nocrits","nodmgspread","uncletopia"],"game_id":440,"stv_port":27056,"stv_name":"Uncletopia | Frankfurt | 5 | All Maps | STV","players":null},{"server_id":311,"name":"Uncletopia | Frankfurt | 6 | All Maps","name_short":"frk-6","host":"frk-1.de.uncletopia.com","port":27065,"enabled":true,"region":"eu","cc":"de","latitude":50.110924,"longitude":8.682127,"reserved":0,"last_update":"0001-01-01T00:00:00Z","name_a2s":"Uncletopia | Frankfurt | 6 | All Maps","protocol":17,"map":"pl_borneo","folder":"tf","game":"Team Fortress","app_id":440,"player_count":0,"max_players":24,"Bots":0,"server_type":"Dedicated","server_os":"Linux","password":true,"vac":true,"version":"7742253","steam_id":85568392924504278,"keywords":["nocrits","nodmgspread","payload","uncletopia"],"game_id":440,"stv_port":27066,"stv_name":"Uncletopia | Frankfurt | 6 | All Maps | STV","players":null},{"server_id":23,"name":"Uncletopia | Frankfurt | 7 | Stopwatch Beta","name_short":"frk-7","host":"frk-1.de.uncletopia.com","port":27075,"enabled":true,"region":"eu","cc":"de","latitude":50.110924,"longitude":8.682127,"reserved":0,"last_update":"0001-01-01T00:00:00Z","name_a2s":"Uncletopia | Frankfurt | 7 | Stopwatch Beta","protocol":17,"map":"pl_badwater","folder":"tf","game":"Team Fortress","app_id":440,"player_count":0,"max_players":24,"Bots":0,"server_type":"Dedicated","server_os":"Linux","password":true,"vac":true,"version":"7742253","steam_id":85568392924742827,"keywords":["nocrits","nodmgspread","payload","uncletopia"],"game_id":440,"stv_port":27076,"stv_name":"Uncletopia | Frankfurt | 7 | Stopwatch Beta | STV","players":null},{"server_id":24,"name":"Uncletopia | Frankfurt | 8 | Community","name_short":"frk-8","host":"frk-1.de.uncletopia.com","port":27085,"enabled":true,"region":"eu","cc":"de","latitude":50.110924,"longitude":8.682127,"reserved":0,"last_update":"0001-01-01T00:00:00Z","name_a2s":"Uncletopia | Frankfurt | 8 | Community","protocol":17,"map":"workshop/koth_bagel_rc5.ugc2514036946","folder":"tf","game":"Team Fortress","app_id":440,"player_count":0,"max_players":24,"Bots":0,"server_type":"Dedicated","server_os":"Linux","password":true,"vac":true,"version":"7742253","steam_id":85568392924742828,"keywords":["cp","nocrits","nodmgspread","uncletopia"],"game_id":440,"stv_port":27086,"stv_name":"Uncletopia | Frankfurt | 8 | Community | STV","players":null},{"server_id":202,"name":"Uncletopia | Hong Kong | 1 | All Maps","name_short":"hgk-1","host":"hgk-1.hk.uncletopia.com","port":27015,"enabled":true,"region":"asia","cc":"hk","latitude":22.302711,"longitude":114.177216,"reserved":0,"last_update":"0001-01-01T00:00:00Z","name_a2s":"Uncletopia | Hong Kong | 1 | All Maps","protocol":17,"map":"koth_viaduct","folder":"tf","game":"Team Fortress","app_id":440,"player_count":24,"max_players":24,"Bots":0,"server_type":"Dedicated","server_os":"Linux","password":true,"vac":true,"version":"7742253","steam_id":85568392924494504,"keywords":["cp","nocrits","nodmgspread","uncletopia"],"game_id":440,"stv_port":27016,"stv_name":"Uncletopia | Hong Kong | 1 | All Maps | STV","players":[{"user_id":171,"name":"East","steam_id":76561198857299051,"connected_time":44000000000,"state":"active","ping":64},{"user_id":121,"name":":D","steam_id":76561198009692495,"connected_time":3009000000000,"state":"active","ping":84},{"user_id":163,"name":"F2ProGamer (F2P)","steam_id":76561199020713591,"connected_time":826000000000,"state":"active","ping":55},{"user_id":126,"name":"OH GREAT HEAVENS!","steam_id":76561199174449723,"connected_time":2898000000000,"state":"active","ping":101},{"user_id":143,"name":"rudolph the schizo","steam_id":76561199012678702,"connected_time":2065000000000,"state":"active","ping":126},{"user_id":141,"name":"spinach hero","steam_id":76561198042539541,"connected_time":2425000000000,"state":"active","ping":81},{"user_id":109,"name":"Drutzhfer","steam_id":76561198299948446,"connected_time":3553000000000,"state":"active","ping":109},{"user_id":167,"name":"Idate","steam_id":76561198971747369,"connected_time":537000000000,"state":"active","ping":90},{"user_id":170,"name":"ChargaPwer","steam_id":76561198422557207,"connected_time":115000000000,"state":"active","ping":131},{"user_id":156,"name":"saint","steam_id":76561198049911751,"connected_time":1251000000000,"state":"active","ping":79},{"user_id":152,"name":"niceguy6785","steam_id":76561199442589750,"connected_time":1571000000000,"state":"active","ping":59},{"user_id":150,"name":"Fluffy","steam_id":76561198316671856,"connected_time":1712000000000,"state":"active","ping":97},{"user_id":129,"name":"Aero","steam_id":76561198096630758,"connected_time":2802000000000,"state":"active","ping":86},{"user_id":139,"name":"professional esports fortnite","steam_id":76561198337887896,"connected_time":2542000000000,"state":"active","ping":81},{"user_id":114,"name":"zsb","steam_id":76561198073857914,"connected_time":3315000000000,"state":"active","ping":75},{"user_id":158,"name":"aaron","steam_id":76561197999099632,"connected_time":1015000000000,"state":"active","ping":78},{"user_id":162,"name":"Aerotronics","steam_id":76561198821190704,"connected_time":852000000000,"state":"active","ping":153},{"user_id":169,"name":"qb","steam_id":76561198412329672,"connected_time":249000000000,"state":"active","ping":101},{"user_id":116,"name":"mister beast","steam_id":76561198346128694,"connected_time":3287000000000,"state":"active","ping":65},{"user_id":100,"name":"Michael Scott","steam_id":76561198023082794,"connected_time":4135000000000,"state":"active","ping":48},{"user_id":166,"name":"About","steam_id":76561198198273477,"connected_time":711000000000,"state":"active","ping":119},{"user_id":91,"name":"Urotsuki","steam_id":76561198074339034,"connected_time":4375000000000,"state":"active","ping":76},{"user_id":164,"name":"Violezine","steam_id":76561199000502615,"connected_time":809000000000,"state":"active","ping":83},{"user_id":96,"name":"GIVE MEDIC A ROCKET LAUNCHER","steam_id":76561199420453519,"connected_time":4262000000000,"state":"active","ping":94}]},{"server_id":1,"name":"Uncletopia | Los Angeles | 1 | All Maps","name_short":"lax-1","host":"lax-1.us.uncletopia.com","port":27015,"enabled":true,"region":"us-west","cc":"us","latitude":33.94279,"longitude":-118.41004,"reserved":0,"last_update":"0001-01-01T00:00:00Z","name_a2s":"Uncletopia | Los Angeles | 1 | All Maps","protocol":17,"map":"koth_lakeside_final","folder":"tf","game":"Team Fortress","app_id":440,"player_count":0,"max_players":24,"Bots":0,"server_type":"Dedicated","server_os":"Linux","password":true,"vac":true,"version":"7742253","steam_id":85568392924469991,"keywords":["cp","nocrits","nodmgspread","uncletopia"],"game_id":440,"stv_port":27016,"stv_name":"Uncletopia | Los Angeles | 1 | All Maps | STV","players":null},{"server_id":112,"name":"Uncletopia | Los Angeles | 2 | All Maps","name_short":"lax-2","host":"lax-1.us.uncletopia.com","port":27025,"enabled":true,"region":"us-west","cc":"us","latitude":33.94279,"longitude":-118.41004,"reserved":0,"last_update":"0001-01-01T00:00:00Z","name_a2s":"Uncletopia | Los Angeles | 2 | All Maps","protocol":17,"map":"koth_brazil","folder":"tf","game":"Team Fortress","app_id":440,"player_count":24,"max_players":24,"Bots":0,"server_type":"Dedicated","server_os":"Linux","password":true,"vac":true,"version":"7742253","steam_id":85568392924469992,"keywords":["cp","nocrits","nodmgspread","uncletopia"],"game_id":440,"stv_port":27026,"stv_name":"Uncletopia | Los Angeles | 2 | All Maps | STV","players":[{"user_id":379,"name":"brimstone","steam_id":76561198066619792,"connected_time":2481000000000,"state":"active","ping":77},{"user_id":356,"name":"Pyrotek⁴","steam_id":76561198072747672,"connected_time":3191000000000,"state":"active","ping":43},{"user_id":309,"name":"Frazzer","steam_id":76561198088679707,"connected_time":4122000000000,"state":"active","ping":47},{"user_id":399,"name":"Petroleum Jelly","steam_id":76561198118778800,"connected_time":992000000000,"state":"active","ping":55},{"user_id":398,"name":"Delimeat","steam_id":76561198043824595,"connected_time":1154000000000,"state":"active","ping":48},{"user_id":400,"name":"playdough eater","steam_id":76561199045901994,"connected_time":958000000000,"state":"active","ping":52},{"user_id":403,"name":"ZeFizzyPop™","steam_id":76561198258104981,"connected_time":770000000000,"state":"active","ping":89},{"user_id":397,"name":"AKKAWI","steam_id":76561198203159952,"connected_time":1165000000000,"state":"active","ping":56},{"user_id":401,"name":"Re:ZeroCultLeader","steam_id":76561198214899655,"connected_time":876000000000,"state":"active","ping":69},{"user_id":359,"name":"mocha","steam_id":76561198825658971,"connected_time":3078000000000,"state":"active","ping":46},{"user_id":405,"name":"gangstalker","steam_id":76561198363267009,"connected_time":352000000000,"state":"active","ping":75},{"user_id":384,"name":"Goonther","steam_id":76561198170128009,"connected_time":2175000000000,"state":"active","ping":58},{"user_id":364,"name":"dylandraco844","steam_id":76561198886947936,"connected_time":2991000000000,"state":"active","ping":88},{"user_id":385,"name":"3.dlc","steam_id":76561198234377776,"connected_time":2160000000000,"state":"active","ping":52},{"user_id":411,"name":"[δ] Delta","steam_id":76561198287190116,"connected_time":40000000000,"state":"active","ping":79},{"user_id":407,"name":"Mugen","steam_id":76561198411174773,"connected_time":314000000000,"state":"active","ping":39},{"user_id":402,"name":"master_minion","steam_id":76561198170693990,"connected_time":817000000000,"state":"active","ping":47},{"user_id":404,"name":"a festive sooley","steam_id":76561198134500189,"connected_time":770000000000,"state":"active","ping":112},{"user_id":331,"name":"gamer girl looking for a bf","steam_id":76561198279901162,"connected_time":3611000000000,"state":"active","ping":108},{"user_id":324,"name":"Boasta' Berry","steam_id":76561198029015179,"connected_time":3743000000000,"state":"active","ping":140},{"user_id":391,"name":"BIGGUS DICKUS","steam_id":76561199057483763,"connected_time":1964000000000,"state":"active","ping":46},{"user_id":292,"name":"mu","steam_id":76561197997530228,"connected_time":5080000000000,"state":"active","ping":88},{"user_id":392,"name":"gugcat","steam_id":76561198129822860,"connected_time":1925000000000,"state":"active","ping":60},{"user_id":409,"name":"13","steam_id":76561198174655403,"connected_time":286000000000,"state":"active","ping":68}]},{"server_id":324,"name":"Uncletopia | Los Angeles | 3 | All Maps","name_short":"lax-3","host":"lax-1.us.uncletopia.com","port":27035,"enabled":true,"region":"us-west","cc":"us","latitude":33.94279,"longitude":-118.41004,"reserved":0,"last_update":"0001-01-01T00:00:00Z","name_a2s":"Uncletopia | Los Angeles | 3 | All Maps","protocol":17,"map":"cp_sunshine","folder":"tf","game":"Team Fortress","app_id":440,"player_count":23,"max_players":24,"Bots":0,"server_type":"Dedicated","server_os":"Linux","password":true,"vac":true,"version":"7742253","steam_id":85568392924510198,"keywords":["cp","nocrits","nodmgspread","uncletopia"],"game_id":440,"stv_port":27036,"stv_name":"Uncletopia | Los Angeles | 3 | All Maps | STV","players":[{"user_id":184,"name":"en.wikipedia.org/wiki/Nae_Nae","steam_id":76561198418288939,"connected_time":88000000000,"state":"active","ping":57},{"user_id":153,"name":"berserker_tf2 ttv","steam_id":76561198303464488,"connected_time":1509000000000,"state":"active","ping":66},{"user_id":171,"name":"John Wick's puppy","steam_id":76561198064662875,"connected_time":490000000000,"state":"active","ping":56},{"user_id":151,"name":"autumn","steam_id":76561198036901822,"connected_time":1866000000000,"state":"active","ping":76},{"user_id":163,"name":"orthotic horse shoes","steam_id":76561198083242298,"connected_time":642000000000,"state":"active","ping":91},{"user_id":156,"name":"Mitty","steam_id":76561198014177684,"connected_time":1318000000000,"state":"active","ping":56},{"user_id":172,"name":"O bez","steam_id":76561198841579939,"connected_time":402000000000,"state":"active","ping":49},{"user_id":168,"name":"Testicular Torsion","steam_id":76561197968179862,"connected_time":553000000000,"state":"active","ping":70},{"user_id":90,"name":"sun sugar","steam_id":76561198385085005,"connected_time":5773000000000,"state":"active","ping":54},{"user_id":158,"name":"「Jimbo Reference」","steam_id":76561198016078541,"connected_time":1232000000000,"state":"active","ping":49},{"user_id":77,"name":"catboy festive edition","steam_id":76561198067881981,"connected_time":6933000000000,"state":"active","ping":114},{"user_id":169,"name":"Dorso","steam_id":76561198380590080,"connected_time":545000000000,"state":"active","ping":38},{"user_id":173,"name":"Arthur","steam_id":76561199002734947,"connected_time":314000000000,"state":"active","ping":88},{"user_id":174,"name":"Erchius","steam_id":76561198256892300,"connected_time":301000000000,"state":"active","ping":104},{"user_id":164,"name":"GreenApples","steam_id":76561198120559543,"connected_time":617000000000,"state":"active","ping":56},{"user_id":165,"name":"Lo-Pan","steam_id":76561198085670133,"connected_time":608000000000,"state":"active","ping":82},{"user_id":185,"name":"Ecliptica","steam_id":76561198171951333,"connected_time":50000000000,"state":"active","ping":95},{"user_id":176,"name":"diegotch808","steam_id":76561199171872199,"connected_time":243000000000,"state":"active","ping":86},{"user_id":178,"name":"Lord Scrubling","steam_id":76561198263744445,"connected_time":164000000000,"state":"active","ping":75},{"user_id":180,"name":"Kdash","steam_id":76561198043829155,"connected_time":135000000000,"state":"active","ping":80},{"user_id":181,"name":"choi","steam_id":76561198053669887,"connected_time":135000000000,"state":"active","ping":58},{"user_id":183,"name":"Arenovas","steam_id":76561198042341811,"connected_time":118000000000,"state":"active","ping":38},{"user_id":186,"name":"buttclencher","steam_id":76561198126346332,"connected_time":39000000000,"state":"active","ping":112}]},{"server_id":25,"name":"Uncletopia | Los Angeles | 4 | Stopwatch Beta","name_short":"lax-4","host":"lax-1.us.uncletopia.com","port":27045,"enabled":true,"region":"us-west","cc":"us","latitude":33.94279,"longitude":-118.41004,"reserved":0,"last_update":"0001-01-01T00:00:00Z","name_a2s":"Uncletopia | Los Angeles | 4 | Stopwatch Beta","protocol":17,"map":"pl_borneo","folder":"tf","game":"Team Fortress","app_id":440,"player_count":0,"max_players":24,"Bots":0,"server_type":"Dedicated","server_os":"Linux","password":true,"vac":true,"version":"7742253","steam_id":85568392924510199,"keywords":["nocrits","nodmgspread","payload","uncletopia"],"game_id":440,"stv_port":27046,"stv_name":"Uncletopia | Los Angeles | 4 | Stopwatch Beta | STV","players":null},{"server_id":11,"name":"Uncletopia | London | 1 | All Maps","name_short":"lon-1","host":"lon-1.uk.uncletopia.com","port":27015,"enabled":true,"region":"eu","cc":"gb","latitude":51.509865,"longitude":-0.118092,"reserved":0,"last_update":"0001-01-01T00:00:00Z","name_a2s":"Uncletopia | London | 1 | All Maps","protocol":17,"map":"pl_borneo","folder":"tf","game":"Team Fortress","app_id":440,"player_count":0,"max_players":24,"Bots":0,"server_type":"Dedicated","server_os":"Linux","password":true,"vac":true,"version":"7742253","steam_id":85568392924367362,"keywords":["nocrits","nodmgspread","payload","uncletopia"],"game_id":440,"stv_port":27016,"stv_name":"Uncletopia | London | 1 | All Maps | STV","players":null},{"server_id":114,"name":"Uncletopia | London | 2 | All Maps","name_short":"lon-2","host":"lon-1.uk.uncletopia.com","port":27025,"enabled":true,"region":"eu","cc":"gb","latitude":51.509865,"longitude":-0.118092,"reserved":0,"last_update":"0001-01-01T00:00:00Z","name_a2s":"Uncletopia | London | 2 | All Maps","protocol":17,"map":"pl_upward","folder":"tf","game":"Team Fortress","app_id":440,"player_count":24,"max_players":24,"Bots":0,"server_type":"Dedicated","server_os":"Linux","password":true,"vac":true,"version":"7742253","steam_id":85568392924470941,"keywords":["nocrits","nodmgspread","payload","uncletopia"],"game_id":440,"stv_port":27026,"stv_name":"Uncletopia | London | 2 | All Maps | STV","players":[{"user_id":1091,"name":":\u003e","steam_id":76561198349324196,"connected_time":478000000000,"state":"active","ping":177},{"user_id":1077,"name":"Ambasing","steam_id":76561198059806266,"connected_time":1531000000000,"state":"active","ping":96},{"user_id":945,"name":"catboy trickster","steam_id":76561198075665211,"connected_time":13016000000000,"state":"active","ping":37},{"user_id":1049,"name":"Female FESTIVE Gaming","steam_id":76561198000891394,"connected_time":4455000000000,"state":"active","ping":75},{"user_id":1024,"name":"fitotutus","steam_id":76561197974993253,"connected_time":6993000000000,"state":"active","ping":146},{"user_id":1059,"name":"☃❆FLVRRY☃❆","steam_id":76561199072765441,"connected_time":3455000000000,"state":"active","ping":43},{"user_id":1090,"name":"IKARUS","steam_id":76561198850898422,"connected_time":772000000000,"state":"active","ping":70},{"user_id":1074,"name":"TaiDni","steam_id":76561198087750392,"connected_time":1637000000000,"state":"active","ping":49},{"user_id":1080,"name":"Luigi Gaming (real and official","steam_id":76561198082502910,"connected_time":1336000000000,"state":"active","ping":62},{"user_id":1060,"name":"saus","steam_id":76561198114729364,"connected_time":3382000000000,"state":"active","ping":59},{"user_id":1081,"name":"engri\u003e:[","steam_id":76561198202059054,"connected_time":1268000000000,"state":"active","ping":68},{"user_id":1095,"name":"Kalastajaeemeli","steam_id":76561198038848365,"connected_time":79000000000,"state":"active","ping":95},{"user_id":1061,"name":"Tom","steam_id":76561198126800063,"connected_time":3362000000000,"state":"active","ping":44},{"user_id":1084,"name":"Sarip","steam_id":76561198113330438,"connected_time":1162000000000,"state":"active","ping":58},{"user_id":1025,"name":"BrainLacking","steam_id":76561198965574196,"connected_time":6896000000000,"state":"active","ping":59},{"user_id":949,"name":"Sneaky boi","steam_id":76561199195985387,"connected_time":12884000000000,"state":"active","ping":95},{"user_id":1085,"name":"dorak","steam_id":76561198818037965,"connected_time":1133000000000,"state":"active","ping":104},{"user_id":1092,"name":"тукку ирма","steam_id":76561197998715016,"connected_time":283000000000,"state":"active","ping":68},{"user_id":1086,"name":"your opinion \u003c my shit after a ","steam_id":76561198152620745,"connected_time":1130000000000,"state":"active","ping":50},{"user_id":1045,"name":"average f2p","steam_id":76561199136308055,"connected_time":5023000000000,"state":"active","ping":33},{"user_id":1088,"name":"Mega Saturn","steam_id":76561198024750500,"connected_time":1058000000000,"state":"active","ping":78},{"user_id":1055,"name":"Taste","steam_id":76561197994506978,"connected_time":3964000000000,"state":"active","ping":55},{"user_id":1096,"name":"Lazulura","steam_id":76561198103569919,"connected_time":72000000000,"state":"active","ping":80},{"user_id":1075,"name":"thekoolest88","steam_id":76561199022415672,"connected_time":1636000000000,"state":"active","ping":141}]},{"server_id":320,"name":"Uncletopia | London | 3 | All Maps","name_short":"lon-3","host":"lon-1.uk.uncletopia.com","port":27035,"enabled":true,"region":"eu","cc":"gb","latitude":51.509865,"longitude":-0.118092,"reserved":0,"last_update":"0001-01-01T00:00:00Z","name_a2s":"Uncletopia | London | 3 | All Maps","protocol":17,"map":"koth_viaduct","folder":"tf","game":"Team Fortress","app_id":440,"player_count":0,"max_players":24,"Bots":0,"server_type":"Dedicated","server_os":"Linux","password":true,"vac":true,"version":"7742253","steam_id":85568392924510192,"keywords":["cp","nocrits","nodmgspread","uncletopia"],"game_id":440,"stv_port":27036,"stv_name":"Uncletopia | London | 3 | All Maps | STV","players":null},{"server_id":321,"name":"Uncletopia | London | 4 | All Maps","name_short":"lon-4","host":"lon-1.uk.uncletopia.com","port":27045,"enabled":true,"region":"eu","cc":"gb","latitude":51.509865,"longitude":-0.118092,"reserved":0,"last_update":"0001-01-01T00:00:00Z","name_a2s":"Uncletopia | London | 4 | All Maps","protocol":17,"map":"koth_cascade","folder":"tf","game":"Team Fortress","app_id":440,"player_count":0,"max_players":24,"Bots":0,"server_type":"Dedicated","server_os":"Linux","password":true,"vac":true,"version":"7742253","steam_id":85568392924510193,"keywords":["cp","nocrits","nodmgspread","uncletopia"],"game_id":440,"stv_port":27046,"stv_name":"Uncletopia | London | 4 | All Maps | STV","players":null},{"server_id":21,"name":"Uncletopia | London | 5 | All Maps","name_short":"lon-5","host":"lon-1.uk.uncletopia.com","port":27055,"enabled":true,"region":"eu","cc":"gb","latitude":51.509865,"longitude":-0.118092,"reserved":0,"last_update":"0001-01-01T00:00:00Z","name_a2s":"Uncletopia | London | 5 | All Maps","protocol":17,"map":"koth_viaduct","folder":"tf","game":"Team Fortress","app_id":440,"player_count":0,"max_players":24,"Bots":0,"server_type":"Dedicated","server_os":"Linux","password":true,"vac":true,"version":"7742253","steam_id":85568392924742829,"keywords":["cp","nocrits","nodmgspread","uncletopia"],"game_id":440,"stv_port":27056,"stv_name":"Uncletopia | London | 5 | All Maps | STV","players":null},{"server_id":22,"name":"Uncletopia | London | 6 | All Maps","name_short":"lon-6","host":"lon-1.uk.uncletopia.com","port":27065,"enabled":true,"region":"eu","cc":"gb","latitude":51.509865,"longitude":-0.118092,"reserved":0,"last_update":"0001-01-01T00:00:00Z","name_a2s":"Uncletopia | London | 6 | All Maps","protocol":17,"map":"koth_cascade","folder":"tf","game":"Team Fortress","app_id":440,"player_count":0,"max_players":24,"Bots":0,"server_type":"Dedicated","server_os":"Linux","password":true,"vac":true,"version":"7742253","steam_id":85568392924742830,"keywords":["cp","nocrits","nodmgspread","uncletopia"],"game_id":440,"stv_port":27066,"stv_name":"Uncletopia | London | 6 | All Maps | STV","players":null},{"server_id":40,"name":"Uncletopia | London | 7 | No Payload","name_short":"lon-7","host":"lon-1.uk.uncletopia.com","port":27075,"enabled":true,"region":"eu","cc":"gb","latitude":51.509865,"longitude":-0.118092,"reserved":0,"last_update":"0001-01-01T00:00:00Z","name_a2s":"Uncletopia | London | 7 | No Payload","protocol":17,"map":"koth_badlands","folder":"tf","game":"Team Fortress","app_id":440,"player_count":0,"max_players":24,"Bots":0,"server_type":"Dedicated","server_os":"Linux","password":true,"vac":true,"version":"7742253","steam_id":85568392924964314,"keywords":["cp","nocrits","nodmgspread","uncletopia"],"game_id":440,"stv_port":27076,"stv_name":"Uncletopia | London | 7 | No Payload | STV","players":null},{"server_id":41,"name":"Uncletopia | London | 8 | Community","name_short":"lon-8","host":"lon-1.uk.uncletopia.com","port":27085,"enabled":true,"region":"eu","cc":"gb","latitude":51.509865,"longitude":-0.118092,"reserved":0,"last_update":"0001-01-01T00:00:00Z","name_a2s":"Uncletopia | London | 8 | Community","protocol":17,"map":"workshop/koth_slaughter_rc1.ugc1712845210","folder":"tf","game":"Team Fortress","app_id":440,"player_count":0,"max_players":24,"Bots":0,"server_type":"Dedicated","server_os":"Linux","password":true,"vac":true,"version":"7742253","steam_id":85568392924964315,"keywords":["cp","nocrits","nodmgspread","uncletopia"],"game_id":440,"stv_port":27086,"stv_name":"Uncletopia | London | 8 | Community | STV","players":null},{"server_id":300,"name":"Uncletopia | Montréal | 1 | All Maps","name_short":"mtl-1","host":"mtl-1.ca.uncletopia.com","port":27015,"enabled":true,"region":"us-east","cc":"ca","latitude":45.50889,"longitude":-73.56167,"reserved":0,"last_update":"0001-01-01T00:00:00Z","name_a2s":"Uncletopia | Montréal | 1 | All Maps","protocol":17,"map":"pl_snowycoast","folder":"tf","game":"Team Fortress","app_id":440,"player_count":0,"max_players":24,"Bots":0,"server_type":"Dedicated","server_os":"Linux","password":true,"vac":true,"version":"7742253","steam_id":85568392924500087,"keywords":["nocrits","nodmgspread","payload","uncletopia"],"game_id":440,"stv_port":27016,"stv_name":"Uncletopia | Montréal | 1 | All Maps | STV","players":null},{"server_id":301,"name":"Uncletopia | Montréal | 2 | All Maps","name_short":"mtl-2","host":"mtl-1.ca.uncletopia.com","port":27025,"enabled":true,"region":"us-east","cc":"ca","latitude":45.50889,"longitude":-73.56167,"reserved":0,"last_update":"0001-01-01T00:00:00Z","name_a2s":"Uncletopia | Montréal | 2 | All Maps","protocol":17,"map":"koth_highpass","folder":"tf","game":"Team Fortress","app_id":440,"player_count":1,"max_players":24,"Bots":0,"server_type":"Dedicated","server_os":"Linux","password":true,"vac":true,"version":"7742253","steam_id":85568392924500088,"keywords":["cp","nocrits","nodmgspread","uncletopia"],"game_id":440,"stv_port":27026,"stv_name":"Uncletopia | Montréal | 2 | All Maps | STV","players":[{"user_id":5,"name":"Cafe","steam_id":76561199384738606,"connected_time":239000000000,"state":"active","ping":43}]},{"server_id":302,"name":"Uncletopia | Montréal | 3 | All Maps","name_short":"mtl-3","host":"mtl-1.ca.uncletopia.com","port":27035,"enabled":true,"region":"us-east","cc":"ca","latitude":45.50889,"longitude":-73.56167,"reserved":0,"last_update":"0001-01-01T00:00:00Z","name_a2s":"Uncletopia | Montréal | 3 | All Maps","protocol":17,"map":"pl_frontier_final","folder":"tf","game":"Team Fortress","app_id":440,"player_count":22,"max_players":24,"Bots":0,"server_type":"Dedicated","server_os":"Linux","password":true,"vac":true,"version":"7742253","steam_id":85568392924500089,"keywords":["nocrits","nodmgspread","payload","uncletopia"],"game_id":440,"stv_port":27036,"stv_name":"Uncletopia | Montréal | 3 | All Maps | STV","players":[{"user_id":49,"name":"Captain Nathaniel J. Claw","steam_id":76561198020584106,"connected_time":135000000000,"state":"active","ping":40},{"user_id":54,"name":"Layona","steam_id":76561198000308063,"connected_time":37000000000,"state":"active","ping":53},{"user_id":28,"name":"Lichy","steam_id":76561198310682841,"connected_time":937000000000,"state":"active","ping":45},{"user_id":46,"name":"Quansen","steam_id":76561198151594550,"connected_time":473000000000,"state":"active","ping":45},{"user_id":42,"name":"Birdo Plush","steam_id":76561198018954622,"connected_time":525000000000,"state":"active","ping":118},{"user_id":26,"name":"Porsche 986 BoxsterS 3.2L F6","steam_id":76561198324326065,"connected_time":1346000000000,"state":"active","ping":45},{"user_id":16,"name":"Izu","steam_id":76561199258583157,"connected_time":2573000000000,"state":"active","ping":123},{"user_id":17,"name":"Nen","steam_id":76561198047225597,"connected_time":2537000000000,"state":"active","ping":79},{"user_id":18,"name":"mouse police","steam_id":76561198055855534,"connected_time":2457000000000,"state":"active","ping":61},{"user_id":21,"name":"burial","steam_id":76561198069431694,"connected_time":1998000000000,"state":"active","ping":66},{"user_id":50,"name":"EyeofSol","steam_id":76561198066423064,"connected_time":119000000000,"state":"active","ping":117},{"user_id":27,"name":"TheSmolPopato","steam_id":76561199076606348,"connected_time":1056000000000,"state":"active","ping":70},{"user_id":35,"name":"Dr. FlimFlam","steam_id":76561198049212986,"connected_time":607000000000,"state":"active","ping":126},{"user_id":34,"name":"kramer","steam_id":76561198117761965,"connected_time":632000000000,"state":"active","ping":43},{"user_id":31,"name":"who ate the cheese","steam_id":76561198275408467,"connected_time":801000000000,"state":"active","ping":59},{"user_id":40,"name":"sp123","steam_id":76561198082337619,"connected_time":550000000000,"state":"active","ping":51},{"user_id":37,"name":"tomboytysen","steam_id":76561198149641643,"connected_time":596000000000,"state":"active","ping":65},{"user_id":41,"name":"Big_John.exe","steam_id":76561198149587627,"connected_time":545000000000,"state":"active","ping":95},{"user_id":51,"name":"Detective Parks","steam_id":76561198153415500,"connected_time":106000000000,"state":"active","ping":79},{"user_id":44,"name":"Yvhv","steam_id":76561198838344752,"connected_time":501000000000,"state":"active","ping":110},{"user_id":52,"name":"High Quality Ice","steam_id":76561198969178047,"connected_time":96000000000,"state":"active","ping":45},{"user_id":48,"name":"Big Dragon, Thick Wagon","steam_id":76561198040425096,"connected_time":420000000000,"state":"active","ping":71}]},{"server_id":303,"name":"Uncletopia | Montréal | 4 | No Payload","name_short":"mtl-4","host":"mtl-1.ca.uncletopia.com","port":27045,"enabled":true,"region":"us-east","cc":"ca","latitude":45.50889,"longitude":-73.56167,"reserved":0,"last_update":"0001-01-01T00:00:00Z","name_a2s":"Uncletopia | Montréal | 4 | No Payload","protocol":17,"map":"koth_nucleus","folder":"tf","game":"Team Fortress","app_id":440,"player_count":0,"max_players":24,"Bots":0,"server_type":"Dedicated","server_os":"Linux","password":true,"vac":true,"version":"7742253","steam_id":85568392924500090,"keywords":["cp","nocrits","nodmgspread","uncletopia"],"game_id":440,"stv_port":27046,"stv_name":"Uncletopia | Montréal | 4 | No Payload | STV","players":null},{"server_id":13,"name":"Uncletopia | New York City | 1 | All Maps","name_short":"nyc-1","host":"nyc-1.us.uncletopia.com","port":27015,"enabled":true,"region":"us-east","cc":"us","latitude":40.73061,"longitude":-73.93524,"reserved":0,"last_update":"0001-01-01T00:00:00Z","name_a2s":"Uncletopia | New York City | 1 | All Maps","protocol":17,"map":"koth_highpass","folder":"tf","game":"Team Fortress","app_id":440,"player_count":0,"max_players":24,"Bots":0,"server_type":"Dedicated","server_os":"Linux","password":true,"vac":true,"version":"7742253","steam_id":85568392924469993,"keywords":["cp","nocrits","nodmgspread","uncletopia"],"game_id":440,"stv_port":27016,"stv_name":"Uncletopia | New York City | 1 | All Maps | STV","players":null},{"server_id":14,"name":"Uncletopia | New York City | 2 | All Maps","name_short":"nyc-2","host":"nyc-1.us.uncletopia.com","port":27025,"enabled":true,"region":"us-east","cc":"us","latitude":40.73061,"longitude":-73.93524,"reserved":0,"last_update":"0001-01-01T00:00:00Z","name_a2s":"Uncletopia | New York City | 2 | All Maps","protocol":17,"map":"pl_pier","folder":"tf","game":"Team Fortress","app_id":440,"player_count":24,"max_players":24,"Bots":0,"server_type":"Dedicated","server_os":"Linux","password":true,"vac":true,"version":"7742253","steam_id":85568392924469994,"keywords":["nocrits","nodmgspread","payload","uncletopia"],"game_id":440,"stv_port":27026,"stv_name":"Uncletopia | New York City | 2 | All Maps | STV","players":[{"user_id":721,"name":"Lucy","steam_id":76561198424603937,"connected_time":379000000000,"state":"active","ping":47},{"user_id":688,"name":"weedcat","steam_id":76561198346054736,"connected_time":2526000000000,"state":"active","ping":61},{"user_id":720,"name":"TransInclusiveRadicalMisogynist","steam_id":76561198165208572,"connected_time":534000000000,"state":"active","ping":64},{"user_id":722,"name":"t.tv/FamilyGuyFunnyMoments277","steam_id":76561198416047580,"connected_time":333000000000,"state":"active","ping":77},{"user_id":654,"name":"cyan","steam_id":76561198019387213,"connected_time":4887000000000,"state":"active","ping":65},{"user_id":728,"name":"spice","steam_id":76561198138467891,"connected_time":234000000000,"state":"active","ping":105},{"user_id":723,"name":"The Pill","steam_id":76561198164782423,"connected_time":331000000000,"state":"active","ping":57},{"user_id":713,"name":"ndvr","steam_id":76561199379200102,"connected_time":768000000000,"state":"active","ping":49},{"user_id":639,"name":"Red_Hatkins","steam_id":76561198214004105,"connected_time":5885000000000,"state":"active","ping":75},{"user_id":714,"name":"hashmap","steam_id":76561198043794014,"connected_time":750000000000,"state":"active","ping":61},{"user_id":663,"name":"RokkitFrog","steam_id":76561198046465850,"connected_time":4176000000000,"state":"active","ping":95},{"user_id":707,"name":"Chicken but","steam_id":76561198257872736,"connected_time":897000000000,"state":"active","ping":45},{"user_id":724,"name":"BeanBandito","steam_id":76561198147970778,"connected_time":322000000000,"state":"active","ping":55},{"user_id":725,"name":"Space.","steam_id":76561198296557521,"connected_time":298000000000,"state":"active","ping":62},{"user_id":726,"name":"Horrizan","steam_id":76561197965028480,"connected_time":289000000000,"state":"active","ping":85},{"user_id":727,"name":"EmeraldCola","steam_id":76561198066663687,"connected_time":283000000000,"state":"active","ping":59},{"user_id":729,"name":"Gooey Gaped Grannys","steam_id":76561198089731303,"connected_time":210000000000,"state":"active","ping":53},{"user_id":695,"name":"Eduardo","steam_id":76561198236519984,"connected_time":2290000000000,"state":"active","ping":99},{"user_id":664,"name":"Professor Sin","steam_id":76561198079288027,"connected_time":4168000000000,"state":"active","ping":60},{"user_id":649,"name":"Bee_Pirate","steam_id":76561199000599111,"connected_time":5437000000000,"state":"active","ping":59},{"user_id":711,"name":"hoots","steam_id":76561198015609525,"connected_time":864000000000,"state":"active","ping":48},{"user_id":698,"name":"Defiant Statement.","steam_id":76561199101373436,"connected_time":2207000000000,"state":"active","ping":71},{"user_id":622,"name":"8hu","steam_id":76561198095415292,"connected_time":7554000000000,"state":"active","ping":51},{"user_id":712,"name":"ZenkoZSprite","steam_id":76561198190132250,"connected_time":864000000000,"state":"active","ping":65}]},{"server_id":15,"name":"Uncletopia | New York City | 3 | Stopwatch Beta","name_short":"nyc-3","host":"nyc-1.us.uncletopia.com","port":27035,"enabled":true,"region":"us-east","cc":"us","latitude":40.73061,"longitude":-73.93524,"reserved":0,"last_update":"0001-01-01T00:00:00Z","name_a2s":"Uncletopia | New York City | 3 | Stopwatch Beta","protocol":17,"map":"workshop/pl_vigil_rc9.ugc1266210012","folder":"tf","game":"Team Fortress","app_id":440,"player_count":0,"max_players":24,"Bots":0,"server_type":"Dedicated","server_os":"Linux","password":true,"vac":true,"version":"7742253","steam_id":85568392924742820,"keywords":["nocrits","nodmgspread","payload","uncletopia"],"game_id":440,"stv_port":27036,"stv_name":"Uncletopia | New York City | 3 | Stopwatch Beta | STV","players":null},{"server_id":16,"name":"Uncletopia | New York City | 4 | Community","name_short":"nyc-4","host":"nyc-1.us.uncletopia.com","port":27045,"enabled":true,"region":"us-east","cc":"us","latitude":40.73061,"longitude":-73.93524,"reserved":0,"last_update":"0001-01-01T00:00:00Z","name_a2s":"Uncletopia | New York City | 4 | Community","protocol":17,"map":"workshop/koth_synthetic_rc6a.ugc1549817316","folder":"tf","game":"Team Fortress","app_id":440,"player_count":0,"max_players":24,"Bots":0,"server_type":"Dedicated","server_os":"Linux","password":true,"vac":true,"version":"7742253","steam_id":85568392924742821,"keywords":["cp","nocrits","nodmgspread","uncletopia"],"game_id":440,"stv_port":27046,"stv_name":"Uncletopia | New York City | 4 | Community | STV","players":null},{"server_id":142,"name":"Uncletopia | São Paulo | 1 | All Maps","name_short":"sao-1","host":"sao-1.br.uncletopia.com","port":27015,"enabled":true,"region":"sa","cc":"br","latitude":-23.533773,"longitude":-46.62529,"reserved":0,"last_update":"0001-01-01T00:00:00Z","name_a2s":"Uncletopia | São Paulo | 1 | All Maps","protocol":17,"map":"koth_lakeside_final","folder":"tf","game":"Team Fortress","app_id":440,"player_count":2,"max_players":24,"Bots":0,"server_type":"Dedicated","server_os":"Linux","password":true,"vac":true,"version":"7742253","steam_id":85568392924469996,"keywords":["cp","nocrits","nodmgspread","uncletopia"],"game_id":440,"stv_port":27016,"stv_name":"Uncletopia | São Paulo | 1 | All Maps | STV","players":[{"user_id":115,"name":"DogePlayer","steam_id":76561198304552173,"connected_time":186000000000,"state":"active","ping":73},{"user_id":116,"name":"Gerente","steam_id":76561198190567717,"connected_time":172000000000,"state":"active","ping":56}]},{"server_id":143,"name":"Uncletopia | São Paulo | 2 | All Maps","name_short":"sao-2","host":"sao-2.br.uncletopia.com","port":27015,"enabled":true,"region":"sa","cc":"br","latitude":-23.533773,"longitude":-46.62529,"reserved":0,"last_update":"0001-01-01T00:00:00Z","name_a2s":"Uncletopia | São Paulo | 2 | All Maps","protocol":17,"map":"pl_barnblitz","folder":"tf","game":"Team Fortress","app_id":440,"player_count":0,"max_players":24,"Bots":0,"server_type":"Dedicated","server_os":"Linux","password":true,"vac":true,"version":"7742253","steam_id":85568392924485349,"keywords":["nocrits","nodmgspread","payload","uncletopia"],"game_id":440,"stv_port":27016,"stv_name":"Uncletopia | São Paulo | 2 | All Maps | STV","players":null},{"server_id":7,"name":"Uncletopia | Seattle | 1 | All Maps","name_short":"sea-1","host":"sea-1.us.uncletopia.com","port":27015,"enabled":true,"region":"us-west","cc":"us","latitude":47.608013,"longitude":-122.33517,"reserved":0,"last_update":"0001-01-01T00:00:00Z","name_a2s":"Uncletopia | Seattle | 1 | All Maps","protocol":17,"map":"pl_pier","folder":"tf","game":"Team Fortress","app_id":440,"player_count":24,"max_players":24,"Bots":0,"server_type":"Dedicated","server_os":"Linux","password":true,"vac":true,"version":"7742253","steam_id":85568392924469997,"keywords":["nocrits","nodmgspread","payload","uncletopia"],"game_id":440,"stv_port":27016,"stv_name":"Uncletopia | Seattle | 1 | All Maps | STV","players":[{"user_id":681,"name":"Attrition","steam_id":76561197969881916,"connected_time":2329000000000,"state":"active","ping":56},{"user_id":682,"name":"Common","steam_id":76561198041083863,"connected_time":2286000000000,"state":"active","ping":59},{"user_id":699,"name":"Wafflemuscle","steam_id":76561198868628982,"connected_time":439000000000,"state":"active","ping":46},{"user_id":703,"name":"BONG THREAT","steam_id":76561197988234127,"connected_time":43000000000,"state":"active","ping":37},{"user_id":675,"name":"WannaSeeA","steam_id":76561198097701042,"connected_time":2790000000000,"state":"active","ping":100},{"user_id":671,"name":"Mignyanne :3","steam_id":76561198048754056,"connected_time":3071000000000,"state":"active","ping":68},{"user_id":680,"name":"[DATS➡] Sugar Meowth","steam_id":76561197995251793,"connected_time":2443000000000,"state":"active","ping":45},{"user_id":631,"name":"rat gets the cheese","steam_id":76561198031234032,"connected_time":7505000000000,"state":"active","ping":101},{"user_id":690,"name":"float","steam_id":76561198363371528,"connected_time":1724000000000,"state":"active","ping":54},{"user_id":660,"name":"Kirbothebrony","steam_id":76561198971911330,"connected_time":5015000000000,"state":"active","ping":115},{"user_id":702,"name":"demoman","steam_id":76561199389584938,"connected_time":353000000000,"state":"active","ping":38},{"user_id":688,"name":"KingTinkerer","steam_id":76561198226856548,"connected_time":1968000000000,"state":"active","ping":70},{"user_id":661,"name":"Anor","steam_id":76561198356139775,"connected_time":4839000000000,"state":"active","ping":79},{"user_id":695,"name":"Fred","steam_id":76561197983870604,"connected_time":952000000000,"state":"active","ping":87},{"user_id":693,"name":"penguinlord30","steam_id":76561198437116566,"connected_time":991000000000,"state":"active","ping":53},{"user_id":685,"name":"jungus","steam_id":76561198129862008,"connected_time":2186000000000,"state":"active","ping":83},{"user_id":676,"name":"far1ne","steam_id":76561198418853168,"connected_time":2765000000000,"state":"active","ping":112},{"user_id":632,"name":"ORANGE","steam_id":76561198000401769,"connected_time":7476000000000,"state":"active","ping":57},{"user_id":636,"name":"WalkinMan","steam_id":76561198047941142,"connected_time":7085000000000,"state":"active","ping":56},{"user_id":686,"name":"Hankenstein","steam_id":76561199036188069,"connected_time":2151000000000,"state":"active","ping":52},{"user_id":691,"name":"[TrC] Dackstrus","steam_id":76561197973518509,"connected_time":1009000000000,"state":"active","ping":64},{"user_id":689,"name":"trackpad gaming | f2p","steam_id":76561198840414371,"connected_time":1757000000000,"state":"active","ping":205},{"user_id":698,"name":"HAT-WEARING™ Maggot Gamer Cat","steam_id":76561197973992705,"connected_time":559000000000,"state":"active","ping":79},{"user_id":694,"name":"p9 thunderous prophet","steam_id":76561198131166135,"connected_time":990000000000,"state":"active","ping":44}]},{"server_id":119,"name":"Uncletopia | Seattle | 2 | All Maps","name_short":"sea-2","host":"sea-1.us.uncletopia.com","port":27025,"enabled":true,"region":"us-west","cc":"us","latitude":47.608013,"longitude":-122.33517,"reserved":0,"last_update":"0001-01-01T00:00:00Z","name_a2s":"Uncletopia | Seattle | 2 | All Maps","protocol":17,"map":"pl_snowycoast","folder":"tf","game":"Team Fortress","app_id":440,"player_count":24,"max_players":24,"Bots":0,"server_type":"Dedicated","server_os":"Linux","password":true,"vac":true,"version":"7742253","steam_id":85568392924469998,"keywords":["nocrits","nodmgspread","payload","uncletopia"],"game_id":440,"stv_port":27026,"stv_name":"Uncletopia | Seattle | 2 | All Maps | STV","players":[{"user_id":384,"name":"ZaniZ","steam_id":76561198161467000,"connected_time":4980000000000,"state":"active","ping":28},{"user_id":441,"name":"McNamJam","steam_id":76561198028128686,"connected_time":1800000000000,"state":"active","ping":64},{"user_id":450,"name":"DeadlyAnomalies","steam_id":76561198125818085,"connected_time":567000000000,"state":"active","ping":70},{"user_id":447,"name":"Pneumo.","steam_id":76561197987911883,"connected_time":1284000000000,"state":"active","ping":63},{"user_id":452,"name":"Sad Sapling","steam_id":76561198075612150,"connected_time":563000000000,"state":"active","ping":84},{"user_id":396,"name":"doomshroom","steam_id":76561198092827250,"connected_time":4182000000000,"state":"active","ping":56},{"user_id":455,"name":"Colonel Chikara","steam_id":76561198010021087,"connected_time":261000000000,"state":"active","ping":57},{"user_id":456,"name":"Uncle Ulysses","steam_id":76561198043929070,"connected_time":28000000000,"state":"active","ping":72},{"user_id":438,"name":"dont suck me i uber","steam_id":76561198281968441,"connected_time":2094000000000,"state":"active","ping":108},{"user_id":445,"name":"「Saint」","steam_id":76561198241943070,"connected_time":1600000000000,"state":"active","ping":120},{"user_id":440,"name":"oil","steam_id":76561198099980149,"connected_time":2018000000000,"state":"active","ping":75},{"user_id":421,"name":"la loveiathenne","steam_id":76561198046394237,"connected_time":3257000000000,"state":"active","ping":45},{"user_id":454,"name":"Cat Pog","steam_id":76561198304243946,"connected_time":546000000000,"state":"active","ping":86},{"user_id":449,"name":"ROGUE-PLANET","steam_id":76561198116023052,"connected_time":1003000000000,"state":"active","ping":74},{"user_id":433,"name":"Flume","steam_id":76561198801227132,"connected_time":2242000000000,"state":"active","ping":100},{"user_id":422,"name":"drako 100","steam_id":76561198048988484,"connected_time":3185000000000,"state":"active","ping":96},{"user_id":439,"name":"SomeGuyWhoLikesPotatoes","steam_id":76561198110276797,"connected_time":2083000000000,"state":"active","ping":53},{"user_id":435,"name":"Amphibian Gaming","steam_id":76561199173558915,"connected_time":2213000000000,"state":"active","ping":105},{"user_id":366,"name":"Len","steam_id":76561199141913673,"connected_time":6454000000000,"state":"active","ping":74},{"user_id":418,"name":"DennethThaThinather","steam_id":76561198098121768,"connected_time":3414000000000,"state":"active","ping":55},{"user_id":448,"name":"GUITAR GAMING!!!","steam_id":76561198199604767,"connected_time":1089000000000,"state":"active","ping":57},{"user_id":446,"name":"sora","steam_id":76561198094256973,"connected_time":1474000000000,"state":"active","ping":62},{"user_id":444,"name":"bad spy player","steam_id":76561198873699671,"connected_time":1774000000000,"state":"active","ping":46},{"user_id":451,"name":"es","steam_id":76561198006892337,"connected_time":567000000000,"state":"active","ping":68}]},{"server_id":406,"name":"Uncletopia | Seattle | 3 | Stopwatch Beta","name_short":"sea-3","host":"sea-1.us.uncletopia.com","port":27035,"enabled":true,"region":"us-west","cc":"us","latitude":47.608013,"longitude":-122.33517,"reserved":0,"last_update":"0001-01-01T00:00:00Z","name_a2s":"Uncletopia | Seattle | 3 | Stopwatch Beta","protocol":17,"map":"workshop/koth_bagel_rc5.ugc2514036946","folder":"tf","game":"Team Fortress","app_id":440,"player_count":16,"max_players":24,"Bots":0,"server_type":"Dedicated","server_os":"Linux","password":true,"vac":true,"version":"7742253","steam_id":85568392924515217,"keywords":["cp","nocrits","nodmgspread","uncletopia"],"game_id":440,"stv_port":27036,"stv_name":"Uncletopia | Seattle | 3 | Stopwatch Beta | STV","players":[{"user_id":104,"name":"Buckytr","steam_id":76561198096335025,"connected_time":499000000000,"state":"active","ping":51},{"user_id":111,"name":"Isopentyl Ethanoate","steam_id":76561198116389072,"connected_time":72000000000,"state":"active","ping":51},{"user_id":106,"name":"jacix3 [gay wolfgirl]{she/it}","steam_id":76561198205004165,"connected_time":268000000000,"state":"active","ping":62},{"user_id":107,"name":"horrible pocket medic","steam_id":76561198040415947,"connected_time":260000000000,"state":"active","ping":67},{"user_id":94,"name":"Eated Bees","steam_id":76561198352732164,"connected_time":1629000000000,"state":"active","ping":67},{"user_id":97,"name":"PirateJet","steam_id":76561198050858744,"connected_time":1439000000000,"state":"active","ping":75},{"user_id":109,"name":"Van","steam_id":76561198073518712,"connected_time":151000000000,"state":"active","ping":47},{"user_id":58,"name":"Vagrant","steam_id":76561198242536886,"connected_time":3271000000000,"state":"active","ping":63},{"user_id":59,"name":"Lonestar827","steam_id":76561198035533639,"connected_time":3193000000000,"state":"active","ping":50},{"user_id":110,"name":"Stop. Hammer Time!","steam_id":76561198353496921,"connected_time":135000000000,"state":"active","ping":105},{"user_id":78,"name":"Tal","steam_id":76561198109343975,"connected_time":2434000000000,"state":"active","ping":132},{"user_id":70,"name":"fey","steam_id":76561198119191002,"connected_time":2839000000000,"state":"active","ping":90},{"user_id":82,"name":"Dosario","steam_id":76561198298095535,"connected_time":2340000000000,"state":"active","ping":56},{"user_id":88,"name":"Feel the bern","steam_id":76561198078824519,"connected_time":2051000000000,"state":"active","ping":77},{"user_id":79,"name":"LAzar M0Nke","steam_id":76561199083035892,"connected_time":2427000000000,"state":"active","ping":65},{"user_id":89,"name":"Dauntless Duelist","steam_id":76561198025056018,"connected_time":2047000000000,"state":"active","ping":46}]},{"server_id":17,"name":"Uncletopia | San Francisco | 1 | All Maps","name_short":"sfo-1","host":"sfo-1.us.uncletopia.com","port":27015,"enabled":true,"region":"us-west","cc":"us","latitude":37.77397,"longitude":-122.4313,"reserved":0,"last_update":"0001-01-01T00:00:00Z","name_a2s":"Uncletopia | San Francisco | 1 | All Maps","protocol":17,"map":"koth_viaduct","folder":"tf","game":"Team Fortress","app_id":440,"player_count":0,"max_players":24,"Bots":0,"server_type":"Dedicated","server_os":"Linux","password":true,"vac":true,"version":"7742253","steam_id":85568392924469999,"keywords":["cp","nocrits","nodmgspread","uncletopia"],"game_id":440,"stv_port":27016,"stv_name":"Uncletopia | San Francisco | 1 | All Maps | STV","players":null},{"server_id":18,"name":"Uncletopia | San Francisco | 2 | All Maps","name_short":"sfo-2","host":"sfo-1.us.uncletopia.com","port":27025,"enabled":true,"region":"us-west","cc":"us","latitude":37.77397,"longitude":-122.4313,"reserved":0,"last_update":"0001-01-01T00:00:00Z","name_a2s":"Uncletopia | San Francisco | 2 | All Maps","protocol":17,"map":"koth_highpass","folder":"tf","game":"Team Fortress","app_id":440,"player_count":0,"max_players":24,"Bots":0,"server_type":"Dedicated","server_os":"Linux","password":true,"vac":true,"version":"7742253","steam_id":85568392924470000,"keywords":["cp","nocrits","nodmgspread","uncletopia"],"game_id":440,"stv_port":27026,"stv_name":"Uncletopia | San Francisco | 2 | All Maps | STV","players":null},{"server_id":19,"name":"Uncletopia | San Francisco | 3 | Stopwatch Beta","name_short":"sfo-3","host":"sfo-1.us.uncletopia.com","port":27035,"enabled":true,"region":"us-west","cc":"us","latitude":37.77397,"longitude":-122.4313,"reserved":0,"last_update":"0001-01-01T00:00:00Z","name_a2s":"Uncletopia | San Francisco | 3 | Stopwatch Beta","protocol":17,"map":"workshop/pl_vigil_rc9.ugc1266210012","folder":"tf","game":"Team Fortress","app_id":440,"player_count":0,"max_players":24,"Bots":0,"server_type":"Dedicated","server_os":"Linux","password":true,"vac":true,"version":"7742253","steam_id":85568392924742824,"keywords":["nocrits","nodmgspread","payload","uncletopia"],"game_id":440,"stv_port":27036,"stv_name":"Uncletopia | San Francisco | 3 | Stopwatch Beta | STV","players":null},{"server_id":20,"name":"Uncletopia | San Francisco | 4 | Community","name_short":"sfo-4","host":"sfo-1.us.uncletopia.com","port":27045,"enabled":true,"region":"us-west","cc":"us","latitude":37.77397,"longitude":-122.4313,"reserved":0,"last_update":"0001-01-01T00:00:00Z","name_a2s":"Uncletopia | San Francisco | 4 | Community","protocol":17,"map":"workshop/koth_ashville_final.ugc2130459942","folder":"tf","game":"Team Fortress","app_id":440,"player_count":0,"max_players":24,"Bots":0,"server_type":"Dedicated","server_os":"Linux","password":true,"vac":true,"version":"7742253","steam_id":85568392924742826,"keywords":["cp","nocrits","nodmgspread","uncletopia"],"game_id":440,"stv_port":27046,"stv_name":"Uncletopia | San Francisco | 4 | Community | STV","players":null},{"server_id":141,"name":"Uncletopia | Sydney | 1 | All Maps","name_short":"syd-1","host":"syd-1.au.uncletopia.com","port":27015,"enabled":true,"region":"au","cc":"au","latitude":-33.865143,"longitude":151.2099,"reserved":0,"last_update":"0001-01-01T00:00:00Z","name_a2s":"Uncletopia | Sydney | 1 | All Maps","protocol":17,"map":"koth_cascade","folder":"tf","game":"Team Fortress","app_id":440,"player_count":7,"max_players":24,"Bots":0,"server_type":"Dedicated","server_os":"Linux","password":true,"vac":true,"version":"7742253","steam_id":85568392924470001,"keywords":["cp","nocrits","nodmgspread","uncletopia"],"game_id":440,"stv_port":27016,"stv_name":"Uncletopia | Sydney | 1 | All Maps | STV","players":[{"user_id":59,"name":"Soulless","steam_id":76561198841481971,"connected_time":1115000000000,"state":"active","ping":64},{"user_id":60,"name":"Civilisedwookie","steam_id":76561198090570232,"connected_time":1104000000000,"state":"active","ping":68},{"user_id":61,"name":"Fox-in-Boxes","steam_id":76561198211727428,"connected_time":1082000000000,"state":"active","ping":65},{"user_id":63,"name":"DankBlazerXD","steam_id":76561198225785720,"connected_time":806000000000,"state":"active","ping":61},{"user_id":64,"name":"wheresmycheese YT","steam_id":76561199107211696,"connected_time":557000000000,"state":"active","ping":58},{"user_id":65,"name":"Meme Aids","steam_id":76561198847593053,"connected_time":160000000000,"state":"active","ping":49},{"user_id":66,"name":"uncle demo man","steam_id":76561198068132925,"connected_time":69000000000,"state":"active","ping":45}]},{"server_id":123,"name":"Uncletopia | Sydney | 2 | All Maps","name_short":"syd-2","host":"syd-1.au.uncletopia.com","port":27025,"enabled":true,"region":"au","cc":"au","latitude":-33.865143,"longitude":151.2099,"reserved":0,"last_update":"0001-01-01T00:00:00Z","name_a2s":"Uncletopia | Sydney | 2 | All Maps","protocol":17,"map":"cp_sunshine","folder":"tf","game":"Team Fortress","app_id":440,"player_count":20,"max_players":24,"Bots":0,"server_type":"Dedicated","server_os":"Linux","password":true,"vac":true,"version":"7742253","steam_id":85568392924470002,"keywords":["cp","nocrits","nodmgspread","uncletopia"],"game_id":440,"stv_port":27026,"stv_name":"Uncletopia | Sydney | 2 | All Maps | STV","players":[{"user_id":306,"name":"zebulon","steam_id":76561198063481761,"connected_time":3703000000000,"state":"active","ping":44},{"user_id":358,"name":"name","steam_id":76561198861979482,"connected_time":464000000000,"state":"active","ping":51},{"user_id":336,"name":"A lizard","steam_id":76561198301643498,"connected_time":1900000000000,"state":"active","ping":58},{"user_id":359,"name":"Mighty","steam_id":76561198067411732,"connected_time":221000000000,"state":"active","ping":55},{"user_id":363,"name":"slashoslash","steam_id":76561198050762879,"connected_time":95000000000,"state":"active","ping":47},{"user_id":313,"name":"york","steam_id":76561197996817216,"connected_time":3424000000000,"state":"active","ping":45},{"user_id":250,"name":"LeoJoeD","steam_id":76561198161848749,"connected_time":7537000000000,"state":"active","ping":45},{"user_id":357,"name":"Pomegranate","steam_id":76561198132392514,"connected_time":619000000000,"state":"active","ping":88},{"user_id":354,"name":"ุbifcheg","steam_id":76561198319806610,"connected_time":945000000000,"state":"active","ping":63},{"user_id":338,"name":"spy","steam_id":76561199448765541,"connected_time":1678000000000,"state":"active","ping":62},{"user_id":342,"name":"cibo","steam_id":76561198798929932,"connected_time":1519000000000,"state":"active","ping":64},{"user_id":365,"name":"Klaus","steam_id":76561198168746786,"connected_time":11000000000,"state":"spawning","ping":95},{"user_id":329,"name":"CalcoGuy","steam_id":76561198059602670,"connected_time":2307000000000,"state":"active","ping":53},{"user_id":331,"name":"las","steam_id":76561198039162155,"connected_time":2283000000000,"state":"active","ping":60},{"user_id":321,"name":"Wake'n'Bake'n'Make'n'Bacon","steam_id":76561198061960926,"connected_time":2825000000000,"state":"active","ping":91},{"user_id":345,"name":"Eddie","steam_id":76561198081031350,"connected_time":1410000000000,"state":"active","ping":46},{"user_id":362,"name":"Divorced Gaming","steam_id":76561198914415738,"connected_time":122000000000,"state":"active","ping":53},{"user_id":364,"name":"Hippity_Hoppity","steam_id":76561198861050395,"connected_time":28000000000,"state":"active","ping":79},{"user_id":356,"name":"Pecktime","steam_id":76561198044675324,"connected_time":819000000000,"state":"active","ping":72},{"user_id":350,"name":"Sexy Turtle","steam_id":76561198256865969,"connected_time":1128000000000,"state":"active","ping":45}]},{"server_id":395,"name":"Uncletopia | Sydney | 3 | All Maps","name_short":"syd-3","host":"syd-1.au.uncletopia.com","port":27035,"enabled":true,"region":"au","cc":"au","latitude":-33.865143,"longitude":151.2099,"reserved":0,"last_update":"0001-01-01T00:00:00Z","name_a2s":"Uncletopia | Sydney | 3 | All Maps","protocol":17,"map":"koth_viaduct","folder":"tf","game":"Team Fortress","app_id":440,"player_count":0,"max_players":24,"Bots":0,"server_type":"Dedicated","server_os":"Linux","password":true,"vac":true,"version":"7742253","steam_id":85568392925194467,"keywords":["cp","nocrits","nodmgspread","uncletopia"],"game_id":440,"stv_port":27036,"stv_name":"Uncletopia | Sydney | 3 | All Maps | STV","players":null},{"server_id":396,"name":"Uncletopia | Sydney | 4 | All Maps","name_short":"syd-4","host":"syd-1.au.uncletopia.com","port":27045,"enabled":true,"region":"au","cc":"au","latitude":-33.865143,"longitude":151.2099,"reserved":0,"last_update":"0001-01-01T00:00:00Z","name_a2s":"Uncletopia | Sydney | 4 | All Maps","protocol":17,"map":"cp_mountainlab","folder":"tf","game":"Team Fortress","app_id":440,"player_count":0,"max_players":24,"Bots":0,"server_type":"Dedicated","server_os":"Linux","password":true,"vac":true,"version":"7742253","steam_id":85568392925397958,"keywords":["cp","nocrits","nodmgspread","uncletopia"],"game_id":440,"stv_port":27046,"stv_name":"Uncletopia | Sydney | 4 | All Maps | STV","players":null},{"server_id":58,"name":"Uncletopia | Sydney | 5 | Stopwatch Beta","name_short":"syd-5","host":"syd-1.au.uncletopia.com","port":27055,"enabled":true,"region":"au","cc":"au","latitude":-33.865143,"longitude":151.2099,"reserved":0,"last_update":"0001-01-01T00:00:00Z","name_a2s":"Uncletopia | Sydney | 5 | Stopwatch Beta","protocol":17,"map":"workshop/cp_process_f11.ugc2302948105","folder":"tf","game":"Team Fortress","app_id":440,"player_count":0,"max_players":24,"Bots":0,"server_type":"Dedicated","server_os":"Linux","password":true,"vac":true,"version":"7742253","steam_id":85568392925397959,"keywords":["cp","nocrits","nodmgspread","uncletopia"],"game_id":440,"stv_port":27056,"stv_name":"Uncletopia | Sydney | 5 | Stopwatch Beta | STV","players":null},{"server_id":59,"name":"Uncletopia | Sydney | 6 | Community","name_short":"syd-6","host":"syd-1.au.uncletopia.com","port":27065,"enabled":true,"region":"au","cc":"au","latitude":-33.865143,"longitude":151.2099,"reserved":0,"last_update":"0001-01-01T00:00:00Z","name_a2s":"Uncletopia | Sydney | 6 | Community","protocol":17,"map":"cp_dustbowl","folder":"tf","game":"Team Fortress","app_id":440,"player_count":0,"max_players":24,"Bots":0,"server_type":"Dedicated","server_os":"Linux","password":true,"vac":true,"version":"7742253","steam_id":85568392925397960,"keywords":["cp","nocrits","nodmgspread","uncletopia"],"game_id":440,"stv_port":27066,"stv_name":"Uncletopia | Sydney | 6 | Community | STV","players":null},{"server_id":49,"name":"Uncletopia | Warsaw | 1 | All Maps","name_short":"waw-1","host":"waw-1.pl.uncletopia.com","port":27015,"enabled":true,"region":"eu","cc":"pl","latitude":52.2297,"longitude":21.017532,"reserved":0,"last_update":"0001-01-01T00:00:00Z","name_a2s":"","protocol":0,"map":"","folder":"","game":"","app_id":0,"player_count":0,"max_players":0,"Bots":0,"server_type":"","server_os":"","password":false,"vac":false,"version":"","steam_id":0,"keywords":null,"game_id":0,"stv_port":0,"stv_name":"","players":null},{"server_id":50,"name":"Uncletopia | Warsaw | 2 | All Maps","name_short":"waw-2","host":"waw-1.pl.uncletopia.com","port":27025,"enabled":true,"region":"eu","cc":"pl","latitude":52.2297,"longitude":21.017532,"reserved":0,"last_update":"0001-01-01T00:00:00Z","name_a2s":"Uncletopia | Warsaw | 2 | All Maps","protocol":17,"map":"koth_highpass","folder":"tf","game":"Team Fortress","app_id":440,"player_count":0,"max_players":24,"Bots":0,"server_type":"Dedicated","server_os":"Linux","password":true,"vac":true,"version":"7742253","steam_id":85568392925397851,"keywords":["cp","nocrits","nodmgspread","uncletopia"],"game_id":440,"stv_port":27026,"stv_name":"Uncletopia | Warsaw | 2 | All Maps | STV","players":null},{"server_id":51,"name":"Uncletopia | Warsaw | 3 | All Maps","name_short":"waw-3","host":"waw-1.pl.uncletopia.com","port":27035,"enabled":true,"region":"eu","cc":"pl","latitude":52.2297,"longitude":21.017532,"reserved":0,"last_update":"0001-01-01T00:00:00Z","name_a2s":"Uncletopia | Warsaw | 3 | All Maps","protocol":17,"map":"cp_snakewater_final1","folder":"tf","game":"Team Fortress","app_id":440,"player_count":0,"max_players":24,"Bots":0,"server_type":"Dedicated","server_os":"Linux","password":true,"vac":true,"version":"7742253","steam_id":85568392925397852,"keywords":["cp","nocrits","nodmgspread","uncletopia"],"game_id":440,"stv_port":27036,"stv_name":"Uncletopia | Warsaw | 3 | All Maps | STV","players":null},{"server_id":52,"name":"Uncletopia | Warsaw | 4 | All Maps","name_short":"waw-4","host":"waw-1.pl.uncletopia.com","port":27045,"enabled":true,"region":"eu","cc":"pl","latitude":52.2297,"longitude":21.017532,"reserved":0,"last_update":"0001-01-01T00:00:00Z","name_a2s":"Uncletopia | Warsaw | 4 | All Maps","protocol":17,"map":"koth_highpass","folder":"tf","game":"Team Fortress","app_id":440,"player_count":0,"max_players":24,"Bots":0,"server_type":"Dedicated","server_os":"Linux","password":true,"vac":true,"version":"7742253","steam_id":85568392925397853,"keywords":["cp","nocrits","nodmgspread","uncletopia"],"game_id":440,"stv_port":27046,"stv_name":"Uncletopia | Warsaw | 4 | All Maps | STV","players":null},{"server_id":53,"name":"Uncletopia | Warsaw | 5 | Stopwatch Beta","name_short":"waw-5","host":"waw-1.pl.uncletopia.com","port":27055,"enabled":true,"region":"eu","cc":"pl","latitude":52.2297,"longitude":21.017532,"reserved":0,"last_update":"0001-01-01T00:00:00Z","name_a2s":"Uncletopia | Warsaw | 5 | Stopwatch Beta","protocol":17,"map":"pl_swiftwater_final1","folder":"tf","game":"Team Fortress","app_id":440,"player_count":0,"max_players":24,"Bots":0,"server_type":"Dedicated","server_os":"Linux","password":true,"vac":true,"version":"7742253","steam_id":85568392925397854,"keywords":["nocrits","nodmgspread","payload","uncletopia"],"game_id":440,"stv_port":27056,"stv_name":"Uncletopia | Warsaw | 5 | Stopwatch Beta | STV","players":null},{"server_id":54,"name":"Uncletopia | Warsaw | 6 | Community","name_short":"waw-6","host":"waw-1.pl.uncletopia.com","port":27065,"enabled":true,"region":"eu","cc":"pl","latitude":52.2297,"longitude":21.017532,"reserved":0,"last_update":"0001-01-01T00:00:00Z","name_a2s":"Uncletopia | Warsaw | 6 | Community","protocol":17,"map":"workshop/koth_bagel_rc5.ugc2514036946","folder":"tf","game":"Team Fortress","app_id":440,"player_count":0,"max_players":24,"Bots":0,"server_type":"Dedicated","server_os":"Linux","password":true,"vac":true,"version":"7742253","steam_id":85568392925397856,"keywords":["cp","nocrits","nodmgspread","uncletopia"],"game_id":440,"stv_port":27066,"stv_name":"Uncletopia | Warsaw | 6 | Community | STV","players":null}]}