{"status":true,"message":"","result":[{"server_id":9,"name":"Uncletopia | Atlanta | 1 | All Maps","name_short":"atl-1","host":"atl-1.us.uncletopia.com","port":27015,"enabled":true,"region":"us-east","cc":"us","latitude":33.753746,"longitude":-84.38633,"reserved":0,"last_update":"0001-01-01T00:00:00Z","name_a2s":"Uncletopia | Atlanta | 1 | All Maps","protocol":17,"map":"cp_steel","folder":"tf","game":"Team Fortress","app_id":440,"player_count":24,"max_players":24,"Bots":0,"server_type":"Dedicated","server_os":"Linux","password":true,"vac":true,"version":"7961495","steam_id":85568392924469982,"keywords":["cp","nocrits","nodmgspread","uncletopia"],"game_id":440,"stv_port":27016,"stv_name":"Uncletopia | Atlanta | 1 | All Maps | STV","players":null},{"server_id":104,"name":"Uncletopia | Atlanta | 2 | All Maps","name_short":"atl-2","host":"atl-1.us.uncletopia.com","port":27025,"enabled":true,"region":"us-east","cc":"us","latitude":33.753746,"longitude":-84.38633,"reserved":0,"last_update":"0001-01-01T00:00:00Z","name_a2s":"Uncletopia | Atlanta | 2 | All Maps","protocol":17,"map":"cp_sunshine","folder":"tf","game":"Team Fortress","app_id":440,"player_count":22,"max_players":24,"Bots":0,"server_type":"Dedicated","server_os":"Linux","password":true,"vac":true,"version":"7961495","steam_id":85568392924469983,"keywords":["cp","nocrits","nodmgspread","uncletopia"],"game_id":440,"stv_port":27026,"stv_name":"Uncletopia | Atlanta | 2 | All Maps | STV","players":null},{"server_id":400,"name":"Uncletopia | Atlanta | 3 | All Maps","name_short":"atl-3","host":"atl-1.us.uncletopia.com","port":27035,"enabled":true,"region":"us-east","cc":"us","latitude":33.753746,"longitude":-84.38633,"reserved":0,"last_update":"0001-01-01T00:00:00Z","name_a2s":"Uncletopia | Atlanta | 3 | All Maps","protocol":17,"map":"koth_lakeside_final","folder":"tf","game":"Team Fortress","app_id":440,"player_count":0,"max_players":24,"Bots":0,"server_type":"Dedicated","server_os":"Linux","password":true,"vac":true,"version":"7961495","steam_id":85568392924515187,"keywords":["cp","nocrits","nodmgspread","uncletopia"],"game_id":440,"stv_port":27036,"stv_name":"Uncletopia | Atlanta | 3 | All Maps | STV","players":null},{"server_id":401,"name":"Uncletopia | Atlanta | 4 | Community","name_short":"atl-4","host":"atl-1.us.uncletopia.com","port":27045,"enabled":true,"region":"us-east","cc":"us","latitude":33.753746,"longitude":-84.38633,"reserved":0,"last_update":"0001-01-01T00:00:00Z","name_a2s":"Uncletopia | Atlanta | 4 | Community","protocol":17,"map":"cp_logjam_rc12","folder":"tf","game":"Team Fortress","app_id":440,"player_count":0,"max_players":24,"Bots":0,"server_type":"Dedicated","server_os":"Linux","password":true,"vac":true,"version":"7961495","steam_id":85568392924515188,"keywords":["cp","nocrits","nodmgspread","uncletopia"],"game_id":440,"stv_port":27046,"stv_name":"Uncletopia | Atlanta | 4 | Community | STV","players":null},{"server_id":2,"name":"Uncletopia | Chicago | 1 | All Maps","name_short":"chi-1","host":"chi-1.us.uncletopia.com","port":27015,"enabled":true,"region":"us-central","cc":"us","latitude":41.881832,"longitude":-87.62318,"reserved":0,"last_update":"0001-01-01T00:00:00Z","name_a2s":"Uncletopia | Chicago | 1 | All Maps","protocol":17,"map":"pl_badwater","folder":"tf","game":"Team Fortress","app_id":440,"player_count":24,"max_players":24,"Bots":0,"server_type":"Dedicated","server_os":"Linux","password":true,"vac":true,"version":"7961495","steam_id":85568392924469984,"keywords":["nocrits","nodmgspread","payload","uncletopia"],"game_id":440,"stv_port":27016,"stv_name":"Uncletopia | Chicago | 1 | All Maps | STV","players":[{"user_id":186,"name":"bubby626","steam_id":76561198183438069,"connected_time":124000000000,"state":"active","ping":60},{"user_id":189,"name":"vv","steam_id":76561198134813102,"connected_time":110000000000,"state":"active","ping":65},{"user_id":158,"name":"Tax Evasion Wario","steam_id":76561198049563704,"connected_time":2305000000000,"state":"active","ping":85},{"user_id":168,"name":"Something Stupid.","steam_id":76561198391450962,"connected_time":1401000000000,"state":"active","ping":79},{"user_id":182,"name":"Jester","steam_id":76561199203898660,"connected_time":632000000000,"state":"active","ping":75},{"user_id":179,"name":"glonk","steam_id":76561198162544699,"connected_time":952000000000,"state":"active","ping":57},{"user_id":184,"name":"Scum Knight | T.I.D.K.","steam_id":76561198282444763,"connected_time":602000000000,"state":"active","ping":56},{"user_id":181,"name":"Mortal Flame","steam_id":76561198130698418,"connected_time":653000000000,"state":"active","ping":85},{"user_id":133,"name":"GreekGoat_Coffee","steam_id":76561198129331088,"connected_time":3984000000000,"state":"active","ping":45},{"user_id":175,"name":"[82DK] Ike","steam_id":76561198135256526,"connected_time":1272000000000,"state":"active","ping":83},{"user_id":170,"name":"Gram Tokers Count Doinkula","steam_id":76561198112811565,"connected_time":1333000000000,"state":"active","ping":72},{"user_id":171,"name":"Pizza Boy","steam_id":76561198207213173,"connected_time":1321000000000,"state":"active","ping":46},{"user_id":180,"name":"Chub","steam_id":76561198380637611,"connected_time":950000000000,"state":"active","ping":100},{"user_id":150,"name":"בלתי מובן","steam_id":76561198072289773,"connected_time":2827000000000,"state":"active","ping":65},{"user_id":178,"name":"SharpStabbyThing","steam_id":76561199059465912,"connected_time":1118000000000,"state":"active","ping":87},{"user_id":173,"name":"Artyom","steam_id":76561198132986712,"connected_time":1320000000000,"state":"active","ping":99},{"user_id":141,"name":"Lore","steam_id":76561198098407538,"connected_time":3107000000000,"state":"active","ping":47},{"user_id":187,"name":"waaaaaa","steam_id":76561198966942136,"connected_time":121000000000,"state":"active","ping":100},{"user_id":190,"name":"City City The City City","steam_id":76561198046942778,"connected_time":91000000000,"state":"active","ping":137},{"user_id":87,"name":"Kindagoodplayer","steam_id":76561198814625843,"connected_time":8609000000000,"state":"active","ping":78},{"user_id":124,"name":"Mank","steam_id":76561198189421005,"connected_time":5100000000000,"state":"active","ping":49},{"user_id":148,"name":"Norman","steam_id":76561198154715990,"connected_time":2867000000000,"state":"active","ping":96},{"user_id":142,"name":"Sudo","steam_id":76561198123714026,"connected_time":3106000000000,"state":"active","ping":103},{"user_id":177,"name":"DroidX19","steam_id":76561198867783457,"connected_time":1180000000000,"state":"active","ping":90}]},{"server_id":106,"name":"Uncletopia | Chicago | 2 | All Maps","name_short":"chi-2","host":"chi-1.us.uncletopia.com","port":27025,"enabled":true,"region":"us-central","cc":"us","latitude":41.881832,"longitude":-87.62318,"reserved":0,"last_update":"0001-01-01T00:00:00Z","name_a2s":"Uncletopia | Chicago | 2 | All Maps","protocol":17,"map":"cp_altitude","folder":"tf","game":"Team Fortress","app_id":440,"player_count":24,"max_players":24,"Bots":0,"server_type":"Dedicated","server_os":"Linux","password":true,"vac":true,"version":"7961495","steam_id":85568392924469985,"keywords":["cp","nocrits","nodmgspread","uncletopia"],"game_id":440,"stv_port":27026,"stv_name":"Uncletopia | Chicago | 2 | All Maps | STV","players":[{"user_id":92,"name":"i suffer from ligma","steam_id":76561199158496518,"connected_time":7567000000000,"state":"active","ping":143},{"user_id":164,"name":"Axebel Fantasy","steam_id":76561198256709470,"connected_time":997000000000,"state":"active","ping":144},{"user_id":134,"name":"Gutsavo the Branded  Espadachí","steam_id":76561198133608354,"connected_time":2661000000000,"state":"active","ping":65},{"user_id":154,"name":"Dank Ghost","steam_id":76561198400690889,"connected_time":1772000000000,"state":"active","ping":116},{"user_id":110,"name":"The strongest ⑨ ball","steam_id":76561198126760743,"connected_time":3840000000000,"state":"active","ping":76},{"user_id":131,"name":"BurnN8or101","steam_id":76561198132668224,"connected_time":2730000000000,"state":"active","ping":66},{"user_id":107,"name":"Uwu Micster","steam_id":76561198843890616,"connected_time":4472000000000,"state":"active","ping":84},{"user_id":144,"name":"Wilhelmktx","steam_id":76561198158102295,"connected_time":1937000000000,"state":"active","ping":45},{"user_id":171,"name":"GruntRule","steam_id":76561198039987143,"connected_time":459000000000,"state":"active","ping":79},{"user_id":146,"name":"Katzenwerfer","steam_id":76561198345464748,"connected_time":1908000000000,"state":"active","ping":114},{"user_id":162,"name":"Ranch","steam_id":76561198035557013,"connected_time":1268000000000,"state":"active","ping":46},{"user_id":150,"name":"walter.bingleton@outlook.com","steam_id":76561199089624308,"connected_time":1849000000000,"state":"active","ping":72},{"user_id":156,"name":"Boomerish","steam_id":76561198083946878,"connected_time":1616000000000,"state":"active","ping":79},{"user_id":166,"name":"Notation","steam_id":76561198119509319,"connected_time":824000000000,"state":"active","ping":60},{"user_id":138,"name":"Extro","steam_id":76561198178908694,"connected_time":2486000000000,"state":"active","ping":55},{"user_id":141,"name":"Joebobio","steam_id":76561198024442760,"connected_time":2078000000000,"state":"active","ping":76},{"user_id":168,"name":"akuto #savetf2","steam_id":76561199026865380,"connected_time":524000000000,"state":"active","ping":72},{"user_id":169,"name":"Architect","steam_id":76561198015242016,"connected_time":515000000000,"state":"active","ping":46},{"user_id":77,"name":"A Puppy","steam_id":76561198828184456,"connected_time":8128000000000,"state":"active","ping":61},{"user_id":152,"name":"Six Piece Chicken McNobody","steam_id":76561198129848222,"connected_time":1839000000000,"state":"active","ping":70},{"user_id":167,"name":"Kung fu Mungus","steam_id":76561198069281556,"connected_time":791000000000,"state":"active","ping":75},{"user_id":172,"name":"Wiener Hole Paper Cut","steam_id":76561198000808203,"connected_time":112000000000,"state":"active","ping":80},{"user_id":139,"name":"puss-eye is the plural of pussy","steam_id":76561197979204444,"connected_time":2355000000000,"state":"active","ping":82},{"user_id":170,"name":"Hyper","steam_id":76561198062197943,"connected_time":499000000000,"state":"active","ping":80}]},{"server_id":402,"name":"Uncletopia | Chicago | 3 | All Maps","name_short":"chi-3","host":"chi-1.us.uncletopia.com","port":27035,"enabled":true,"region":"us-central","cc":"us","latitude":41.881832,"longitude":-87.62318,"reserved":0,"last_update":"0001-01-01T00:00:00Z","name_a2s":"Uncletopia | Chicago | 3 | All Maps","protocol":17,"map":"pl_upward","folder":"tf","game":"Team Fortress","app_id":440,"player_count":24,"max_players":24,"Bots":0,"server_type":"Dedicated","server_os":"Linux","password":true,"vac":true,"version":"7961495","steam_id":85568392924515191,"keywords":["nocrits","nodmgspread","payload","uncletopia"],"game_id":440,"stv_port":27036,"stv_name":"Uncletopia | Chicago | 3 | All Maps | STV","players":[{"user_id":160,"name":"kiv","steam_id":76561198838223023,"connected_time":2845000000000,"state":"active","ping":59},{"user_id":195,"name":"LORDO","steam_id":76561198044824675,"connected_time":266000000000,"state":"active","ping":72},{"user_id":202,"name":"tesagi","steam_id":76561198026664629,"connected_time":92000000000,"state":"active","ping":48},{"user_id":191,"name":"OrangeYoshi","steam_id":76561198086959951,"connected_time":344000000000,"state":"active","ping":70},{"user_id":196,"name":"GodandTitans","steam_id":76561198070070155,"connected_time":255000000000,"state":"active","ping":78},{"user_id":187,"name":"MR. BEEEEEEEEEEEEEAAAAAAAAAAST","steam_id":76561198205346760,"connected_time":568000000000,"state":"active","ping":44},{"user_id":164,"name":"Engie-Deer","steam_id":76561198817620456,"connected_time":2806000000000,"state":"active","ping":83},{"user_id":186,"name":"bad sim racer","steam_id":76561198061552103,"connected_time":851000000000,"state":"active","ping":45},{"user_id":200,"name":"OVA Iggy","steam_id":76561198130690686,"connected_time":173000000000,"state":"active","ping":91},{"user_id":165,"name":"We Go Crazy","steam_id":76561198209641359,"connected_time":2801000000000,"state":"active","ping":66},{"user_id":189,"name":"acxeu","steam_id":76561198394435000,"connected_time":519000000000,"state":"active","ping":60},{"user_id":175,"name":"Tripll-L","steam_id":76561197998077437,"connected_time":2433000000000,"state":"active","ping":76},{"user_id":167,"name":"DSG","steam_id":76561198207574152,"connected_time":2798000000000,"state":"active","ping":65},{"user_id":193,"name":"Ġ1 ♦ Synth","steam_id":76561198058660228,"connected_time":311000000000,"state":"active","ping":51},{"user_id":201,"name":"chilis baby back ribs","steam_id":76561198813516435,"connected_time":112000000000,"state":"active","ping":96},{"user_id":169,"name":"k1tty","steam_id":76561198869348268,"connected_time":2783000000000,"state":"active","ping":105},{"user_id":203,"name":"如願","steam_id":76561198038486613,"connected_time":0,"state":"spawning","ping":18},{"user_id":176,"name":"Guts","steam_id":76561198244702428,"connected_time":2009000000000,"state":"active","ping":58},{"user_id":103,"name":"DinkleBerg","steam_id":76561198891626233,"connected_time":6456000000000,"state":"active","ping":69},{"user_id":190,"name":"bunger","steam_id":76561199132076391,"connected_time":504000000000,"state":"active","ping":58},{"user_id":198,"name":"oof aim small brain","steam_id":76561198079925551,"connected_time":228000000000,"state":"active","ping":61},{"user_id":144,"name":"pinglefingle","steam_id":76561198216580197,"connected_time":4092000000000,"state":"active","ping":78},{"user_id":173,"name":"kermit","steam_id":76561198099928281,"connected_time":2621000000000,"state":"active","ping":75},{"user_id":199,"name":"TheBlue","steam_id":76561198363412851,"connected_time":204000000000,"state":"active","ping":49}]},{"server_id":403,"name":"Uncletopia | Chicago | 4 | All Maps","name_short":"chi-4","host":"chi-1.us.uncletopia.com","port":27045,"enabled":true,"region":"us-central","cc":"us","latitude":41.881832,"longitude":-87.62318,"reserved":0,"last_update":"0001-01-01T00:00:00Z","name_a2s":"Uncletopia | Chicago | 4 | All Maps","protocol":17,"map":"pl_barnblitz","folder":"tf","game":"Team Fortress","app_id":440,"player_count":20,"max_players":24,"Bots":0,"server_type":"Dedicated","server_os":"Linux","password":true,"vac":true,"version":"7961495","steam_id":85568392924515193,"keywords":["nocrits","nodmgspread","payload","uncletopia"],"game_id":440,"stv_port":27046,"stv_name":"Uncletopia | Chicago | 4 | All Maps | STV","players":[{"user_id":179,"name":"millie","steam_id":76561198008366811,"connected_time":747000000000,"state":"active","ping":54},{"user_id":188,"name":"den","steam_id":76561198323514812,"connected_time":4000000000,"state":"spawning","ping":57},{"user_id":170,"name":"ElephantHydrogen4277882","steam_id":76561198175741741,"connected_time":1390000000000,"state":"active","ping":66},{"user_id":168,"name":"eeebydeeby","steam_id":76561198135736718,"connected_time":1526000000000,"state":"active","ping":123},{"user_id":75,"name":"Durt","steam_id":76561198073569962,"connected_time":9072000000000,"state":"active","ping":46},{"user_id":180,"name":"Jam Jams","steam_id":76561198128811267,"connected_time":734000000000,"state":"active","ping":72},{"user_id":167,"name":"big joe's tire company","steam_id":76561198204995668,"connected_time":1573000000000,"state":"active","ping":86},{"user_id":187,"name":"pl_chicago","steam_id":76561198055626638,"connected_time":11000000000,"state":"active","ping":92},{"user_id":119,"name":"cass","steam_id":76561198074502046,"connected_time":4536000000000,"state":"active","ping":94},{"user_id":158,"name":"urine trouble","steam_id":76561199013266640,"connected_time":2637000000000,"state":"active","ping":43},{"user_id":173,"name":"Discourse","steam_id":76561198984286678,"connected_time":1049000000000,"state":"active","ping":53},{"user_id":133,"name":"Voodo133","steam_id":76561198042670351,"connected_time":4091000000000,"state":"active","ping":84},{"user_id":181,"name":"doghouse","steam_id":76561198000319035,"connected_time":732000000000,"state":"active","ping":96},{"user_id":98,"name":"J3X","steam_id":76561198184753858,"connected_time":6618000000000,"state":"active","ping":87},{"user_id":182,"name":"ѕυ【ʕ•ᴥ•ʔ】","steam_id":76561198071233302,"connected_time":730000000000,"state":"active","ping":94},{"user_id":183,"name":"A Fruit","steam_id":76561198951830050,"connected_time":727000000000,"state":"active","ping":65},{"user_id":184,"name":"Glar","steam_id":76561198341907150,"connected_time":707000000000,"state":"active","ping":81},{"user_id":185,"name":"Small tiny feet","steam_id":76561199141538581,"connected_time":703000000000,"state":"active","ping":114},{"user_id":186,"name":"Evan","steam_id":76561197972292926,"connected_time":698000000000,"state":"active","ping":71},{"user_id":42,"name":"Jarnold","steam_id":76561198090434537,"connected_time":11590000000000,"state":"active","ping":59}]},{"server_id":36,"name":"Uncletopia | Chicago | 5 | All Maps","name_short":"chi-5","host":"chi-2.us.uncletopia.com","port":27015,"enabled":true,"region":"us-central","cc":"us","latitude":41.881832,"longitude":-87.62318,"reserved":0,"last_update":"0001-01-01T00:00:00Z","name_a2s":"Uncletopia | Chicago | 5 | All Maps","protocol":17,"map":"koth_viaduct","folder":"tf","game":"Team Fortress","app_id":440,"player_count":24,"max_players":24,"Bots":0,"server_type":"Dedicated","server_os":"Linux","password":true,"vac":true,"version":"7961495","steam_id":85568392924866362,"keywords":["cp","nocrits","nodmgspread","uncletopia"],"game_id":440,"stv_port":27016,"stv_name":"Uncletopia | Chicago | 5 | All Maps | STV","players":[{"user_id":190,"name":"Cola","steam_id":76561198193537542,"connected_time":43000000000,"state":"active","ping":89},{"user_id":139,"name":"Monke","steam_id":76561198162887886,"connected_time":3507000000000,"state":"active","ping":60},{"user_id":99,"name":"Fightin Cow","steam_id":76561198080941486,"connected_time":7163000000000,"state":"active","ping":77},{"user_id":182,"name":"NovaSc6ut","steam_id":76561198277163301,"connected_time":535000000000,"state":"active","ping":74},{"user_id":171,"name":"Versuski","steam_id":76561198085193084,"connected_time":1346000000000,"state":"active","ping":70},{"user_id":141,"name":"4 life","steam_id":76561198175961598,"connected_time":3277000000000,"state":"active","ping":119},{"user_id":193,"name":"onion","steam_id":76561198242311084,"connected_time":18000000000,"state":"active","ping":66},{"user_id":159,"name":"Captain Buggy","steam_id":76561198024444448,"connected_time":1832000000000,"state":"active","ping":99},{"user_id":176,"name":"❤Kogu❤","steam_id":76561198062396512,"connected_time":911000000000,"state":"active","ping":54},{"user_id":187,"name":"Dwane Johnson From Amogus","steam_id":76561199091290729,"connected_time":63000000000,"state":"active","ping":79},{"user_id":191,"name":"vifi269","steam_id":76561198283749166,"connected_time":32000000000,"state":"active","ping":71},{"user_id":186,"name":"M0T0BREATH  \\TG/","steam_id":76561197961205221,"connected_time":69000000000,"state":"active","ping":73},{"user_id":172,"name":"Reflector","steam_id":76561198078999855,"connected_time":1345000000000,"state":"active","ping":55},{"user_id":188,"name":"Capybara Enjoyer","steam_id":76561199147114434,"connected_time":61000000000,"state":"active","ping":115},{"user_id":178,"name":"I shovel mayonnaise in mouth","steam_id":76561199123118241,"connected_time":893000000000,"state":"active","ping":100},{"user_id":106,"name":"[MRY] Sk-iLite","steam_id":76561198041797350,"connected_time":6104000000000,"state":"active","ping":74},{"user_id":167,"name":"I GOT BLISTERS ON MY FINGERS","steam_id":76561198179888142,"connected_time":1526000000000,"state":"active","ping":56},{"user_id":189,"name":"SirDigbyChickenCaesar","steam_id":76561197998612788,"connected_time":59000000000,"state":"active","ping":48},{"user_id":185,"name":"Slob and Sup","steam_id":76561198123441203,"connected_time":84000000000,"state":"active","ping":58},{"user_id":177,"name":"ZOOM","steam_id":76561198968058652,"connected_time":904000000000,"state":"active","ping":101},{"user_id":192,"name":"im mr war","steam_id":76561198131467867,"connected_time":31000000000,"state":"active","ping":78},{"user_id":119,"name":"Aeris","steam_id":76561198287271028,"connected_time":4987000000000,"state":"active","ping":55},{"user_id":181,"name":"Advanced Algebra","steam_id":76561198450684758,"connected_time":549000000000,"state":"active","ping":71},{"user_id":175,"name":"eat Pant","steam_id":76561197974965536,"connected_time":1258000000000,"state":"active","ping":64}]},{"server_id":37,"name":"Uncletopia | Chicago | 6 | All Maps","name_short":"chi-6","host":"chi-2.us.uncletopia.com","port":27025,"enabled":true,"region":"us-central","cc":"us","latitude":41.881832,"longitude":-87.62318,"reserved":0,"last_update":"0001-01-01T00:00:00Z","name_a2s":"Uncletopia | Chicago | 6 | All Maps","protocol":17,"map":"pl_snowycoast","folder":"tf","game":"Team Fortress","app_id":440,"player_count":24,"max_players":24,"Bots":0,"server_type":"Dedicated","server_os":"Linux","password":true,"vac":true,"version":"7961495","steam_id":85568392924866363,"keywords":["nocrits","nodmgspread","payload","uncletopia"],"game_id":440,"stv_port":27026,"stv_name":"Uncletopia | Chicago | 6 | All Maps | STV","players":[{"user_id":185,"name":"Adawnby","steam_id":76561198103057295,"connected_time":111000000000,"state":"active","ping":68},{"user_id":172,"name":"Natural stupidity","steam_id":76561198164619692,"connected_time":1039000000000,"state":"active","ping":80},{"user_id":160,"name":"euphoricfilth","steam_id":76561198100160865,"connected_time":2130000000000,"state":"active","ping":61},{"user_id":148,"name":"Rappitor","steam_id":76561198105613110,"connected_time":3426000000000,"state":"active","ping":62},{"user_id":154,"name":"Bottom Trans Cowgirl","steam_id":76561198304239680,"connected_time":2482000000000,"state":"active","ping":77},{"user_id":173,"name":"Pattar","steam_id":76561198146276146,"connected_time":1014000000000,"state":"active","ping":61},{"user_id":186,"name":"Thunder","steam_id":76561198097721532,"connected_time":93000000000,"state":"active","ping":96},{"user_id":190,"name":"Buzz Chudson, MD","steam_id":76561198040565889,"connected_time":34000000000,"state":"active","ping":73},{"user_id":191,"name":"Alberto2104","steam_id":76561198094968873,"connected_time":33000000000,"state":"active","ping":85},{"user_id":179,"name":"Link!","steam_id":76561198090113742,"connected_time":898000000000,"state":"active","ping":76},{"user_id":149,"name":"rapscallion","steam_id":76561198188722751,"connected_time":3416000000000,"state":"active","ping":92},{"user_id":174,"name":"--_Cook_--","steam_id":76561198080855748,"connected_time":1007000000000,"state":"active","ping":49},{"user_id":188,"name":"Rodgedan","steam_id":76561198226236524,"connected_time":82000000000,"state":"active","ping":84},{"user_id":181,"name":"Cristiano Ronaldo","steam_id":76561199494598839,"connected_time":602000000000,"state":"active","ping":55},{"user_id":69,"name":"An Erect Penis :)","steam_id":76561198086477485,"connected_time":9071000000000,"state":"active","ping":37},{"user_id":153,"name":"mario","steam_id":76561198148282278,"connected_time":2747000000000,"state":"active","ping":73},{"user_id":177,"name":"Loogey03","steam_id":76561198155483586,"connected_time":945000000000,"state":"active","ping":57},{"user_id":183,"name":"_--Baker--_","steam_id":76561198401495362,"connected_time":119000000000,"state":"active","ping":73},{"user_id":146,"name":"cheetaz","steam_id":76561198224614084,"connected_time":3494000000000,"state":"active","ping":59},{"user_id":170,"name":"Minecraft Java Edition","steam_id":76561198060074515,"connected_time":1113000000000,"state":"active","ping":94},{"user_id":178,"name":"your generic friendly","steam_id":76561199469164968,"connected_time":936000000000,"state":"active","ping":76},{"user_id":180,"name":"TheFlyingHussar","steam_id":76561199388276949,"connected_time":776000000000,"state":"active","ping":93},{"user_id":167,"name":"shmood","steam_id":76561198241948526,"connected_time":1489000000000,"state":"active","ping":61},{"user_id":189,"name":"Courier711","steam_id":76561198053232343,"connected_time":81000000000,"state":"active","ping":104}]},{"server_id":38,"name":"Uncletopia | Chicago | 7 | Stopwatch Beta","name_short":"chi-7","host":"chi-2.us.uncletopia.com","port":27035,"enabled":true,"region":"us-central","cc":"us","latitude":41.881832,"longitude":-87.62318,"reserved":0,"last_update":"0001-01-01T00:00:00Z","name_a2s":"Uncletopia | Chicago | 7 | Stopwatch Beta","protocol":17,"map":"pl_borneo","folder":"tf","game":"Team Fortress","app_id":440,"player_count":0,"max_players":24,"Bots":0,"server_type":"Dedicated","server_os":"Linux","password":true,"vac":true,"version":"7961495","steam_id":85568392924866364,"keywords":["nocrits","nodmgspread","payload","uncletopia"],"game_id":440,"stv_port":27036,"stv_name":"Uncletopia | Chicago | 7 | Stopwatch Beta | STV","players":null},{"server_id":39,"name":"Uncletopia | Chicago | 8 | Community","name_short":"chi-8","host":"chi-2.us.uncletopia.com","port":27045,"enabled":true,"region":"us-central","cc":"us","latitude":41.881832,"longitude":-87.62318,"reserved":0,"last_update":"0001-01-01T00:00:00Z","name_a2s":"Uncletopia | Chicago | 8 | Community","protocol":17,"map":"workshop/pl_shoreleave_rc2.ugc1238849347","folder":"tf","game":"Team Fortress","app_id":440,"player_count":24,"max_players":24,"Bots":0,"server_type":"Dedicated","server_os":"Linux","password":true,"vac":true,"version":"7961495","steam_id":85568392924866365,"keywords":["nocrits","nodmgspread","payload","uncletopia"],"game_id":440,"stv_port":27046,"stv_name":"Uncletopia | Chicago | 8 | Community | STV","players":[{"user_id":128,"name":"TÖZI","steam_id":76561198045268695,"connected_time":369000000000,"state":"active","ping":82},{"user_id":100,"name":"yamme","steam_id":76561198117849124,"connected_time":4330000000000,"state":"active","ping":108},{"user_id":122,"name":"Gramseal","steam_id":76561198181906333,"connected_time":1609000000000,"state":"active","ping":101},{"user_id":134,"name":"why the wig?","steam_id":76561199084109885,"connected_time":276000000000,"state":"active","ping":70},{"user_id":98,"name":"Rodrick Knee","steam_id":76561198283021062,"connected_time":4695000000000,"state":"active","ping":85},{"user_id":11,"name":"HoneyIsCringe","steam_id":76561199011712065,"connected_time":9534000000000,"state":"active","ping":108},{"user_id":96,"name":"define ok","steam_id":76561198068190834,"connected_time":4909000000000,"state":"active","ping":105},{"user_id":130,"name":"Chroos","steam_id":76561198077314639,"connected_time":356000000000,"state":"active","ping":68},{"user_id":73,"name":"Swiftmend","steam_id":76561197995595692,"connected_time":6414000000000,"state":"active","ping":78},{"user_id":106,"name":"Mechano35","steam_id":76561199123027543,"connected_time":3324000000000,"state":"active","ping":108},{"user_id":113,"name":"Seberster","steam_id":76561198136958624,"connected_time":2597000000000,"state":"active","ping":59},{"user_id":127,"name":"Kzjytsugn","steam_id":76561198130241974,"connected_time":467000000000,"state":"active","ping":94},{"user_id":136,"name":"Gibs Degrossi","steam_id":76561198066152609,"connected_time":99000000000,"state":"active","ping":45},{"user_id":107,"name":"SuperEnderGuy","steam_id":76561198352732164,"connected_time":2760000000000,"state":"active","ping":122},{"user_id":120,"name":"NationsCake","steam_id":76561198038129976,"connected_time":2088000000000,"state":"active","ping":97},{"user_id":79,"name":"Stay-See","steam_id":76561199076612537,"connected_time":6317000000000,"state":"active","ping":58},{"user_id":121,"name":"TheAnswer","steam_id":76561198039471743,"connected_time":1631000000000,"state":"active","ping":76},{"user_id":93,"name":"the pest","steam_id":76561198826298849,"connected_time":5067000000000,"state":"active","ping":107},{"user_id":135,"name":"Asha'man","steam_id":76561198057913763,"connected_time":265000000000,"state":"active","ping":47},{"user_id":125,"name":"Mathatguy","steam_id":76561198225432188,"connected_time":598000000000,"state":"active","ping":95},{"user_id":124,"name":"Kng","steam_id":76561198993248203,"connected_time":1354000000000,"state":"active","ping":93},{"user_id":119,"name":"Patriot Pills","steam_id":76561198381647349,"connected_time":2135000000000,"state":"active","ping":83},{"user_id":95,"name":"Cyclops_672","steam_id":76561198080169497,"connected_time":5055000000000,"state":"active","ping":60},{"user_id":132,"name":"Cresty","steam_id":76561199118643461,"connected_time":347000000000,"state":"active","ping":105}]},{"server_id":8,"name":"Uncletopia | Dallas | 1 | All Maps","name_short":"dal-1","host":"dal-1.us.uncletopia.com","port":27015,"enabled":true,"region":"us-central","cc":"us","latitude":32.779167,"longitude":-96.80889,"reserved":0,"last_update":"0001-01-01T00:00:00Z","name_a2s":"Uncletopia | Dallas | 1 | All Maps","protocol":17,"map":"cp_mossrock","folder":"tf","game":"Team Fortress","app_id":440,"player_count":19,"max_players":24,"Bots":0,"server_type":"Dedicated","server_os":"Linux","password":true,"vac":true,"version":"7961495","steam_id":85568392924469986,"keywords":["cp","nocrits","nodmgspread","uncletopia"],"game_id":440,"stv_port":27016,"stv_name":"Uncletopia | Dallas | 1 | All Maps | STV","players":[{"user_id":310,"name":"totally not a pile of beans","steam_id":76561198119851931,"connected_time":1005000000000,"state":"active","ping":91},{"user_id":291,"name":"Rowdyshark101","steam_id":76561199019123695,"connected_time":1656000000000,"state":"active","ping":53},{"user_id":315,"name":"Caught a Thundah","steam_id":76561198054495572,"connected_time":565000000000,"state":"active","ping":56},{"user_id":322,"name":"waza","steam_id":76561198095813297,"connected_time":48000000000,"state":"active","ping":276},{"user_id":314,"name":"dailydiamond","steam_id":76561199123582502,"connected_time":696000000000,"state":"active","ping":97},{"user_id":305,"name":"Gadmt_","steam_id":76561198077910059,"connected_time":1088000000000,"state":"active","ping":65},{"user_id":294,"name":"Fletcher","steam_id":76561198317846538,"connected_time":1440000000000,"state":"active","ping":76},{"user_id":321,"name":"C Sharp Minor","steam_id":76561199185191710,"connected_time":217000000000,"state":"active","ping":135},{"user_id":51,"name":"Moonflower ✦","steam_id":76561198191782483,"connected_time":9714000000000,"state":"active","ping":51},{"user_id":295,"name":"SPLITSHOCK","steam_id":76561199027249460,"connected_time":1349000000000,"state":"active","ping":90},{"user_id":189,"name":"Rob","steam_id":76561199187786660,"connected_time":4829000000000,"state":"active","ping":46},{"user_id":289,"name":"Insizhen","steam_id":76561198051352605,"connected_time":1669000000000,"state":"active","ping":47},{"user_id":318,"name":"Siren","steam_id":76561198047395823,"connected_time":511000000000,"state":"active","ping":62},{"user_id":134,"name":"mkl","steam_id":76561197986401685,"connected_time":7998000000000,"state":"active","ping":56},{"user_id":300,"name":"Seduce!_!Me_!213","steam_id":76561198857556368,"connected_time":1198000000000,"state":"active","ping":73},{"user_id":292,"name":"De MonkE","steam_id":76561198140626221,"connected_time":1634000000000,"state":"active","ping":45},{"user_id":293,"name":"LampMan","steam_id":76561198079857527,"connected_time":1499000000000,"state":"active","ping":52},{"user_id":301,"name":"ZILICON","steam_id":76561199044705592,"connected_time":1195000000000,"state":"active","ping":112},{"user_id":312,"name":"cypherzero","steam_id":76561199182960322,"connected_time":973000000000,"state":"active","ping":51}]},{"server_id":108,"name":"Uncletopia | Dallas | 2 | All Maps","name_short":"dal-2","host":"dal-1.us.uncletopia.com","port":27025,"enabled":true,"region":"us-central","cc":"us","latitude":32.779167,"longitude":-96.80889,"reserved":0,"last_update":"0001-01-01T00:00:00Z","name_a2s":"Uncletopia | Dallas | 2 | All Maps","protocol":17,"map":"pl_swiftwater_final1","folder":"tf","game":"Team Fortress","app_id":440,"player_count":24,"max_players":24,"Bots":0,"server_type":"Dedicated","server_os":"Linux","password":true,"vac":true,"version":"7961495","steam_id":85568392924469988,"keywords":["nocrits","nodmgspread","payload","uncletopia"],"game_id":440,"stv_port":27026,"stv_name":"Uncletopia | Dallas | 2 | All Maps | STV","players":[{"user_id":174,"name":"Omegalite","steam_id":76561198796787101,"connected_time":3000000000,"state":"spawning","ping":56},{"user_id":154,"name":"Missing Minus","steam_id":76561198120822928,"connected_time":1622000000000,"state":"active","ping":69},{"user_id":164,"name":"Rango","steam_id":76561198104086771,"connected_time":969000000000,"state":"active","ping":83},{"user_id":162,"name":"Shrub Lord","steam_id":76561198091518412,"connected_time":1027000000000,"state":"active","ping":66},{"user_id":138,"name":"Novu","steam_id":76561198886997024,"connected_time":3201000000000,"state":"active","ping":111},{"user_id":161,"name":"rAnch","steam_id":76561198024562587,"connected_time":1045000000000,"state":"active","ping":41},{"user_id":130,"name":"GlizzLord","steam_id":76561198321010427,"connected_time":4088000000000,"state":"active","ping":81},{"user_id":156,"name":"wakeupbdot","steam_id":76561198160786631,"connected_time":1545000000000,"state":"active","ping":70},{"user_id":143,"name":"|Wyman|","steam_id":76561199013124535,"connected_time":2982000000000,"state":"active","ping":67},{"user_id":159,"name":"Yep Im Ethan","steam_id":76561199066140775,"connected_time":1302000000000,"state":"active","ping":57},{"user_id":121,"name":"Levi","steam_id":76561198089832776,"connected_time":4500000000000,"state":"active","ping":57},{"user_id":137,"name":"Ja","steam_id":76561198396340174,"connected_time":3290000000000,"state":"active","ping":96},{"user_id":144,"name":"Soviet Potato","steam_id":76561198068546113,"connected_time":2603000000000,"state":"active","ping":84},{"user_id":170,"name":"88","steam_id":76561198165212575,"connected_time":758000000000,"state":"active","ping":82},{"user_id":131,"name":"Kirby.exe","steam_id":76561198242714582,"connected_time":4033000000000,"state":"active","ping":49},{"user_id":151,"name":"JUCE","steam_id":76561198057835518,"connected_time":1673000000000,"state":"active","ping":69},{"user_id":135,"name":"Bunny of Epicness","steam_id":76561198003897012,"connected_time":3476000000000,"state":"active","ping":49},{"user_id":153,"name":"Oxbell","steam_id":76561198448173562,"connected_time":1665000000000,"state":"active","ping":111},{"user_id":165,"name":"Shemk","steam_id":76561198201593238,"connected_time":940000000000,"state":"active","ping":93},{"user_id":168,"name":"ngc","steam_id":76561198082432068,"connected_time":822000000000,"state":"active","ping":96},{"user_id":113,"name":"Evil little man","steam_id":76561198311053471,"connected_time":5641000000000,"state":"active","ping":56},{"user_id":139,"name":"♦♣Quadric♥♠","steam_id":76561198061003853,"connected_time":3195000000000,"state":"active","ping":91},{"user_id":145,"name":"Caboose","steam_id":76561198215451935,"connected_time":2588000000000,"state":"active","ping":52},{"user_id":172,"name":"Rusted Cake","steam_id":76561198209755931,"connected_time":595000000000,"state":"active","ping":85}]},{"server_id":404,"name":"Uncletopia | Dallas | 3 | All Maps","name_short":"dal-3","host":"dal-1.us.uncletopia.com","port":27035,"enabled":true,"region":"us-central","cc":"us","latitude":32.779167,"longitude":-96.80889,"reserved":0,"last_update":"0001-01-01T00:00:00Z","name_a2s":"Uncletopia | Dallas | 3 | All Maps","protocol":17,"map":"koth_cascade","folder":"tf","game":"Team Fortress","app_id":440,"player_count":12,"max_players":24,"Bots":0,"server_type":"Dedicated","server_os":"Linux","password":true,"vac":true,"version":"7961495","steam_id":85568392924515219,"keywords":["cp","nocrits","nodmgspread","uncletopia"],"game_id":440,"stv_port":27036,"stv_name":"Uncletopia | Dallas | 3 | All Maps | STV","players":[{"user_id":163,"name":"purpledrake08","steam_id":76561199155657280,"connected_time":192000000000,"state":"active","ping":90},{"user_id":157,"name":"Fresca Enjoyer","steam_id":76561199032752474,"connected_time":850000000000,"state":"active","ping":60},{"user_id":158,"name":"Chilis 2 for 20","steam_id":76561198121544531,"connected_time":767000000000,"state":"active","ping":72},{"user_id":161,"name":"The Lord of Bread","steam_id":76561199203901420,"connected_time":410000000000,"state":"active","ping":92},{"user_id":159,"name":"Trigger!","steam_id":76561198061514186,"connected_time":563000000000,"state":"active","ping":88},{"user_id":165,"name":"Zorlovo","steam_id":76561198006443283,"connected_time":80000000000,"state":"active","ping":70},{"user_id":155,"name":"Dwake","steam_id":76561198121943676,"connected_time":1034000000000,"state":"active","ping":92},{"user_id":166,"name":"Kondha","steam_id":76561198084588336,"connected_time":3000000000,"state":"spawning","ping":41},{"user_id":147,"name":"rxea","steam_id":76561198868168910,"connected_time":2142000000000,"state":"active","ping":84},{"user_id":152,"name":"Jill","steam_id":76561198097398193,"connected_time":1363000000000,"state":"active","ping":76},{"user_id":153,"name":"BurR","steam_id":76561198055431367,"connected_time":1300000000000,"state":"active","ping":73},{"user_id":143,"name":"☙ Corrupt ❧","steam_id":76561197977631915,"connected_time":2932000000000,"state":"active","ping":68}]},{"server_id":405,"name":"Uncletopia | Dallas | 4 | Community","name_short":"dal-4","host":"dal-1.us.uncletopia.com","port":27045,"enabled":true,"region":"us-central","cc":"us","latitude":32.779167,"longitude":-96.80889,"reserved":0,"last_update":"0001-01-01T00:00:00Z","name_a2s":"Uncletopia | Dallas | 4 | Community","protocol":17,"map":"koth_lakeside_final","folder":"tf","game":"Team Fortress","app_id":440,"player_count":0,"max_players":24,"Bots":0,"server_type":"Dedicated","server_os":"Linux","password":true,"vac":true,"version":"7961495","steam_id":85568392924515220,"keywords":["cp","nocrits","nodmgspread","uncletopia"],"game_id":440,"stv_port":27046,"stv_name":"Uncletopia | Dallas | 4 | Community | STV","players":null},{"server_id":5,"name":"Uncletopia | Frankfurt | 1 | All Maps","name_short":"frk-1","host":"frk-1.de.uncletopia.com","port":27015,"enabled":true,"region":"eu","cc":"de","latitude":50.110924,"longitude":8.682127,"reserved":0,"last_update":"0001-01-01T00:00:00Z","name_a2s":"Uncletopia | Frankfurt | 1 | All Maps","protocol":17,"map":"koth_cascade","folder":"tf","game":"Team Fortress","app_id":440,"player_count":0,"max_players":24,"Bots":0,"server_type":"Dedicated","server_os":"Linux","password":true,"vac":true,"version":"7961495","steam_id":85568392924469989,"keywords":["cp","nocrits","nodmgspread","uncletopia"],"game_id":440,"stv_port":27016,"stv_name":"Uncletopia | Frankfurt | 1 | All Maps | STV","players":null},{"server_id":110,"name":"Uncletopia | Frankfurt | 2 | All Maps","name_short":"frk-2","host":"frk-1.de.uncletopia.com","port":27025,"enabled":true,"region":"eu","cc":"de","latitude":50.110924,"longitude":8.682127,"reserved":0,"last_update":"0001-01-01T00:00:00Z","name_a2s":"Uncletopia | Frankfurt | 2 | All Maps","protocol":17,"map":"pl_upward","folder":"tf","game":"Team Fortress","app_id":440,"player_count":0,"max_players":24,"Bots":0,"server_type":"Dedicated","server_os":"Linux","password":true,"vac":true,"version":"7961495","steam_id":85568392924469990,"keywords":["nocrits","nodmgspread","payload","uncletopia"],"game_id":440,"stv_port":27026,"stv_name":"Uncletopia | Frankfurt | 2 | All Maps | STV","players":null},{"server_id":308,"name":"Uncletopia | Frankfurt | 3 | All Maps","name_short":"frk-3","host":"frk-1.de.uncletopia.com","port":27035,"enabled":true,"region":"eu","cc":"de","latitude":50.110924,"longitude":8.682127,"reserved":0,"last_update":"0001-01-01T00:00:00Z","name_a2s":"Uncletopia | Frankfurt | 3 | All Maps","protocol":17,"map":"koth_viaduct","folder":"tf","game":"Team Fortress","app_id":440,"player_count":0,"max_players":24,"Bots":0,"server_type":"Dedicated","server_os":"Linux","password":true,"vac":true,"version":"7961495","steam_id":85568392924504274,"keywords":["cp","nocrits","nodmgspread","uncletopia"],"game_id":440,"stv_port":27036,"stv_name":"Uncletopia | Frankfurt | 3 | All Maps | STV","players":null},{"server_id":309,"name":"Uncletopia | Frankfurt | 4 | All Maps","name_short":"frk-4","host":"frk-1.de.uncletopia.com","port":27045,"enabled":true,"region":"eu","cc":"de","latitude":50.110924,"longitude":8.682127,"reserved":0,"last_update":"0001-01-01T00:00:00Z","name_a2s":"Uncletopia | Frankfurt | 4 | All Maps","protocol":17,"map":"pl_frontier_final","folder":"tf","game":"Team Fortress","app_id":440,"player_count":0,"max_players":24,"Bots":0,"server_type":"Dedicated","server_os":"Linux","password":true,"vac":true,"version":"7961495","steam_id":85568392924504275,"keywords":["nocrits","nodmgspread","payload","uncletopia"],"game_id":440,"stv_port":27046,"stv_name":"Uncletopia | Frankfurt | 4 | All Maps | STV","players":null},{"server_id":310,"name":"Uncletopia | Frankfurt | 5 | All Maps","name_short":"frk-5","host":"frk-1.de.uncletopia.com","port":27055,"enabled":true,"region":"eu","cc":"de","latitude":50.110924,"longitude":8.682127,"reserved":0,"last_update":"0001-01-01T00:00:00Z","name_a2s":"Uncletopia | Frankfurt | 5 | All Maps","protocol":17,"map":"pl_pier","folder":"tf","game":"Team Fortress","app_id":440,"player_count":0,"max_players":24,"Bots":0,"server_type":"Dedicated","server_os":"Linux","password":true,"vac":true,"version":"7961495","steam_id":85568392924504277,"keywords":["nocrits","nodmgspread","payload","uncletopia"],"game_id":440,"stv_port":27056,"stv_name":"Uncletopia | Frankfurt | 5 | All Maps | STV","players":null},{"server_id":311,"name":"Uncletopia | Frankfurt | 6 | All Maps","name_short":"frk-6","host":"frk-1.de.uncletopia.com","port":27065,"enabled":true,"region":"eu","cc":"de","latitude":50.110924,"longitude":8.682127,"reserved":0,"last_update":"0001-01-01T00:00:00Z","name_a2s":"Uncletopia | Frankfurt | 6 | All Maps","protocol":17,"map":"pl_badwater","folder":"tf","game":"Team Fortress","app_id":440,"player_count":0,"max_players":24,"Bots":0,"server_type":"Dedicated","server_os":"Linux","password":true,"vac":true,"version":"7961495","steam_id":85568392924504278,"keywords":["nocrits","nodmgspread","payload","uncletopia"],"game_id":440,"stv_port":27066,"stv_name":"Uncletopia | Frankfurt | 6 | All Maps | STV","players":null},{"server_id":23,"name":"Uncletopia | Frankfurt | 7 | Stopwatch Beta","name_short":"frk-7","host":"frk-1.de.uncletopia.com","port":27075,"enabled":true,"region":"eu","cc":"de","latitude":50.110924,"longitude":8.682127,"reserved":0,"last_update":"0001-01-01T00:00:00Z","name_a2s":"Uncletopia | Frankfurt | 7 | Stopwatch Beta","protocol":17,"map":"pl_frontier_final","folder":"tf","game":"Team Fortress","app_id":440,"player_count":0,"max_players":24,"Bots":0,"server_type":"Dedicated","server_os":"Linux","password":true,"vac":true,"version":"7961495","steam_id":85568392924742827,"keywords":["nocrits","nodmgspread","payload","uncletopia"],"game_id":440,"stv_port":27076,"stv_name":"Uncletopia | Frankfurt | 7 | Stopwatch Beta | STV","players":null},{"server_id":24,"name":"Uncletopia | Frankfurt | 8 | Community","name_short":"frk-8","host":"frk-1.de.uncletopia.com","port":27085,"enabled":true,"region":"eu","cc":"de","latitude":50.110924,"longitude":8.682127,"reserved":0,"last_update":"0001-01-01T00:00:00Z","name_a2s":"Uncletopia | Frankfurt | 8 | Community","protocol":17,"map":"koth_highpass","folder":"tf","game":"Team Fortress","app_id":440,"player_count":0,"max_players":24,"Bots":0,"server_type":"Dedicated","server_os":"Linux","password":true,"vac":true,"version":"7961495","steam_id":85568392924742828,"keywords":["cp","nocrits","nodmgspread","uncletopia"],"game_id":440,"stv_port":27086,"stv_name":"Uncletopia | Frankfurt | 8 | Community | STV","players":null},{"server_id":202,"name":"Uncletopia | Hong Kong | 1 | All Maps","name_short":"hgk-1","host":"hgk-1.hk.uncletopia.com","port":27015,"enabled":true,"region":"asia","cc":"hk","latitude":22.302711,"longitude":114.177216,"reserved":0,"last_update":"0001-01-01T00:00:00Z","name_a2s":"Uncletopia | Hong Kong | 1 | All Maps","protocol":17,"map":"pl_pier","folder":"tf","game":"Team Fortress","app_id":440,"player_count":4,"max_players":24,"Bots":0,"server_type":"Dedicated","server_os":"Linux","password":true,"vac":true,"version":"7961495","steam_id":85568392924494504,"keywords":["cp","nocrits","nodmgspread","uncletopia"],"game_id":440,"stv_port":27016,"stv_name":"Uncletopia | Hong Kong | 1 | All Maps | STV","players":[{"user_id":11,"name":"§aveh!","steam_id":76561198141410845,"connected_time":1474000000000,"state":"spawning","ping":79},{"user_id":12,"name":"derek.patriarca30","steam_id":76561199427230206,"connected_time":1360000000000,"state":"spawning","ping":67},{"user_id":16,"name":"23rd","steam_id":76561199014675406,"connected_time":533000000000,"state":"spawning","ping":126},{"user_id":15,"name":"dudufeces","steam_id":76561199246172912,"connected_time":655000000000,"state":"spawning","ping":178}]},{"server_id":1,"name":"Uncletopia | Los Angeles | 1 | All Maps","name_short":"lax-1","host":"lax-1.us.uncletopia.com","port":27015,"enabled":true,"region":"us-west","cc":"us","latitude":33.94279,"longitude":-118.41004,"reserved":0,"last_update":"0001-01-01T00:00:00Z","name_a2s":"Uncletopia | Los Angeles | 1 | All Maps","protocol":17,"map":"cp_sunshine","folder":"tf","game":"Team Fortress","app_id":440,"player_count":23,"max_players":24,"Bots":0,"server_type":"Dedicated","server_os":"Linux","password":true,"vac":true,"version":"7961495","steam_id":85568392924469991,"keywords":["cp","nocrits","nodmgspread","uncletopia"],"game_id":440,"stv_port":27016,"stv_name":"Uncletopia | Los Angeles | 1 | All Maps | STV","players":[{"user_id":137,"name":"SS. Skeptical","steam_id":76561198038261789,"connected_time":579000000000,"state":"active","ping":88},{"user_id":129,"name":"Cypress [ +/- ] ✔","steam_id":76561198067164431,"connected_time":1589000000000,"state":"active","ping":45},{"user_id":113,"name":"shakoiwa","steam_id":76561199059441773,"connected_time":2359000000000,"state":"active","ping":53},{"user_id":135,"name":"SpeedyGongo","steam_id":76561198842946737,"connected_time":1018000000000,"state":"active","ping":79},{"user_id":145,"name":"Sax","steam_id":76561198055425123,"connected_time":523000000000,"state":"active","ping":93},{"user_id":101,"name":"exx","steam_id":76561198090552145,"connected_time":4027000000000,"state":"active","ping":48},{"user_id":118,"name":"R3S0LVE_","steam_id":76561198389201130,"connected_time":1918000000000,"state":"active","ping":56},{"user_id":149,"name":"paypur -rng","steam_id":76561198214370515,"connected_time":359000000000,"state":"active","ping":112},{"user_id":138,"name":"WhatAmIDoing","steam_id":76561199060028126,"connected_time":579000000000,"state":"active","ping":70},{"user_id":128,"name":"BallsInAMeatGrinder","steam_id":76561198067871782,"connected_time":1698000000000,"state":"active","ping":79},{"user_id":141,"name":"GrumpyGrampaKoala","steam_id":76561198020441036,"connected_time":569000000000,"state":"active","ping":83},{"user_id":142,"name":"Austin","steam_id":76561197998442712,"connected_time":559000000000,"state":"active","ping":58},{"user_id":147,"name":"I just did a \"Gaming\"","steam_id":76561198153836761,"connected_time":458000000000,"state":"active","ping":71},{"user_id":132,"name":"Nooblord","steam_id":76561199105123730,"connected_time":1159000000000,"state":"active","ping":91},{"user_id":133,"name":"papi Chulo","steam_id":76561198126274984,"connected_time":1046000000000,"state":"active","ping":82},{"user_id":114,"name":"walrooos","steam_id":76561198024521839,"connected_time":2230000000000,"state":"active","ping":49},{"user_id":40,"name":"Tako","steam_id":76561199264073138,"connected_time":6791000000000,"state":"active","ping":38},{"user_id":148,"name":"CALsHero09","steam_id":76561198155881095,"connected_time":454000000000,"state":"active","ping":95},{"user_id":78,"name":"97duckworth","steam_id":76561199231763519,"connected_time":5054000000000,"state":"active","ping":109},{"user_id":150,"name":"weed","steam_id":76561198149929071,"connected_time":278000000000,"state":"active","ping":75},{"user_id":89,"name":"SanitysEdge","steam_id":76561198130732813,"connected_time":4652000000000,"state":"active","ping":49},{"user_id":153,"name":"Alf Creepypasta","steam_id":76561198841844093,"connected_time":190000000000,"state":"active","ping":47},{"user_id":80,"name":"ii_BlooMoon","steam_id":76561199100597391,"connected_time":5021000000000,"state":"active","ping":57}]},{"server_id":112,"name":"Uncletopia | Los Angeles | 2 | All Maps","name_short":"lax-2","host":"lax-1.us.uncletopia.com","port":27025,"enabled":true,"region":"us-west","cc":"us","latitude":33.94279,"longitude":-118.41004,"reserved":0,"last_update":"0001-01-01T00:00:00Z","name_a2s":"Uncletopia | Los Angeles | 2 | All Maps","protocol":17,"map":"pl_badwater","folder":"tf","game":"Team Fortress","app_id":440,"player_count":24,"max_players":24,"Bots":0,"server_type":"Dedicated","server_os":"Linux","password":true,"vac":true,"version":"7961495","steam_id":85568392924469992,"keywords":["nocrits","nodmgspread","payload","uncletopia"],"game_id":440,"stv_port":27026,"stv_name":"Uncletopia | Los Angeles | 2 | All Maps | STV","players":[{"user_id":180,"name":"palm grip connoisseur","steam_id":76561198073107739,"connected_time":1109000000000,"state":"active","ping":51},{"user_id":185,"name":"queer latinx pmc contractor","steam_id":76561198058617608,"connected_time":528000000000,"state":"active","ping":49},{"user_id":177,"name":"havarti gaming","steam_id":76561198069895678,"connected_time":1236000000000,"state":"active","ping":99},{"user_id":155,"name":"Mapachito Lindo","steam_id":76561198031359995,"connected_time":2590000000000,"state":"active","ping":74},{"user_id":157,"name":"knight of light","steam_id":76561198025551646,"connected_time":2554000000000,"state":"active","ping":99},{"user_id":178,"name":"Renota","steam_id":76561198058224488,"connected_time":1196000000000,"state":"active","ping":137},{"user_id":158,"name":"Skippy Dinglechalk","steam_id":76561198133291980,"connected_time":2548000000000,"state":"active","ping":144},{"user_id":99,"name":"Melon","steam_id":76561199202306398,"connected_time":7076000000000,"state":"active","ping":61},{"user_id":132,"name":"samvaluez","steam_id":76561199213743808,"connected_time":4842000000000,"state":"active","ping":68},{"user_id":133,"name":"YouAreReadingThis","steam_id":76561198367831600,"connected_time":4766000000000,"state":"active","ping":68},{"user_id":179,"name":"Enderkill777","steam_id":76561198876915153,"connected_time":1180000000000,"state":"active","ping":64},{"user_id":160,"name":"Freyja","steam_id":76561198207412177,"connected_time":2530000000000,"state":"active","ping":72},{"user_id":162,"name":"RAWRWAIFU","steam_id":76561198032118386,"connected_time":2490000000000,"state":"active","ping":100},{"user_id":181,"name":"danielarmvt","steam_id":76561198799723201,"connected_time":1105000000000,"state":"active","ping":100},{"user_id":152,"name":"PieSpie","steam_id":76561198054531169,"connected_time":2861000000000,"state":"active","ping":149},{"user_id":138,"name":"Ralph Kramden (Slim Charles)","steam_id":76561197981687895,"connected_time":4117000000000,"state":"active","ping":62},{"user_id":184,"name":"Enstabanger","steam_id":76561198140736928,"connected_time":602000000000,"state":"active","ping":70},{"user_id":174,"name":"zeplinnn","steam_id":76561198301300987,"connected_time":1446000000000,"state":"active","ping":68},{"user_id":141,"name":"[Industrial] A_HUMBLEBUMBLED","steam_id":76561198064771878,"connected_time":4094000000000,"state":"active","ping":76},{"user_id":186,"name":"Prsm","steam_id":76561198053344995,"connected_time":490000000000,"state":"active","ping":101},{"user_id":143,"name":"Pybro's Day Off","steam_id":76561197996353534,"connected_time":4079000000000,"state":"active","ping":52},{"user_id":144,"name":"Lambchop","steam_id":76561198043900363,"connected_time":4066000000000,"state":"active","ping":72},{"user_id":161,"name":"WarBorg","steam_id":76561198929639228,"connected_time":2520000000000,"state":"active","ping":47},{"user_id":182,"name":"Fargo","steam_id":76561198044703931,"connected_time":1090000000000,"state":"active","ping":86}]},{"server_id":324,"name":"Uncletopia | Los Angeles | 3 | All Maps","name_short":"lax-3","host":"lax-1.us.uncletopia.com","port":27035,"enabled":true,"region":"us-west","cc":"us","latitude":33.94279,"longitude":-118.41004,"reserved":0,"last_update":"0001-01-01T00:00:00Z","name_a2s":"Uncletopia | Los Angeles | 3 | All Maps","protocol":17,"map":"pl_upward","folder":"tf","game":"Team Fortress","app_id":440,"player_count":24,"max_players":24,"Bots":0,"server_type":"Dedicated","server_os":"Linux","password":true,"vac":true,"version":"7961495","steam_id":85568392924510198,"keywords":["nocrits","nodmgspread","payload","uncletopia"],"game_id":440,"stv_port":27036,"stv_name":"Uncletopia | Los Angeles | 3 | All Maps | STV","players":[{"user_id":172,"name":"boof^","steam_id":76561198087074444,"connected_time":1215000000000,"state":"active","ping":53},{"user_id":192,"name":"Heat","steam_id":76561198089227368,"connected_time":10000000000,"state":"spawning","ping":925},{"user_id":190,"name":"dirty30","steam_id":76561198021226566,"connected_time":47000000000,"state":"active","ping":74},{"user_id":168,"name":"Buswolley","steam_id":76561197995205571,"connected_time":1285000000000,"state":"active","ping":56},{"user_id":189,"name":"Buncake","steam_id":76561198072541212,"connected_time":157000000000,"state":"active","ping":60},{"user_id":183,"name":"Pez","steam_id":76561199197778137,"connected_time":485000000000,"state":"active","ping":68},{"user_id":159,"name":"JPM岩","steam_id":76561198043967997,"connected_time":1916000000000,"state":"active","ping":39},{"user_id":124,"name":"T4NNEr","steam_id":76561198266327817,"connected_time":4615000000000,"state":"active","ping":69},{"user_id":169,"name":"vareh","steam_id":76561197993190926,"connected_time":1283000000000,"state":"active","ping":89},{"user_id":170,"name":"f2p player (no way)","steam_id":76561199491666080,"connected_time":1274000000000,"state":"active","ping":186},{"user_id":91,"name":"Bag","steam_id":76561198152890989,"connected_time":6049000000000,"state":"active","ping":136},{"user_id":156,"name":"tomiz","steam_id":76561198827013832,"connected_time":2436000000000,"state":"active","ping":56},{"user_id":186,"name":"Gruncle PUXXY's Man Milkers","steam_id":76561197995465137,"connected_time":302000000000,"state":"active","ping":69},{"user_id":133,"name":"Mocha Josie","steam_id":76561198066452726,"connected_time":4177000000000,"state":"active","ping":48},{"user_id":153,"name":"NUKE RADIO","steam_id":76561198979277948,"connected_time":2541000000000,"state":"active","ping":91},{"user_id":138,"name":"donutdagger","steam_id":76561199203048300,"connected_time":3625000000000,"state":"active","ping":56},{"user_id":187,"name":"big coat season","steam_id":76561198047689205,"connected_time":272000000000,"state":"active","ping":99},{"user_id":129,"name":"tosm-AA-","steam_id":76561198130032444,"connected_time":4569000000000,"state":"active","ping":73},{"user_id":177,"name":"Justy","steam_id":76561198044014069,"connected_time":1159000000000,"state":"active","ping":77},{"user_id":174,"name":"Orkka","steam_id":76561198079597186,"connected_time":1210000000000,"state":"active","ping":79},{"user_id":181,"name":"firestabber","steam_id":76561198057055577,"connected_time":854000000000,"state":"active","ping":73},{"user_id":182,"name":"GLXy","steam_id":76561198207551544,"connected_time":609000000000,"state":"active","ping":71},{"user_id":180,"name":"Hikaru Ichijyo","steam_id":76561198011002090,"connected_time":1111000000000,"state":"active","ping":80},{"user_id":191,"name":"spot_the_cow","steam_id":76561198151135298,"connected_time":47000000000,"state":"active","ping":35}]},{"server_id":25,"name":"Uncletopia | Los Angeles | 4 | Stopwatch Beta","name_short":"lax-4","host":"lax-1.us.uncletopia.com","port":27045,"enabled":true,"region":"us-west","cc":"us","latitude":33.94279,"longitude":-118.41004,"reserved":0,"last_update":"0001-01-01T00:00:00Z","name_a2s":"Uncletopia | Los Angeles | 4 | Stopwatch Beta","protocol":17,"map":"cp_sunshine","folder":"tf","game":"Team Fortress","app_id":440,"player_count":19,"max_players":24,"Bots":0,"server_type":"Dedicated","server_os":"Linux","password":true,"vac":true,"version":"7961495","steam_id":85568392924510199,"keywords":["cp","nocrits","nodmgspread","uncletopia"],"game_id":440,"stv_port":27046,"stv_name":"Uncletopia | Los Angeles | 4 | Stopwatch Beta | STV","players":[{"user_id":15,"name":"They could be ********","steam_id":76561198441020995,"connected_time":2313000000000,"state":"active","ping":45},{"user_id":57,"name":"IonizedAtom","steam_id":76561198381463568,"connected_time":162000000000,"state":"active","ping":60},{"user_id":16,"name":"squibonacci","steam_id":76561198305870184,"connected_time":2297000000000,"state":"active","ping":57},{"user_id":56,"name":"lasagnalarry12","steam_id":76561198162688146,"connected_time":198000000000,"state":"active","ping":53},{"user_id":17,"name":"JavaScript Frappuccino","steam_id":76561198111620153,"connected_time":2283000000000,"state":"active","ping":75},{"user_id":42,"name":"armadahamnsterx","steam_id":76561198333027263,"connected_time":1158000000000,"state":"active","ping":43},{"user_id":20,"name":"Rayven Greyjoy","steam_id":76561198102241554,"connected_time":2148000000000,"state":"active","ping":58},{"user_id":58,"name":"Huntsman Sniper","steam_id":76561198111278197,"connected_time":124000000000,"state":"active","ping":59},{"user_id":23,"name":"BaconLies","steam_id":76561198409244181,"connected_time":2014000000000,"state":"active","ping":58},{"user_id":59,"name":"fun","steam_id":76561199469712812,"connected_time":17000000000,"state":"active","ping":92},{"user_id":27,"name":"Nibaba","steam_id":76561198204851532,"connected_time":1847000000000,"state":"active","ping":65},{"user_id":30,"name":"Pop_Tarts","steam_id":76561199037187808,"connected_time":1612000000000,"state":"active","ping":89},{"user_id":51,"name":"spoink510","steam_id":76561199084072192,"connected_time":300000000000,"state":"active","ping":89},{"user_id":31,"name":"BasiIisk","steam_id":76561198122816757,"connected_time":1549000000000,"state":"active","ping":73},{"user_id":44,"name":"xXnyck420Xx","steam_id":76561198059433498,"connected_time":1002000000000,"state":"active","ping":71},{"user_id":34,"name":"GH578","steam_id":76561199493262585,"connected_time":1375000000000,"state":"active","ping":71},{"user_id":45,"name":"dansal","steam_id":76561197997042510,"connected_time":905000000000,"state":"active","ping":95},{"user_id":36,"name":"asm_ghost","steam_id":76561199205363547,"connected_time":1357000000000,"state":"active","ping":261},{"user_id":37,"name":"Shroomish","steam_id":76561199109440924,"connected_time":1315000000000,"state":"active","ping":86}]},{"server_id":11,"name":"Uncletopia | London | 1 | All Maps","name_short":"lon-1","host":"lon-1.uk.uncletopia.com","port":27015,"enabled":true,"region":"eu","cc":"gb","latitude":51.509865,"longitude":-0.118092,"reserved":0,"last_update":"0001-01-01T00:00:00Z","name_a2s":"Uncletopia | London | 1 | All Maps","protocol":17,"map":"cp_steel","folder":"tf","game":"Team Fortress","app_id":440,"player_count":24,"max_players":24,"Bots":0,"server_type":"Dedicated","server_os":"Linux","password":true,"vac":true,"version":"7961495","steam_id":85568392924367362,"keywords":["cp","nocrits","nodmgspread","uncletopia"],"game_id":440,"stv_port":27016,"stv_name":"Uncletopia | London | 1 | All Maps | STV","players":[{"user_id":149,"name":"jonbob","steam_id":76561197963506620,"connected_time":569000000000,"state":"active","ping":49},{"user_id":158,"name":"shooer!","steam_id":76561198110531281,"connected_time":248000000000,"state":"active","ping":59},{"user_id":146,"name":"Goblin eGirl","steam_id":76561198068870513,"connected_time":820000000000,"state":"active","ping":60},{"user_id":157,"name":"alice","steam_id":76561198180361759,"connected_time":250000000000,"state":"active","ping":37},{"user_id":159,"name":"Enjoyer","steam_id":76561198147399855,"connected_time":227000000000,"state":"active","ping":131},{"user_id":89,"name":"Cute Bulge","steam_id":76561198155494332,"connected_time":6636000000000,"state":"active","ping":45},{"user_id":156,"name":"not austin","steam_id":76561197992615321,"connected_time":261000000000,"state":"active","ping":155},{"user_id":77,"name":"snowycoast","steam_id":76561198346638308,"connected_time":7294000000000,"state":"active","ping":53},{"user_id":117,"name":"ja","steam_id":76561199228540618,"connected_time":3077000000000,"state":"active","ping":80},{"user_id":162,"name":"Dragon","steam_id":76561198163255365,"connected_time":74000000000,"state":"spawning","ping":115},{"user_id":82,"name":"bird ideas","steam_id":76561199480942903,"connected_time":6831000000000,"state":"active","ping":72},{"user_id":164,"name":"Rudoss","steam_id":76561198018415787,"connected_time":33000000000,"state":"active","ping":74},{"user_id":120,"name":"BlueBlueFox","steam_id":76561198053817230,"connected_time":2944000000000,"state":"active","ping":76},{"user_id":148,"name":"yuno appreciator","steam_id":76561198083286511,"connected_time":605000000000,"state":"active","ping":32},{"user_id":111,"name":"Spore","steam_id":76561198889433116,"connected_time":3113000000000,"state":"active","ping":83},{"user_id":160,"name":"God´s Cock","steam_id":76561198058947923,"connected_time":188000000000,"state":"active","ping":75},{"user_id":161,"name":"hayley ♥","steam_id":76561198093125555,"connected_time":80000000000,"state":"active","ping":60},{"user_id":121,"name":"The Groundhog","steam_id":76561198881037607,"connected_time":2923000000000,"state":"active","ping":72},{"user_id":144,"name":"Mr. Fox","steam_id":76561198803610709,"connected_time":897000000000,"state":"active","ping":108},{"user_id":123,"name":"SuperBob103","steam_id":76561199175360012,"connected_time":2803000000000,"state":"active","ping":51},{"user_id":154,"name":"dec","steam_id":76561198009660168,"connected_time":538000000000,"state":"active","ping":45},{"user_id":114,"name":"Abby","steam_id":76561198170528489,"connected_time":3096000000000,"state":"active","ping":63},{"user_id":91,"name":"semen demon","steam_id":76561198091686339,"connected_time":6562000000000,"state":"active","ping":35},{"user_id":115,"name":"Rob","steam_id":76561198122971317,"connected_time":3095000000000,"state":"active","ping":45}]},{"server_id":114,"name":"Uncletopia | London | 2 | All Maps","name_short":"lon-2","host":"lon-1.uk.uncletopia.com","port":27025,"enabled":true,"region":"eu","cc":"gb","latitude":51.509865,"longitude":-0.118092,"reserved":0,"last_update":"0001-01-01T00:00:00Z","name_a2s":"Uncletopia | London | 2 | All Maps","protocol":17,"map":"pl_frontier_final","folder":"tf","game":"Team Fortress","app_id":440,"player_count":0,"max_players":24,"Bots":0,"server_type":"Dedicated","server_os":"Linux","password":true,"vac":true,"version":"7961495","steam_id":85568392924470941,"keywords":["nocrits","nodmgspread","payload","uncletopia"],"game_id":440,"stv_port":27026,"stv_name":"Uncletopia | London | 2 | All Maps | STV","players":null},{"server_id":320,"name":"Uncletopia | London | 3 | All Maps","name_short":"lon-3","host":"lon-1.uk.uncletopia.com","port":27035,"enabled":true,"region":"eu","cc":"gb","latitude":51.509865,"longitude":-0.118092,"reserved":0,"last_update":"0001-01-01T00:00:00Z","name_a2s":"Uncletopia | London | 3 | All Maps","protocol":17,"map":"pl_snowycoast","folder":"tf","game":"Team Fortress","app_id":440,"player_count":0,"max_players":24,"Bots":0,"server_type":"Dedicated","server_os":"Linux","password":true,"vac":true,"version":"7961495","steam_id":85568392924510192,"keywords":["nocrits","nodmgspread","payload","uncletopia"],"game_id":440,"stv_port":27036,"stv_name":"Uncletopia | London | 3 | All Maps | STV","players":null},{"server_id":321,"name":"Uncletopia | London | 4 | All Maps","name_short":"lon-4","host":"lon-1.uk.uncletopia.com","port":27045,"enabled":true,"region":"eu","cc":"gb","latitude":51.509865,"longitude":-0.118092,"reserved":0,"last_update":"0001-01-01T00:00:00Z","name_a2s":"Uncletopia | London | 4 | All Maps","protocol":17,"map":"pl_frontier_final","folder":"tf","game":"Team Fortress","app_id":440,"player_count":0,"max_players":24,"Bots":0,"server_type":"Dedicated","server_os":"Linux","password":true,"vac":true,"version":"7961495","steam_id":85568392924510193,"keywords":["nocrits","nodmgspread","payload","uncletopia"],"game_id":440,"stv_port":27046,"stv_name":"Uncletopia | London | 4 | All Maps | STV","players":null},{"server_id":21,"name":"Uncletopia | London | 5 | All Maps","name_short":"lon-5","host":"lon-1.uk.uncletopia.com","port":27055,"enabled":true,"region":"eu","cc":"gb","latitude":51.509865,"longitude":-0.118092,"reserved":0,"last_update":"0001-01-01T00:00:00Z","name_a2s":"Uncletopia | London | 5 | All Maps","protocol":17,"map":"koth_highpass","folder":"tf","game":"Team Fortress","app_id":440,"player_count":0,"max_players":24,"Bots":0,"server_type":"Dedicated","server_os":"Linux","password":true,"vac":true,"version":"7961495","steam_id":85568392924742829,"keywords":["cp","nocrits","nodmgspread","uncletopia"],"game_id":440,"stv_port":27056,"stv_name":"Uncletopia | London | 5 | All Maps | STV","players":null},{"server_id":22,"name":"Uncletopia | London | 6 | All Maps","name_short":"lon-6","host":"lon-1.uk.uncletopia.com","port":27065,"enabled":true,"region":"eu","cc":"gb","latitude":51.509865,"longitude":-0.118092,"reserved":0,"last_update":"0001-01-01T00:00:00Z","name_a2s":"Uncletopia | London | 6 | All Maps","protocol":17,"map":"koth_lakeside_final","folder":"tf","game":"Team Fortress","app_id":440,"player_count":0,"max_players":24,"Bots":0,"server_type":"Dedicated","server_os":"Linux","password":true,"vac":true,"version":"7961495","steam_id":85568392924742830,"keywords":["cp","nocrits","nodmgspread","uncletopia"],"game_id":440,"stv_port":27066,"stv_name":"Uncletopia | London | 6 | All Maps | STV","players":null},{"server_id":40,"name":"Uncletopia | London | 7 | No Payload","name_short":"lon-7","host":"lon-1.uk.uncletopia.com","port":27075,"enabled":true,"region":"eu","cc":"gb","latitude":51.509865,"longitude":-0.118092,"reserved":0,"last_update":"0001-01-01T00:00:00Z","name_a2s":"Uncletopia | London | 7 | No Payload","protocol":17,"map":"cp_altitude","folder":"tf","game":"Team Fortress","app_id":440,"player_count":0,"max_players":24,"Bots":0,"server_type":"Dedicated","server_os":"Linux","password":true,"vac":true,"version":"7961495","steam_id":85568392924964314,"keywords":["cp","nocrits","nodmgspread","uncletopia"],"game_id":440,"stv_port":27076,"stv_name":"Uncletopia | London | 7 | No Payload | STV","players":null},{"server_id":41,"name":"Uncletopia | London | 8 | Community","name_short":"lon-8","host":"lon-1.uk.uncletopia.com","port":27085,"enabled":true,"region":"eu","cc":"gb","latitude":51.509865,"longitude":-0.118092,"reserved":0,"last_update":"0001-01-01T00:00:00Z","name_a2s":"Uncletopia | London | 8 | Community","protocol":17,"map":"workshop/rd_asteroid_redux_b1.ugc2154902912","folder":"tf","game":"Team Fortress","app_id":440,"player_count":0,"max_players":24,"Bots":0,"server_type":"Dedicated","server_os":"Linux","password":true,"vac":true,"version":"7961495","steam_id":85568392924964315,"keywords":["beta","nocrits","nodmgspread","rd","uncletopia"],"game_id":440,"stv_port":27086,"stv_name":"Uncletopia | London | 8 | Community | STV","players":null},{"server_id":300,"name":"Uncletopia | Montréal | 1 | All Maps","name_short":"mtl-1","host":"mtl-1.ca.uncletopia.com","port":27015,"enabled":true,"region":"us-east","cc":"ca","latitude":45.50889,"longitude":-73.56167,"reserved":0,"last_update":"0001-01-01T00:00:00Z","name_a2s":"","protocol":0,"map":"","folder":"","game":"","app_id":0,"player_count":0,"max_players":0,"Bots":0,"server_type":"","server_os":"","password":false,"vac":false,"version":"","steam_id":0,"keywords":null,"game_id":0,"stv_port":0,"stv_name":"","players":null},{"server_id":301,"name":"Uncletopia | Montréal | 2 | All Maps","name_short":"mtl-2","host":"mtl-1.ca.uncletopia.com","port":27025,"enabled":true,"region":"us-east","cc":"ca","latitude":45.50889,"longitude":-73.56167,"reserved":0,"last_update":"0001-01-01T00:00:00Z","name_a2s":"","protocol":0,"map":"","folder":"","game":"","app_id":0,"player_count":0,"max_players":0,"Bots":0,"server_type":"","server_os":"","password":false,"vac":false,"version":"","steam_id":0,"keywords":null,"game_id":0,"stv_port":0,"stv_name":"","players":null},{"server_id":302,"name":"Uncletopia | Montréal | 3 | All Maps","name_short":"mtl-3","host":"mtl-1.ca.uncletopia.com","port":27035,"enabled":true,"region":"us-east","cc":"ca","latitude":45.50889,"longitude":-73.56167,"reserved":0,"last_update":"0001-01-01T00:00:00Z","name_a2s":"","protocol":0,"map":"","folder":"","game":"","app_id":0,"player_count":11,"max_players":0,"Bots":0,"server_type":"","server_os":"","password":false,"vac":false,"version":"","steam_id":0,"keywords":null,"game_id":0,"stv_port":0,"stv_name":"","players":[{"user_id":189,"name":"tuskgoose","steam_id":76561198851003008,"connected_time":849000000000,"state":"active","ping":142},{"user_id":196,"name":"---/-.../..././.-./...-/./.-.","steam_id":76561199085561364,"connected_time":271000000000,"state":"active","ping":296},{"user_id":181,"name":"RailRunner66","steam_id":76561198053779091,"connected_time":2084000000000,"state":"active","ping":100},{"user_id":176,"name":"Curse of the Blackened Eye","steam_id":76561198097175164,"connected_time":2717000000000,"state":"active","ping":51},{"user_id":184,"name":"MOVEMENTPLAYER bladeefan12","steam_id":76561198274959371,"connected_time":1736000000000,"state":"active","ping":62},{"user_id":167,"name":"chunguspilled","steam_id":76561198263122601,"connected_time":3354000000000,"state":"active","ping":68},{"user_id":168,"name":"vazwirek","steam_id":76561198844852632,"connected_time":3351000000000,"state":"active","ping":67},{"user_id":93,"name":"dad playing in between naps","steam_id":76561198009425458,"connected_time":8968000000000,"state":"active","ping":88},{"user_id":186,"name":"GGen","steam_id":76561198029796216,"connected_time":1615000000000,"state":"active","ping":32},{"user_id":170,"name":"JakeK","steam_id":76561198149375504,"connected_time":3336000000000,"state":"active","ping":82},{"user_id":171,"name":"Dragus","steam_id":76561198032967285,"connected_time":3321000000000,"state":"active","ping":64}]},{"server_id":303,"name":"Uncletopia | Montréal | 4 | No Payload","name_short":"mtl-4","host":"mtl-1.ca.uncletopia.com","port":27045,"enabled":true,"region":"us-east","cc":"ca","latitude":45.50889,"longitude":-73.56167,"reserved":0,"last_update":"0001-01-01T00:00:00Z","name_a2s":"","protocol":0,"map":"","folder":"","game":"","app_id":0,"player_count":0,"max_players":0,"Bots":0,"server_type":"","server_os":"","password":false,"vac":false,"version":"","steam_id":0,"keywords":null,"game_id":0,"stv_port":0,"stv_name":"","players":null},{"server_id":13,"name":"Uncletopia | New York City | 1 | All Maps","name_short":"nyc-1","host":"nyc-1.us.uncletopia.com","port":27015,"enabled":true,"region":"us-east","cc":"us","latitude":40.73061,"longitude":-73.93524,"reserved":0,"last_update":"0001-01-01T00:00:00Z","name_a2s":"Uncletopia | New York City | 1 | All Maps","protocol":17,"map":"pl_goldrush","folder":"tf","game":"Team Fortress","app_id":440,"player_count":24,"max_players":24,"Bots":0,"server_type":"Dedicated","server_os":"Linux","password":true,"vac":true,"version":"7961495","steam_id":85568392924469993,"keywords":["nocrits","nodmgspread","payload","uncletopia"],"game_id":440,"stv_port":27016,"stv_name":"Uncletopia | New York City | 1 | All Maps | STV","players":[{"user_id":145,"name":"Timon's high on crack cocaine!","steam_id":76561198180396430,"connected_time":967000000000,"state":"active","ping":56},{"user_id":143,"name":"nice stream u have there","steam_id":76561198151172590,"connected_time":1068000000000,"state":"active","ping":82},{"user_id":144,"name":"Plasmoklo","steam_id":76561199071571167,"connected_time":986000000000,"state":"active","ping":71},{"user_id":142,"name":"Parth Makeo","steam_id":76561198002516581,"connected_time":1082000000000,"state":"active","ping":36},{"user_id":37,"name":"GummybearKillr","steam_id":76561198031235750,"connected_time":10905000000000,"state":"active","ping":58},{"user_id":177,"name":"your local forecast","steam_id":76561198042243083,"connected_time":47000000000,"state":"active","ping":47},{"user_id":138,"name":"cute strafer","steam_id":76561198043727436,"connected_time":1095000000000,"state":"active","ping":53},{"user_id":82,"name":"Runny Eggs","steam_id":76561198006785882,"connected_time":7036000000000,"state":"active","ping":97},{"user_id":136,"name":"Connection","steam_id":76561199230740231,"connected_time":1645000000000,"state":"active","ping":59},{"user_id":100,"name":"I'M PLAYING PYRO","steam_id":76561198096221632,"connected_time":4749000000000,"state":"active","ping":62},{"user_id":147,"name":"ʕ•ᴥ•ʔ the bear","steam_id":76561197989591976,"connected_time":923000000000,"state":"active","ping":63},{"user_id":139,"name":"bronwyn","steam_id":76561198098475782,"connected_time":1093000000000,"state":"active","ping":74},{"user_id":159,"name":"hashmap","steam_id":76561198043794014,"connected_time":669000000000,"state":"active","ping":61},{"user_id":123,"name":"Vapor Man","steam_id":76561198210173112,"connected_time":3278000000000,"state":"active","ping":120},{"user_id":170,"name":"Kerpal45","steam_id":76561198153340350,"connected_time":216000000000,"state":"active","ping":86},{"user_id":114,"name":"dogface","steam_id":76561198074407897,"connected_time":3876000000000,"state":"active","ping":53},{"user_id":83,"name":"Voracious Puma","steam_id":76561197963621649,"connected_time":6549000000000,"state":"active","ping":92},{"user_id":112,"name":"Gwen (Limited Huge Cock Edition","steam_id":76561198276385778,"connected_time":4091000000000,"state":"active","ping":116},{"user_id":137,"name":"re:imu","steam_id":76561198042216235,"connected_time":1348000000000,"state":"active","ping":90},{"user_id":127,"name":"StraySheep","steam_id":76561198256003811,"connected_time":3171000000000,"state":"active","ping":57},{"user_id":99,"name":"Punkin","steam_id":76561198334301755,"connected_time":4796000000000,"state":"active","ping":54},{"user_id":96,"name":"Meerkat","steam_id":76561199245435539,"connected_time":4947000000000,"state":"active","ping":117},{"user_id":150,"name":"levy","steam_id":76561198322063023,"connected_time":866000000000,"state":"active","ping":77},{"user_id":131,"name":"McGruble","steam_id":76561198136317340,"connected_time":2672000000000,"state":"active","ping":77}]},{"server_id":14,"name":"Uncletopia | New York City | 2 | All Maps","name_short":"nyc-2","host":"nyc-1.us.uncletopia.com","port":27025,"enabled":true,"region":"us-east","cc":"us","latitude":40.73061,"longitude":-73.93524,"reserved":0,"last_update":"0001-01-01T00:00:00Z","name_a2s":"Uncletopia | New York City | 2 | All Maps","protocol":17,"map":"cp_altitude","folder":"tf","game":"Team Fortress","app_id":440,"player_count":20,"max_players":24,"Bots":0,"server_type":"Dedicated","server_os":"Linux","password":true,"vac":true,"version":"7961495","steam_id":85568392924469994,"keywords":["cp","nocrits","nodmgspread","uncletopia"],"game_id":440,"stv_port":27026,"stv_name":"Uncletopia | New York City | 2 | All Maps | STV","players":[{"user_id":131,"name":"mr.edderkopper","steam_id":76561198152614478,"connected_time":1231000000000,"state":"active","ping":100},{"user_id":141,"name":"gefilte fisherman","steam_id":76561198001781616,"connected_time":909000000000,"state":"active","ping":36},{"user_id":136,"name":"vgMaster749","steam_id":76561198205048900,"connected_time":1128000000000,"state":"active","ping":61},{"user_id":103,"name":"corntent","steam_id":76561198824847948,"connected_time":3597000000000,"state":"active","ping":38},{"user_id":142,"name":"flamingcookies","steam_id":76561198280864779,"connected_time":821000000000,"state":"active","ping":68},{"user_id":88,"name":"space man","steam_id":76561198066333670,"connected_time":4658000000000,"state":"active","ping":66},{"user_id":124,"name":"Baron von Whoopsie","steam_id":76561197996691013,"connected_time":2015000000000,"state":"active","ping":60},{"user_id":106,"name":"YelloGoat","steam_id":76561198367174421,"connected_time":3537000000000,"state":"active","ping":40},{"user_id":118,"name":"erf","steam_id":76561198078203677,"connected_time":2254000000000,"state":"active","ping":56},{"user_id":145,"name":"Dr.Barber","steam_id":76561198053164815,"connected_time":70000000000,"state":"active","ping":54},{"user_id":115,"name":"hooley","steam_id":76561198041923067,"connected_time":2335000000000,"state":"active","ping":47},{"user_id":116,"name":"Speedy","steam_id":76561198080761661,"connected_time":2327000000000,"state":"active","ping":58},{"user_id":121,"name":"Denzel McFlurry","steam_id":76561199231296521,"connected_time":2180000000000,"state":"active","ping":61},{"user_id":89,"name":"Tony hawks pro skater 2 dlc","steam_id":76561198243387974,"connected_time":4326000000000,"state":"active","ping":54},{"user_id":129,"name":"Thunderous","steam_id":76561198192752793,"connected_time":1586000000000,"state":"active","ping":51},{"user_id":135,"name":"Nica's Dream","steam_id":76561198028617381,"connected_time":1146000000000,"state":"active","ping":65},{"user_id":138,"name":"Ethan7704","steam_id":76561198821010606,"connected_time":1123000000000,"state":"active","ping":80},{"user_id":140,"name":"Can't Even","steam_id":76561198093441459,"connected_time":966000000000,"state":"active","ping":65},{"user_id":74,"name":"götóttir sokkar","steam_id":76561197999657118,"connected_time":5717000000000,"state":"active","ping":62},{"user_id":50,"name":"Spiral Mountain","steam_id":76561198058683715,"connected_time":7473000000000,"state":"active","ping":63}]},{"server_id":15,"name":"Uncletopia | New York City | 3 | Stopwatch Beta","name_short":"nyc-3","host":"nyc-1.us.uncletopia.com","port":27035,"enabled":true,"region":"us-east","cc":"us","latitude":40.73061,"longitude":-73.93524,"reserved":0,"last_update":"0001-01-01T00:00:00Z","name_a2s":"Uncletopia | New York City | 3 | Stopwatch Beta","protocol":17,"map":"workshop/koth_bagel_rc6.ugc2514036946","folder":"tf","game":"Team Fortress","app_id":440,"player_count":16,"max_players":24,"Bots":0,"server_type":"Dedicated","server_os":"Linux","password":true,"vac":true,"version":"7961495","steam_id":85568392924742820,"keywords":["cp","nocrits","nodmgspread","uncletopia"],"game_id":440,"stv_port":27036,"stv_name":"Uncletopia | New York City | 3 | Stopwatch Beta | STV","players":[{"user_id":162,"name":"alset333","steam_id":76561198405345260,"connected_time":575000000000,"state":"active","ping":41},{"user_id":163,"name":"Strange Festive Femboy","steam_id":76561198050385093,"connected_time":556000000000,"state":"active","ping":69},{"user_id":113,"name":"beast from the east","steam_id":76561198267624034,"connected_time":3286000000000,"state":"active","ping":62},{"user_id":151,"name":"o_Oᕕ(◠ڼ◠)ᕗ","steam_id":76561198155185583,"connected_time":1057000000000,"state":"active","ping":70},{"user_id":152,"name":"G2 DamDam","steam_id":76561198173095997,"connected_time":968000000000,"state":"active","ping":52},{"user_id":164,"name":"Grandpa","steam_id":76561198153625939,"connected_time":374000000000,"state":"active","ping":68},{"user_id":165,"name":"crankshaft","steam_id":76561197992798282,"connected_time":180000000000,"state":"active","ping":116},{"user_id":156,"name":"rugbyralph288","steam_id":76561198161475964,"connected_time":732000000000,"state":"active","ping":89},{"user_id":108,"name":"Coach Twig","steam_id":76561198058831591,"connected_time":3493000000000,"state":"active","ping":48},{"user_id":166,"name":"GigaPenguin","steam_id":76561198805906456,"connected_time":139000000000,"state":"active","ping":46},{"user_id":167,"name":"eryn 🗺","steam_id":76561198004433070,"connected_time":106000000000,"state":"active","ping":87},{"user_id":74,"name":"Primitive","steam_id":76561198060500671,"connected_time":5388000000000,"state":"active","ping":36},{"user_id":157,"name":"bogus","steam_id":76561198377555279,"connected_time":720000000000,"state":"active","ping":85},{"user_id":161,"name":"DistantJragon","steam_id":76561198117563641,"connected_time":671000000000,"state":"active","ping":72},{"user_id":111,"name":"Real Scrungus","steam_id":76561198101825154,"connected_time":3474000000000,"state":"active","ping":99},{"user_id":114,"name":"sgr","steam_id":76561198069334215,"connected_time":3123000000000,"state":"active","ping":88}]},{"server_id":16,"name":"Uncletopia | New York City | 4 | Community","name_short":"nyc-4","host":"nyc-1.us.uncletopia.com","port":27045,"enabled":true,"region":"us-east","cc":"us","latitude":40.73061,"longitude":-73.93524,"reserved":0,"last_update":"0001-01-01T00:00:00Z","name_a2s":"Uncletopia | New York City | 4 | Community","protocol":17,"map":"workshop/koth_bagel_rc6.ugc2514036946","folder":"tf","game":"Team Fortress","app_id":440,"player_count":0,"max_players":24,"Bots":0,"server_type":"Dedicated","server_os":"Linux","password":true,"vac":true,"version":"7961495","steam_id":85568392924742821,"keywords":["cp","nocrits","nodmgspread","uncletopia"],"game_id":440,"stv_port":27046,"stv_name":"Uncletopia | New York City | 4 | Community | STV","players":null},{"server_id":142,"name":"Uncletopia | São Paulo | 1 | All Maps","name_short":"sao-1","host":"sao-1.br.uncletopia.com","port":27015,"enabled":true,"region":"sa","cc":"br","latitude":-23.533773,"longitude":-46.62529,"reserved":0,"last_update":"0001-01-01T00:00:00Z","name_a2s":"Uncletopia | São Paulo | 1 | All Maps","protocol":17,"map":"koth_lakeside_final","folder":"tf","game":"Team Fortress","app_id":440,"player_count":0,"max_players":24,"Bots":0,"server_type":"Dedicated","server_os":"Linux","password":true,"vac":true,"version":"7961495","steam_id":85568392924469996,"keywords":["cp","nocrits","nodmgspread","uncletopia"],"game_id":440,"stv_port":27016,"stv_name":"Uncletopia | São Paulo | 1 | All Maps | STV","players":null},{"server_id":143,"name":"Uncletopia | São Paulo | 2 | Community","name_short":"sao-2","host":"sao-2.br.uncletopia.com","port":27015,"enabled":true,"region":"sa","cc":"br","latitude":-23.533773,"longitude":-46.62529,"reserved":0,"last_update":"0001-01-01T00:00:00Z","name_a2s":"Uncletopia | São Paulo | 2 | Community","protocol":17,"map":"workshop/cp_kalinka_rc6a.ugc1272700588","folder":"tf","game":"Team Fortress","app_id":440,"player_count":0,"max_players":24,"Bots":0,"server_type":"Dedicated","server_os":"Linux","password":true,"vac":true,"version":"7961495","steam_id":85568392924485349,"keywords":["cp","nocrits","nodmgspread","uncletopia"],"game_id":440,"stv_port":27016,"stv_name":"Uncletopia | São Paulo | 2 | Community | STV","players":null},{"server_id":7,"name":"Uncletopia | Seattle | 1 | All Maps","name_short":"sea-1","host":"sea-1.us.uncletopia.com","port":27015,"enabled":true,"region":"us-west","cc":"us","latitude":47.608013,"longitude":-122.33517,"reserved":0,"last_update":"0001-01-01T00:00:00Z","name_a2s":"Uncletopia | Seattle | 1 | All Maps","protocol":17,"map":"pl_borneo","folder":"tf","game":"Team Fortress","app_id":440,"player_count":24,"max_players":24,"Bots":0,"server_type":"Dedicated","server_os":"Linux","password":true,"vac":true,"version":"7961495","steam_id":85568392924469997,"keywords":["nocrits","nodmgspread","payload","uncletopia"],"game_id":440,"stv_port":27016,"stv_name":"Uncletopia | Seattle | 1 | All Maps | STV","players":[{"user_id":174,"name":"Manchurian Bandit","steam_id":76561198072410042,"connected_time":3480000000000,"state":"active","ping":77},{"user_id":204,"name":"Crake","steam_id":76561198001959071,"connected_time":1057000000000,"state":"active","ping":57},{"user_id":178,"name":"Keamy","steam_id":76561199471434875,"connected_time":3129000000000,"state":"active","ping":42},{"user_id":185,"name":"Can of Oranges","steam_id":76561199121813529,"connected_time":2942000000000,"state":"active","ping":62},{"user_id":209,"name":"old woman yuri","steam_id":76561198111844236,"connected_time":906000000000,"state":"active","ping":127},{"user_id":191,"name":"NEBULA","steam_id":76561198086878595,"connected_time":1835000000000,"state":"active","ping":76},{"user_id":179,"name":"elemental dragon","steam_id":76561199053290319,"connected_time":3125000000000,"state":"active","ping":102},{"user_id":200,"name":"thunderous prophet","steam_id":76561198131166135,"connected_time":1167000000000,"state":"active","ping":34},{"user_id":182,"name":"Pyrotek⁴","steam_id":76561198072747672,"connected_time":3035000000000,"state":"active","ping":76},{"user_id":206,"name":"SnoDot","steam_id":76561198062209970,"connected_time":1034000000000,"state":"active","ping":41},{"user_id":197,"name":"greens beans","steam_id":76561198153611491,"connected_time":1257000000000,"state":"active","ping":43},{"user_id":208,"name":"death snail","steam_id":76561198093053238,"connected_time":1025000000000,"state":"active","ping":50},{"user_id":18,"name":"Grand","steam_id":76561198290143399,"connected_time":12127000000000,"state":"active","ping":76},{"user_id":188,"name":"Peakt","steam_id":76561198096328768,"connected_time":2086000000000,"state":"active","ping":54},{"user_id":199,"name":"Sniff","steam_id":76561198010270922,"connected_time":1198000000000,"state":"active","ping":53},{"user_id":202,"name":"Ducks","steam_id":76561198130038345,"connected_time":1120000000000,"state":"active","ping":65},{"user_id":187,"name":"Truffles","steam_id":76561198095868800,"connected_time":2541000000000,"state":"active","ping":118},{"user_id":217,"name":"resh","steam_id":76561198239598834,"connected_time":424000000000,"state":"active","ping":135},{"user_id":141,"name":"Ayayayayayahuasca","steam_id":76561199002906056,"connected_time":6702000000000,"state":"active","ping":47},{"user_id":207,"name":"pepe warlord","steam_id":76561198080819197,"connected_time":1033000000000,"state":"active","ping":95},{"user_id":222,"name":"fragadelphia","steam_id":76561198066116363,"connected_time":52000000000,"state":"active","ping":47},{"user_id":221,"name":"Norriss","steam_id":76561198920296293,"connected_time":157000000000,"state":"active","ping":40},{"user_id":216,"name":"KellyKapoor","steam_id":76561198040828123,"connected_time":475000000000,"state":"active","ping":49},{"user_id":156,"name":"Confirmed Bachelor","steam_id":76561198441041496,"connected_time":5577000000000,"state":"active","ping":58}]},{"server_id":119,"name":"Uncletopia | Seattle | 2 | All Maps","name_short":"sea-2","host":"sea-1.us.uncletopia.com","port":27025,"enabled":true,"region":"us-west","cc":"us","latitude":47.608013,"longitude":-122.33517,"reserved":0,"last_update":"0001-01-01T00:00:00Z","name_a2s":"Uncletopia | Seattle | 2 | All Maps","protocol":17,"map":"koth_harvest_final","folder":"tf","game":"Team Fortress","app_id":440,"player_count":24,"max_players":24,"Bots":0,"server_type":"Dedicated","server_os":"Linux","password":true,"vac":true,"version":"7961495","steam_id":85568392924469998,"keywords":["cp","nocrits","nodmgspread","uncletopia"],"game_id":440,"stv_port":27026,"stv_name":"Uncletopia | Seattle | 2 | All Maps | STV","players":[{"user_id":195,"name":"onionman0106","steam_id":76561199067766868,"connected_time":359000000000,"state":"active","ping":42},{"user_id":188,"name":"dougrocks421","steam_id":76561198165063918,"connected_time":816000000000,"state":"active","ping":34},{"user_id":183,"name":"General Fisticuffs","steam_id":76561198255721392,"connected_time":1256000000000,"state":"active","ping":135},{"user_id":169,"name":"craftylongsword","steam_id":76561198340102940,"connected_time":2160000000000,"state":"active","ping":54},{"user_id":67,"name":"Vibrantword3732","steam_id":76561198916638641,"connected_time":8006000000000,"state":"active","ping":62},{"user_id":189,"name":"Major_Pippy","steam_id":76561198004482878,"connected_time":739000000000,"state":"active","ping":45},{"user_id":139,"name":"Vintage TV","steam_id":76561198800334545,"connected_time":3672000000000,"state":"active","ping":67},{"user_id":162,"name":"lil boogie","steam_id":76561198064059721,"connected_time":2506000000000,"state":"active","ping":46},{"user_id":106,"name":"worker","steam_id":76561198039608940,"connected_time":5668000000000,"state":"active","ping":64},{"user_id":201,"name":"silly jester","steam_id":76561198079609974,"connected_time":9000000000,"state":"spawning","ping":106},{"user_id":196,"name":"Strikerbolt","steam_id":76561199095622897,"connected_time":313000000000,"state":"active","ping":79},{"user_id":173,"name":"AMONGUS","steam_id":76561199176017593,"connected_time":2047000000000,"state":"active","ping":82},{"user_id":118,"name":"TV","steam_id":76561198352097354,"connected_time":4894000000000,"state":"active","ping":181},{"user_id":163,"name":"blueboy23","steam_id":76561199121889873,"connected_time":2194000000000,"state":"active","ping":48},{"user_id":172,"name":"Neb","steam_id":76561198883473473,"connected_time":2068000000000,"state":"active","ping":41},{"user_id":165,"name":"Big Inch","steam_id":76561198052513500,"connected_time":2172000000000,"state":"active","ping":132},{"user_id":133,"name":"M@","steam_id":76561198053117503,"connected_time":4207000000000,"state":"active","ping":60},{"user_id":187,"name":"A Distraction!","steam_id":76561198145320480,"connected_time":853000000000,"state":"active","ping":128},{"user_id":147,"name":"Zepkyr","steam_id":76561198254690609,"connected_time":3583000000000,"state":"active","ping":153},{"user_id":199,"name":"Chad the Sex Haver","steam_id":76561198058236528,"connected_time":36000000000,"state":"active","ping":76},{"user_id":132,"name":"Grungus","steam_id":76561198047700230,"connected_time":4244000000000,"state":"active","ping":68},{"user_id":193,"name":"gibbon","steam_id":76561198143796866,"connected_time":630000000000,"state":"active","ping":46},{"user_id":200,"name":"CashGordon","steam_id":76561197975594096,"connected_time":36000000000,"state":"active","ping":33},{"user_id":171,"name":"mub","steam_id":76561197961943948,"connected_time":2157000000000,"state":"active","ping":48}]},{"server_id":406,"name":"Uncletopia | Seattle | 3 | Stopwatch Beta","name_short":"sea-3","host":"sea-1.us.uncletopia.com","port":27035,"enabled":true,"region":"us-west","cc":"us","latitude":47.608013,"longitude":-122.33517,"reserved":0,"last_update":"0001-01-01T00:00:00Z","name_a2s":"Uncletopia | Seattle | 3 | Stopwatch Beta","protocol":17,"map":"koth_highpass","folder":"tf","game":"Team Fortress","app_id":440,"player_count":0,"max_players":24,"Bots":0,"server_type":"Dedicated","server_os":"Linux","password":true,"vac":true,"version":"7961495","steam_id":85568392924515217,"keywords":["cp","nocrits","nodmgspread","uncletopia"],"game_id":440,"stv_port":27036,"stv_name":"Uncletopia | Seattle | 3 | Stopwatch Beta | STV","players":null},{"server_id":17,"name":"Uncletopia | San Francisco | 1 | All Maps","name_short":"sfo-1","host":"sfo-1.us.uncletopia.com","port":27015,"enabled":true,"region":"us-west","cc":"us","latitude":37.77397,"longitude":-122.4313,"reserved":0,"last_update":"0001-01-01T00:00:00Z","name_a2s":"Uncletopia | San Francisco | 1 | All Maps","protocol":17,"map":"cp_egypt_final","folder":"tf","game":"Team Fortress","app_id":440,"player_count":24,"max_players":24,"Bots":0,"server_type":"Dedicated","server_os":"Linux","password":true,"vac":true,"version":"7961495","steam_id":85568392924469999,"keywords":["cp","nocrits","nodmgspread","uncletopia"],"game_id":440,"stv_port":27016,"stv_name":"Uncletopia | San Francisco | 1 | All Maps | STV","players":[{"user_id":180,"name":"JACK BRUNO","steam_id":76561198027957690,"connected_time":529000000000,"state":"active","ping":57},{"user_id":159,"name":"✪ Jam","steam_id":76561198101672564,"connected_time":1605000000000,"state":"active","ping":45},{"user_id":177,"name":"himbomccree","steam_id":76561198373330850,"connected_time":826000000000,"state":"active","ping":59},{"user_id":184,"name":"tf2 country citizen","steam_id":76561198070136627,"connected_time":377000000000,"state":"active","ping":55},{"user_id":167,"name":"Skribbles","steam_id":76561198373073766,"connected_time":1077000000000,"state":"active","ping":59},{"user_id":185,"name":"MayKaye","steam_id":76561199016092265,"connected_time":295000000000,"state":"active","ping":65},{"user_id":69,"name":"❦.•°≖Wisp≖°•.❦","steam_id":76561198860426754,"connected_time":8588000000000,"state":"active","ping":125},{"user_id":186,"name":"Barress","steam_id":76561198011728743,"connected_time":276000000000,"state":"active","ping":44},{"user_id":179,"name":"HeHedron","steam_id":76561199199667164,"connected_time":736000000000,"state":"active","ping":74},{"user_id":190,"name":"tommy:3","steam_id":76561198041183975,"connected_time":74000000000,"state":"active","ping":119},{"user_id":183,"name":"The Assistant Regional Manager","steam_id":76561199221484936,"connected_time":459000000000,"state":"active","ping":75},{"user_id":169,"name":"branflakess","steam_id":76561198115832989,"connected_time":1068000000000,"state":"active","ping":67},{"user_id":71,"name":"Dusk","steam_id":76561198088681558,"connected_time":8396000000000,"state":"active","ping":60},{"user_id":134,"name":"berry delight","steam_id":76561198115254326,"connected_time":3606000000000,"state":"active","ping":96},{"user_id":181,"name":"guy from bigmind movie","steam_id":76561198810659621,"connected_time":521000000000,"state":"active","ping":54},{"user_id":119,"name":"Griffers","steam_id":76561198040782561,"connected_time":5396000000000,"state":"active","ping":128},{"user_id":182,"name":"Desert Cross Tortoise Fox","steam_id":76561198030736326,"connected_time":505000000000,"state":"active","ping":90},{"user_id":189,"name":"jashobeam, son of zibdian","steam_id":76561198233978116,"connected_time":221000000000,"state":"active","ping":71},{"user_id":188,"name":"TrueNorth","steam_id":76561198036663369,"connected_time":252000000000,"state":"active","ping":89},{"user_id":135,"name":"Agent Q","steam_id":76561198830829003,"connected_time":3550000000000,"state":"active","ping":75},{"user_id":174,"name":"5kPrime","steam_id":76561198039471915,"connected_time":891000000000,"state":"active","ping":70},{"user_id":175,"name":"involate","steam_id":76561198131833567,"connected_time":885000000000,"state":"active","ping":72},{"user_id":178,"name":"Zoinked_Rat","steam_id":76561199163877483,"connected_time":771000000000,"state":"active","ping":70},{"user_id":147,"name":"Caspian","steam_id":76561199041466962,"connected_time":2918000000000,"state":"active","ping":37}]},{"server_id":18,"name":"Uncletopia | San Francisco | 2 | All Maps","name_short":"sfo-2","host":"sfo-1.us.uncletopia.com","port":27025,"enabled":true,"region":"us-west","cc":"us","latitude":37.77397,"longitude":-122.4313,"reserved":0,"last_update":"0001-01-01T00:00:00Z","name_a2s":"Uncletopia | San Francisco | 2 | All Maps","protocol":17,"map":"pl_snowycoast","folder":"tf","game":"Team Fortress","app_id":440,"player_count":24,"max_players":24,"Bots":0,"server_type":"Dedicated","server_os":"Linux","password":true,"vac":true,"version":"7961495","steam_id":85568392924470000,"keywords":["nocrits","nodmgspread","payload","uncletopia"],"game_id":440,"stv_port":27026,"stv_name":"Uncletopia | San Francisco | 2 | All Maps | STV","players":[{"user_id":201,"name":"CPTforever","steam_id":76561198237767198,"connected_time":427000000000,"state":"active","ping":37},{"user_id":197,"name":"Mr defrost","steam_id":76561198322125657,"connected_time":1010000000000,"state":"active","ping":79},{"user_id":181,"name":"Untermensch","steam_id":76561198149634242,"connected_time":2466000000000,"state":"active","ping":90},{"user_id":105,"name":"Risky","steam_id":76561198231029328,"connected_time":7264000000000,"state":"active","ping":53},{"user_id":147,"name":"Five","steam_id":76561198026640473,"connected_time":5492000000000,"state":"active","ping":60},{"user_id":196,"name":"wals","steam_id":76561199166474769,"connected_time":1042000000000,"state":"active","ping":67},{"user_id":185,"name":"crispy","steam_id":76561198971106376,"connected_time":1719000000000,"state":"active","ping":90},{"user_id":175,"name":"2Alpha6","steam_id":76561197992690915,"connected_time":3486000000000,"state":"active","ping":100},{"user_id":178,"name":"Walrus","steam_id":76561198001799905,"connected_time":2817000000000,"state":"active","ping":53},{"user_id":135,"name":"Laggy Engineer","steam_id":76561198078317925,"connected_time":5766000000000,"state":"active","ping":94},{"user_id":186,"name":"Sinn","steam_id":76561199013434543,"connected_time":1525000000000,"state":"active","ping":65},{"user_id":188,"name":"hardfork","steam_id":76561197960958019,"connected_time":1515000000000,"state":"active","ping":66},{"user_id":160,"name":"TheTalentlessChicken","steam_id":76561198148390834,"connected_time":5140000000000,"state":"active","ping":74},{"user_id":167,"name":"K4T","steam_id":76561199211257988,"connected_time":4206000000000,"state":"active","ping":125},{"user_id":156,"name":"boffo","steam_id":76561198096978718,"connected_time":5269000000000,"state":"active","ping":108},{"user_id":180,"name":"Artic_Ryuu","steam_id":76561198182194918,"connected_time":2779000000000,"state":"active","ping":45},{"user_id":179,"name":"The Wind Fucker Lives","steam_id":76561198275362375,"connected_time":2805000000000,"state":"active","ping":56},{"user_id":200,"name":"Quigi","steam_id":76561198144645874,"connected_time":555000000000,"state":"active","ping":71},{"user_id":184,"name":"Addy \u003c3","steam_id":76561198045819723,"connected_time":1772000000000,"state":"active","ping":131},{"user_id":187,"name":"ronald","steam_id":76561197960691622,"connected_time":1521000000000,"state":"active","ping":78},{"user_id":150,"name":"Trash Man","steam_id":76561198064860110,"connected_time":5483000000000,"state":"active","ping":112},{"user_id":191,"name":"Arcane Flame","steam_id":76561198360024422,"connected_time":1400000000000,"state":"active","ping":72},{"user_id":203,"name":"Igrium","steam_id":76561198119549811,"connected_time":31000000000,"state":"spawning","ping":44},{"user_id":151,"name":"Rac Man","steam_id":76561198417029296,"connected_time":5475000000000,"state":"active","ping":98}]},{"server_id":19,"name":"Uncletopia | San Francisco | 3 | Stopwatch Beta","name_short":"sfo-3","host":"sfo-1.us.uncletopia.com","port":27035,"enabled":true,"region":"us-west","cc":"us","latitude":37.77397,"longitude":-122.4313,"reserved":0,"last_update":"0001-01-01T00:00:00Z","name_a2s":"Uncletopia | San Francisco | 3 | Stopwatch Beta","protocol":17,"map":"cp_granary","folder":"tf","game":"Team Fortress","app_id":440,"player_count":0,"max_players":24,"Bots":0,"server_type":"Dedicated","server_os":"Linux","password":true,"vac":true,"version":"7961495","steam_id":85568392924742824,"keywords":["cp","nocrits","nodmgspread","uncletopia"],"game_id":440,"stv_port":27036,"stv_name":"Uncletopia | San Francisco | 3 | Stopwatch Beta | STV","players":null},{"server_id":20,"name":"Uncletopia | San Francisco | 4 | Community","name_short":"sfo-4","host":"sfo-1.us.uncletopia.com","port":27045,"enabled":true,"region":"us-west","cc":"us","latitude":37.77397,"longitude":-122.4313,"reserved":0,"last_update":"0001-01-01T00:00:00Z","name_a2s":"Uncletopia | San Francisco | 4 | Community","protocol":17,"map":"workshop/cp_mannbase_rc2a.ugc1900737467","folder":"tf","game":"Team Fortress","app_id":440,"player_count":0,"max_players":24,"Bots":0,"server_type":"Dedicated","server_os":"Linux","password":true,"vac":true,"version":"7961495","steam_id":85568392924742826,"keywords":["cp","nocrits","nodmgspread","uncletopia"],"game_id":440,"stv_port":27046,"stv_name":"Uncletopia | San Francisco | 4 | Community | STV","players":null},{"server_id":141,"name":"Uncletopia | Sydney | 1 | All Maps","name_short":"syd-1","host":"syd-1.au.uncletopia.com","port":27015,"enabled":true,"region":"au","cc":"au","latitude":-33.865143,"longitude":151.2099,"reserved":0,"last_update":"0001-01-01T00:00:00Z","name_a2s":"Uncletopia | Sydney | 1 | All Maps","protocol":17,"map":"pl_frontier_final","folder":"tf","game":"Team Fortress","app_id":440,"player_count":22,"max_players":24,"Bots":0,"server_type":"Dedicated","server_os":"Linux","password":true,"vac":true,"version":"7961495","steam_id":85568392924470001,"keywords":["nocrits","nodmgspread","payload","uncletopia"],"game_id":440,"stv_port":27016,"stv_name":"Uncletopia | Sydney | 1 | All Maps | STV","players":[{"user_id":132,"name":"P. Ness","steam_id":76561198037664265,"connected_time":3823000000000,"state":"active","ping":60},{"user_id":121,"name":"Benji","steam_id":76561198158187293,"connected_time":4380000000000,"state":"active","ping":76},{"user_id":174,"name":"A lizard","steam_id":76561198301643498,"connected_time":201000000000,"state":"active","ping":60},{"user_id":175,"name":"lavanderpumpernickle(Del Davis)","steam_id":76561199093611800,"connected_time":199000000000,"state":"active","ping":60},{"user_id":156,"name":"Frank","steam_id":76561198142635376,"connected_time":1653000000000,"state":"active","ping":49},{"user_id":179,"name":"Doktór","steam_id":76561198302841509,"connected_time":10000000000,"state":"spawning","ping":54},{"user_id":159,"name":"Morgenstern","steam_id":76561198253080474,"connected_time":1316000000000,"state":"active","ping":69},{"user_id":168,"name":"doctor balls","steam_id":76561198049741125,"connected_time":571000000000,"state":"active","ping":59},{"user_id":170,"name":"Greg","steam_id":76561198133966374,"connected_time":510000000000,"state":"active","ping":45},{"user_id":127,"name":"Pompadouraus","steam_id":76561198327530525,"connected_time":4189000000000,"state":"active","ping":75},{"user_id":171,"name":"kRONZ","steam_id":76561197967136754,"connected_time":502000000000,"state":"active","ping":47},{"user_id":155,"name":"Snowy","steam_id":76561198255720598,"connected_time":1835000000000,"state":"active","ping":44},{"user_id":163,"name":"Batman in a mid-life crisis","steam_id":76561198326245641,"connected_time":1103000000000,"state":"active","ping":66},{"user_id":133,"name":"FrontlineNinja","steam_id":76561198046731954,"connected_time":3799000000000,"state":"active","ping":64},{"user_id":123,"name":"lofty","steam_id":76561198380588357,"connected_time":4284000000000,"state":"active","ping":60},{"user_id":178,"name":"Aith","steam_id":76561198150790590,"connected_time":31000000000,"state":"active","ping":47},{"user_id":140,"name":"miyamoto is daddy","steam_id":76561199483818230,"connected_time":3156000000000,"state":"spawning","ping":151},{"user_id":149,"name":"Bin","steam_id":76561199117653318,"connected_time":2432000000000,"state":"active","ping":69},{"user_id":164,"name":"Beans","steam_id":76561198137664191,"connected_time":1100000000000,"state":"active","ping":43},{"user_id":176,"name":"Logie","steam_id":76561198311511219,"connected_time":189000000000,"state":"active","ping":68},{"user_id":173,"name":"Earthling Jim","steam_id":76561198061960926,"connected_time":343000000000,"state":"active","ping":101},{"user_id":177,"name":"strausicle","steam_id":76561198983332062,"connected_time":188000000000,"state":"active","ping":66}]},{"server_id":123,"name":"Uncletopia | Sydney | 2 | All Maps","name_short":"syd-2","host":"syd-1.au.uncletopia.com","port":27025,"enabled":true,"region":"au","cc":"au","latitude":-33.865143,"longitude":151.2099,"reserved":0,"last_update":"0001-01-01T00:00:00Z","name_a2s":"Uncletopia | Sydney | 2 | All Maps","protocol":17,"map":"koth_lakeside_final","folder":"tf","game":"Team Fortress","app_id":440,"player_count":15,"max_players":24,"Bots":0,"server_type":"Dedicated","server_os":"Linux","password":true,"vac":true,"version":"7961495","steam_id":85568392924470002,"keywords":["cp","nocrits","nodmgspread","uncletopia"],"game_id":440,"stv_port":27026,"stv_name":"Uncletopia | Sydney | 2 | All Maps | STV","players":[{"user_id":36,"name":"Classy Doctor","steam_id":76561198257123968,"connected_time":2937000000000,"state":"active","ping":77},{"user_id":72,"name":"BigBeardThoRN","steam_id":76561197985641555,"connected_time":189000000000,"state":"active","ping":305},{"user_id":75,"name":"Flynt","steam_id":76561198832380936,"connected_time":78000000000,"state":"active","ping":76},{"user_id":38,"name":"Sover blw.tf","steam_id":76561198136347837,"connected_time":2631000000000,"state":"active","ping":128},{"user_id":20,"name":"RudeButton054","steam_id":76561198057560600,"connected_time":3646000000000,"state":"active","ping":64},{"user_id":60,"name":"Leaves19","steam_id":76561199262891492,"connected_time":1152000000000,"state":"active","ping":84},{"user_id":77,"name":"Mattsgottafat","steam_id":76561198044743806,"connected_time":42000000000,"state":"active","ping":53},{"user_id":25,"name":"funGus","steam_id":76561198799796200,"connected_time":3484000000000,"state":"active","ping":63},{"user_id":46,"name":"Bubbles","steam_id":76561198071119015,"connected_time":1635000000000,"state":"active","ping":53},{"user_id":71,"name":"i love fanta","steam_id":76561198043959806,"connected_time":201000000000,"state":"active","ping":97},{"user_id":49,"name":"rudra","steam_id":76561198067731912,"connected_time":1576000000000,"state":"active","ping":61},{"user_id":78,"name":"-pandora","steam_id":76561198108851796,"connected_time":41000000000,"state":"active","ping":59},{"user_id":35,"name":"Ando","steam_id":76561198088083391,"connected_time":3034000000000,"state":"active","ping":81},{"user_id":57,"name":"Leekduck","steam_id":76561198201978381,"connected_time":1329000000000,"state":"active","ping":69},{"user_id":66,"name":"Mooty","steam_id":76561198301293435,"connected_time":856000000000,"state":"active","ping":59}]},{"server_id":395,"name":"Uncletopia | Sydney | 3 | All Maps","name_short":"syd-3","host":"syd-1.au.uncletopia.com","port":27035,"enabled":true,"region":"au","cc":"au","latitude":-33.865143,"longitude":151.2099,"reserved":0,"last_update":"0001-01-01T00:00:00Z","name_a2s":"Uncletopia | Sydney | 3 | All Maps","protocol":17,"map":"cp_mountainlab","folder":"tf","game":"Team Fortress","app_id":440,"player_count":0,"max_players":24,"Bots":0,"server_type":"Dedicated","server_os":"Linux","password":true,"vac":true,"version":"7961495","steam_id":85568392925194467,"keywords":["cp","nocrits","nodmgspread","uncletopia"],"game_id":440,"stv_port":27036,"stv_name":"Uncletopia | Sydney | 3 | All Maps | STV","players":null},{"server_id":396,"name":"Uncletopia | Sydney | 4 | All Maps","name_short":"syd-4","host":"syd-1.au.uncletopia.com","port":27045,"enabled":true,"region":"au","cc":"au","latitude":-33.865143,"longitude":151.2099,"reserved":0,"last_update":"0001-01-01T00:00:00Z","name_a2s":"Uncletopia | Sydney | 4 | All Maps","protocol":17,"map":"pl_barnblitz","folder":"tf","game":"Team Fortress","app_id":440,"player_count":0,"max_players":24,"Bots":0,"server_type":"Dedicated","server_os":"Linux","password":true,"vac":true,"version":"7961495","steam_id":85568392925397958,"keywords":["nocrits","nodmgspread","payload","uncletopia"],"game_id":440,"stv_port":27046,"stv_name":"Uncletopia | Sydney | 4 | All Maps | STV","players":null},{"server_id":58,"name":"Uncletopia | Sydney | 5 | Stopwatch Beta","name_short":"syd-5","host":"syd-1.au.uncletopia.com","port":27055,"enabled":true,"region":"au","cc":"au","latitude":-33.865143,"longitude":151.2099,"reserved":0,"last_update":"0001-01-01T00:00:00Z","name_a2s":"Uncletopia | Sydney | 5 | Stopwatch Beta","protocol":17,"map":"workshop/koth_bagel_rc6.ugc2514036946","folder":"tf","game":"Team Fortress","app_id":440,"player_count":0,"max_players":24,"Bots":0,"server_type":"Dedicated","server_os":"Linux","password":true,"vac":true,"version":"7961495","steam_id":85568392925397959,"keywords":["cp","nocrits","nodmgspread","uncletopia"],"game_id":440,"stv_port":27056,"stv_name":"Uncletopia | Sydney | 5 | Stopwatch Beta | STV","players":null},{"server_id":59,"name":"Uncletopia | Sydney | 6 | Community","name_short":"syd-6","host":"syd-1.au.uncletopia.com","port":27065,"enabled":true,"region":"au","cc":"au","latitude":-33.865143,"longitude":151.2099,"reserved":0,"last_update":"0001-01-01T00:00:00Z","name_a2s":"Uncletopia | Sydney | 6 | Community","protocol":17,"map":"pl_swiftwater_final1","folder":"tf","game":"Team Fortress","app_id":440,"player_count":0,"max_players":24,"Bots":0,"server_type":"Dedicated","server_os":"Linux","password":true,"vac":true,"version":"7961495","steam_id":85568392925397960,"keywords":["nocrits","nodmgspread","payload","uncletopia"],"game_id":440,"stv_port":27066,"stv_name":"Uncletopia | Sydney | 6 | Community | STV","players":null},{"server_id":49,"name":"Uncletopia | Warsaw | 1 | All Maps","name_short":"waw-1","host":"waw-1.pl.uncletopia.com","port":27015,"enabled":true,"region":"eu","cc":"pl","latitude":52.2297,"longitude":21.017532,"reserved":0,"last_update":"0001-01-01T00:00:00Z","name_a2s":"Uncletopia | Warsaw | 1 | All Maps","protocol":17,"map":"koth_viaduct","folder":"tf","game":"Team Fortress","app_id":440,"player_count":0,"max_players":24,"Bots":0,"server_type":"Dedicated","server_os":"Linux","password":true,"vac":true,"version":"7961495","steam_id":85568392925397850,"keywords":["cp","nocrits","nodmgspread","uncletopia"],"game_id":440,"stv_port":27016,"stv_name":"Uncletopia | Warsaw | 1 | All Maps | STV","players":null},{"server_id":50,"name":"Uncletopia | Warsaw | 2 | All Maps","name_short":"waw-2","host":"waw-1.pl.uncletopia.com","port":27025,"enabled":true,"region":"eu","cc":"pl","latitude":52.2297,"longitude":21.017532,"reserved":0,"last_update":"0001-01-01T00:00:00Z","name_a2s":"Uncletopia | Warsaw | 2 | All Maps","protocol":17,"map":"pl_badwater","folder":"tf","game":"Team Fortress","app_id":440,"player_count":0,"max_players":24,"Bots":0,"server_type":"Dedicated","server_os":"Linux","password":true,"vac":true,"version":"7961495","steam_id":85568392925397851,"keywords":["nocrits","nodmgspread","payload","uncletopia"],"game_id":440,"stv_port":27026,"stv_name":"Uncletopia | Warsaw | 2 | All Maps | STV","players":null},{"server_id":51,"name":"Uncletopia | Warsaw | 3 | All Maps","name_short":"waw-3","host":"waw-1.pl.uncletopia.com","port":27035,"enabled":true,"region":"eu","cc":"pl","latitude":52.2297,"longitude":21.017532,"reserved":0,"last_update":"0001-01-01T00:00:00Z","name_a2s":"Uncletopia | Warsaw | 3 | All Maps","protocol":17,"map":"cp_process_final","folder":"tf","game":"Team Fortress","app_id":440,"player_count":0,"max_players":24,"Bots":0,"server_type":"Dedicated","server_os":"Linux","password":true,"vac":true,"version":"7961495","steam_id":85568392925397852,"keywords":["cp","nocrits","nodmgspread","uncletopia"],"game_id":440,"stv_port":27036,"stv_name":"Uncletopia | Warsaw | 3 | All Maps | STV","players":null},{"server_id":52,"name":"Uncletopia | Warsaw | 4 | All Maps","name_short":"waw-4","host":"waw-1.pl.uncletopia.com","port":27045,"enabled":true,"region":"eu","cc":"pl","latitude":52.2297,"longitude":21.017532,"reserved":0,"last_update":"0001-01-01T00:00:00Z","name_a2s":"Uncletopia | Warsaw | 4 | All Maps","protocol":17,"map":"koth_lakeside_final","folder":"tf","game":"Team Fortress","app_id":440,"player_count":0,"max_players":24,"Bots":0,"server_type":"Dedicated","server_os":"Linux","password":true,"vac":true,"version":"7961495","steam_id":85568392925397853,"keywords":["cp","nocrits","nodmgspread","uncletopia"],"game_id":440,"stv_port":27046,"stv_name":"Uncletopia | Warsaw | 4 | All Maps | STV","players":null},{"server_id":53,"name":"Uncletopia | Warsaw | 5 | Stopwatch Beta","name_short":"waw-5","host":"waw-1.pl.uncletopia.com","port":27055,"enabled":true,"region":"eu","cc":"pl","latitude":52.2297,"longitude":21.017532,"reserved":0,"last_update":"0001-01-01T00:00:00Z","name_a2s":"Uncletopia | Warsaw | 5 | Stopwatch Beta","protocol":17,"map":"pl_snowycoast","folder":"tf","game":"Team Fortress","app_id":440,"player_count":0,"max_players":24,"Bots":0,"server_type":"Dedicated","server_os":"Linux","password":true,"vac":true,"version":"7961495","steam_id":85568392925397854,"keywords":["nocrits","nodmgspread","payload","uncletopia"],"game_id":440,"stv_port":27056,"stv_name":"Uncletopia | Warsaw | 5 | Stopwatch Beta | STV","players":null},{"server_id":54,"name":"Uncletopia | Warsaw | 6 | Community","name_short":"waw-6","host":"waw-1.pl.uncletopia.com","port":27065,"enabled":true,"region":"eu","cc":"pl","latitude":52.2297,"longitude":21.017532,"reserved":0,"last_update":"0001-01-01T00:00:00Z","name_a2s":"Uncletopia | Warsaw | 6 | Community","protocol":17,"map":"pl_borneo","folder":"tf","game":"Team Fortress","app_id":440,"player_count":0,"max_players":24,"Bots":0,"server_type":"Dedicated","server_os":"Linux","password":true,"vac":true,"version":"7961495","steam_id":85568392925397856,"keywords":["nocrits","nodmgspread","payload","uncletopia"],"game_id":440,"stv_port":27066,"stv_name":"Uncletopia | Warsaw | 6 | Community | STV","players":null}]}