{"status":true,"message":"","result":[{"server_id":2,"name":"Uncletopia | Chicago | 1 | All Maps","name_short":"chi-1","host":"chi-1.us.uncletopia.com","port":27015,"enabled":true,"region":"us-central","cc":"us","latitude":41.881832,"longitude":-87.62318,"reserved":0,"last_update":"0001-01-01T00:00:00Z","name_a2s":"Uncletopia | Chicago | 1 | All Maps","protocol":17,"map":"pl_borneo","folder":"tf","game":"Team Fortress","app_id":440,"player_count":24,"max_players":24,"Bots":0,"server_type":"Dedicated","server_os":"Linux","password":true,"vac":true,"version":"7932396","steam_id":85568392924469984,"keywords":["nocrits","nodmgspread","payload","uncletopia"],"game_id":440,"stv_port":27016,"stv_name":"Uncletopia | Chicago | 1 | All Maps | STV","players":[{"user_id":867,"name":"cofi","steam_id":76561198077504898,"connected_time":2037000000000,"state":"active","ping":62},{"user_id":868,"name":"Voodo133","steam_id":76561198042670351,"connected_time":1991000000000,"state":"active","ping":86},{"user_id":870,"name":"Wheaties","steam_id":76561198060909578,"connected_time":1831000000000,"state":"active","ping":106},{"user_id":852,"name":"jo","steam_id":76561198035854009,"connected_time":4824000000000,"state":"active","ping":120},{"user_id":851,"name":"femmefatale","steam_id":76561198083749380,"connected_time":4836000000000,"state":"active","ping":104},{"user_id":893,"name":"Nyle","steam_id":76561198045652639,"connected_time":717000000000,"state":"active","ping":131},{"user_id":897,"name":"*****setget","steam_id":76561198118824188,"connected_time":156000000000,"state":"active","ping":117},{"user_id":890,"name":"SHADOW (he/him)","steam_id":76561198207768148,"connected_time":911000000000,"state":"active","ping":122},{"user_id":814,"name":"Choom","steam_id":76561197972654816,"connected_time":7328000000000,"state":"active","ping":97},{"user_id":842,"name":"loser","steam_id":76561198259380127,"connected_time":5800000000000,"state":"active","ping":54},{"user_id":873,"name":"Neon S Kennedy","steam_id":76561198073453978,"connected_time":1791000000000,"state":"active","ping":119},{"user_id":874,"name":"Iggy","steam_id":76561198237693240,"connected_time":1778000000000,"state":"active","ping":68},{"user_id":898,"name":"NeonBean","steam_id":76561198088335827,"connected_time":101000000000,"state":"active","ping":94},{"user_id":820,"name":"Sponge","steam_id":76561198099024378,"connected_time":6932000000000,"state":"active","ping":70},{"user_id":889,"name":"elyktsorb","steam_id":76561198158964488,"connected_time":927000000000,"state":"active","ping":56},{"user_id":871,"name":"ChozoChorizo","steam_id":76561198272609196,"connected_time":1818000000000,"state":"active","ping":59},{"user_id":899,"name":"MaySeaOh_TTV_Youtube_insta_xvid","steam_id":76561198118764367,"connected_time":38000000000,"state":"spawning","ping":75},{"user_id":876,"name":"yeeye","steam_id":76561198094306054,"connected_time":1758000000000,"state":"active","ping":80},{"user_id":884,"name":"NotHughesy","steam_id":76561198113064655,"connected_time":1443000000000,"state":"active","ping":49},{"user_id":892,"name":"HK™","steam_id":76561198196793415,"connected_time":891000000000,"state":"active","ping":112},{"user_id":880,"name":"Tots","steam_id":76561198027485007,"connected_time":1654000000000,"state":"active","ping":62},{"user_id":882,"name":"Zelith","steam_id":76561198234980480,"connected_time":1585000000000,"state":"active","ping":45},{"user_id":886,"name":"Sitting Duck","steam_id":76561198157550075,"connected_time":1322000000000,"state":"active","ping":99},{"user_id":895,"name":"gromit","steam_id":76561198037746805,"connected_time":467000000000,"state":"active","ping":70}]},{"server_id":106,"name":"Uncletopia | Chicago | 2 | All Maps","name_short":"chi-2","host":"chi-1.us.uncletopia.com","port":27025,"enabled":true,"region":"us-central","cc":"us","latitude":41.881832,"longitude":-87.62318,"reserved":0,"last_update":"0001-01-01T00:00:00Z","name_a2s":"Uncletopia | Chicago | 2 | All Maps","protocol":17,"map":"koth_king","folder":"tf","game":"Team Fortress","app_id":440,"player_count":23,"max_players":24,"Bots":0,"server_type":"Dedicated","server_os":"Linux","password":true,"vac":true,"version":"7932396","steam_id":85568392924469985,"keywords":["cp","nocrits","nodmgspread","uncletopia"],"game_id":440,"stv_port":27026,"stv_name":"Uncletopia | Chicago | 2 | All Maps | STV","players":[{"user_id":722,"name":"Galactamarx","steam_id":76561198028065755,"connected_time":546000000000,"state":"active","ping":92},{"user_id":710,"name":"Rocken Space Dino","steam_id":76561198039310764,"connected_time":1498000000000,"state":"active","ping":61},{"user_id":716,"name":"lambchvps","steam_id":76561198143811668,"connected_time":1097000000000,"state":"active","ping":68},{"user_id":724,"name":"aflyingmouse","steam_id":76561198058134934,"connected_time":409000000000,"state":"active","ping":112},{"user_id":719,"name":"Scorpie Doodle","steam_id":76561198021845763,"connected_time":991000000000,"state":"active","ping":57},{"user_id":677,"name":"we're so back","steam_id":76561198058485742,"connected_time":4282000000000,"state":"active","ping":64},{"user_id":694,"name":"Ambassadress Wolfina","steam_id":76561198067075413,"connected_time":2992000000000,"state":"active","ping":57},{"user_id":657,"name":"shnowshner","steam_id":76561198066450438,"connected_time":4996000000000,"state":"active","ping":79},{"user_id":714,"name":"aversa","steam_id":76561198840460101,"connected_time":1167000000000,"state":"active","ping":61},{"user_id":626,"name":"Snoozey","steam_id":76561198017120466,"connected_time":7263000000000,"state":"active","ping":84},{"user_id":683,"name":"Rez LeRoux","steam_id":76561198451503538,"connected_time":4043000000000,"state":"active","ping":68},{"user_id":725,"name":"Gaston","steam_id":76561198050099666,"connected_time":397000000000,"state":"active","ping":88},{"user_id":685,"name":"nullptr","steam_id":76561198111790388,"connected_time":3872000000000,"state":"active","ping":88},{"user_id":681,"name":"Danmar33","steam_id":76561198056453091,"connected_time":4178000000000,"state":"active","ping":46},{"user_id":712,"name":"Thelonious Prime, King of Jazz","steam_id":76561198077785482,"connected_time":1413000000000,"state":"active","ping":63},{"user_id":726,"name":"zzz","steam_id":76561198143727547,"connected_time":208000000000,"state":"active","ping":95},{"user_id":715,"name":"Jimjonjoe","steam_id":76561199195695913,"connected_time":1157000000000,"state":"active","ping":70},{"user_id":713,"name":"ABZ Gamer","steam_id":76561199027227636,"connected_time":1315000000000,"state":"active","ping":70},{"user_id":684,"name":"Skipluff","steam_id":76561198084734554,"connected_time":3993000000000,"state":"active","ping":72},{"user_id":717,"name":"sonks","steam_id":76561198028398745,"connected_time":1063000000000,"state":"active","ping":113},{"user_id":723,"name":"Scorcho","steam_id":76561198071413833,"connected_time":540000000000,"state":"active","ping":99},{"user_id":720,"name":"pigswill","steam_id":76561197999081865,"connected_time":914000000000,"state":"active","ping":89},{"user_id":686,"name":"Cap'n Short Legs","steam_id":76561198164139410,"connected_time":3687000000000,"state":"active","ping":73}]},{"server_id":402,"name":"Uncletopia | Chicago | 3 | All Maps","name_short":"chi-3","host":"chi-1.us.uncletopia.com","port":27035,"enabled":true,"region":"us-central","cc":"us","latitude":41.881832,"longitude":-87.62318,"reserved":0,"last_update":"0001-01-01T00:00:00Z","name_a2s":"Uncletopia | Chicago | 3 | All Maps","protocol":17,"map":"pl_badwater","folder":"tf","game":"Team Fortress","app_id":440,"player_count":3,"max_players":24,"Bots":0,"server_type":"Dedicated","server_os":"Linux","password":true,"vac":true,"version":"7932396","steam_id":85568392924515191,"keywords":["nocrits","nodmgspread","payload","uncletopia"],"game_id":440,"stv_port":27036,"stv_name":"Uncletopia | Chicago | 3 | All Maps | STV","players":[{"user_id":354,"name":"Coleco Pussy","steam_id":76561198136642793,"connected_time":12654000000000,"state":"active","ping":68},{"user_id":400,"name":"unc havin a fent battle","steam_id":76561198144766439,"connected_time":9146000000000,"state":"active","ping":35},{"user_id":458,"name":"ColecoCat","steam_id":76561199404293117,"connected_time":5557000000000,"state":"active","ping":72}]},{"server_id":403,"name":"Uncletopia | Chicago | 4 | All Maps","name_short":"chi-4","host":"chi-1.us.uncletopia.com","port":27045,"enabled":true,"region":"us-central","cc":"us","latitude":41.881832,"longitude":-87.62318,"reserved":0,"last_update":"0001-01-01T00:00:00Z","name_a2s":"Uncletopia | Chicago | 4 | All Maps","protocol":17,"map":"pl_borneo","folder":"tf","game":"Team Fortress","app_id":440,"player_count":0,"max_players":24,"Bots":0,"server_type":"Dedicated","server_os":"Linux","password":true,"vac":true,"version":"7932396","steam_id":85568392924515193,"keywords":["nocrits","nodmgspread","payload","uncletopia"],"game_id":440,"stv_port":27046,"stv_name":"Uncletopia | Chicago | 4 | All Maps | STV","players":null},{"server_id":36,"name":"Uncletopia | Chicago | 5 | All Maps","name_short":"chi-5","host":"chi-2.us.uncletopia.com","port":27015,"enabled":true,"region":"us-central","cc":"us","latitude":41.881832,"longitude":-87.62318,"reserved":0,"last_update":"0001-01-01T00:00:00Z","name_a2s":"Uncletopia | Chicago | 5 | All Maps","protocol":17,"map":"pl_goldrush","folder":"tf","game":"Team Fortress","app_id":440,"player_count":24,"max_players":24,"Bots":0,"server_type":"Dedicated","server_os":"Linux","password":true,"vac":true,"version":"7932396","steam_id":85568392924866362,"keywords":["nocrits","nodmgspread","payload","uncletopia"],"game_id":440,"stv_port":27016,"stv_name":"Uncletopia | Chicago | 5 | All Maps | STV","players":[{"user_id":454,"name":"Accents","steam_id":76561198038339224,"connected_time":257000000000,"state":"active","ping":88},{"user_id":415,"name":"sabdychan","steam_id":76561198973078784,"connected_time":3815000000000,"state":"active","ping":62},{"user_id":416,"name":"Lucksman","steam_id":76561198306997894,"connected_time":3646000000000,"state":"active","ping":78},{"user_id":446,"name":"ShadowKnight","steam_id":76561199219165029,"connected_time":1562000000000,"state":"active","ping":87},{"user_id":453,"name":"i need cock goku","steam_id":76561198154449875,"connected_time":511000000000,"state":"active","ping":111},{"user_id":443,"name":"kashmiiR","steam_id":76561198123697209,"connected_time":1913000000000,"state":"active","ping":66},{"user_id":435,"name":"hashmap","steam_id":76561198043794014,"connected_time":2301000000000,"state":"active","ping":48},{"user_id":421,"name":"TJThomas","steam_id":76561198038292405,"connected_time":3305000000000,"state":"active","ping":64},{"user_id":419,"name":"CertifiedCereal","steam_id":76561198055027895,"connected_time":3343000000000,"state":"active","ping":71},{"user_id":420,"name":"Zoo Keeper Engie","steam_id":76561198064380111,"connected_time":3338000000000,"state":"active","ping":83},{"user_id":442,"name":"Trippy","steam_id":76561199090730294,"connected_time":1975000000000,"state":"active","ping":69},{"user_id":452,"name":"Toastee","steam_id":76561198085410969,"connected_time":590000000000,"state":"active","ping":50},{"user_id":422,"name":"qq","steam_id":76561198060942750,"connected_time":3277000000000,"state":"active","ping":69},{"user_id":381,"name":"Carnamate","steam_id":76561198138077990,"connected_time":7075000000000,"state":"active","ping":78},{"user_id":424,"name":"LambKraut","steam_id":76561198061695514,"connected_time":3256000000000,"state":"active","ping":40},{"user_id":448,"name":"Sariff","steam_id":76561198136446352,"connected_time":1254000000000,"state":"active","ping":52},{"user_id":426,"name":"dismal","steam_id":76561198084763105,"connected_time":3224000000000,"state":"active","ping":64},{"user_id":450,"name":"Ditto","steam_id":76561198123108156,"connected_time":851000000000,"state":"active","ping":72},{"user_id":428,"name":"Stranger in a Strange Land","steam_id":76561198049843671,"connected_time":3104000000000,"state":"active","ping":66},{"user_id":429,"name":"Glazed","steam_id":76561198043020404,"connected_time":3084000000000,"state":"active","ping":88},{"user_id":445,"name":"Grand","steam_id":76561198290143399,"connected_time":1805000000000,"state":"active","ping":73},{"user_id":455,"name":"V","steam_id":76561198998082956,"connected_time":173000000000,"state":"active","ping":58},{"user_id":432,"name":"Metbol","steam_id":76561198001362410,"connected_time":2852000000000,"state":"active","ping":77},{"user_id":447,"name":"Doofenshmirtz Evil Inc.","steam_id":76561198439793697,"connected_time":1511000000000,"state":"active","ping":82}]},{"server_id":37,"name":"Uncletopia | Chicago | 6 | All Maps","name_short":"chi-6","host":"chi-2.us.uncletopia.com","port":27025,"enabled":true,"region":"us-central","cc":"us","latitude":41.881832,"longitude":-87.62318,"reserved":0,"last_update":"0001-01-01T00:00:00Z","name_a2s":"Uncletopia | Chicago | 6 | All Maps","protocol":17,"map":"koth_cascade","folder":"tf","game":"Team Fortress","app_id":440,"player_count":24,"max_players":24,"Bots":0,"server_type":"Dedicated","server_os":"Linux","password":true,"vac":true,"version":"7932396","steam_id":85568392924866363,"keywords":["cp","nocrits","nodmgspread","uncletopia"],"game_id":440,"stv_port":27026,"stv_name":"Uncletopia | Chicago | 6 | All Maps | STV","players":[{"user_id":474,"name":"Vynthex","steam_id":76561198990762666,"connected_time":541000000000,"state":"active","ping":77},{"user_id":429,"name":"ＣＨＡＭＰＩＯＮ","steam_id":76561198883157736,"connected_time":3681000000000,"state":"active","ping":107},{"user_id":459,"name":"Mewtwo","steam_id":76561198425172210,"connected_time":1420000000000,"state":"active","ping":70},{"user_id":434,"name":"WesyUWU (The mini crit pig)","steam_id":76561198069188177,"connected_time":3276000000000,"state":"active","ping":72},{"user_id":452,"name":"ultralisk52","steam_id":76561198051666604,"connected_time":2212000000000,"state":"active","ping":60},{"user_id":447,"name":"Tommy Pickles (Very Cool)","steam_id":76561198391261463,"connected_time":2695000000000,"state":"active","ping":63},{"user_id":482,"name":"tomboys \u003e femboys","steam_id":76561198983069721,"connected_time":72000000000,"state":"active","ping":61},{"user_id":437,"name":"Kung fu Mungus","steam_id":76561198069281556,"connected_time":3070000000000,"state":"active","ping":68},{"user_id":395,"name":"Elon Tusk","steam_id":76561198977359400,"connected_time":8370000000000,"state":"active","ping":70},{"user_id":477,"name":"Testimony","steam_id":76561198151363063,"connected_time":455000000000,"state":"active","ping":124},{"user_id":461,"name":"mechiimi","steam_id":76561198321627268,"connected_time":1390000000000,"state":"active","ping":118},{"user_id":475,"name":"Kyappy","steam_id":76561198179217937,"connected_time":539000000000,"state":"active","ping":74},{"user_id":441,"name":"The Dreamer","steam_id":76561198047638312,"connected_time":2761000000000,"state":"active","ping":107},{"user_id":442,"name":"Shadow Steak Ramen","steam_id":76561198077838946,"connected_time":2749000000000,"state":"active","ping":88},{"user_id":443,"name":"origami money folds","steam_id":76561198040325259,"connected_time":2743000000000,"state":"active","ping":54},{"user_id":393,"name":"GruntRule","steam_id":76561198039987143,"connected_time":8729000000000,"state":"active","ping":84},{"user_id":444,"name":"Burgerbro34","steam_id":76561198139198654,"connected_time":2711000000000,"state":"active","ping":99},{"user_id":415,"name":"Jesse Bear","steam_id":76561198217075305,"connected_time":5178000000000,"state":"active","ping":83},{"user_id":462,"name":"|KPF|r0cks","steam_id":76561198023597573,"connected_time":1268000000000,"state":"active","ping":84},{"user_id":476,"name":"Bee","steam_id":76561198074681324,"connected_time":530000000000,"state":"active","ping":61},{"user_id":463,"name":"cat","steam_id":76561198096347625,"connected_time":985000000000,"state":"active","ping":75},{"user_id":481,"name":"stanley","steam_id":76561199067705249,"connected_time":187000000000,"state":"active","ping":47},{"user_id":479,"name":"FiZZy","steam_id":76561198990783547,"connected_time":440000000000,"state":"active","ping":87},{"user_id":480,"name":"rept","steam_id":76561198022100969,"connected_time":439000000000,"state":"active","ping":49}]},{"server_id":38,"name":"Uncletopia | Chicago | 7 | Stopwatch Beta","name_short":"chi-7","host":"chi-2.us.uncletopia.com","port":27035,"enabled":true,"region":"us-central","cc":"us","latitude":41.881832,"longitude":-87.62318,"reserved":0,"last_update":"0001-01-01T00:00:00Z","name_a2s":"Uncletopia | Chicago | 7 | Stopwatch Beta","protocol":17,"map":"pl_borneo","folder":"tf","game":"Team Fortress","app_id":440,"player_count":0,"max_players":24,"Bots":0,"server_type":"Dedicated","server_os":"Linux","password":true,"vac":true,"version":"7932396","steam_id":85568392924866364,"keywords":["nocrits","nodmgspread","payload","uncletopia"],"game_id":440,"stv_port":27036,"stv_name":"Uncletopia | Chicago | 7 | Stopwatch Beta | STV","players":null},{"server_id":39,"name":"Uncletopia | Chicago | 8 | Community","name_short":"chi-8","host":"chi-2.us.uncletopia.com","port":27045,"enabled":true,"region":"us-central","cc":"us","latitude":41.881832,"longitude":-87.62318,"reserved":0,"last_update":"0001-01-01T00:00:00Z","name_a2s":"Uncletopia | Chicago | 8 | Community","protocol":17,"map":"workshop/koth_trenchfoot_b1a.ugc731436616","folder":"tf","game":"Team Fortress","app_id":440,"player_count":0,"max_players":24,"Bots":0,"server_type":"Dedicated","server_os":"Linux","password":true,"vac":true,"version":"7932396","steam_id":85568392924866365,"keywords":["cp","nocrits","nodmgspread","uncletopia"],"game_id":440,"stv_port":27046,"stv_name":"Uncletopia | Chicago | 8 | Community | STV","players":null},{"server_id":8,"name":"Uncletopia | Dallas | 1 | All Maps","name_short":"dal-1","host":"dal-1.us.uncletopia.com","port":27015,"enabled":true,"region":"us-central","cc":"us","latitude":32.779167,"longitude":-96.80889,"reserved":0,"last_update":"0001-01-01T00:00:00Z","name_a2s":"Uncletopia | Dallas | 1 | All Maps","protocol":17,"map":"pl_swiftwater_final1","folder":"tf","game":"Team Fortress","app_id":440,"player_count":20,"max_players":24,"Bots":0,"server_type":"Dedicated","server_os":"Linux","password":true,"vac":true,"version":"7932396","steam_id":85568392924469986,"keywords":["nocrits","nodmgspread","payload","uncletopia"],"game_id":440,"stv_port":27016,"stv_name":"Uncletopia | Dallas | 1 | All Maps | STV","players":[{"user_id":876,"name":"magnanimity","steam_id":76561198242842394,"connected_time":1013000000000,"state":"active","ping":48},{"user_id":882,"name":"Constellar Nova","steam_id":76561198868215392,"connected_time":171000000000,"state":"active","ping":99},{"user_id":883,"name":"Fargo","steam_id":76561198044703931,"connected_time":152000000000,"state":"active","ping":60},{"user_id":830,"name":"Duncan Idaho","steam_id":76561197988963861,"connected_time":4799000000000,"state":"active","ping":91},{"user_id":885,"name":"Spicy","steam_id":76561198030185149,"connected_time":135000000000,"state":"active","ping":55},{"user_id":886,"name":"Fake21","steam_id":76561198282065071,"connected_time":129000000000,"state":"active","ping":51},{"user_id":855,"name":"NoLights!","steam_id":76561197981106761,"connected_time":2384000000000,"state":"active","ping":89},{"user_id":843,"name":"Rafl","steam_id":76561198055222756,"connected_time":3980000000000,"state":"active","ping":42},{"user_id":814,"name":"Bird","steam_id":76561198231624620,"connected_time":6170000000000,"state":"active","ping":66},{"user_id":862,"name":"Yoshimelon","steam_id":76561198253054325,"connected_time":1924000000000,"state":"active","ping":44},{"user_id":863,"name":"listen to your tummy","steam_id":76561198035698704,"connected_time":1912000000000,"state":"active","ping":91},{"user_id":859,"name":"skegeton","steam_id":76561198095581099,"connected_time":1969000000000,"state":"active","ping":55},{"user_id":864,"name":"Strength!!","steam_id":76561198001241984,"connected_time":1903000000000,"state":"active","ping":105},{"user_id":865,"name":"10 FPS Gaymer","steam_id":76561199200969139,"connected_time":1878000000000,"state":"active","ping":102},{"user_id":738,"name":"EverythingZen","steam_id":76561198257384503,"connected_time":11595000000000,"state":"active","ping":52},{"user_id":877,"name":"Thrasher","steam_id":76561198133599977,"connected_time":920000000000,"state":"active","ping":72},{"user_id":875,"name":"Meat","steam_id":76561198047911274,"connected_time":1155000000000,"state":"active","ping":74},{"user_id":878,"name":"VHSTAPE","steam_id":76561198036560740,"connected_time":693000000000,"state":"active","ping":64},{"user_id":857,"name":"Swiggs","steam_id":76561198135015291,"connected_time":2297000000000,"state":"active","ping":81},{"user_id":880,"name":"Etomb","steam_id":76561198210017208,"connected_time":521000000000,"state":"active","ping":78}]},{"server_id":108,"name":"Uncletopia | Dallas | 2 | All Maps","name_short":"dal-2","host":"dal-1.us.uncletopia.com","port":27025,"enabled":true,"region":"us-central","cc":"us","latitude":32.779167,"longitude":-96.80889,"reserved":0,"last_update":"0001-01-01T00:00:00Z","name_a2s":"Uncletopia | Dallas | 2 | All Maps","protocol":17,"map":"pl_snowycoast","folder":"tf","game":"Team Fortress","app_id":440,"player_count":24,"max_players":24,"Bots":0,"server_type":"Dedicated","server_os":"Linux","password":true,"vac":true,"version":"7932396","steam_id":85568392924469988,"keywords":["nocrits","nodmgspread","payload","uncletopia"],"game_id":440,"stv_port":27026,"stv_name":"Uncletopia | Dallas | 2 | All Maps | STV","players":[{"user_id":683,"name":"The Bait Meat Boat","steam_id":76561198031796855,"connected_time":580000000000,"state":"active","ping":84},{"user_id":633,"name":"KENJI","steam_id":76561198089630547,"connected_time":4040000000000,"state":"active","ping":67},{"user_id":661,"name":"artichoke","steam_id":76561198980994364,"connected_time":1976000000000,"state":"active","ping":99},{"user_id":677,"name":"dzcreeper","steam_id":76561198072250723,"connected_time":819000000000,"state":"active","ping":104},{"user_id":688,"name":"spudson","steam_id":76561198151380379,"connected_time":174000000000,"state":"active","ping":110},{"user_id":678,"name":"gnoll filth","steam_id":76561198066123607,"connected_time":810000000000,"state":"active","ping":45},{"user_id":669,"name":"Stupid Monkey =3","steam_id":76561198024580166,"connected_time":1569000000000,"state":"active","ping":97},{"user_id":603,"name":"l4d2 marshall","steam_id":76561198042570322,"connected_time":7203000000000,"state":"active","ping":75},{"user_id":658,"name":"NanootFES","steam_id":76561198067773031,"connected_time":2097000000000,"state":"active","ping":68},{"user_id":668,"name":"Dr. Professor Robotnick","steam_id":76561198246812566,"connected_time":1649000000000,"state":"active","ping":62},{"user_id":670,"name":"Stan","steam_id":76561199057962816,"connected_time":1546000000000,"state":"active","ping":89},{"user_id":649,"name":"tsz","steam_id":76561199246231090,"connected_time":2988000000000,"state":"active","ping":85},{"user_id":599,"name":"Pizza","steam_id":76561198118748364,"connected_time":7724000000000,"state":"active","ping":77},{"user_id":641,"name":"Kamin","steam_id":76561198255299559,"connected_time":3832000000000,"state":"active","ping":62},{"user_id":675,"name":"Defragmented","steam_id":76561198854210081,"connected_time":1247000000000,"state":"active","ping":70},{"user_id":676,"name":"Bronco","steam_id":76561199146863671,"connected_time":1130000000000,"state":"active","ping":44},{"user_id":654,"name":"Terminal Brain Rot","steam_id":76561198112594672,"connected_time":2391000000000,"state":"active","ping":70},{"user_id":644,"name":"SleeplessCollin","steam_id":76561198968140914,"connected_time":3793000000000,"state":"active","ping":69},{"user_id":600,"name":"Makina","steam_id":76561198057475567,"connected_time":7651000000000,"state":"active","ping":89},{"user_id":679,"name":"sweaterfan","steam_id":76561199389567214,"connected_time":780000000000,"state":"active","ping":62},{"user_id":686,"name":"Chili","steam_id":76561199118621386,"connected_time":218000000000,"state":"active","ping":85},{"user_id":647,"name":"Dylanxp300","steam_id":76561198271974937,"connected_time":3756000000000,"state":"active","ping":103},{"user_id":687,"name":"aaa","steam_id":76561198090531755,"connected_time":207000000000,"state":"active","ping":45},{"user_id":682,"name":"Honey-Fox","steam_id":76561198133244742,"connected_time":600000000000,"state":"active","ping":100}]},{"server_id":5,"name":"Uncletopia | Frankfurt | 1 | All Maps","name_short":"frk-1","host":"frk-1.de.uncletopia.com","port":27015,"enabled":true,"region":"eu","cc":"de","latitude":50.110924,"longitude":8.682127,"reserved":0,"last_update":"0001-01-01T00:00:00Z","name_a2s":"Uncletopia | Frankfurt | 1 | All Maps","protocol":17,"map":"pl_badwater","folder":"tf","game":"Team Fortress","app_id":440,"player_count":0,"max_players":24,"Bots":0,"server_type":"Dedicated","server_os":"Linux","password":true,"vac":true,"version":"7932396","steam_id":85568392924469989,"keywords":["nocrits","nodmgspread","payload","uncletopia"],"game_id":440,"stv_port":27016,"stv_name":"Uncletopia | Frankfurt | 1 | All Maps | STV","players":null},{"server_id":110,"name":"Uncletopia | Frankfurt | 2 | All Maps","name_short":"frk-2","host":"frk-1.de.uncletopia.com","port":27025,"enabled":true,"region":"eu","cc":"de","latitude":50.110924,"longitude":8.682127,"reserved":0,"last_update":"0001-01-01T00:00:00Z","name_a2s":"Uncletopia | Frankfurt | 2 | All Maps","protocol":17,"map":"koth_cascade","folder":"tf","game":"Team Fortress","app_id":440,"player_count":0,"max_players":24,"Bots":0,"server_type":"Dedicated","server_os":"Linux","password":true,"vac":true,"version":"7932396","steam_id":85568392924469990,"keywords":["cp","nocrits","nodmgspread","uncletopia"],"game_id":440,"stv_port":27026,"stv_name":"Uncletopia | Frankfurt | 2 | All Maps | STV","players":null},{"server_id":308,"name":"Uncletopia | Frankfurt | 3 | All Maps","name_short":"frk-3","host":"frk-1.de.uncletopia.com","port":27035,"enabled":true,"region":"eu","cc":"de","latitude":50.110924,"longitude":8.682127,"reserved":0,"last_update":"0001-01-01T00:00:00Z","name_a2s":"Uncletopia | Frankfurt | 3 | All Maps","protocol":17,"map":"pl_badwater","folder":"tf","game":"Team Fortress","app_id":440,"player_count":0,"max_players":24,"Bots":0,"server_type":"Dedicated","server_os":"Linux","password":true,"vac":true,"version":"7932396","steam_id":85568392924504274,"keywords":["nocrits","nodmgspread","payload","uncletopia"],"game_id":440,"stv_port":27036,"stv_name":"Uncletopia | Frankfurt | 3 | All Maps | STV","players":null},{"server_id":309,"name":"Uncletopia | Frankfurt | 4 | All Maps","name_short":"frk-4","host":"frk-1.de.uncletopia.com","port":27045,"enabled":true,"region":"eu","cc":"de","latitude":50.110924,"longitude":8.682127,"reserved":0,"last_update":"0001-01-01T00:00:00Z","name_a2s":"Uncletopia | Frankfurt | 4 | All Maps","protocol":17,"map":"pl_snowycoast","folder":"tf","game":"Team Fortress","app_id":440,"player_count":0,"max_players":24,"Bots":0,"server_type":"Dedicated","server_os":"Linux","password":true,"vac":true,"version":"7932396","steam_id":85568392924504275,"keywords":["nocrits","nodmgspread","payload","uncletopia"],"game_id":440,"stv_port":27046,"stv_name":"Uncletopia | Frankfurt | 4 | All Maps | STV","players":null},{"server_id":310,"name":"Uncletopia | Frankfurt | 5 | All Maps","name_short":"frk-5","host":"frk-1.de.uncletopia.com","port":27055,"enabled":true,"region":"eu","cc":"de","latitude":50.110924,"longitude":8.682127,"reserved":0,"last_update":"0001-01-01T00:00:00Z","name_a2s":"Uncletopia | Frankfurt | 5 | All Maps","protocol":17,"map":"cp_altitude","folder":"tf","game":"Team Fortress","app_id":440,"player_count":0,"max_players":24,"Bots":0,"server_type":"Dedicated","server_os":"Linux","password":true,"vac":true,"version":"7932396","steam_id":85568392924504277,"keywords":["cp","nocrits","nodmgspread","uncletopia"],"game_id":440,"stv_port":27056,"stv_name":"Uncletopia | Frankfurt | 5 | All Maps | STV","players":null},{"server_id":311,"name":"Uncletopia | Frankfurt | 6 | All Maps","name_short":"frk-6","host":"frk-1.de.uncletopia.com","port":27065,"enabled":true,"region":"eu","cc":"de","latitude":50.110924,"longitude":8.682127,"reserved":0,"last_update":"0001-01-01T00:00:00Z","name_a2s":"Uncletopia | Frankfurt | 6 | All Maps","protocol":17,"map":"koth_viaduct","folder":"tf","game":"Team Fortress","app_id":440,"player_count":0,"max_players":24,"Bots":0,"server_type":"Dedicated","server_os":"Linux","password":true,"vac":true,"version":"7932396","steam_id":85568392924504278,"keywords":["cp","nocrits","nodmgspread","uncletopia"],"game_id":440,"stv_port":27066,"stv_name":"Uncletopia | Frankfurt | 6 | All Maps | STV","players":null},{"server_id":23,"name":"Uncletopia | Frankfurt | 7 | Stopwatch Beta","name_short":"frk-7","host":"frk-1.de.uncletopia.com","port":27075,"enabled":true,"region":"eu","cc":"de","latitude":50.110924,"longitude":8.682127,"reserved":0,"last_update":"0001-01-01T00:00:00Z","name_a2s":"Uncletopia | Frankfurt | 7 | Stopwatch Beta","protocol":17,"map":"pl_snowycoast","folder":"tf","game":"Team Fortress","app_id":440,"player_count":0,"max_players":24,"Bots":0,"server_type":"Dedicated","server_os":"Linux","password":true,"vac":true,"version":"7932396","steam_id":85568392924742827,"keywords":["nocrits","nodmgspread","payload","uncletopia"],"game_id":440,"stv_port":27076,"stv_name":"Uncletopia | Frankfurt | 7 | Stopwatch Beta | STV","players":null},{"server_id":24,"name":"Uncletopia | Frankfurt | 8 | Community","name_short":"frk-8","host":"frk-1.de.uncletopia.com","port":27085,"enabled":true,"region":"eu","cc":"de","latitude":50.110924,"longitude":8.682127,"reserved":0,"last_update":"0001-01-01T00:00:00Z","name_a2s":"Uncletopia | Frankfurt | 8 | Community","protocol":17,"map":"pl_barnblitz","folder":"tf","game":"Team Fortress","app_id":440,"player_count":0,"max_players":24,"Bots":0,"server_type":"Dedicated","server_os":"Linux","password":true,"vac":true,"version":"7932396","steam_id":85568392924742828,"keywords":["nocrits","nodmgspread","payload","uncletopia"],"game_id":440,"stv_port":27086,"stv_name":"Uncletopia | Frankfurt | 8 | Community | STV","players":null},{"server_id":202,"name":"Uncletopia | Hong Kong | 1 | All Maps","name_short":"hgk-1","host":"hgk-1.hk.uncletopia.com","port":27015,"enabled":true,"region":"asia","cc":"hk","latitude":22.302711,"longitude":114.177216,"reserved":0,"last_update":"0001-01-01T00:00:00Z","name_a2s":"Uncletopia | Hong Kong | 1 | All Maps","protocol":17,"map":"koth_viaduct","folder":"tf","game":"Team Fortress","app_id":440,"player_count":1,"max_players":24,"Bots":0,"server_type":"Dedicated","server_os":"Linux","password":true,"vac":true,"version":"7932396","steam_id":85568392924494504,"keywords":["cp","nocrits","nodmgspread","uncletopia"],"game_id":440,"stv_port":27016,"stv_name":"Uncletopia | Hong Kong | 1 | All Maps | STV","players":[{"user_id":8,"name":"Box Standard","steam_id":76561198312001455,"connected_time":229000000000,"state":"active","ping":114}]},{"server_id":1,"name":"Uncletopia | Los Angeles | 1 | All Maps","name_short":"lax-1","host":"lax-1.us.uncletopia.com","port":27015,"enabled":true,"region":"us-west","cc":"us","latitude":33.94279,"longitude":-118.41004,"reserved":0,"last_update":"0001-01-01T00:00:00Z","name_a2s":"Uncletopia | Los Angeles | 1 | All Maps","protocol":17,"map":"pl_frontier_final","folder":"tf","game":"Team Fortress","app_id":440,"player_count":23,"max_players":24,"Bots":0,"server_type":"Dedicated","server_os":"Linux","password":true,"vac":true,"version":"7932396","steam_id":85568392924469991,"keywords":["nocrits","nodmgspread","payload","uncletopia"],"game_id":440,"stv_port":27016,"stv_name":"Uncletopia | Los Angeles | 1 | All Maps | STV","players":[{"user_id":338,"name":"Leroy Sinclair","steam_id":76561198116082889,"connected_time":3076000000000,"state":"active","ping":66},{"user_id":335,"name":"35 years without a footjob...","steam_id":76561198799299193,"connected_time":3594000000000,"state":"active","ping":83},{"user_id":352,"name":"Mocha Josie","steam_id":76561198066452726,"connected_time":1252000000000,"state":"active","ping":54},{"user_id":248,"name":"nori_420","steam_id":76561199117134203,"connected_time":9163000000000,"state":"active","ping":55},{"user_id":347,"name":"HeroOfTime","steam_id":76561199096218001,"connected_time":2033000000000,"state":"active","ping":53},{"user_id":348,"name":"rock gaming","steam_id":76561199402868311,"connected_time":1993000000000,"state":"active","ping":60},{"user_id":334,"name":"Sunkenthree51","steam_id":76561198300781307,"connected_time":3719000000000,"state":"active","ping":64},{"user_id":323,"name":"Ian","steam_id":76561198159334435,"connected_time":4711000000000,"state":"active","ping":173},{"user_id":272,"name":"usedhalfcart","steam_id":76561198072621852,"connected_time":8159000000000,"state":"active","ping":83},{"user_id":356,"name":"CreativeName","steam_id":76561198853344895,"connected_time":1114000000000,"state":"active","ping":58},{"user_id":346,"name":"uheye whuant moy ehmdeevee","steam_id":76561198028981154,"connected_time":2618000000000,"state":"active","ping":58},{"user_id":345,"name":"Cool Vibrations","steam_id":76561198142493659,"connected_time":2808000000000,"state":"active","ping":64},{"user_id":340,"name":"Spud","steam_id":76561198878000618,"connected_time":3052000000000,"state":"active","ping":45},{"user_id":361,"name":"Whisper!","steam_id":76561198119609795,"connected_time":389000000000,"state":"active","ping":51},{"user_id":357,"name":"Your Dinosaurs","steam_id":76561198392670237,"connected_time":1082000000000,"state":"active","ping":56},{"user_id":362,"name":"Shadmage","steam_id":76561198312008132,"connected_time":282000000000,"state":"active","ping":58},{"user_id":354,"name":"Viktor Ludwig","steam_id":76561198973370004,"connected_time":1233000000000,"state":"active","ping":57},{"user_id":360,"name":"Lumberjane37 (She/Her)","steam_id":76561198014841793,"connected_time":1007000000000,"state":"active","ping":59},{"user_id":328,"name":"ketsu","steam_id":76561197966171554,"connected_time":4172000000000,"state":"active","ping":173},{"user_id":349,"name":"riSygneD","steam_id":76561198331618687,"connected_time":1724000000000,"state":"active","ping":33},{"user_id":251,"name":"Lucide","steam_id":76561197998530400,"connected_time":9093000000000,"state":"active","ping":71},{"user_id":273,"name":"Lonlily","steam_id":76561198130418647,"connected_time":8154000000000,"state":"active","ping":67},{"user_id":332,"name":"Talulah","steam_id":76561198348354629,"connected_time":3776000000000,"state":"active","ping":48}]},{"server_id":112,"name":"Uncletopia | Los Angeles | 2 | All Maps","name_short":"lax-2","host":"lax-1.us.uncletopia.com","port":27025,"enabled":true,"region":"us-west","cc":"us","latitude":33.94279,"longitude":-118.41004,"reserved":0,"last_update":"0001-01-01T00:00:00Z","name_a2s":"Uncletopia | Los Angeles | 2 | All Maps","protocol":17,"map":"cp_mountainlab","folder":"tf","game":"Team Fortress","app_id":440,"player_count":24,"max_players":24,"Bots":0,"server_type":"Dedicated","server_os":"Linux","password":true,"vac":true,"version":"7932396","steam_id":85568392924469992,"keywords":["cp","nocrits","nodmgspread","uncletopia"],"game_id":440,"stv_port":27026,"stv_name":"Uncletopia | Los Angeles | 2 | All Maps | STV","players":[{"user_id":396,"name":"frick off law enforcement","steam_id":76561198255022731,"connected_time":657000000000,"state":"active","ping":99},{"user_id":292,"name":"AimBütter","steam_id":76561198060108739,"connected_time":6062000000000,"state":"active","ping":45},{"user_id":397,"name":"Jabroni RIP DOOM","steam_id":76561198066385842,"connected_time":540000000000,"state":"active","ping":57},{"user_id":403,"name":"Seriously Bruh","steam_id":76561198070408485,"connected_time":186000000000,"state":"active","ping":86},{"user_id":390,"name":"chesapeake","steam_id":76561198407129137,"connected_time":926000000000,"state":"active","ping":109},{"user_id":315,"name":"Titar Industries","steam_id":76561198143078476,"connected_time":4328000000000,"state":"active","ping":129},{"user_id":400,"name":"SmallErection","steam_id":76561198071770147,"connected_time":225000000000,"state":"active","ping":87},{"user_id":392,"name":"Garfelf","steam_id":76561198419850129,"connected_time":842000000000,"state":"active","ping":72},{"user_id":393,"name":"RailRunner66","steam_id":76561198053779091,"connected_time":842000000000,"state":"active","ping":120},{"user_id":394,"name":"LarsLoop","steam_id":76561198064892315,"connected_time":823000000000,"state":"active","ping":84},{"user_id":277,"name":"The Horny","steam_id":76561198863639459,"connected_time":7017000000000,"state":"active","ping":86},{"user_id":399,"name":"Lumpy the Illegally Blind","steam_id":76561198053125768,"connected_time":456000000000,"state":"active","ping":121},{"user_id":296,"name":"Seanvich","steam_id":76561198065805500,"connected_time":5649000000000,"state":"active","ping":100},{"user_id":395,"name":"WaylonPK","steam_id":76561198094429949,"connected_time":730000000000,"state":"active","ping":81},{"user_id":401,"name":"Tech Deck","steam_id":76561199070437675,"connected_time":217000000000,"state":"active","ping":56},{"user_id":402,"name":"Jezzus","steam_id":76561199289676387,"connected_time":195000000000,"state":"active","ping":89},{"user_id":404,"name":"Seydellious","steam_id":76561198093430867,"connected_time":177000000000,"state":"active","ping":63},{"user_id":405,"name":"stboncho","steam_id":76561198172275301,"connected_time":158000000000,"state":"active","ping":66},{"user_id":406,"name":"nat","steam_id":76561198179923093,"connected_time":147000000000,"state":"active","ping":44},{"user_id":407,"name":"wugmup","steam_id":76561199096287734,"connected_time":89000000000,"state":"active","ping":74},{"user_id":387,"name":"Double Donk Gaming","steam_id":76561198209881263,"connected_time":1244000000000,"state":"active","ping":55},{"user_id":285,"name":"monkeycake","steam_id":76561198272061915,"connected_time":6802000000000,"state":"active","ping":87},{"user_id":380,"name":"posture check","steam_id":76561198071834647,"connected_time":1764000000000,"state":"active","ping":72},{"user_id":408,"name":"DORK","steam_id":76561198037384555,"connected_time":28000000000,"state":"active","ping":48}]},{"server_id":324,"name":"Uncletopia | Los Angeles | 3 | All Maps","name_short":"lax-3","host":"lax-1.us.uncletopia.com","port":27035,"enabled":true,"region":"us-west","cc":"us","latitude":33.94279,"longitude":-118.41004,"reserved":0,"last_update":"0001-01-01T00:00:00Z","name_a2s":"Uncletopia | Los Angeles | 3 | All Maps","protocol":17,"map":"pl_pier","folder":"tf","game":"Team Fortress","app_id":440,"player_count":24,"max_players":24,"Bots":0,"server_type":"Dedicated","server_os":"Linux","password":true,"vac":true,"version":"7932396","steam_id":85568392924510198,"keywords":["nocrits","nodmgspread","payload","uncletopia"],"game_id":440,"stv_port":27036,"stv_name":"Uncletopia | Los Angeles | 3 | All Maps | STV","players":[{"user_id":331,"name":"Earl S","steam_id":76561198064273772,"connected_time":1927000000000,"state":"active","ping":116},{"user_id":340,"name":"cataconik","steam_id":76561198145530829,"connected_time":981000000000,"state":"active","ping":115},{"user_id":311,"name":"ElectronX","steam_id":76561198116034988,"connected_time":3087000000000,"state":"active","ping":54},{"user_id":210,"name":"lker","steam_id":76561197976975075,"connected_time":9965000000000,"state":"active","ping":92},{"user_id":343,"name":"gamerkhang","steam_id":76561197994201184,"connected_time":775000000000,"state":"active","ping":39},{"user_id":351,"name":"The Great Karizma!","steam_id":76561198346191193,"connected_time":224000000000,"state":"active","ping":101},{"user_id":344,"name":"Ken","steam_id":76561198190992453,"connected_time":773000000000,"state":"active","ping":53},{"user_id":322,"name":"HOG RIDER","steam_id":76561198298589502,"connected_time":2338000000000,"state":"active","ping":56},{"user_id":333,"name":"SadVeggie","steam_id":76561198163430099,"connected_time":1788000000000,"state":"active","ping":132},{"user_id":345,"name":"KrylonHeretic","steam_id":76561198139811459,"connected_time":769000000000,"state":"active","ping":73},{"user_id":348,"name":"Literal Vampire Potbelly Goblin","steam_id":76561197970527356,"connected_time":588000000000,"state":"active","ping":41},{"user_id":342,"name":"in n out  cheeseburger","steam_id":76561198319442494,"connected_time":881000000000,"state":"active","ping":60},{"user_id":273,"name":"FriskyDemon","steam_id":76561198043684646,"connected_time":5210000000000,"state":"active","ping":74},{"user_id":222,"name":"Zeaky","steam_id":76561198068736138,"connected_time":8760000000000,"state":"active","ping":115},{"user_id":352,"name":"Brain damage squirrel","steam_id":76561198846344452,"connected_time":204000000000,"state":"active","ping":50},{"user_id":334,"name":"Robert_Cheeto","steam_id":76561198103638020,"connected_time":1760000000000,"state":"active","ping":63},{"user_id":324,"name":"Yuhh","steam_id":76561199112894955,"connected_time":2283000000000,"state":"active","ping":108},{"user_id":353,"name":"cringeass nae-nae girl","steam_id":76561198108753857,"connected_time":174000000000,"state":"active","ping":94},{"user_id":337,"name":"Nebe0","steam_id":76561199133770186,"connected_time":1271000000000,"state":"active","ping":130},{"user_id":354,"name":"He Who Hobbles","steam_id":76561198087094655,"connected_time":157000000000,"state":"active","ping":131},{"user_id":315,"name":"Uluyo","steam_id":76561198065857148,"connected_time":2511000000000,"state":"active","ping":76},{"user_id":314,"name":"Nut Bustray","steam_id":76561198092403883,"connected_time":2580000000000,"state":"active","ping":71},{"user_id":341,"name":"b10dragon","steam_id":76561198374314985,"connected_time":928000000000,"state":"active","ping":101},{"user_id":327,"name":"Anthid","steam_id":76561198074493797,"connected_time":2144000000000,"state":"active","ping":84}]},{"server_id":25,"name":"Uncletopia | Los Angeles | 4 | Stopwatch Beta","name_short":"lax-4","host":"lax-1.us.uncletopia.com","port":27045,"enabled":true,"region":"us-west","cc":"us","latitude":33.94279,"longitude":-118.41004,"reserved":0,"last_update":"0001-01-01T00:00:00Z","name_a2s":"Uncletopia | Los Angeles | 4 | Stopwatch Beta","protocol":17,"map":"pl_upward","folder":"tf","game":"Team Fortress","app_id":440,"player_count":0,"max_players":24,"Bots":0,"server_type":"Dedicated","server_os":"Linux","password":true,"vac":true,"version":"7932396","steam_id":85568392924510199,"keywords":["nocrits","nodmgspread","payload","uncletopia"],"game_id":440,"stv_port":27046,"stv_name":"Uncletopia | Los Angeles | 4 | Stopwatch Beta | STV","players":null},{"server_id":11,"name":"Uncletopia | London | 1 | All Maps","name_short":"lon-1","host":"lon-1.uk.uncletopia.com","port":27015,"enabled":true,"region":"eu","cc":"gb","latitude":51.509865,"longitude":-0.118092,"reserved":0,"last_update":"0001-01-01T00:00:00Z","name_a2s":"Uncletopia | London | 1 | All Maps","protocol":17,"map":"koth_badlands","folder":"tf","game":"Team Fortress","app_id":440,"player_count":24,"max_players":24,"Bots":0,"server_type":"Dedicated","server_os":"Linux","password":true,"vac":true,"version":"7932396","steam_id":85568392924367362,"keywords":["cp","nocrits","nodmgspread","uncletopia"],"game_id":440,"stv_port":27016,"stv_name":"Uncletopia | London | 1 | All Maps | STV","players":[{"user_id":3,"name":"autistic luigi","steam_id":76561199218285040,"connected_time":4705000000000,"state":"active","ping":80},{"user_id":4,"name":"seigfried","steam_id":76561198047260133,"connected_time":4703000000000,"state":"active","ping":71},{"user_id":63,"name":"JJ","steam_id":76561198040955086,"connected_time":839000000000,"state":"active","ping":162},{"user_id":61,"name":"Not that pro","steam_id":76561198299539583,"connected_time":1200000000000,"state":"active","ping":76},{"user_id":23,"name":"Svet (Tintin)","steam_id":76561198151547575,"connected_time":4531000000000,"state":"active","ping":58},{"user_id":8,"name":"Borat","steam_id":76561198122226417,"connected_time":4695000000000,"state":"active","ping":43},{"user_id":9,"name":"-Kost1xx","steam_id":76561198160062258,"connected_time":4693000000000,"state":"active","ping":90},{"user_id":56,"name":"bigboy76","steam_id":76561198061197114,"connected_time":2092000000000,"state":"active","ping":76},{"user_id":65,"name":"Mr. Masturbeast","steam_id":76561198942024930,"connected_time":731000000000,"state":"active","ping":105},{"user_id":12,"name":"FarisKO","steam_id":76561198259234555,"connected_time":4685000000000,"state":"active","ping":156},{"user_id":46,"name":"Perpetual Pub Push","steam_id":76561198256714846,"connected_time":2862000000000,"state":"active","ping":32},{"user_id":66,"name":"voco","steam_id":76561198179250642,"connected_time":724000000000,"state":"active","ping":123},{"user_id":15,"name":"✧ Ghosty ✧","steam_id":76561198312022168,"connected_time":4680000000000,"state":"active","ping":56},{"user_id":70,"name":"MrXtr","steam_id":76561198966247397,"connected_time":498000000000,"state":"active","ping":229},{"user_id":69,"name":"Jason.2014","steam_id":76561198164877219,"connected_time":566000000000,"state":"active","ping":35},{"user_id":73,"name":"UglyTwinYgor","steam_id":76561198132718039,"connected_time":95000000000,"state":"active","ping":86},{"user_id":42,"name":"matthes","steam_id":76561198145465595,"connected_time":3033000000000,"state":"active","ping":44},{"user_id":20,"name":"minn","steam_id":76561198099101232,"connected_time":4618000000000,"state":"active","ping":54},{"user_id":72,"name":"gravity displeases me","steam_id":76561198342570528,"connected_time":255000000000,"state":"active","ping":65},{"user_id":50,"name":"late spring","steam_id":76561198114876472,"connected_time":2777000000000,"state":"active","ping":107},{"user_id":60,"name":"Rex","steam_id":76561198876099548,"connected_time":1879000000000,"state":"active","ping":89},{"user_id":51,"name":"Tattletails","steam_id":76561198055690341,"connected_time":2515000000000,"state":"active","ping":57},{"user_id":52,"name":"amjugan","steam_id":76561198018488216,"connected_time":2505000000000,"state":"active","ping":130},{"user_id":74,"name":"Armok","steam_id":76561198972559096,"connected_time":95000000000,"state":"active","ping":90}]},{"server_id":114,"name":"Uncletopia | London | 2 | All Maps","name_short":"lon-2","host":"lon-1.uk.uncletopia.com","port":27025,"enabled":true,"region":"eu","cc":"gb","latitude":51.509865,"longitude":-0.118092,"reserved":0,"last_update":"0001-01-01T00:00:00Z","name_a2s":"Uncletopia | London | 2 | All Maps","protocol":17,"map":"koth_highpass","folder":"tf","game":"Team Fortress","app_id":440,"player_count":0,"max_players":24,"Bots":0,"server_type":"Dedicated","server_os":"Linux","password":true,"vac":true,"version":"7932396","steam_id":85568392924470941,"keywords":["cp","nocrits","nodmgspread","uncletopia"],"game_id":440,"stv_port":27026,"stv_name":"Uncletopia | London | 2 | All Maps | STV","players":null},{"server_id":320,"name":"Uncletopia | London | 3 | All Maps","name_short":"lon-3","host":"lon-1.uk.uncletopia.com","port":27035,"enabled":true,"region":"eu","cc":"gb","latitude":51.509865,"longitude":-0.118092,"reserved":0,"last_update":"0001-01-01T00:00:00Z","name_a2s":"Uncletopia | London | 3 | All Maps","protocol":17,"map":"cp_altitude","folder":"tf","game":"Team Fortress","app_id":440,"player_count":0,"max_players":24,"Bots":0,"server_type":"Dedicated","server_os":"Linux","password":true,"vac":true,"version":"7932396","steam_id":85568392924510192,"keywords":["cp","nocrits","nodmgspread","uncletopia"],"game_id":440,"stv_port":27036,"stv_name":"Uncletopia | London | 3 | All Maps | STV","players":null},{"server_id":321,"name":"Uncletopia | London | 4 | All Maps","name_short":"lon-4","host":"lon-1.uk.uncletopia.com","port":27045,"enabled":true,"region":"eu","cc":"gb","latitude":51.509865,"longitude":-0.118092,"reserved":0,"last_update":"0001-01-01T00:00:00Z","name_a2s":"Uncletopia | London | 4 | All Maps","protocol":17,"map":"cp_snakewater_final1","folder":"tf","game":"Team Fortress","app_id":440,"player_count":0,"max_players":24,"Bots":0,"server_type":"Dedicated","server_os":"Linux","password":true,"vac":true,"version":"7932396","steam_id":85568392924510193,"keywords":["cp","nocrits","nodmgspread","uncletopia"],"game_id":440,"stv_port":27046,"stv_name":"Uncletopia | London | 4 | All Maps | STV","players":null},{"server_id":21,"name":"Uncletopia | London | 5 | All Maps","name_short":"lon-5","host":"lon-1.uk.uncletopia.com","port":27055,"enabled":true,"region":"eu","cc":"gb","latitude":51.509865,"longitude":-0.118092,"reserved":0,"last_update":"0001-01-01T00:00:00Z","name_a2s":"Uncletopia | London | 5 | All Maps","protocol":17,"map":"pl_borneo","folder":"tf","game":"Team Fortress","app_id":440,"player_count":0,"max_players":24,"Bots":0,"server_type":"Dedicated","server_os":"Linux","password":true,"vac":true,"version":"7932396","steam_id":85568392924742829,"keywords":["nocrits","nodmgspread","payload","uncletopia"],"game_id":440,"stv_port":27056,"stv_name":"Uncletopia | London | 5 | All Maps | STV","players":null},{"server_id":22,"name":"Uncletopia | London | 6 | All Maps","name_short":"lon-6","host":"lon-1.uk.uncletopia.com","port":27065,"enabled":true,"region":"eu","cc":"gb","latitude":51.509865,"longitude":-0.118092,"reserved":0,"last_update":"0001-01-01T00:00:00Z","name_a2s":"Uncletopia | London | 6 | All Maps","protocol":17,"map":"cp_mountainlab","folder":"tf","game":"Team Fortress","app_id":440,"player_count":0,"max_players":24,"Bots":0,"server_type":"Dedicated","server_os":"Linux","password":true,"vac":true,"version":"7932396","steam_id":85568392924742830,"keywords":["cp","nocrits","nodmgspread","uncletopia"],"game_id":440,"stv_port":27066,"stv_name":"Uncletopia | London | 6 | All Maps | STV","players":null},{"server_id":40,"name":"Uncletopia | London | 7 | No Payload","name_short":"lon-7","host":"lon-1.uk.uncletopia.com","port":27075,"enabled":true,"region":"eu","cc":"gb","latitude":51.509865,"longitude":-0.118092,"reserved":0,"last_update":"0001-01-01T00:00:00Z","name_a2s":"Uncletopia | London | 7 | No Payload","protocol":17,"map":"pl_snowycoast","folder":"tf","game":"Team Fortress","app_id":440,"player_count":0,"max_players":24,"Bots":0,"server_type":"Dedicated","server_os":"Linux","password":true,"vac":true,"version":"7932396","steam_id":85568392924964314,"keywords":["nocrits","nodmgspread","payload","uncletopia"],"game_id":440,"stv_port":27076,"stv_name":"Uncletopia | London | 7 | No Payload | STV","players":null},{"server_id":41,"name":"Uncletopia | London | 8 | Community","name_short":"lon-8","host":"lon-1.uk.uncletopia.com","port":27085,"enabled":true,"region":"eu","cc":"gb","latitude":51.509865,"longitude":-0.118092,"reserved":0,"last_update":"0001-01-01T00:00:00Z","name_a2s":"Uncletopia | London | 8 | Community","protocol":17,"map":"pl_barnblitz","folder":"tf","game":"Team Fortress","app_id":440,"player_count":0,"max_players":24,"Bots":0,"server_type":"Dedicated","server_os":"Linux","password":true,"vac":true,"version":"7932396","steam_id":85568392924964315,"keywords":["nocrits","nodmgspread","payload","uncletopia"],"game_id":440,"stv_port":27086,"stv_name":"Uncletopia | London | 8 | Community | STV","players":null},{"server_id":300,"name":"Uncletopia | Montréal | 1 | All Maps","name_short":"mtl-1","host":"mtl-1.ca.uncletopia.com","port":27015,"enabled":true,"region":"us-east","cc":"ca","latitude":45.50889,"longitude":-73.56167,"reserved":0,"last_update":"0001-01-01T00:00:00Z","name_a2s":"Uncletopia | Montréal | 1 | All Maps","protocol":17,"map":"koth_cascade","folder":"tf","game":"Team Fortress","app_id":440,"player_count":0,"max_players":24,"Bots":0,"server_type":"Dedicated","server_os":"Linux","password":true,"vac":true,"version":"7932396","steam_id":85568392924500087,"keywords":["cp","nocrits","nodmgspread","uncletopia"],"game_id":440,"stv_port":27016,"stv_name":"Uncletopia | Montréal | 1 | All Maps | STV","players":null},{"server_id":301,"name":"Uncletopia | Montréal | 2 | All Maps","name_short":"mtl-2","host":"mtl-1.ca.uncletopia.com","port":27025,"enabled":true,"region":"us-east","cc":"ca","latitude":45.50889,"longitude":-73.56167,"reserved":0,"last_update":"0001-01-01T00:00:00Z","name_a2s":"Uncletopia | Montréal | 2 | All Maps","protocol":17,"map":"koth_lakeside_final","folder":"tf","game":"Team Fortress","app_id":440,"player_count":0,"max_players":24,"Bots":0,"server_type":"Dedicated","server_os":"Linux","password":true,"vac":true,"version":"7932396","steam_id":85568392924500088,"keywords":["cp","nocrits","nodmgspread","uncletopia"],"game_id":440,"stv_port":27026,"stv_name":"Uncletopia | Montréal | 2 | All Maps | STV","players":null},{"server_id":302,"name":"Uncletopia | Montréal | 3 | All Maps","name_short":"mtl-3","host":"mtl-1.ca.uncletopia.com","port":27035,"enabled":true,"region":"us-east","cc":"ca","latitude":45.50889,"longitude":-73.56167,"reserved":0,"last_update":"0001-01-01T00:00:00Z","name_a2s":"Uncletopia | Montréal | 3 | All Maps","protocol":17,"map":"pl_frontier_final","folder":"tf","game":"Team Fortress","app_id":440,"player_count":0,"max_players":24,"Bots":0,"server_type":"Dedicated","server_os":"Linux","password":true,"vac":true,"version":"7932396","steam_id":85568392924500089,"keywords":["nocrits","nodmgspread","payload","uncletopia"],"game_id":440,"stv_port":27036,"stv_name":"Uncletopia | Montréal | 3 | All Maps | STV","players":null},{"server_id":303,"name":"Uncletopia | Montréal | 4 | No Payload","name_short":"mtl-4","host":"mtl-1.ca.uncletopia.com","port":27045,"enabled":true,"region":"us-east","cc":"ca","latitude":45.50889,"longitude":-73.56167,"reserved":0,"last_update":"0001-01-01T00:00:00Z","name_a2s":"Uncletopia | Montréal | 4 | No Payload","protocol":17,"map":"cp_gullywash_final1","folder":"tf","game":"Team Fortress","app_id":440,"player_count":0,"max_players":24,"Bots":0,"server_type":"Dedicated","server_os":"Linux","password":true,"vac":true,"version":"7932396","steam_id":85568392924500090,"keywords":["cp","nocrits","nodmgspread","uncletopia"],"game_id":440,"stv_port":27046,"stv_name":"Uncletopia | Montréal | 4 | No Payload | STV","players":null},{"server_id":13,"name":"Uncletopia | New York City | 1 | All Maps","name_short":"nyc-1","host":"nyc-1.us.uncletopia.com","port":27015,"enabled":true,"region":"us-east","cc":"us","latitude":40.73061,"longitude":-73.93524,"reserved":0,"last_update":"0001-01-01T00:00:00Z","name_a2s":"Uncletopia | New York City | 1 | All Maps","protocol":17,"map":"pl_upward","folder":"tf","game":"Team Fortress","app_id":440,"player_count":21,"max_players":24,"Bots":0,"server_type":"Dedicated","server_os":"Linux","password":true,"vac":true,"version":"7932396","steam_id":85568392924469993,"keywords":["nocrits","nodmgspread","payload","uncletopia"],"game_id":440,"stv_port":27016,"stv_name":"Uncletopia | New York City | 1 | All Maps | STV","players":[{"user_id":549,"name":"Feces","steam_id":76561198380219187,"connected_time":5152000000000,"state":"active","ping":69},{"user_id":597,"name":"*","steam_id":76561198173047169,"connected_time":453000000000,"state":"active","ping":42},{"user_id":547,"name":"Gentoo Linux Gaming","steam_id":76561197999657118,"connected_time":5939000000000,"state":"active","ping":66},{"user_id":598,"name":"exotic fishes","steam_id":76561199046490785,"connected_time":437000000000,"state":"active","ping":66},{"user_id":571,"name":"2ndWhiterunGuard","steam_id":76561198105382714,"connected_time":3103000000000,"state":"active","ping":103},{"user_id":602,"name":"geralde","steam_id":76561198454317908,"connected_time":294000000000,"state":"active","ping":150},{"user_id":561,"name":"HammerHead","steam_id":76561197975668646,"connected_time":4224000000000,"state":"active","ping":94},{"user_id":587,"name":"WitheringLeo","steam_id":76561198046722918,"connected_time":1964000000000,"state":"active","ping":55},{"user_id":574,"name":"pieftwc","steam_id":76561198844080556,"connected_time":3047000000000,"state":"active","ping":88},{"user_id":565,"name":"Gram Tokers Count Doinkula","steam_id":76561198112811565,"connected_time":3596000000000,"state":"active","ping":50},{"user_id":576,"name":"Blobbyfish","steam_id":76561198822962650,"connected_time":2885000000000,"state":"active","ping":52},{"user_id":592,"name":"HyperBluuJay","steam_id":76561198165709523,"connected_time":1401000000000,"state":"active","ping":70},{"user_id":595,"name":"Moonadoo","steam_id":76561198133377546,"connected_time":633000000000,"state":"active","ping":92},{"user_id":600,"name":"Loashes","steam_id":76561198119608299,"connected_time":423000000000,"state":"active","ping":105},{"user_id":601,"name":"glerb","steam_id":76561199485239672,"connected_time":348000000000,"state":"active","ping":51},{"user_id":603,"name":"Listen up, chopped salad","steam_id":76561198015440724,"connected_time":150000000000,"state":"active","ping":121},{"user_id":536,"name":"social distance warrior","steam_id":76561198128992994,"connected_time":6838000000000,"state":"active","ping":110},{"user_id":495,"name":"Chiaki Nanami","steam_id":76561198164782653,"connected_time":9151000000000,"state":"active","ping":52},{"user_id":493,"name":"gerg","steam_id":76561197997127387,"connected_time":9624000000000,"state":"active","ping":121},{"user_id":596,"name":"Stick","steam_id":76561198001509374,"connected_time":615000000000,"state":"active","ping":83},{"user_id":552,"name":"Wique","steam_id":76561198071217597,"connected_time":4761000000000,"state":"active","ping":70}]},{"server_id":14,"name":"Uncletopia | New York City | 2 | All Maps","name_short":"nyc-2","host":"nyc-1.us.uncletopia.com","port":27025,"enabled":true,"region":"us-east","cc":"us","latitude":40.73061,"longitude":-73.93524,"reserved":0,"last_update":"0001-01-01T00:00:00Z","name_a2s":"Uncletopia | New York City | 2 | All Maps","protocol":17,"map":"koth_lakeside_final","folder":"tf","game":"Team Fortress","app_id":440,"player_count":0,"max_players":24,"Bots":0,"server_type":"Dedicated","server_os":"Linux","password":true,"vac":true,"version":"7932396","steam_id":85568392924469994,"keywords":["cp","nocrits","nodmgspread","uncletopia"],"game_id":440,"stv_port":27026,"stv_name":"Uncletopia | New York City | 2 | All Maps | STV","players":null},{"server_id":15,"name":"Uncletopia | New York City | 3 | Stopwatch Beta","name_short":"nyc-3","host":"nyc-1.us.uncletopia.com","port":27035,"enabled":true,"region":"us-east","cc":"us","latitude":40.73061,"longitude":-73.93524,"reserved":0,"last_update":"0001-01-01T00:00:00Z","name_a2s":"Uncletopia | New York City | 3 | Stopwatch Beta","protocol":17,"map":"workshop/koth_bagel_rc6.ugc2514036946","folder":"tf","game":"Team Fortress","app_id":440,"player_count":0,"max_players":24,"Bots":0,"server_type":"Dedicated","server_os":"Linux","password":true,"vac":true,"version":"7932396","steam_id":85568392924742820,"keywords":["cp","nocrits","nodmgspread","uncletopia"],"game_id":440,"stv_port":27036,"stv_name":"Uncletopia | New York City | 3 | Stopwatch Beta | STV","players":null},{"server_id":16,"name":"Uncletopia | New York City | 4 | Community","name_short":"nyc-4","host":"nyc-1.us.uncletopia.com","port":27045,"enabled":true,"region":"us-east","cc":"us","latitude":40.73061,"longitude":-73.93524,"reserved":0,"last_update":"0001-01-01T00:00:00Z","name_a2s":"Uncletopia | New York City | 4 | Community","protocol":17,"map":"workshop/koth_synthetic_rc6a.ugc1549817316","folder":"tf","game":"Team Fortress","app_id":440,"player_count":0,"max_players":24,"Bots":0,"server_type":"Dedicated","server_os":"Linux","password":true,"vac":true,"version":"7932396","steam_id":85568392924742821,"keywords":["cp","nocrits","nodmgspread","uncletopia"],"game_id":440,"stv_port":27046,"stv_name":"Uncletopia | New York City | 4 | Community | STV","players":null},{"server_id":142,"name":"Uncletopia | São Paulo | 1 | All Maps","name_short":"sao-1","host":"sao-1.br.uncletopia.com","port":27015,"enabled":true,"region":"sa","cc":"br","latitude":-23.533773,"longitude":-46.62529,"reserved":0,"last_update":"0001-01-01T00:00:00Z","name_a2s":"Uncletopia | São Paulo | 1 | All Maps","protocol":17,"map":"koth_lakeside_final","folder":"tf","game":"Team Fortress","app_id":440,"player_count":0,"max_players":24,"Bots":0,"server_type":"Dedicated","server_os":"Linux","password":true,"vac":true,"version":"7932396","steam_id":85568392924469996,"keywords":["cp","nocrits","nodmgspread","uncletopia"],"game_id":440,"stv_port":27016,"stv_name":"Uncletopia | São Paulo | 1 | All Maps | STV","players":null},{"server_id":143,"name":"Uncletopia | São Paulo | 2 | All Maps","name_short":"sao-2","host":"sao-2.br.uncletopia.com","port":27015,"enabled":true,"region":"sa","cc":"br","latitude":-23.533773,"longitude":-46.62529,"reserved":0,"last_update":"0001-01-01T00:00:00Z","name_a2s":"Uncletopia | São Paulo | 2 | All Maps","protocol":17,"map":"koth_highpass","folder":"tf","game":"Team Fortress","app_id":440,"player_count":0,"max_players":24,"Bots":0,"server_type":"Dedicated","server_os":"Linux","password":true,"vac":true,"version":"7932396","steam_id":85568392924485349,"keywords":["cp","nocrits","nodmgspread","uncletopia"],"game_id":440,"stv_port":27016,"stv_name":"Uncletopia | São Paulo | 2 | All Maps | STV","players":null},{"server_id":7,"name":"Uncletopia | Seattle | 1 | All Maps","name_short":"sea-1","host":"sea-1.us.uncletopia.com","port":27015,"enabled":true,"region":"us-west","cc":"us","latitude":47.608013,"longitude":-122.33517,"reserved":0,"last_update":"0001-01-01T00:00:00Z","name_a2s":"Uncletopia | Seattle | 1 | All Maps","protocol":17,"map":"pl_pier","folder":"tf","game":"Team Fortress","app_id":440,"player_count":24,"max_players":24,"Bots":0,"server_type":"Dedicated","server_os":"Linux","password":true,"vac":true,"version":"7932396","steam_id":85568392924469997,"keywords":["nocrits","nodmgspread","payload","uncletopia"],"game_id":440,"stv_port":27016,"stv_name":"Uncletopia | Seattle | 1 | All Maps | STV","players":[{"user_id":704,"name":"DukeofWutang","steam_id":76561198010246343,"connected_time":1048000000000,"state":"active","ping":76},{"user_id":702,"name":"reiidaya","steam_id":76561198325306660,"connected_time":1095000000000,"state":"active","ping":53},{"user_id":709,"name":"rorywashere /ᐠ - ˕ -マ Ⳋ","steam_id":76561198065825165,"connected_time":569000000000,"state":"active","ping":172},{"user_id":654,"name":"tetrapyrgos","steam_id":76561198169755734,"connected_time":5323000000000,"state":"active","ping":98},{"user_id":694,"name":"oil","steam_id":76561198099980149,"connected_time":1520000000000,"state":"active","ping":78},{"user_id":710,"name":"squash","steam_id":76561198150281353,"connected_time":132000000000,"state":"active","ping":58},{"user_id":699,"name":"mub","steam_id":76561197961943948,"connected_time":1097000000000,"state":"active","ping":46},{"user_id":689,"name":"delight","steam_id":76561197980280272,"connected_time":2596000000000,"state":"active","ping":46},{"user_id":675,"name":"[TrC] Dackstrus","steam_id":76561197973518509,"connected_time":3663000000000,"state":"active","ping":60},{"user_id":706,"name":"ibu","steam_id":76561197968084065,"connected_time":883000000000,"state":"active","ping":58},{"user_id":700,"name":"[TrC] Nosy","steam_id":76561197978859310,"connected_time":1097000000000,"state":"active","ping":62},{"user_id":678,"name":"cat gets the fleas","steam_id":76561198048754056,"connected_time":3465000000000,"state":"active","ping":70},{"user_id":703,"name":"Finkly","steam_id":76561198049828110,"connected_time":1085000000000,"state":"active","ping":48},{"user_id":667,"name":"Trips","steam_id":76561198054581597,"connected_time":4310000000000,"state":"active","ping":92},{"user_id":592,"name":"Lord Hater","steam_id":76561199158148782,"connected_time":11405000000000,"state":"active","ping":56},{"user_id":664,"name":"lasky","steam_id":76561198017030029,"connected_time":4355000000000,"state":"active","ping":105},{"user_id":701,"name":"8bitw0rld","steam_id":76561198092788818,"connected_time":1096000000000,"state":"active","ping":55},{"user_id":670,"name":"im mr ____hed look at me","steam_id":76561198051751133,"connected_time":4111000000000,"state":"active","ping":62},{"user_id":672,"name":"Doctor™","steam_id":76561198134309750,"connected_time":3858000000000,"state":"active","ping":171},{"user_id":707,"name":"jorts","steam_id":76561199041179985,"connected_time":867000000000,"state":"active","ping":59},{"user_id":663,"name":"rat gets the cheese","steam_id":76561198031234032,"connected_time":4487000000000,"state":"active","ping":101},{"user_id":683,"name":"ふわふわ毛布","steam_id":76561198088403016,"connected_time":3267000000000,"state":"active","ping":181},{"user_id":684,"name":"NEBULA","steam_id":76561198086878595,"connected_time":3267000000000,"state":"active","ping":107},{"user_id":696,"name":"Ducks","steam_id":76561198130038345,"connected_time":1491000000000,"state":"active","ping":72}]},{"server_id":119,"name":"Uncletopia | Seattle | 2 | All Maps","name_short":"sea-2","host":"sea-1.us.uncletopia.com","port":27025,"enabled":true,"region":"us-west","cc":"us","latitude":47.608013,"longitude":-122.33517,"reserved":0,"last_update":"0001-01-01T00:00:00Z","name_a2s":"Uncletopia | Seattle | 2 | All Maps","protocol":17,"map":"cp_powerhouse","folder":"tf","game":"Team Fortress","app_id":440,"player_count":24,"max_players":24,"Bots":0,"server_type":"Dedicated","server_os":"Linux","password":true,"vac":true,"version":"7932396","steam_id":85568392924469998,"keywords":["cp","nocrits","nodmgspread","uncletopia"],"game_id":440,"stv_port":27026,"stv_name":"Uncletopia | Seattle | 2 | All Maps | STV","players":[{"user_id":746,"name":"Ayyyojimbo","steam_id":76561198020324687,"connected_time":1166000000000,"state":"active","ping":68},{"user_id":724,"name":"jumbi","steam_id":76561198353456379,"connected_time":2716000000000,"state":"active","ping":71},{"user_id":757,"name":"geniusgo","steam_id":76561198025064008,"connected_time":369000000000,"state":"active","ping":64},{"user_id":742,"name":"Heavy Lobster","steam_id":76561199437953754,"connected_time":2011000000000,"state":"active","ping":76},{"user_id":761,"name":"french exterminator","steam_id":76561198993412673,"connected_time":113000000000,"state":"active","ping":69},{"user_id":751,"name":"Yesmar","steam_id":76561198236328806,"connected_time":644000000000,"state":"active","ping":116},{"user_id":744,"name":"011sra","steam_id":76561199489542125,"connected_time":1615000000000,"state":"active","ping":59},{"user_id":696,"name":"SQbuilder","steam_id":76561198076473375,"connected_time":5746000000000,"state":"active","ping":91},{"user_id":755,"name":"mmmBoyo","steam_id":76561198821360261,"connected_time":383000000000,"state":"active","ping":76},{"user_id":736,"name":"Major_Pippy","steam_id":76561198004482878,"connected_time":2225000000000,"state":"active","ping":51},{"user_id":756,"name":"090-nsalih","steam_id":76561199467467873,"connected_time":381000000000,"state":"active","ping":272},{"user_id":722,"name":"GPG slugmundo","steam_id":76561198073549508,"connected_time":2758000000000,"state":"active","ping":63},{"user_id":737,"name":"RagingRoosevelt","steam_id":76561197985483153,"connected_time":2220000000000,"state":"active","ping":48},{"user_id":738,"name":"spartanman284","steam_id":76561198952947651,"connected_time":2181000000000,"state":"active","ping":111},{"user_id":693,"name":"noellehound","steam_id":76561198108844158,"connected_time":6062000000000,"state":"active","ping":81},{"user_id":760,"name":"mega creamer nae nae","steam_id":76561198126853548,"connected_time":281000000000,"state":"active","ping":148},{"user_id":758,"name":"KP","steam_id":76561198077911451,"connected_time":351000000000,"state":"active","ping":152},{"user_id":759,"name":"Nolan","steam_id":76561198169648081,"connected_time":343000000000,"state":"active","ping":71},{"user_id":682,"name":"if looks could krill","steam_id":76561198424248616,"connected_time":6765000000000,"state":"active","ping":77},{"user_id":739,"name":"Dyson","steam_id":76561199081837220,"connected_time":2166000000000,"state":"active","ping":114},{"user_id":762,"name":"HiHoTheMerryOh","steam_id":76561198145575631,"connected_time":107000000000,"state":"active","ping":56},{"user_id":753,"name":"gilbert","steam_id":76561198130644634,"connected_time":436000000000,"state":"active","ping":46},{"user_id":763,"name":"Urangutanenjoyer2","steam_id":76561199447757264,"connected_time":53000000000,"state":"active","ping":227},{"user_id":748,"name":"ars110","steam_id":76561198030492435,"connected_time":1068000000000,"state":"active","ping":68}]},{"server_id":406,"name":"Uncletopia | Seattle | 3 | Stopwatch Beta","name_short":"sea-3","host":"sea-1.us.uncletopia.com","port":27035,"enabled":true,"region":"us-west","cc":"us","latitude":47.608013,"longitude":-122.33517,"reserved":0,"last_update":"0001-01-01T00:00:00Z","name_a2s":"Uncletopia | Seattle | 3 | Stopwatch Beta","protocol":17,"map":"workshop/koth_bagel_rc6.ugc2514036946","folder":"tf","game":"Team Fortress","app_id":440,"player_count":0,"max_players":24,"Bots":0,"server_type":"Dedicated","server_os":"Linux","password":true,"vac":true,"version":"7932396","steam_id":85568392924515217,"keywords":["cp","nocrits","nodmgspread","uncletopia"],"game_id":440,"stv_port":27036,"stv_name":"Uncletopia | Seattle | 3 | Stopwatch Beta | STV","players":null},{"server_id":17,"name":"Uncletopia | San Francisco | 1 | All Maps","name_short":"sfo-1","host":"sfo-1.us.uncletopia.com","port":27015,"enabled":true,"region":"us-west","cc":"us","latitude":37.77397,"longitude":-122.4313,"reserved":0,"last_update":"0001-01-01T00:00:00Z","name_a2s":"Uncletopia | San Francisco | 1 | All Maps","protocol":17,"map":"pl_badwater","folder":"tf","game":"Team Fortress","app_id":440,"player_count":24,"max_players":24,"Bots":0,"server_type":"Dedicated","server_os":"Linux","password":true,"vac":true,"version":"7932396","steam_id":85568392924469999,"keywords":["nocrits","nodmgspread","payload","uncletopia"],"game_id":440,"stv_port":27016,"stv_name":"Uncletopia | San Francisco | 1 | All Maps | STV","players":[{"user_id":520,"name":"aisu","steam_id":76561198043768507,"connected_time":248000000000,"state":"active","ping":117},{"user_id":521,"name":"NRTicas","steam_id":76561198009697344,"connected_time":219000000000,"state":"active","ping":327},{"user_id":492,"name":"ORACAL","steam_id":76561197991759604,"connected_time":1636000000000,"state":"active","ping":60},{"user_id":514,"name":"10HourNaps","steam_id":76561199082304859,"connected_time":1093000000000,"state":"active","ping":82},{"user_id":466,"name":"Sleempreem","steam_id":76561198131987251,"connected_time":4327000000000,"state":"active","ping":46},{"user_id":467,"name":"Fluffy","steam_id":76561198213561811,"connected_time":4316000000000,"state":"active","ping":34},{"user_id":468,"name":"wepeat","steam_id":76561198085943550,"connected_time":4207000000000,"state":"active","ping":86},{"user_id":522,"name":"huiei","steam_id":76561198073763735,"connected_time":32000000000,"state":"spawning","ping":239},{"user_id":517,"name":"RaixaR","steam_id":76561198025289430,"connected_time":953000000000,"state":"active","ping":90},{"user_id":502,"name":"Space360","steam_id":76561198106743284,"connected_time":1359000000000,"state":"active","ping":69},{"user_id":477,"name":"Tideflat","steam_id":76561198179850851,"connected_time":2684000000000,"state":"active","ping":51},{"user_id":482,"name":"The Deders","steam_id":76561198002639950,"connected_time":2163000000000,"state":"active","ping":74},{"user_id":516,"name":"› We Are You.j2","steam_id":76561197995242200,"connected_time":1078000000000,"state":"active","ping":50},{"user_id":505,"name":"Giorno Giovanna","steam_id":76561198044106874,"connected_time":1185000000000,"state":"active","ping":72},{"user_id":483,"name":"bobbycoolpop","steam_id":76561198186392674,"connected_time":2147000000000,"state":"active","ping":89},{"user_id":485,"name":"eau:","steam_id":76561198110020262,"connected_time":2020000000000,"state":"active","ping":44},{"user_id":506,"name":"Pho","steam_id":76561198306515742,"connected_time":1176000000000,"state":"active","ping":58},{"user_id":507,"name":"Vulcas","steam_id":76561198083990979,"connected_time":1176000000000,"state":"active","ping":113},{"user_id":508,"name":"creepycrawler","steam_id":76561198352016831,"connected_time":1159000000000,"state":"active","ping":106},{"user_id":509,"name":"MEATSLUSHIE","steam_id":76561198216723177,"connected_time":1142000000000,"state":"active","ping":86},{"user_id":510,"name":"Sleuth","steam_id":76561198418288939,"connected_time":1138000000000,"state":"active","ping":56},{"user_id":518,"name":"dicksnip","steam_id":76561198356515396,"connected_time":953000000000,"state":"active","ping":95},{"user_id":512,"name":"Blu\u003c3","steam_id":76561198216877208,"connected_time":1112000000000,"state":"active","ping":66},{"user_id":519,"name":"Sidekick","steam_id":76561198392740835,"connected_time":933000000000,"state":"active","ping":67}]},{"server_id":18,"name":"Uncletopia | San Francisco | 2 | All Maps","name_short":"sfo-2","host":"sfo-1.us.uncletopia.com","port":27025,"enabled":true,"region":"us-west","cc":"us","latitude":37.77397,"longitude":-122.4313,"reserved":0,"last_update":"0001-01-01T00:00:00Z","name_a2s":"Uncletopia | San Francisco | 2 | All Maps","protocol":17,"map":"cp_altitude","folder":"tf","game":"Team Fortress","app_id":440,"player_count":0,"max_players":24,"Bots":0,"server_type":"Dedicated","server_os":"Linux","password":true,"vac":true,"version":"7932396","steam_id":85568392924470000,"keywords":["cp","nocrits","nodmgspread","uncletopia"],"game_id":440,"stv_port":27026,"stv_name":"Uncletopia | San Francisco | 2 | All Maps | STV","players":null},{"server_id":19,"name":"Uncletopia | San Francisco | 3 | Stopwatch Beta","name_short":"sfo-3","host":"sfo-1.us.uncletopia.com","port":27035,"enabled":true,"region":"us-west","cc":"us","latitude":37.77397,"longitude":-122.4313,"reserved":0,"last_update":"0001-01-01T00:00:00Z","name_a2s":"Uncletopia | San Francisco | 3 | Stopwatch Beta","protocol":17,"map":"workshop/koth_bagel_rc6.ugc2514036946","folder":"tf","game":"Team Fortress","app_id":440,"player_count":13,"max_players":24,"Bots":0,"server_type":"Dedicated","server_os":"Linux","password":true,"vac":true,"version":"7932396","steam_id":85568392924742824,"keywords":["cp","nocrits","nodmgspread","uncletopia"],"game_id":440,"stv_port":27036,"stv_name":"Uncletopia | San Francisco | 3 | Stopwatch Beta | STV","players":[{"user_id":61,"name":"toasthebred","steam_id":76561199040641954,"connected_time":2740000000000,"state":"active","ping":114},{"user_id":85,"name":"cofferhead","steam_id":76561199191108449,"connected_time":971000000000,"state":"active","ping":62},{"user_id":95,"name":"Fluff Gaming","steam_id":76561198135969443,"connected_time":174000000000,"state":"active","ping":76},{"user_id":96,"name":"Dive(z)","steam_id":76561198140843225,"connected_time":159000000000,"state":"active","ping":73},{"user_id":50,"name":"Paul Gaming","steam_id":76561198065538229,"connected_time":3612000000000,"state":"active","ping":57},{"user_id":88,"name":"Jonny","steam_id":76561198072507309,"connected_time":879000000000,"state":"active","ping":52},{"user_id":89,"name":"VELOURIA","steam_id":76561198116550170,"connected_time":832000000000,"state":"active","ping":45},{"user_id":79,"name":"The_Machine","steam_id":76561198120939109,"connected_time":1541000000000,"state":"active","ping":52},{"user_id":38,"name":"Mom","steam_id":76561198207936000,"connected_time":4391000000000,"state":"active","ping":46},{"user_id":93,"name":"Axel","steam_id":76561199013107272,"connected_time":474000000000,"state":"active","ping":70},{"user_id":94,"name":"HalloweenBunny","steam_id":76561198139833473,"connected_time":450000000000,"state":"active","ping":102},{"user_id":71,"name":"็","steam_id":76561198067666595,"connected_time":2017000000000,"state":"active","ping":61},{"user_id":46,"name":"Buffalo Gold","steam_id":76561198119693806,"connected_time":3969000000000,"state":"active","ping":52}]},{"server_id":20,"name":"Uncletopia | San Francisco | 4 | Community","name_short":"sfo-4","host":"sfo-1.us.uncletopia.com","port":27045,"enabled":true,"region":"us-west","cc":"us","latitude":37.77397,"longitude":-122.4313,"reserved":0,"last_update":"0001-01-01T00:00:00Z","name_a2s":"Uncletopia | San Francisco | 4 | Community","protocol":17,"map":"workshop/pl_cashworks_final1.ugc2904065412","folder":"tf","game":"Team Fortress","app_id":440,"player_count":3,"max_players":24,"Bots":0,"server_type":"Dedicated","server_os":"Linux","password":true,"vac":true,"version":"7932396","steam_id":85568392924742826,"keywords":["nocrits","nodmgspread","payload","uncletopia"],"game_id":440,"stv_port":27046,"stv_name":"Uncletopia | San Francisco | 4 | Community | STV","players":[{"user_id":701,"name":"Kopfjager","steam_id":76561198086397482,"connected_time":3392000000000,"state":"active","ping":108},{"user_id":722,"name":"Da Bird","steam_id":76561198215677985,"connected_time":1786000000000,"state":"active","ping":74},{"user_id":693,"name":"Chaptain","steam_id":76561198452725739,"connected_time":4160000000000,"state":"active","ping":69}]},{"server_id":141,"name":"Uncletopia | Sydney | 1 | All Maps","name_short":"syd-1","host":"syd-1.au.uncletopia.com","port":27015,"enabled":true,"region":"au","cc":"au","latitude":-33.865143,"longitude":151.2099,"reserved":0,"last_update":"0001-01-01T00:00:00Z","name_a2s":"Uncletopia | Sydney | 1 | All Maps","protocol":17,"map":"pl_badwater","folder":"tf","game":"Team Fortress","app_id":440,"player_count":24,"max_players":24,"Bots":0,"server_type":"Dedicated","server_os":"Linux","password":true,"vac":true,"version":"7932396","steam_id":85568392924470001,"keywords":["nocrits","nodmgspread","payload","uncletopia"],"game_id":440,"stv_port":27016,"stv_name":"Uncletopia | Sydney | 1 | All Maps | STV","players":[{"user_id":83,"name":"AmethystDragon10","steam_id":76561198412979983,"connected_time":599000000000,"state":"active","ping":75},{"user_id":77,"name":"BOYS A LIAR","steam_id":76561198076598436,"connected_time":981000000000,"state":"active","ping":57},{"user_id":70,"name":"No Further Appeasement","steam_id":76561198050737972,"connected_time":1103000000000,"state":"active","ping":100},{"user_id":62,"name":"sie kommen","steam_id":76561198271462646,"connected_time":1632000000000,"state":"active","ping":43},{"user_id":81,"name":"Finger Bun Fun","steam_id":76561198118383219,"connected_time":703000000000,"state":"active","ping":49},{"user_id":24,"name":"uven","steam_id":76561198080981482,"connected_time":6004000000000,"state":"active","ping":38},{"user_id":84,"name":"Snake ATM","steam_id":76561197968304462,"connected_time":587000000000,"state":"active","ping":47},{"user_id":94,"name":"Not A F2P","steam_id":76561198376756608,"connected_time":1000000000,"state":"spawning","ping":51},{"user_id":38,"name":"miyamoto is daddy","steam_id":76561199483818230,"connected_time":4032000000000,"state":"active","ping":72},{"user_id":92,"name":"Sammy","steam_id":76561199199672451,"connected_time":231000000000,"state":"active","ping":102},{"user_id":71,"name":"Rykers","steam_id":76561198177952507,"connected_time":1092000000000,"state":"active","ping":42},{"user_id":72,"name":"BobbyFlobby","steam_id":76561198341487196,"connected_time":1037000000000,"state":"active","ping":78},{"user_id":52,"name":"cakey","steam_id":76561198173746761,"connected_time":2627000000000,"state":"active","ping":46},{"user_id":87,"name":"badmn","steam_id":76561198056462343,"connected_time":449000000000,"state":"active","ping":59},{"user_id":56,"name":"Chooka","steam_id":76561197992307814,"connected_time":2179000000000,"state":"active","ping":68},{"user_id":76,"name":"Brossface Brippler","steam_id":76561198056525415,"connected_time":994000000000,"state":"active","ping":61},{"user_id":64,"name":"Blondie","steam_id":76561198046977058,"connected_time":1466000000000,"state":"active","ping":63},{"user_id":86,"name":"Nawor","steam_id":76561198087419337,"connected_time":494000000000,"state":"active","ping":44},{"user_id":66,"name":"Dan_Der_Man","steam_id":76561198209327411,"connected_time":1424000000000,"state":"active","ping":57},{"user_id":79,"name":"DonkeyKing","steam_id":76561199380484053,"connected_time":929000000000,"state":"active","ping":71},{"user_id":80,"name":"TigerThorn","steam_id":76561198930701873,"connected_time":924000000000,"state":"active","ping":53},{"user_id":88,"name":"Lace","steam_id":76561198290993506,"connected_time":445000000000,"state":"active","ping":59},{"user_id":89,"name":"de.truk_14","steam_id":76561198064667059,"connected_time":349000000000,"state":"active","ping":67},{"user_id":90,"name":"Pile of Sneed","steam_id":76561198143537391,"connected_time":321000000000,"state":"active","ping":55}]},{"server_id":123,"name":"Uncletopia | Sydney | 2 | All Maps","name_short":"syd-2","host":"syd-1.au.uncletopia.com","port":27025,"enabled":true,"region":"au","cc":"au","latitude":-33.865143,"longitude":151.2099,"reserved":0,"last_update":"0001-01-01T00:00:00Z","name_a2s":"Uncletopia | Sydney | 2 | All Maps","protocol":17,"map":"koth_lakeside_final","folder":"tf","game":"Team Fortress","app_id":440,"player_count":0,"max_players":24,"Bots":0,"server_type":"Dedicated","server_os":"Linux","password":true,"vac":true,"version":"7932396","steam_id":85568392924470002,"keywords":["cp","nocrits","nodmgspread","uncletopia"],"game_id":440,"stv_port":27026,"stv_name":"Uncletopia | Sydney | 2 | All Maps | STV","players":null},{"server_id":395,"name":"Uncletopia | Sydney | 3 | All Maps","name_short":"syd-3","host":"syd-1.au.uncletopia.com","port":27035,"enabled":true,"region":"au","cc":"au","latitude":-33.865143,"longitude":151.2099,"reserved":0,"last_update":"0001-01-01T00:00:00Z","name_a2s":"Uncletopia | Sydney | 3 | All Maps","protocol":17,"map":"pl_barnblitz","folder":"tf","game":"Team Fortress","app_id":440,"player_count":0,"max_players":24,"Bots":0,"server_type":"Dedicated","server_os":"Linux","password":true,"vac":true,"version":"7932396","steam_id":85568392925194467,"keywords":["nocrits","nodmgspread","payload","uncletopia"],"game_id":440,"stv_port":27036,"stv_name":"Uncletopia | Sydney | 3 | All Maps | STV","players":null},{"server_id":396,"name":"Uncletopia | Sydney | 4 | All Maps","name_short":"syd-4","host":"syd-1.au.uncletopia.com","port":27045,"enabled":true,"region":"au","cc":"au","latitude":-33.865143,"longitude":151.2099,"reserved":0,"last_update":"0001-01-01T00:00:00Z","name_a2s":"Uncletopia | Sydney | 4 | All Maps","protocol":17,"map":"pl_pier","folder":"tf","game":"Team Fortress","app_id":440,"player_count":0,"max_players":24,"Bots":0,"server_type":"Dedicated","server_os":"Linux","password":true,"vac":true,"version":"7932396","steam_id":85568392925397958,"keywords":["nocrits","nodmgspread","payload","uncletopia"],"game_id":440,"stv_port":27046,"stv_name":"Uncletopia | Sydney | 4 | All Maps | STV","players":null},{"server_id":58,"name":"Uncletopia | Sydney | 5 | Stopwatch Beta","name_short":"syd-5","host":"syd-1.au.uncletopia.com","port":27055,"enabled":true,"region":"au","cc":"au","latitude":-33.865143,"longitude":151.2099,"reserved":0,"last_update":"0001-01-01T00:00:00Z","name_a2s":"Uncletopia | Sydney | 5 | Stopwatch Beta","protocol":17,"map":"pl_borneo","folder":"tf","game":"Team Fortress","app_id":440,"player_count":0,"max_players":24,"Bots":0,"server_type":"Dedicated","server_os":"Linux","password":true,"vac":true,"version":"7932396","steam_id":85568392925397959,"keywords":["nocrits","nodmgspread","payload","uncletopia"],"game_id":440,"stv_port":27056,"stv_name":"Uncletopia | Sydney | 5 | Stopwatch Beta | STV","players":null},{"server_id":59,"name":"Uncletopia | Sydney | 6 | Community","name_short":"syd-6","host":"syd-1.au.uncletopia.com","port":27065,"enabled":true,"region":"au","cc":"au","latitude":-33.865143,"longitude":151.2099,"reserved":0,"last_update":"0001-01-01T00:00:00Z","name_a2s":"Uncletopia | Sydney | 6 | Community","protocol":17,"map":"workshop/pl_emerge_rc2.ugc888027758","folder":"tf","game":"Team Fortress","app_id":440,"player_count":0,"max_players":24,"Bots":0,"server_type":"Dedicated","server_os":"Linux","password":true,"vac":true,"version":"7932396","steam_id":85568392925397960,"keywords":["nocrits","nodmgspread","payload","uncletopia"],"game_id":440,"stv_port":27066,"stv_name":"Uncletopia | Sydney | 6 | Community | STV","players":null},{"server_id":49,"name":"Uncletopia | Warsaw | 1 | All Maps","name_short":"waw-1","host":"waw-1.pl.uncletopia.com","port":27015,"enabled":true,"region":"eu","cc":"pl","latitude":52.2297,"longitude":21.017532,"reserved":0,"last_update":"0001-01-01T00:00:00Z","name_a2s":"","protocol":0,"map":"","folder":"","game":"","app_id":0,"player_count":0,"max_players":0,"Bots":0,"server_type":"","server_os":"","password":false,"vac":false,"version":"","steam_id":0,"keywords":null,"game_id":0,"stv_port":0,"stv_name":"","players":null},{"server_id":50,"name":"Uncletopia | Warsaw | 2 | All Maps","name_short":"waw-2","host":"waw-1.pl.uncletopia.com","port":27025,"enabled":true,"region":"eu","cc":"pl","latitude":52.2297,"longitude":21.017532,"reserved":0,"last_update":"0001-01-01T00:00:00Z","name_a2s":"Uncletopia | Warsaw | 2 | All Maps","protocol":17,"map":"pl_pier","folder":"tf","game":"Team Fortress","app_id":440,"player_count":0,"max_players":24,"Bots":0,"server_type":"Dedicated","server_os":"Linux","password":true,"vac":true,"version":"7932396","steam_id":85568392925397851,"keywords":["nocrits","nodmgspread","payload","uncletopia"],"game_id":440,"stv_port":27026,"stv_name":"Uncletopia | Warsaw | 2 | All Maps | STV","players":null},{"server_id":51,"name":"Uncletopia | Warsaw | 3 | All Maps","name_short":"waw-3","host":"waw-1.pl.uncletopia.com","port":27035,"enabled":true,"region":"eu","cc":"pl","latitude":52.2297,"longitude":21.017532,"reserved":0,"last_update":"0001-01-01T00:00:00Z","name_a2s":"Uncletopia | Warsaw | 3 | All Maps","protocol":17,"map":"koth_lakeside_final","folder":"tf","game":"Team Fortress","app_id":440,"player_count":0,"max_players":24,"Bots":0,"server_type":"Dedicated","server_os":"Linux","password":true,"vac":true,"version":"7932396","steam_id":85568392925397852,"keywords":["cp","nocrits","nodmgspread","uncletopia"],"game_id":440,"stv_port":27036,"stv_name":"Uncletopia | Warsaw | 3 | All Maps | STV","players":null},{"server_id":52,"name":"Uncletopia | Warsaw | 4 | All Maps","name_short":"waw-4","host":"waw-1.pl.uncletopia.com","port":27045,"enabled":true,"region":"eu","cc":"pl","latitude":52.2297,"longitude":21.017532,"reserved":0,"last_update":"0001-01-01T00:00:00Z","name_a2s":"Uncletopia | Warsaw | 4 | All Maps","protocol":17,"map":"pl_swiftwater_final1","folder":"tf","game":"Team Fortress","app_id":440,"player_count":0,"max_players":24,"Bots":0,"server_type":"Dedicated","server_os":"Linux","password":true,"vac":true,"version":"7932396","steam_id":85568392925397853,"keywords":["nocrits","nodmgspread","payload","uncletopia"],"game_id":440,"stv_port":27046,"stv_name":"Uncletopia | Warsaw | 4 | All Maps | STV","players":null},{"server_id":53,"name":"Uncletopia | Warsaw | 5 | Stopwatch Beta","name_short":"waw-5","host":"waw-1.pl.uncletopia.com","port":27055,"enabled":true,"region":"eu","cc":"pl","latitude":52.2297,"longitude":21.017532,"reserved":0,"last_update":"0001-01-01T00:00:00Z","name_a2s":"Uncletopia | Warsaw | 5 | Stopwatch Beta","protocol":17,"map":"koth_highpass","folder":"tf","game":"Team Fortress","app_id":440,"player_count":0,"max_players":24,"Bots":0,"server_type":"Dedicated","server_os":"Linux","password":true,"vac":true,"version":"7932396","steam_id":85568392925397854,"keywords":["cp","nocrits","nodmgspread","uncletopia"],"game_id":440,"stv_port":27056,"stv_name":"Uncletopia | Warsaw | 5 | Stopwatch Beta | STV","players":null},{"server_id":54,"name":"Uncletopia | Warsaw | 6 | Community","name_short":"waw-6","host":"waw-1.pl.uncletopia.com","port":27065,"enabled":true,"region":"eu","cc":"pl","latitude":52.2297,"longitude":21.017532,"reserved":0,"last_update":"0001-01-01T00:00:00Z","name_a2s":"Uncletopia | Warsaw | 6 | Community","protocol":17,"map":"pl_upward","folder":"tf","game":"Team Fortress","app_id":440,"player_count":0,"max_players":24,"Bots":0,"server_type":"Dedicated","server_os":"Linux","password":true,"vac":true,"version":"7932396","steam_id":85568392925397856,"keywords":["nocrits","nodmgspread","payload","uncletopia"],"game_id":440,"stv_port":27066,"stv_name":"Uncletopia | Warsaw | 6 | Community | STV","players":null}]}