{"status":true,"message":"","result":[{"server_id":9,"name":"Uncletopia | Atlanta | 1 | All Maps","name_short":"atl-1","host":"atl-1.us.uncletopia.com","port":27015,"enabled":true,"region":"us-east","cc":"us","latitude":33.753746,"longitude":-84.38633,"reserved":0,"last_update":"0001-01-01T00:00:00Z","name_a2s":"Uncletopia | Atlanta | 1 | All Maps","protocol":17,"map":"cp_dustbowl","folder":"tf","game":"Team Fortress","app_id":440,"player_count":24,"max_players":24,"Bots":0,"server_type":"Dedicated","server_os":"Linux","password":true,"vac":true,"version":"7882260","steam_id":85568392924469982,"keywords":["cp","nocrits","nodmgspread","uncletopia"],"game_id":440,"stv_port":27016,"stv_name":"Uncletopia | Atlanta | 1 | All Maps | STV","players":[{"user_id":51,"name":"ATL1 | on my hunting trip","steam_id":76561198315341646,"connected_time":876000000000,"state":"active","ping":71},{"user_id":31,"name":"Denzel McFlurry","steam_id":76561199231296521,"connected_time":1531000000000,"state":"active","ping":73},{"user_id":11,"name":"sassy loli","steam_id":76561198402316065,"connected_time":3091000000000,"state":"active","ping":91},{"user_id":49,"name":"Galaxy_42","steam_id":76561198845514831,"connected_time":888000000000,"state":"active","ping":48},{"user_id":13,"name":"Albino Jellyfish","steam_id":76561198208561097,"connected_time":2848000000000,"state":"active","ping":195},{"user_id":14,"name":"J O V A","steam_id":76561198090333536,"connected_time":2593000000000,"state":"active","ping":71},{"user_id":15,"name":"Dr. Ｔｉｍｓｋａ","steam_id":76561198272075712,"connected_time":2523000000000,"state":"active","ping":71},{"user_id":34,"name":"Aisforlike","steam_id":76561199482110668,"connected_time":1253000000000,"state":"active","ping":62},{"user_id":55,"name":"kite","steam_id":76561198346516392,"connected_time":55000000000,"state":"active","ping":80},{"user_id":56,"name":"Carl, Good to see you","steam_id":76561198070574075,"connected_time":42000000000,"state":"active","ping":53},{"user_id":33,"name":"Doctor Vegeta","steam_id":76561198353898356,"connected_time":1373000000000,"state":"active","ping":73},{"user_id":36,"name":"_normal","steam_id":76561198338505734,"connected_time":1137000000000,"state":"active","ping":33},{"user_id":25,"name":"DiscoTraveler","steam_id":76561199240168088,"connected_time":1953000000000,"state":"active","ping":49},{"user_id":37,"name":"lactose father","steam_id":76561199408853457,"connected_time":1124000000000,"state":"spawning","ping":293},{"user_id":53,"name":"milk master","steam_id":76561198127851014,"connected_time":691000000000,"state":"active","ping":115},{"user_id":50,"name":"mineblast99","steam_id":76561199065648954,"connected_time":886000000000,"state":"active","ping":58},{"user_id":40,"name":"Styx","steam_id":76561198158334494,"connected_time":1045000000000,"state":"active","ping":101},{"user_id":41,"name":"Enron Hubbard","steam_id":76561198012951411,"connected_time":1037000000000,"state":"active","ping":75},{"user_id":43,"name":"cyclops","steam_id":76561197970370198,"connected_time":1003000000000,"state":"active","ping":77},{"user_id":57,"name":"BIG HOG","steam_id":76561198079923652,"connected_time":20000000000,"state":"active","ping":66},{"user_id":58,"name":"Falafel","steam_id":76561198111493042,"connected_time":4000000000,"state":"spawning","ping":109},{"user_id":52,"name":"SeaBass","steam_id":76561197982949108,"connected_time":794000000000,"state":"active","ping":61},{"user_id":47,"name":"oxbudy","steam_id":76561198022120207,"connected_time":974000000000,"state":"active","ping":63},{"user_id":48,"name":"scoogie","steam_id":76561198057076267,"connected_time":958000000000,"state":"active","ping":61}]},{"server_id":104,"name":"Uncletopia | Atlanta | 2 | All Maps","name_short":"atl-2","host":"atl-1.us.uncletopia.com","port":27025,"enabled":true,"region":"us-east","cc":"us","latitude":33.753746,"longitude":-84.38633,"reserved":0,"last_update":"0001-01-01T00:00:00Z","name_a2s":"Uncletopia | Atlanta | 2 | All Maps","protocol":17,"map":"cp_process_final","folder":"tf","game":"Team Fortress","app_id":440,"player_count":0,"max_players":24,"Bots":0,"server_type":"Dedicated","server_os":"Linux","password":true,"vac":true,"version":"7882260","steam_id":85568392924469983,"keywords":["cp","nocrits","nodmgspread","uncletopia"],"game_id":440,"stv_port":27026,"stv_name":"Uncletopia | Atlanta | 2 | All Maps | STV","players":null},{"server_id":400,"name":"Uncletopia | Atlanta | 3 | Community","name_short":"atl-3","host":"atl-1.us.uncletopia.com","port":27035,"enabled":true,"region":"us-east","cc":"us","latitude":33.753746,"longitude":-84.38633,"reserved":0,"last_update":"0001-01-01T00:00:00Z","name_a2s":"Uncletopia | Atlanta | 3 | Community","protocol":17,"map":"workshop/pl_emerge_rc2.ugc888027758","folder":"tf","game":"Team Fortress","app_id":440,"player_count":0,"max_players":24,"Bots":0,"server_type":"Dedicated","server_os":"Linux","password":true,"vac":true,"version":"7882260","steam_id":85568392924515187,"keywords":["nocrits","nodmgspread","payload","uncletopia"],"game_id":440,"stv_port":27036,"stv_name":"Uncletopia | Atlanta | 3 | Community | STV","players":null},{"server_id":401,"name":"Uncletopia | Atlanta | 4 | No Payload","name_short":"atl-4","host":"atl-1.us.uncletopia.com","port":27045,"enabled":true,"region":"us-east","cc":"us","latitude":33.753746,"longitude":-84.38633,"reserved":0,"last_update":"0001-01-01T00:00:00Z","name_a2s":"","protocol":0,"map":"","folder":"","game":"","app_id":0,"player_count":0,"max_players":0,"Bots":0,"server_type":"","server_os":"","password":false,"vac":false,"version":"","steam_id":0,"keywords":null,"game_id":0,"stv_port":0,"stv_name":"","players":null},{"server_id":2,"name":"Uncletopia | Chicago | 1 | All Maps","name_short":"chi-1","host":"chi-1.us.uncletopia.com","port":27015,"enabled":true,"region":"us-central","cc":"us","latitude":41.881832,"longitude":-87.62318,"reserved":0,"last_update":"0001-01-01T00:00:00Z","name_a2s":"Uncletopia | Chicago | 1 | All Maps","protocol":17,"map":"pl_pier","folder":"tf","game":"Team Fortress","app_id":440,"player_count":24,"max_players":24,"Bots":0,"server_type":"Dedicated","server_os":"Linux","password":true,"vac":true,"version":"7882260","steam_id":85568392924469984,"keywords":["nocrits","nodmgspread","payload","uncletopia"],"game_id":440,"stv_port":27016,"stv_name":"Uncletopia | Chicago | 1 | All Maps | STV","players":[{"user_id":182,"name":"anonion","steam_id":76561198056477584,"connected_time":1369000000000,"state":"active","ping":87},{"user_id":168,"name":"Wingman","steam_id":76561198066270405,"connected_time":2163000000000,"state":"active","ping":85},{"user_id":165,"name":"dobby","steam_id":76561198012274834,"connected_time":2276000000000,"state":"active","ping":93},{"user_id":115,"name":"alN","steam_id":76561198329171346,"connected_time":7021000000000,"state":"active","ping":44},{"user_id":193,"name":"HOTA","steam_id":76561199002778841,"connected_time":313000000000,"state":"active","ping":76},{"user_id":188,"name":"Chackie Jan","steam_id":76561199099907475,"connected_time":1090000000000,"state":"active","ping":76},{"user_id":198,"name":"Yunky","steam_id":76561197966495749,"connected_time":108000000000,"state":"active","ping":66},{"user_id":180,"name":"Dolphin","steam_id":76561199132214008,"connected_time":1415000000000,"state":"active","ping":107},{"user_id":167,"name":"jesús.gonzalez.2007","steam_id":76561199149935993,"connected_time":2195000000000,"state":"active","ping":66},{"user_id":183,"name":"WatchWill","steam_id":76561198157237945,"connected_time":1348000000000,"state":"active","ping":74},{"user_id":197,"name":"picklejuice dealer","steam_id":76561198031675881,"connected_time":253000000000,"state":"active","ping":38},{"user_id":184,"name":"dree","steam_id":76561198079178866,"connected_time":1311000000000,"state":"active","ping":63},{"user_id":190,"name":"Dr. Wario","steam_id":76561198901238861,"connected_time":939000000000,"state":"active","ping":100},{"user_id":194,"name":"The Lone Stoner","steam_id":76561198211399881,"connected_time":271000000000,"state":"active","ping":51},{"user_id":171,"name":"997 N State Street, Orem, Utah","steam_id":76561198285931413,"connected_time":2122000000000,"state":"active","ping":71},{"user_id":158,"name":"n99k","steam_id":76561198203732449,"connected_time":2763000000000,"state":"active","ping":75},{"user_id":186,"name":"iamoctopii","steam_id":76561198876901076,"connected_time":1252000000000,"state":"active","ping":124},{"user_id":178,"name":"Winter the Witchie","steam_id":76561198151971178,"connected_time":1478000000000,"state":"active","ping":56},{"user_id":192,"name":"Blade","steam_id":76561198153163098,"connected_time":727000000000,"state":"active","ping":66},{"user_id":130,"name":"Rornir","steam_id":76561198081829615,"connected_time":5987000000000,"state":"active","ping":35},{"user_id":176,"name":"RagingBagon","steam_id":76561198255453127,"connected_time":1840000000000,"state":"active","ping":104},{"user_id":153,"name":"Jango","steam_id":76561198084589742,"connected_time":3242000000000,"state":"active","ping":83},{"user_id":187,"name":"scatter‼","steam_id":76561198028753624,"connected_time":1219000000000,"state":"active","ping":55},{"user_id":196,"name":"Strawberry","steam_id":76561198973740497,"connected_time":270000000000,"state":"active","ping":98}]},{"server_id":106,"name":"Uncletopia | Chicago | 2 | All Maps","name_short":"chi-2","host":"chi-1.us.uncletopia.com","port":27025,"enabled":true,"region":"us-central","cc":"us","latitude":41.881832,"longitude":-87.62318,"reserved":0,"last_update":"0001-01-01T00:00:00Z","name_a2s":"Uncletopia | Chicago | 2 | All Maps","protocol":17,"map":"cp_sunshine","folder":"tf","game":"Team Fortress","app_id":440,"player_count":0,"max_players":24,"Bots":0,"server_type":"Dedicated","server_os":"Linux","password":true,"vac":true,"version":"7882260","steam_id":85568392924469985,"keywords":["cp","nocrits","nodmgspread","uncletopia"],"game_id":440,"stv_port":27026,"stv_name":"Uncletopia | Chicago | 2 | All Maps | STV","players":null},{"server_id":402,"name":"Uncletopia | Chicago | 3 | All Maps","name_short":"chi-3","host":"chi-1.us.uncletopia.com","port":27035,"enabled":true,"region":"us-central","cc":"us","latitude":41.881832,"longitude":-87.62318,"reserved":0,"last_update":"0001-01-01T00:00:00Z","name_a2s":"Uncletopia | Chicago | 3 | All Maps","protocol":17,"map":"pl_borneo","folder":"tf","game":"Team Fortress","app_id":440,"player_count":0,"max_players":24,"Bots":0,"server_type":"Dedicated","server_os":"Linux","password":true,"vac":true,"version":"7882260","steam_id":85568392924515191,"keywords":["nocrits","nodmgspread","payload","uncletopia"],"game_id":440,"stv_port":27036,"stv_name":"Uncletopia | Chicago | 3 | All Maps | STV","players":null},{"server_id":403,"name":"Uncletopia | Chicago | 4 | All Maps","name_short":"chi-4","host":"chi-1.us.uncletopia.com","port":27045,"enabled":true,"region":"us-central","cc":"us","latitude":41.881832,"longitude":-87.62318,"reserved":0,"last_update":"0001-01-01T00:00:00Z","name_a2s":"Uncletopia | Chicago | 4 | All Maps","protocol":17,"map":"koth_cascade","folder":"tf","game":"Team Fortress","app_id":440,"player_count":0,"max_players":24,"Bots":0,"server_type":"Dedicated","server_os":"Linux","password":true,"vac":true,"version":"7882260","steam_id":85568392924515193,"keywords":["cp","nocrits","nodmgspread","uncletopia"],"game_id":440,"stv_port":27046,"stv_name":"Uncletopia | Chicago | 4 | All Maps | STV","players":null},{"server_id":36,"name":"Uncletopia | Chicago | 5 | All Maps","name_short":"chi-5","host":"chi-2.us.uncletopia.com","port":27015,"enabled":true,"region":"us-central","cc":"us","latitude":41.881832,"longitude":-87.62318,"reserved":0,"last_update":"0001-01-01T00:00:00Z","name_a2s":"Uncletopia | Chicago | 5 | All Maps","protocol":17,"map":"koth_highpass","folder":"tf","game":"Team Fortress","app_id":440,"player_count":0,"max_players":24,"Bots":0,"server_type":"Dedicated","server_os":"Linux","password":true,"vac":true,"version":"7882260","steam_id":85568392924866362,"keywords":["cp","nocrits","nodmgspread","uncletopia"],"game_id":440,"stv_port":27016,"stv_name":"Uncletopia | Chicago | 5 | All Maps | STV","players":null},{"server_id":37,"name":"Uncletopia | Chicago | 6 | All Maps","name_short":"chi-6","host":"chi-2.us.uncletopia.com","port":27025,"enabled":true,"region":"us-central","cc":"us","latitude":41.881832,"longitude":-87.62318,"reserved":0,"last_update":"0001-01-01T00:00:00Z","name_a2s":"Uncletopia | Chicago | 6 | All Maps","protocol":17,"map":"pl_swiftwater_final1","folder":"tf","game":"Team Fortress","app_id":440,"player_count":24,"max_players":24,"Bots":0,"server_type":"Dedicated","server_os":"Linux","password":true,"vac":true,"version":"7882260","steam_id":85568392924866363,"keywords":["nocrits","nodmgspread","payload","uncletopia"],"game_id":440,"stv_port":27026,"stv_name":"Uncletopia | Chicago | 6 | All Maps | STV","players":[{"user_id":295,"name":"Sollyz","steam_id":76561198081110786,"connected_time":879000000000,"state":"active","ping":94},{"user_id":304,"name":"Rat-ortastic","steam_id":76561198105613110,"connected_time":268000000000,"state":"active","ping":63},{"user_id":267,"name":"30-50 feral hogs","steam_id":76561198073587145,"connected_time":3327000000000,"state":"active","ping":117},{"user_id":297,"name":"Sean Bae","steam_id":76561198036909521,"connected_time":727000000000,"state":"active","ping":86},{"user_id":294,"name":"kingjeffry2012@hotmail.com","steam_id":76561198314104415,"connected_time":886000000000,"state":"active","ping":72},{"user_id":230,"name":"Dad 2","steam_id":76561198138546187,"connected_time":7380000000000,"state":"active","ping":69},{"user_id":270,"name":"yoklaty","steam_id":76561199020932212,"connected_time":2935000000000,"state":"active","ping":186},{"user_id":301,"name":"Trash Rummager","steam_id":76561198085388962,"connected_time":599000000000,"state":"active","ping":44},{"user_id":288,"name":"Piccadilly Willy","steam_id":76561198000312126,"connected_time":1396000000000,"state":"active","ping":54},{"user_id":307,"name":"Not Slavoj Žižek","steam_id":76561198004619616,"connected_time":45000000000,"state":"active","ping":108},{"user_id":286,"name":"volta","steam_id":76561199214283884,"connected_time":1444000000000,"state":"active","ping":106},{"user_id":275,"name":"Queen Frau the Round","steam_id":76561197999942134,"connected_time":2706000000000,"state":"active","ping":45},{"user_id":265,"name":"Snozz Core","steam_id":76561198064520262,"connected_time":3506000000000,"state":"active","ping":77},{"user_id":283,"name":"Soju","steam_id":76561198044130442,"connected_time":2385000000000,"state":"active","ping":77},{"user_id":302,"name":"Luna She/Her","steam_id":76561198991791655,"connected_time":536000000000,"state":"active","ping":79},{"user_id":289,"name":"Retro Phoenix","steam_id":76561198077176271,"connected_time":1395000000000,"state":"active","ping":62},{"user_id":278,"name":"Vortiger","steam_id":76561198275813176,"connected_time":2662000000000,"state":"active","ping":106},{"user_id":300,"name":"woa","steam_id":76561199350870177,"connected_time":676000000000,"state":"active","ping":63},{"user_id":279,"name":"LV.5 Crook","steam_id":76561198068799033,"connected_time":2645000000000,"state":"active","ping":84},{"user_id":291,"name":"magickxanadu","steam_id":76561199117360103,"connected_time":1284000000000,"state":"active","ping":105},{"user_id":282,"name":"Kuddly Kay (She/Her)","steam_id":76561198353432576,"connected_time":2464000000000,"state":"active","ping":99},{"user_id":229,"name":"Mom 2","steam_id":76561198200961750,"connected_time":7419000000000,"state":"active","ping":119},{"user_id":306,"name":"☆Nebula-Belt☆","steam_id":76561198151250806,"connected_time":69000000000,"state":"active","ping":80},{"user_id":250,"name":"gamerlegend47","steam_id":76561198122776598,"connected_time":5888000000000,"state":"active","ping":72}]},{"server_id":38,"name":"Uncletopia | Chicago | 7 | Stopwatch Beta","name_short":"chi-7","host":"chi-2.us.uncletopia.com","port":27035,"enabled":true,"region":"us-central","cc":"us","latitude":41.881832,"longitude":-87.62318,"reserved":0,"last_update":"0001-01-01T00:00:00Z","name_a2s":"Uncletopia | Chicago | 7 | Stopwatch Beta","protocol":17,"map":"pl_borneo","folder":"tf","game":"Team Fortress","app_id":440,"player_count":0,"max_players":24,"Bots":0,"server_type":"Dedicated","server_os":"Linux","password":true,"vac":true,"version":"7882260","steam_id":85568392924866364,"keywords":["nocrits","nodmgspread","payload","uncletopia"],"game_id":440,"stv_port":27036,"stv_name":"Uncletopia | Chicago | 7 | Stopwatch Beta | STV","players":null},{"server_id":39,"name":"Uncletopia | Chicago | 8 | Community","name_short":"chi-8","host":"chi-2.us.uncletopia.com","port":27045,"enabled":true,"region":"us-central","cc":"us","latitude":41.881832,"longitude":-87.62318,"reserved":0,"last_update":"0001-01-01T00:00:00Z","name_a2s":"Uncletopia | Chicago | 8 | Community","protocol":17,"map":"workshop/koth_ashville_final.ugc2130459942","folder":"tf","game":"Team Fortress","app_id":440,"player_count":0,"max_players":24,"Bots":0,"server_type":"Dedicated","server_os":"Linux","password":true,"vac":true,"version":"7882260","steam_id":85568392924866365,"keywords":["cp","nocrits","nodmgspread","uncletopia"],"game_id":440,"stv_port":27046,"stv_name":"Uncletopia | Chicago | 8 | Community | STV","players":null},{"server_id":8,"name":"Uncletopia | Dallas | 1 | All Maps","name_short":"dal-1","host":"dal-1.us.uncletopia.com","port":27015,"enabled":true,"region":"us-central","cc":"us","latitude":32.779167,"longitude":-96.80889,"reserved":0,"last_update":"0001-01-01T00:00:00Z","name_a2s":"Uncletopia | Dallas | 1 | All Maps","protocol":17,"map":"koth_cascade","folder":"tf","game":"Team Fortress","app_id":440,"player_count":0,"max_players":24,"Bots":0,"server_type":"Dedicated","server_os":"Linux","password":true,"vac":true,"version":"7882260","steam_id":85568392924469986,"keywords":["cp","nocrits","nodmgspread","uncletopia"],"game_id":440,"stv_port":27016,"stv_name":"Uncletopia | Dallas | 1 | All Maps | STV","players":null},{"server_id":108,"name":"Uncletopia | Dallas | 2 | All Maps","name_short":"dal-2","host":"dal-1.us.uncletopia.com","port":27025,"enabled":true,"region":"us-central","cc":"us","latitude":32.779167,"longitude":-96.80889,"reserved":0,"last_update":"0001-01-01T00:00:00Z","name_a2s":"Uncletopia | Dallas | 2 | All Maps","protocol":17,"map":"koth_lakeside_final","folder":"tf","game":"Team Fortress","app_id":440,"player_count":0,"max_players":24,"Bots":0,"server_type":"Dedicated","server_os":"Linux","password":true,"vac":true,"version":"7882260","steam_id":85568392924469988,"keywords":["cp","nocrits","nodmgspread","uncletopia"],"game_id":440,"stv_port":27026,"stv_name":"Uncletopia | Dallas | 2 | All Maps | STV","players":null},{"server_id":5,"name":"Uncletopia | Frankfurt | 1 | All Maps","name_short":"frk-1","host":"frk-1.de.uncletopia.com","port":27015,"enabled":true,"region":"eu","cc":"de","latitude":50.110924,"longitude":8.682127,"reserved":0,"last_update":"0001-01-01T00:00:00Z","name_a2s":"Uncletopia | Frankfurt | 1 | All Maps","protocol":17,"map":"pl_rumford_event","folder":"tf","game":"Team Fortress","app_id":440,"player_count":23,"max_players":24,"Bots":0,"server_type":"Dedicated","server_os":"Linux","password":true,"vac":true,"version":"7882260","steam_id":85568392924469989,"keywords":["nocrits","nodmgspread","payload","uncletopia"],"game_id":440,"stv_port":27016,"stv_name":"Uncletopia | Frankfurt | 1 | All Maps | STV","players":[{"user_id":362,"name":"Ch4bby","steam_id":76561198058792875,"connected_time":734000000000,"state":"active","ping":56},{"user_id":369,"name":"Milo","steam_id":76561198399302307,"connected_time":79000000000,"state":"active","ping":63},{"user_id":303,"name":"Valdis","steam_id":76561198057340489,"connected_time":4667000000000,"state":"active","ping":59},{"user_id":350,"name":"Milosz52","steam_id":76561199060940204,"connected_time":1302000000000,"state":"active","ping":84},{"user_id":284,"name":"Adib al-asfar","steam_id":76561198095691592,"connected_time":6001000000000,"state":"active","ping":57},{"user_id":365,"name":"Kamikrazy","steam_id":76561198044254918,"connected_time":629000000000,"state":"active","ping":77},{"user_id":321,"name":"medicinal man","steam_id":76561198202668788,"connected_time":3959000000000,"state":"active","ping":53},{"user_id":338,"name":"Rambi","steam_id":76561199058078505,"connected_time":2580000000000,"state":"active","ping":148},{"user_id":360,"name":"burgz","steam_id":76561198109955787,"connected_time":1017000000000,"state":"active","ping":59},{"user_id":349,"name":"Wardruna96","steam_id":76561199057083828,"connected_time":1526000000000,"state":"active","ping":80},{"user_id":314,"name":"ThatGamingKiwi","steam_id":76561199170522237,"connected_time":4418000000000,"state":"active","ping":169},{"user_id":357,"name":"Benny Harvey RIP","steam_id":76561198386373871,"connected_time":1177000000000,"state":"active","ping":72},{"user_id":288,"name":"taima","steam_id":76561198281053248,"connected_time":5647000000000,"state":"active","ping":70},{"user_id":355,"name":"DrExplosive 30fps gaming","steam_id":76561198063678579,"connected_time":1202000000000,"state":"active","ping":61},{"user_id":366,"name":"Yuzu","steam_id":76561198121694613,"connected_time":200000000000,"state":"active","ping":54},{"user_id":315,"name":"vadr","steam_id":76561198334528186,"connected_time":4390000000000,"state":"active","ping":59},{"user_id":367,"name":"Maridor","steam_id":76561199094592508,"connected_time":108000000000,"state":"active","ping":61},{"user_id":320,"name":"Chuck van Chider","steam_id":76561198022104234,"connected_time":4318000000000,"state":"active","ping":66},{"user_id":364,"name":"M2rtRa","steam_id":76561198111036466,"connected_time":719000000000,"state":"active","ping":74},{"user_id":358,"name":"Hat Lover","steam_id":76561198312283433,"connected_time":1174000000000,"state":"active","ping":83},{"user_id":361,"name":"MrFelixll","steam_id":76561198439292774,"connected_time":952000000000,"state":"active","ping":99},{"user_id":351,"name":"ROB","steam_id":76561198982164150,"connected_time":1301000000000,"state":"active","ping":77},{"user_id":359,"name":"Clyde Cash","steam_id":76561198190859567,"connected_time":1161000000000,"state":"active","ping":96}]},{"server_id":110,"name":"Uncletopia | Frankfurt | 2 | All Maps","name_short":"frk-2","host":"frk-1.de.uncletopia.com","port":27025,"enabled":true,"region":"eu","cc":"de","latitude":50.110924,"longitude":8.682127,"reserved":0,"last_update":"0001-01-01T00:00:00Z","name_a2s":"Uncletopia | Frankfurt | 2 | All Maps","protocol":17,"map":"pl_frontier_final","folder":"tf","game":"Team Fortress","app_id":440,"player_count":25,"max_players":24,"Bots":0,"server_type":"Dedicated","server_os":"Linux","password":true,"vac":true,"version":"7882260","steam_id":85568392924469990,"keywords":["nocrits","nodmgspread","payload","uncletopia"],"game_id":440,"stv_port":27026,"stv_name":"Uncletopia | Frankfurt | 2 | All Maps | STV","players":[{"user_id":212,"name":"Cornelius Shacklebart","steam_id":76561198000735878,"connected_time":850000000000,"state":"active","ping":60},{"user_id":153,"name":"on se perkele","steam_id":76561198111134021,"connected_time":4691000000000,"state":"active","ping":81},{"user_id":217,"name":"congo","steam_id":76561198236836866,"connected_time":362000000000,"state":"active","ping":77},{"user_id":208,"name":"soopeli","steam_id":76561198003350251,"connected_time":1786000000000,"state":"active","ping":62},{"user_id":218,"name":"Host","steam_id":76561198209504349,"connected_time":175000000000,"state":"active","ping":85},{"user_id":207,"name":"Soldoux","steam_id":76561199093055113,"connected_time":1842000000000,"state":"active","ping":61},{"user_id":200,"name":"wieto","steam_id":76561198050626427,"connected_time":2116000000000,"state":"active","ping":60},{"user_id":136,"name":"BELADIT","steam_id":76561198011911501,"connected_time":5609000000000,"state":"active","ping":74},{"user_id":221,"name":"Vibing Wave","steam_id":76561198866358613,"connected_time":7000000000,"state":"spawning","ping":148},{"user_id":199,"name":"mridkmyname","steam_id":76561199053952121,"connected_time":2126000000000,"state":"active","ping":69},{"user_id":184,"name":"Spoody #JustPassing","steam_id":76561198031523769,"connected_time":3344000000000,"state":"active","ping":61},{"user_id":210,"name":"The one who knocks","steam_id":76561198089341471,"connected_time":934000000000,"state":"active","ping":84},{"user_id":182,"name":"zvekan","steam_id":76561198381101196,"connected_time":3381000000000,"state":"active","ping":54},{"user_id":180,"name":"SooS","steam_id":76561198058943929,"connected_time":3408000000000,"state":"active","ping":87},{"user_id":205,"name":"PashaVerti","steam_id":76561199013963024,"connected_time":2031000000000,"state":"active","ping":83},{"user_id":222,"name":"slugg","steam_id":76561198297753260,"connected_time":4000000000,"state":"spawning","ping":73},{"user_id":174,"name":"azzy","steam_id":76561198061293740,"connected_time":4262000000000,"state":"active","ping":80},{"user_id":186,"name":"Volterion #SaveTf2","steam_id":76561198293088484,"connected_time":3089000000000,"state":"active","ping":61},{"user_id":213,"name":"dollar foot long","steam_id":76561199250808808,"connected_time":843000000000,"state":"active","ping":78},{"user_id":181,"name":"『Dorarhim』","steam_id":76561198220232352,"connected_time":3408000000000,"state":"active","ping":54},{"user_id":216,"name":"誰かが見ている","steam_id":76561198834913692,"connected_time":770000000000,"state":"active","ping":68},{"user_id":194,"name":"rex110","steam_id":76561198159631448,"connected_time":2711000000000,"state":"active","ping":85},{"user_id":152,"name":"Tea","steam_id":76561198799243030,"connected_time":4707000000000,"state":"active","ping":70},{"user_id":192,"name":"Solymr ibn Wali Barad","steam_id":76561198044008976,"connected_time":2821000000000,"state":"active","ping":74},{"user_id":196,"name":"Ratatatatatatouille","steam_id":76561198182267098,"connected_time":2663000000000,"state":"active","ping":89}]},{"server_id":308,"name":"Uncletopia | Frankfurt | 3 | All Maps","name_short":"frk-3","host":"frk-1.de.uncletopia.com","port":27035,"enabled":true,"region":"eu","cc":"de","latitude":50.110924,"longitude":8.682127,"reserved":0,"last_update":"0001-01-01T00:00:00Z","name_a2s":"Uncletopia | Frankfurt | 3 | All Maps","protocol":17,"map":"pl_badwater","folder":"tf","game":"Team Fortress","app_id":440,"player_count":24,"max_players":24,"Bots":0,"server_type":"Dedicated","server_os":"Linux","password":true,"vac":true,"version":"7882260","steam_id":85568392924504274,"keywords":["nocrits","nodmgspread","payload","uncletopia"],"game_id":440,"stv_port":27036,"stv_name":"Uncletopia | Frankfurt | 3 | All Maps | STV","players":[{"user_id":242,"name":"VampiuS","steam_id":76561197998827007,"connected_time":678000000000,"state":"active","ping":53},{"user_id":212,"name":"Tison","steam_id":76561199127635841,"connected_time":3190000000000,"state":"active","ping":44},{"user_id":243,"name":"Captain Beefheart","steam_id":76561198031573426,"connected_time":676000000000,"state":"active","ping":66},{"user_id":248,"name":"Mav","steam_id":76561198004403881,"connected_time":537000000000,"state":"active","ping":59},{"user_id":153,"name":"Plop_","steam_id":76561198112567921,"connected_time":6128000000000,"state":"active","ping":48},{"user_id":251,"name":"skatie","steam_id":76561198169487380,"connected_time":234000000000,"state":"active","ping":75},{"user_id":229,"name":"REN","steam_id":76561198000596385,"connected_time":2144000000000,"state":"active","ping":68},{"user_id":232,"name":"SunSill","steam_id":76561198159219899,"connected_time":1382000000000,"state":"active","ping":83},{"user_id":86,"name":"Caliban","steam_id":76561197999696839,"connected_time":10365000000000,"state":"active","ping":114},{"user_id":252,"name":"One-Face","steam_id":76561197999384826,"connected_time":88000000000,"state":"active","ping":58},{"user_id":237,"name":"Zegon (Limited Edition)","steam_id":76561198196418618,"connected_time":1093000000000,"state":"active","ping":50},{"user_id":219,"name":"S Ka Y","steam_id":76561197993423450,"connected_time":2400000000000,"state":"active","ping":58},{"user_id":239,"name":"twitch/auratf2","steam_id":76561197988085026,"connected_time":1067000000000,"state":"active","ping":67},{"user_id":233,"name":"Carter","steam_id":76561198005243938,"connected_time":1369000000000,"state":"active","ping":79},{"user_id":197,"name":"eva.","steam_id":76561198054474684,"connected_time":3497000000000,"state":"active","ping":82},{"user_id":235,"name":"YmaOHyd","steam_id":76561199037414851,"connected_time":1218000000000,"state":"active","ping":55},{"user_id":246,"name":"madijo","steam_id":76561198012617400,"connected_time":587000000000,"state":"active","ping":60},{"user_id":249,"name":"mge_спанчбоб256","steam_id":76561198129314304,"connected_time":525000000000,"state":"active","ping":129},{"user_id":230,"name":"generic alias","steam_id":76561198271607226,"connected_time":1498000000000,"state":"active","ping":105},{"user_id":220,"name":"flr","steam_id":76561198249327786,"connected_time":2396000000000,"state":"active","ping":60},{"user_id":176,"name":"fénix","steam_id":76561198083199151,"connected_time":5162000000000,"state":"active","ping":64},{"user_id":250,"name":"Dolcelatte","steam_id":76561198038501770,"connected_time":497000000000,"state":"active","ping":48},{"user_id":224,"name":"a bullet","steam_id":76561198809248362,"connected_time":2353000000000,"state":"active","ping":87},{"user_id":226,"name":"Vectillion","steam_id":76561198074292454,"connected_time":2306000000000,"state":"active","ping":75}]},{"server_id":309,"name":"Uncletopia | Frankfurt | 4 | All Maps","name_short":"frk-4","host":"frk-1.de.uncletopia.com","port":27045,"enabled":true,"region":"eu","cc":"de","latitude":50.110924,"longitude":8.682127,"reserved":0,"last_update":"0001-01-01T00:00:00Z","name_a2s":"Uncletopia | Frankfurt | 4 | All Maps","protocol":17,"map":"pl_borneo","folder":"tf","game":"Team Fortress","app_id":440,"player_count":24,"max_players":24,"Bots":0,"server_type":"Dedicated","server_os":"Linux","password":true,"vac":true,"version":"7882260","steam_id":85568392924504275,"keywords":["nocrits","nodmgspread","payload","uncletopia"],"game_id":440,"stv_port":27046,"stv_name":"Uncletopia | Frankfurt | 4 | All Maps | STV","players":[{"user_id":413,"name":"Waltcha","steam_id":76561198007691468,"connected_time":1452000000000,"state":"active","ping":60},{"user_id":425,"name":"strohkopf9","steam_id":76561198059349860,"connected_time":1029000000000,"state":"active","ping":66},{"user_id":396,"name":"Yargıç","steam_id":76561199147152361,"connected_time":3308000000000,"state":"active","ping":107},{"user_id":419,"name":"John","steam_id":76561198903255436,"connected_time":1151000000000,"state":"active","ping":46},{"user_id":420,"name":"Steen","steam_id":76561198122992510,"connected_time":1112000000000,"state":"active","ping":45},{"user_id":383,"name":"romaingallo","steam_id":76561198268112907,"connected_time":4132000000000,"state":"active","ping":181},{"user_id":426,"name":"Core2Duo","steam_id":76561199484297625,"connected_time":995000000000,"state":"active","ping":64},{"user_id":436,"name":"notMe","steam_id":76561198040429367,"connected_time":847000000000,"state":"active","ping":70},{"user_id":434,"name":"foureyesfries","steam_id":76561198271831555,"connected_time":868000000000,"state":"active","ping":62},{"user_id":409,"name":"Combat Wombat","steam_id":76561197994720068,"connected_time":1761000000000,"state":"active","ping":71},{"user_id":440,"name":"Lamission","steam_id":76561198802762169,"connected_time":260000000000,"state":"active","ping":212},{"user_id":442,"name":"whatever","steam_id":76561198095943461,"connected_time":100000000000,"state":"active","ping":60},{"user_id":408,"name":"manKe","steam_id":76561198008564860,"connected_time":1765000000000,"state":"active","ping":56},{"user_id":438,"name":"LivEssense","steam_id":76561198052476979,"connected_time":370000000000,"state":"active","ping":76},{"user_id":390,"name":"hallu","steam_id":76561198198581079,"connected_time":3731000000000,"state":"active","ping":80},{"user_id":435,"name":"no1","steam_id":76561198067524060,"connected_time":867000000000,"state":"active","ping":100},{"user_id":422,"name":"r06u3","steam_id":76561198254099253,"connected_time":1090000000000,"state":"active","ping":179},{"user_id":417,"name":"thussu","steam_id":76561198890409949,"connected_time":1238000000000,"state":"active","ping":91},{"user_id":437,"name":"Skeletros","steam_id":76561198130969152,"connected_time":535000000000,"state":"active","ping":137},{"user_id":430,"name":"YuraGreek","steam_id":76561198050182252,"connected_time":900000000000,"state":"active","ping":84},{"user_id":360,"name":"Dr. Mike","steam_id":76561197991205793,"connected_time":5842000000000,"state":"active","ping":75},{"user_id":423,"name":"b3rry","steam_id":76561198335302319,"connected_time":1081000000000,"state":"active","ping":104},{"user_id":433,"name":"Flint","steam_id":76561197995920776,"connected_time":876000000000,"state":"active","ping":44},{"user_id":441,"name":"Purple Soup :D","steam_id":76561198985100366,"connected_time":236000000000,"state":"active","ping":120}]},{"server_id":310,"name":"Uncletopia | Frankfurt | 5 | All Maps","name_short":"frk-5","host":"frk-1.de.uncletopia.com","port":27055,"enabled":true,"region":"eu","cc":"de","latitude":50.110924,"longitude":8.682127,"reserved":0,"last_update":"0001-01-01T00:00:00Z","name_a2s":"Uncletopia | Frankfurt | 5 | All Maps","protocol":17,"map":"koth_cascade","folder":"tf","game":"Team Fortress","app_id":440,"player_count":0,"max_players":24,"Bots":0,"server_type":"Dedicated","server_os":"Linux","password":true,"vac":true,"version":"7882260","steam_id":85568392924504277,"keywords":["cp","nocrits","nodmgspread","uncletopia"],"game_id":440,"stv_port":27056,"stv_name":"Uncletopia | Frankfurt | 5 | All Maps | STV","players":null},{"server_id":311,"name":"Uncletopia | Frankfurt | 6 | All Maps","name_short":"frk-6","host":"frk-1.de.uncletopia.com","port":27065,"enabled":true,"region":"eu","cc":"de","latitude":50.110924,"longitude":8.682127,"reserved":0,"last_update":"0001-01-01T00:00:00Z","name_a2s":"Uncletopia | Frankfurt | 6 | All Maps","protocol":17,"map":"koth_lakeside_final","folder":"tf","game":"Team Fortress","app_id":440,"player_count":0,"max_players":24,"Bots":0,"server_type":"Dedicated","server_os":"Linux","password":true,"vac":true,"version":"7882260","steam_id":85568392924504278,"keywords":["cp","nocrits","nodmgspread","uncletopia"],"game_id":440,"stv_port":27066,"stv_name":"Uncletopia | Frankfurt | 6 | All Maps | STV","players":null},{"server_id":23,"name":"Uncletopia | Frankfurt | 7 | Stopwatch Beta","name_short":"frk-7","host":"frk-1.de.uncletopia.com","port":27075,"enabled":true,"region":"eu","cc":"de","latitude":50.110924,"longitude":8.682127,"reserved":0,"last_update":"0001-01-01T00:00:00Z","name_a2s":"Uncletopia | Frankfurt | 7 | Stopwatch Beta","protocol":17,"map":"workshop/koth_product_final.ugc454272353","folder":"tf","game":"Team Fortress","app_id":440,"player_count":0,"max_players":24,"Bots":0,"server_type":"Dedicated","server_os":"Linux","password":true,"vac":true,"version":"7882260","steam_id":85568392924742827,"keywords":["cp","nocrits","nodmgspread","uncletopia"],"game_id":440,"stv_port":27076,"stv_name":"Uncletopia | Frankfurt | 7 | Stopwatch Beta | STV","players":null},{"server_id":24,"name":"Uncletopia | Frankfurt | 8 | Community","name_short":"frk-8","host":"frk-1.de.uncletopia.com","port":27085,"enabled":true,"region":"eu","cc":"de","latitude":50.110924,"longitude":8.682127,"reserved":0,"last_update":"0001-01-01T00:00:00Z","name_a2s":"Uncletopia | Frankfurt | 8 | Community","protocol":17,"map":"workshop/cp_caldera_rc2.ugc2834196889","folder":"tf","game":"Team Fortress","app_id":440,"player_count":21,"max_players":24,"Bots":0,"server_type":"Dedicated","server_os":"Linux","password":true,"vac":true,"version":"7882260","steam_id":85568392924742828,"keywords":["cp","nocrits","nodmgspread","uncletopia"],"game_id":440,"stv_port":27086,"stv_name":"Uncletopia | Frankfurt | 8 | Community | STV","players":[{"user_id":90,"name":"KæЯ","steam_id":76561198088151684,"connected_time":524000000000,"state":"active","ping":61},{"user_id":78,"name":"Purple toaster yt","steam_id":76561199071229316,"connected_time":916000000000,"state":"active","ping":69},{"user_id":89,"name":"♥ Cirno ♥","steam_id":76561198834982738,"connected_time":559000000000,"state":"active","ping":65},{"user_id":91,"name":"roblan11","steam_id":76561198066839258,"connected_time":481000000000,"state":"active","ping":44},{"user_id":81,"name":"darkwater","steam_id":76561197986978738,"connected_time":807000000000,"state":"active","ping":55},{"user_id":76,"name":"Rodia","steam_id":76561197968293161,"connected_time":993000000000,"state":"active","ping":67},{"user_id":70,"name":"Battle_Pass90","steam_id":76561199367142516,"connected_time":1462000000000,"state":"active","ping":63},{"user_id":61,"name":"Guru","steam_id":76561198093853069,"connected_time":2016000000000,"state":"active","ping":52},{"user_id":92,"name":"Bakser Swagger","steam_id":76561198199774646,"connected_time":399000000000,"state":"active","ping":75},{"user_id":88,"name":"poliakov.noam","steam_id":76561199259322961,"connected_time":607000000000,"state":"active","ping":103},{"user_id":39,"name":"big poo","steam_id":76561199088284199,"connected_time":2715000000000,"state":"active","ping":63},{"user_id":43,"name":"Trolli","steam_id":76561199069726280,"connected_time":2510000000000,"state":"active","ping":38},{"user_id":95,"name":"Radio Fortress","steam_id":76561198099948451,"connected_time":294000000000,"state":"active","ping":49},{"user_id":94,"name":"Swedde","steam_id":76561198297296440,"connected_time":306000000000,"state":"active","ping":70},{"user_id":97,"name":"god's eepiest soldier","steam_id":76561199044306780,"connected_time":253000000000,"state":"active","ping":77},{"user_id":86,"name":"Alice can't hit pipes","steam_id":76561198052410860,"connected_time":686000000000,"state":"active","ping":137},{"user_id":102,"name":"Krabs","steam_id":76561198161679477,"connected_time":116000000000,"state":"spawning","ping":1411},{"user_id":99,"name":"Genuine","steam_id":76561197966295765,"connected_time":202000000000,"state":"active","ping":32},{"user_id":101,"name":"lil pimp","steam_id":76561198179324075,"connected_time":136000000000,"state":"active","ping":67},{"user_id":58,"name":"Corpus Christi","steam_id":76561198417999443,"connected_time":2070000000000,"state":"active","ping":95},{"user_id":104,"name":"Guwop","steam_id":76561197970425737,"connected_time":81000000000,"state":"active","ping":159}]},{"server_id":202,"name":"Uncletopia | Hong Kong | 1 | All Maps","name_short":"hgk-1","host":"hgk-1.hk.uncletopia.com","port":27015,"enabled":true,"region":"asia","cc":"hk","latitude":22.302711,"longitude":114.177216,"reserved":0,"last_update":"0001-01-01T00:00:00Z","name_a2s":"Uncletopia | Hong Kong | 1 | All Maps","protocol":17,"map":"koth_viaduct","folder":"tf","game":"Team Fortress","app_id":440,"player_count":0,"max_players":24,"Bots":0,"server_type":"Dedicated","server_os":"Linux","password":true,"vac":true,"version":"7882260","steam_id":85568392924494504,"keywords":["cp","nocrits","nodmgspread","uncletopia"],"game_id":440,"stv_port":27016,"stv_name":"Uncletopia | Hong Kong | 1 | All Maps | STV","players":null},{"server_id":1,"name":"Uncletopia | Los Angeles | 1 | All Maps","name_short":"lax-1","host":"lax-1.us.uncletopia.com","port":27015,"enabled":true,"region":"us-west","cc":"us","latitude":33.94279,"longitude":-118.41004,"reserved":0,"last_update":"0001-01-01T00:00:00Z","name_a2s":"Uncletopia | Los Angeles | 1 | All Maps","protocol":17,"map":"cp_sunshine","folder":"tf","game":"Team Fortress","app_id":440,"player_count":0,"max_players":24,"Bots":0,"server_type":"Dedicated","server_os":"Linux","password":true,"vac":true,"version":"7882260","steam_id":85568392924469991,"keywords":["cp","nocrits","nodmgspread","uncletopia"],"game_id":440,"stv_port":27016,"stv_name":"Uncletopia | Los Angeles | 1 | All Maps | STV","players":null},{"server_id":112,"name":"Uncletopia | Los Angeles | 2 | All Maps","name_short":"lax-2","host":"lax-1.us.uncletopia.com","port":27025,"enabled":true,"region":"us-west","cc":"us","latitude":33.94279,"longitude":-118.41004,"reserved":0,"last_update":"0001-01-01T00:00:00Z","name_a2s":"Uncletopia | Los Angeles | 2 | All Maps","protocol":17,"map":"cp_snakewater_final1","folder":"tf","game":"Team Fortress","app_id":440,"player_count":0,"max_players":24,"Bots":0,"server_type":"Dedicated","server_os":"Linux","password":true,"vac":true,"version":"7882260","steam_id":85568392924469992,"keywords":["cp","nocrits","nodmgspread","uncletopia"],"game_id":440,"stv_port":27026,"stv_name":"Uncletopia | Los Angeles | 2 | All Maps | STV","players":null},{"server_id":324,"name":"Uncletopia | Los Angeles | 3 | All Maps","name_short":"lax-3","host":"lax-1.us.uncletopia.com","port":27035,"enabled":true,"region":"us-west","cc":"us","latitude":33.94279,"longitude":-118.41004,"reserved":0,"last_update":"0001-01-01T00:00:00Z","name_a2s":"Uncletopia | Los Angeles | 3 | All Maps","protocol":17,"map":"pl_upward","folder":"tf","game":"Team Fortress","app_id":440,"player_count":0,"max_players":24,"Bots":0,"server_type":"Dedicated","server_os":"Linux","password":true,"vac":true,"version":"7882260","steam_id":85568392924510198,"keywords":["nocrits","nodmgspread","payload","uncletopia"],"game_id":440,"stv_port":27036,"stv_name":"Uncletopia | Los Angeles | 3 | All Maps | STV","players":null},{"server_id":25,"name":"Uncletopia | Los Angeles | 4 | Stopwatch Beta","name_short":"lax-4","host":"lax-1.us.uncletopia.com","port":27045,"enabled":true,"region":"us-west","cc":"us","latitude":33.94279,"longitude":-118.41004,"reserved":0,"last_update":"0001-01-01T00:00:00Z","name_a2s":"Uncletopia | Los Angeles | 4 | Stopwatch Beta","protocol":17,"map":"cp_snakewater_final1","folder":"tf","game":"Team Fortress","app_id":440,"player_count":0,"max_players":24,"Bots":0,"server_type":"Dedicated","server_os":"Linux","password":true,"vac":true,"version":"7882260","steam_id":85568392924510199,"keywords":["cp","nocrits","nodmgspread","uncletopia"],"game_id":440,"stv_port":27046,"stv_name":"Uncletopia | Los Angeles | 4 | Stopwatch Beta | STV","players":null},{"server_id":11,"name":"Uncletopia | London | 1 | All Maps","name_short":"lon-1","host":"lon-1.uk.uncletopia.com","port":27015,"enabled":true,"region":"eu","cc":"gb","latitude":51.509865,"longitude":-0.118092,"reserved":0,"last_update":"0001-01-01T00:00:00Z","name_a2s":"Uncletopia | London | 1 | All Maps","protocol":17,"map":"pl_snowycoast","folder":"tf","game":"Team Fortress","app_id":440,"player_count":24,"max_players":24,"Bots":0,"server_type":"Dedicated","server_os":"Linux","password":true,"vac":true,"version":"7882260","steam_id":85568392924367362,"keywords":["nocrits","nodmgspread","payload","uncletopia"],"game_id":440,"stv_port":27016,"stv_name":"Uncletopia | London | 1 | All Maps | STV","players":[{"user_id":656,"name":"Aspartus","steam_id":76561198101385763,"connected_time":219000000000,"state":"active","ping":39},{"user_id":662,"name":"Tywhip","steam_id":76561199207545191,"connected_time":125000000000,"state":"active","ping":64},{"user_id":640,"name":"regimiro","steam_id":76561198120457008,"connected_time":1609000000000,"state":"active","ping":51},{"user_id":635,"name":"Mr_Pulse_","steam_id":76561198095001602,"connected_time":2463000000000,"state":"active","ping":107},{"user_id":632,"name":"svantezch","steam_id":76561198373831657,"connected_time":2529000000000,"state":"active","ping":77},{"user_id":645,"name":"Mike","steam_id":76561198228455736,"connected_time":1334000000000,"state":"active","ping":49},{"user_id":622,"name":"Gnarville","steam_id":76561198006373329,"connected_time":3092000000000,"state":"active","ping":48},{"user_id":646,"name":"Curlew","steam_id":76561198075884540,"connected_time":1297000000000,"state":"active","ping":65},{"user_id":643,"name":"Hive","steam_id":76561199480966681,"connected_time":1373000000000,"state":"active","ping":73},{"user_id":639,"name":"cult","steam_id":76561198188647690,"connected_time":1831000000000,"state":"active","ping":75},{"user_id":658,"name":"SnazzyCelestial","steam_id":76561198328763813,"connected_time":177000000000,"state":"active","ping":151},{"user_id":623,"name":"minitel","steam_id":76561198056336216,"connected_time":3050000000000,"state":"active","ping":51},{"user_id":638,"name":"Пуксель","steam_id":76561198294425174,"connected_time":2150000000000,"state":"active","ping":82},{"user_id":594,"name":"Yelowchy","steam_id":76561198199416121,"connected_time":4995000000000,"state":"active","ping":73},{"user_id":626,"name":"Captain Samo","steam_id":76561198047224482,"connected_time":2902000000000,"state":"active","ping":61},{"user_id":628,"name":"Loperin","steam_id":76561198111237338,"connected_time":2774000000000,"state":"active","ping":80},{"user_id":651,"name":"Jesus Enjoyer","steam_id":76561198840259819,"connected_time":884000000000,"state":"active","ping":56},{"user_id":634,"name":"Alexandre","steam_id":76561198121784446,"connected_time":2520000000000,"state":"active","ping":40},{"user_id":587,"name":"Kahvi","steam_id":76561198723244199,"connected_time":5539000000000,"state":"active","ping":74},{"user_id":641,"name":"SnowShot","steam_id":76561198004766638,"connected_time":1389000000000,"state":"active","ping":77},{"user_id":659,"name":"SugarPlumb","steam_id":76561198258269600,"connected_time":175000000000,"state":"active","ping":50},{"user_id":660,"name":"Minimi","steam_id":76561198873850443,"connected_time":173000000000,"state":"active","ping":49},{"user_id":655,"name":"lol","steam_id":76561198104438656,"connected_time":372000000000,"state":"active","ping":64},{"user_id":661,"name":"Big_Bunda","steam_id":76561198429058028,"connected_time":155000000000,"state":"active","ping":64}]},{"server_id":114,"name":"Uncletopia | London | 2 | All Maps","name_short":"lon-2","host":"lon-1.uk.uncletopia.com","port":27025,"enabled":true,"region":"eu","cc":"gb","latitude":51.509865,"longitude":-0.118092,"reserved":0,"last_update":"0001-01-01T00:00:00Z","name_a2s":"Uncletopia | London | 2 | All Maps","protocol":17,"map":"pl_badwater","folder":"tf","game":"Team Fortress","app_id":440,"player_count":24,"max_players":24,"Bots":0,"server_type":"Dedicated","server_os":"Linux","password":true,"vac":true,"version":"7882260","steam_id":85568392924470941,"keywords":["nocrits","nodmgspread","payload","uncletopia"],"game_id":440,"stv_port":27026,"stv_name":"Uncletopia | London | 2 | All Maps | STV","players":[{"user_id":179,"name":"GunGuy","steam_id":76561198124510978,"connected_time":2178000000000,"state":"active","ping":37},{"user_id":176,"name":"tïger","steam_id":76561198260483157,"connected_time":2366000000000,"state":"active","ping":80},{"user_id":201,"name":"Paul Bäumer","steam_id":76561198308302932,"connected_time":1380000000000,"state":"active","ping":99},{"user_id":198,"name":"Rez","steam_id":76561198410598772,"connected_time":1493000000000,"state":"active","ping":58},{"user_id":208,"name":"Borat","steam_id":76561198122226417,"connected_time":852000000000,"state":"active","ping":40},{"user_id":191,"name":"monaskick","steam_id":76561198326190912,"connected_time":1901000000000,"state":"active","ping":74},{"user_id":195,"name":"CAMON ENGELAND","steam_id":76561198054301125,"connected_time":1596000000000,"state":"active","ping":90},{"user_id":212,"name":"Boby","steam_id":76561199105415647,"connected_time":670000000000,"state":"active","ping":80},{"user_id":207,"name":"Technic","steam_id":76561198128096130,"connected_time":859000000000,"state":"active","ping":59},{"user_id":182,"name":"GMsU | Rebikas","steam_id":76561198077053764,"connected_time":2148000000000,"state":"active","ping":53},{"user_id":215,"name":"S.Scary","steam_id":76561198248602386,"connected_time":84000000000,"state":"active","ping":74},{"user_id":183,"name":"Tomo -ƒ$-","steam_id":76561199015097595,"connected_time":2121000000000,"state":"active","ping":45},{"user_id":204,"name":"Peigg","steam_id":76561198414749782,"connected_time":1276000000000,"state":"active","ping":99},{"user_id":163,"name":"❤G a n K","steam_id":76561199125995565,"connected_time":3596000000000,"state":"active","ping":59},{"user_id":141,"name":"Stańczyk","steam_id":76561197998906563,"connected_time":5248000000000,"state":"active","ping":44},{"user_id":214,"name":"Jaymie","steam_id":76561198405980575,"connected_time":290000000000,"state":"active","ping":85},{"user_id":202,"name":"cister0","steam_id":76561198130195469,"connected_time":1357000000000,"state":"active","ping":87},{"user_id":186,"name":"kyra","steam_id":76561198412004372,"connected_time":2107000000000,"state":"active","ping":64},{"user_id":205,"name":"Foly","steam_id":76561198379383694,"connected_time":872000000000,"state":"active","ping":67},{"user_id":203,"name":"gamer","steam_id":76561199121842872,"connected_time":1343000000000,"state":"active","ping":55},{"user_id":194,"name":"porta","steam_id":76561198876318011,"connected_time":1627000000000,"state":"active","ping":56},{"user_id":211,"name":"plazma","steam_id":76561198886594048,"connected_time":738000000000,"state":"active","ping":112},{"user_id":206,"name":"AuxiliusN","steam_id":76561198328216978,"connected_time":872000000000,"state":"active","ping":54}]},{"server_id":320,"name":"Uncletopia | London | 3 | All Maps","name_short":"lon-3","host":"lon-1.uk.uncletopia.com","port":27035,"enabled":true,"region":"eu","cc":"gb","latitude":51.509865,"longitude":-0.118092,"reserved":0,"last_update":"0001-01-01T00:00:00Z","name_a2s":"Uncletopia | London | 3 | All Maps","protocol":17,"map":"koth_highpass","folder":"tf","game":"Team Fortress","app_id":440,"player_count":8,"max_players":24,"Bots":0,"server_type":"Dedicated","server_os":"Linux","password":true,"vac":true,"version":"7882260","steam_id":85568392924510192,"keywords":["cp","nocrits","nodmgspread","uncletopia"],"game_id":440,"stv_port":27036,"stv_name":"Uncletopia | London | 3 | All Maps | STV","players":[{"user_id":34,"name":"JOHN GAMING (#1 gunspy)","steam_id":76561199085822219,"connected_time":832000000000,"state":"active","ping":87},{"user_id":35,"name":"Mika","steam_id":76561199183780280,"connected_time":725000000000,"state":"active","ping":65},{"user_id":36,"name":"nemelex","steam_id":76561198958005865,"connected_time":479000000000,"state":"active","ping":53},{"user_id":37,"name":"XSCod","steam_id":76561198124586634,"connected_time":271000000000,"state":"active","ping":66},{"user_id":38,"name":"Xydran","steam_id":76561198042397402,"connected_time":209000000000,"state":"active","ping":69},{"user_id":39,"name":"3MM4\u003c3","steam_id":76561199090357516,"connected_time":182000000000,"state":"active","ping":55},{"user_id":40,"name":"chocolate flavoured femboy","steam_id":76561198819353867,"connected_time":66000000000,"state":"active","ping":39},{"user_id":41,"name":"AwterSix","steam_id":76561198042561678,"connected_time":5000000000,"state":"spawning","ping":59}]},{"server_id":321,"name":"Uncletopia | London | 4 | All Maps","name_short":"lon-4","host":"lon-1.uk.uncletopia.com","port":27045,"enabled":true,"region":"eu","cc":"gb","latitude":51.509865,"longitude":-0.118092,"reserved":0,"last_update":"0001-01-01T00:00:00Z","name_a2s":"Uncletopia | London | 4 | All Maps","protocol":17,"map":"koth_highpass","folder":"tf","game":"Team Fortress","app_id":440,"player_count":0,"max_players":24,"Bots":0,"server_type":"Dedicated","server_os":"Linux","password":true,"vac":true,"version":"7882260","steam_id":85568392924510193,"keywords":["cp","nocrits","nodmgspread","uncletopia"],"game_id":440,"stv_port":27046,"stv_name":"Uncletopia | London | 4 | All Maps | STV","players":null},{"server_id":21,"name":"Uncletopia | London | 5 | All Maps","name_short":"lon-5","host":"lon-1.uk.uncletopia.com","port":27055,"enabled":true,"region":"eu","cc":"gb","latitude":51.509865,"longitude":-0.118092,"reserved":0,"last_update":"0001-01-01T00:00:00Z","name_a2s":"Uncletopia | London | 5 | All Maps","protocol":17,"map":"pl_barnblitz","folder":"tf","game":"Team Fortress","app_id":440,"player_count":24,"max_players":24,"Bots":0,"server_type":"Dedicated","server_os":"Linux","password":true,"vac":true,"version":"7882260","steam_id":85568392924742829,"keywords":["nocrits","nodmgspread","payload","uncletopia"],"game_id":440,"stv_port":27056,"stv_name":"Uncletopia | London | 5 | All Maps | STV","players":[{"user_id":135,"name":"il","steam_id":76561198122662610,"connected_time":1101000000000,"state":"active","ping":87},{"user_id":131,"name":"kissa fani 666","steam_id":76561198799519725,"connected_time":1300000000000,"state":"active","ping":91},{"user_id":102,"name":"TJ1212","steam_id":76561199013575313,"connected_time":2992000000000,"state":"active","ping":69},{"user_id":115,"name":"hybrid","steam_id":76561197996468677,"connected_time":2431000000000,"state":"active","ping":70},{"user_id":93,"name":"Бravo","steam_id":76561198259340310,"connected_time":3844000000000,"state":"active","ping":67},{"user_id":152,"name":"Hoff","steam_id":76561198138540938,"connected_time":393000000000,"state":"active","ping":82},{"user_id":134,"name":"dinorno","steam_id":76561198146276830,"connected_time":1198000000000,"state":"active","ping":91},{"user_id":151,"name":"ogród77","steam_id":76561198088125671,"connected_time":450000000000,"state":"active","ping":62},{"user_id":104,"name":"Dr. Funkenstein","steam_id":76561197977816210,"connected_time":2966000000000,"state":"active","ping":53},{"user_id":66,"name":"twitch.tv/Dr.Sex","steam_id":76561198029044617,"connected_time":5586000000000,"state":"active","ping":49},{"user_id":129,"name":"Bartツ","steam_id":76561198164718893,"connected_time":1603000000000,"state":"active","ping":45},{"user_id":116,"name":"Tekky","steam_id":76561197990987315,"connected_time":2391000000000,"state":"active","ping":39},{"user_id":147,"name":"Milk","steam_id":76561198125876588,"connected_time":594000000000,"state":"active","ping":42},{"user_id":144,"name":"♛perry the platypus♛","steam_id":76561199379159771,"connected_time":859000000000,"state":"active","ping":145},{"user_id":117,"name":"HugeE","steam_id":76561198245495152,"connected_time":2357000000000,"state":"active","ping":63},{"user_id":118,"name":"The Ghost","steam_id":76561199123985571,"connected_time":2349000000000,"state":"active","ping":88},{"user_id":128,"name":"Bob Sacamano","steam_id":76561198085610701,"connected_time":1673000000000,"state":"active","ping":98},{"user_id":113,"name":"gamer","steam_id":76561198052344629,"connected_time":2602000000000,"state":"active","ping":30},{"user_id":139,"name":"Miss Holicia 🖤","steam_id":76561199468764173,"connected_time":995000000000,"state":"active","ping":92},{"user_id":142,"name":"Cactus","steam_id":76561198048639239,"connected_time":925000000000,"state":"active","ping":75},{"user_id":150,"name":"quickfast","steam_id":76561199438900919,"connected_time":489000000000,"state":"active","ping":45},{"user_id":121,"name":"I love playing medic.","steam_id":76561199101935057,"connected_time":2307000000000,"state":"active","ping":99},{"user_id":153,"name":"Chucky.","steam_id":76561197969361063,"connected_time":315000000000,"state":"active","ping":76},{"user_id":148,"name":"ricky pee pee","steam_id":76561198152620745,"connected_time":544000000000,"state":"active","ping":62}]},{"server_id":22,"name":"Uncletopia | London | 6 | All Maps","name_short":"lon-6","host":"lon-1.uk.uncletopia.com","port":27065,"enabled":true,"region":"eu","cc":"gb","latitude":51.509865,"longitude":-0.118092,"reserved":0,"last_update":"0001-01-01T00:00:00Z","name_a2s":"Uncletopia | London | 6 | All Maps","protocol":17,"map":"cp_mountainlab","folder":"tf","game":"Team Fortress","app_id":440,"player_count":0,"max_players":24,"Bots":0,"server_type":"Dedicated","server_os":"Linux","password":true,"vac":true,"version":"7882260","steam_id":85568392924742830,"keywords":["cp","nocrits","nodmgspread","uncletopia"],"game_id":440,"stv_port":27066,"stv_name":"Uncletopia | London | 6 | All Maps | STV","players":null},{"server_id":40,"name":"Uncletopia | London | 7 | No Payload","name_short":"lon-7","host":"lon-1.uk.uncletopia.com","port":27075,"enabled":true,"region":"eu","cc":"gb","latitude":51.509865,"longitude":-0.118092,"reserved":0,"last_update":"0001-01-01T00:00:00Z","name_a2s":"Uncletopia | London | 7 | No Payload","protocol":17,"map":"cp_granary","folder":"tf","game":"Team Fortress","app_id":440,"player_count":0,"max_players":24,"Bots":0,"server_type":"Dedicated","server_os":"Linux","password":true,"vac":true,"version":"7882260","steam_id":85568392924964314,"keywords":["cp","nocrits","nodmgspread","uncletopia"],"game_id":440,"stv_port":27076,"stv_name":"Uncletopia | London | 7 | No Payload | STV","players":null},{"server_id":41,"name":"Uncletopia | London | 8 | Community","name_short":"lon-8","host":"lon-1.uk.uncletopia.com","port":27085,"enabled":true,"region":"eu","cc":"gb","latitude":51.509865,"longitude":-0.118092,"reserved":0,"last_update":"0001-01-01T00:00:00Z","name_a2s":"Uncletopia | London | 8 | Community","protocol":17,"map":"workshop/pl_boundary_final1.ugc456799153","folder":"tf","game":"Team Fortress","app_id":440,"player_count":24,"max_players":24,"Bots":0,"server_type":"Dedicated","server_os":"Linux","password":true,"vac":true,"version":"7882260","steam_id":85568392924964315,"keywords":["nocrits","nodmgspread","payload","uncletopia"],"game_id":440,"stv_port":27086,"stv_name":"Uncletopia | London | 8 | Community | STV","players":[{"user_id":463,"name":"Tegnerud","steam_id":76561198214185612,"connected_time":1767000000000,"state":"active","ping":77},{"user_id":480,"name":"Mach","steam_id":76561198952487564,"connected_time":627000000000,"state":"active","ping":167},{"user_id":484,"name":"PGAndy","steam_id":76561199218070297,"connected_time":409000000000,"state":"active","ping":93},{"user_id":464,"name":"lofimonkeyjazz","steam_id":76561198117059662,"connected_time":1750000000000,"state":"active","ping":70},{"user_id":452,"name":"Bambi","steam_id":76561198166972711,"connected_time":1915000000000,"state":"active","ping":59},{"user_id":476,"name":"man with perfect posture","steam_id":76561198011854314,"connected_time":986000000000,"state":"active","ping":60},{"user_id":383,"name":"elsuedi","steam_id":76561198074722832,"connected_time":7076000000000,"state":"active","ping":60},{"user_id":489,"name":"Egro Goodies","steam_id":76561198024437249,"connected_time":259000000000,"state":"active","ping":90},{"user_id":466,"name":"KillerQueen (he/they/she)","steam_id":76561199019399725,"connected_time":1681000000000,"state":"active","ping":45},{"user_id":460,"name":"Lucky B.🏆","steam_id":76561198077571162,"connected_time":1792000000000,"state":"active","ping":54},{"user_id":467,"name":"Controller Gaming","steam_id":76561198134805479,"connected_time":1644000000000,"state":"active","ping":45},{"user_id":482,"name":"Michael","steam_id":76561198003146906,"connected_time":622000000000,"state":"active","ping":43},{"user_id":483,"name":"Malsi","steam_id":76561199061284165,"connected_time":581000000000,"state":"active","ping":87},{"user_id":451,"name":"Serton♝","steam_id":76561198011061126,"connected_time":2054000000000,"state":"active","ping":75},{"user_id":462,"name":"🗻🎴Hadrian Malone🎴🗻","steam_id":76561198036151103,"connected_time":1787000000000,"state":"active","ping":55},{"user_id":485,"name":"Buddy","steam_id":76561198050185582,"connected_time":408000000000,"state":"active","ping":60},{"user_id":300,"name":"duplicated","steam_id":76561198344952248,"connected_time":13189000000000,"state":"active","ping":60},{"user_id":490,"name":"Sex Haver 420 69","steam_id":76561198052287739,"connected_time":182000000000,"state":"active","ping":103},{"user_id":435,"name":"Portal79","steam_id":76561198095499584,"connected_time":4017000000000,"state":"active","ping":74},{"user_id":487,"name":"britiliximab","steam_id":76561198141173061,"connected_time":347000000000,"state":"active","ping":89},{"user_id":491,"name":"VolcanicArts","steam_id":76561198063453246,"connected_time":165000000000,"state":"active","ping":55},{"user_id":426,"name":"Miton","steam_id":76561197970323209,"connected_time":4710000000000,"state":"active","ping":92},{"user_id":475,"name":"crispy critters","steam_id":76561198010360372,"connected_time":1230000000000,"state":"active","ping":64},{"user_id":391,"name":"LarsInABox","steam_id":76561198028329262,"connected_time":6835000000000,"state":"active","ping":75}]},{"server_id":300,"name":"Uncletopia | Montréal | 1 | All Maps","name_short":"mtl-1","host":"mtl-1.ca.uncletopia.com","port":27015,"enabled":true,"region":"us-east","cc":"ca","latitude":45.50889,"longitude":-73.56167,"reserved":0,"last_update":"0001-01-01T00:00:00Z","name_a2s":"Uncletopia | Montréal | 1 | All Maps","protocol":17,"map":"pl_barnblitz","folder":"tf","game":"Team Fortress","app_id":440,"player_count":23,"max_players":24,"Bots":0,"server_type":"Dedicated","server_os":"Linux","password":true,"vac":true,"version":"7882260","steam_id":85568392924500087,"keywords":["nocrits","nodmgspread","payload","uncletopia"],"game_id":440,"stv_port":27016,"stv_name":"Uncletopia | Montréal | 1 | All Maps | STV","players":[{"user_id":3,"name":"send dudes","steam_id":76561198084277762,"connected_time":6129000000000,"state":"active","ping":32},{"user_id":73,"name":"Bee_Pirate","steam_id":76561199000599111,"connected_time":1019000000000,"state":"active","ping":52},{"user_id":5,"name":"tasty","steam_id":76561198083839061,"connected_time":5968000000000,"state":"active","ping":70},{"user_id":50,"name":"FateTheTitan","steam_id":76561198176884955,"connected_time":2663000000000,"state":"active","ping":127},{"user_id":81,"name":"notdbone","steam_id":76561198045890038,"connected_time":573000000000,"state":"active","ping":75},{"user_id":86,"name":"Don't Fuckle with Shuckle","steam_id":76561199020102367,"connected_time":206000000000,"state":"active","ping":103},{"user_id":30,"name":"Moonman327","steam_id":76561197992616059,"connected_time":3622000000000,"state":"active","ping":76},{"user_id":56,"name":"Tsubasa","steam_id":76561198329439995,"connected_time":2271000000000,"state":"active","ping":42},{"user_id":82,"name":"bongos","steam_id":76561198025555734,"connected_time":458000000000,"state":"active","ping":62},{"user_id":65,"name":"dicksnip","steam_id":76561198356515396,"connected_time":1628000000000,"state":"active","ping":97},{"user_id":74,"name":"Superjesusman","steam_id":76561198078211879,"connected_time":988000000000,"state":"active","ping":45},{"user_id":72,"name":"Bee","steam_id":76561198074681324,"connected_time":1076000000000,"state":"active","ping":58},{"user_id":75,"name":"Paul from Marketing","steam_id":76561198156319978,"connected_time":711000000000,"state":"active","ping":70},{"user_id":89,"name":"gypsy_disco","steam_id":76561198153496203,"connected_time":66000000000,"state":"active","ping":89},{"user_id":58,"name":"E10","steam_id":76561199070597462,"connected_time":2219000000000,"state":"active","ping":74},{"user_id":87,"name":"FluffyFoxFae","steam_id":76561198208519517,"connected_time":160000000000,"state":"active","ping":127},{"user_id":84,"name":"Decs","steam_id":76561198825197974,"connected_time":446000000000,"state":"active","ping":141},{"user_id":77,"name":"page","steam_id":76561198990468269,"connected_time":675000000000,"state":"active","ping":125},{"user_id":53,"name":"Cookies n Milk","steam_id":76561198071075134,"connected_time":2505000000000,"state":"active","ping":97},{"user_id":88,"name":"Coffee with a Stranger","steam_id":76561198307422313,"connected_time":155000000000,"state":"active","ping":61},{"user_id":79,"name":"Female Gamer","steam_id":76561199366482682,"connected_time":648000000000,"state":"active","ping":130},{"user_id":85,"name":"KBoneski ♡","steam_id":76561198307409065,"connected_time":321000000000,"state":"active","ping":65},{"user_id":66,"name":"Bad Rollout","steam_id":76561197971948876,"connected_time":1607000000000,"state":"active","ping":85}]},{"server_id":301,"name":"Uncletopia | Montréal | 2 | All Maps","name_short":"mtl-2","host":"mtl-1.ca.uncletopia.com","port":27025,"enabled":true,"region":"us-east","cc":"ca","latitude":45.50889,"longitude":-73.56167,"reserved":0,"last_update":"0001-01-01T00:00:00Z","name_a2s":"Uncletopia | Montréal | 2 | All Maps","protocol":17,"map":"pl_frontier_final","folder":"tf","game":"Team Fortress","app_id":440,"player_count":0,"max_players":24,"Bots":0,"server_type":"Dedicated","server_os":"Linux","password":true,"vac":true,"version":"7882260","steam_id":85568392924500088,"keywords":["nocrits","nodmgspread","payload","uncletopia"],"game_id":440,"stv_port":27026,"stv_name":"Uncletopia | Montréal | 2 | All Maps | STV","players":null},{"server_id":302,"name":"Uncletopia | Montréal | 3 | All Maps","name_short":"mtl-3","host":"mtl-1.ca.uncletopia.com","port":27035,"enabled":true,"region":"us-east","cc":"ca","latitude":45.50889,"longitude":-73.56167,"reserved":0,"last_update":"0001-01-01T00:00:00Z","name_a2s":"Uncletopia | Montréal | 3 | All Maps","protocol":17,"map":"koth_viaduct","folder":"tf","game":"Team Fortress","app_id":440,"player_count":0,"max_players":24,"Bots":0,"server_type":"Dedicated","server_os":"Linux","password":true,"vac":true,"version":"7882260","steam_id":85568392924500089,"keywords":["cp","nocrits","nodmgspread","uncletopia"],"game_id":440,"stv_port":27036,"stv_name":"Uncletopia | Montréal | 3 | All Maps | STV","players":null},{"server_id":303,"name":"Uncletopia | Montréal | 4 | No Payload","name_short":"mtl-4","host":"mtl-1.ca.uncletopia.com","port":27045,"enabled":true,"region":"us-east","cc":"ca","latitude":45.50889,"longitude":-73.56167,"reserved":0,"last_update":"0001-01-01T00:00:00Z","name_a2s":"Uncletopia | Montréal | 4 | No Payload","protocol":17,"map":"cp_sunshine","folder":"tf","game":"Team Fortress","app_id":440,"player_count":0,"max_players":24,"Bots":0,"server_type":"Dedicated","server_os":"Linux","password":true,"vac":true,"version":"7882260","steam_id":85568392924500090,"keywords":["cp","nocrits","nodmgspread","uncletopia"],"game_id":440,"stv_port":27046,"stv_name":"Uncletopia | Montréal | 4 | No Payload | STV","players":null},{"server_id":13,"name":"Uncletopia | New York City | 1 | All Maps","name_short":"nyc-1","host":"nyc-1.us.uncletopia.com","port":27015,"enabled":true,"region":"us-east","cc":"us","latitude":40.73061,"longitude":-73.93524,"reserved":0,"last_update":"0001-01-01T00:00:00Z","name_a2s":"Uncletopia | New York City | 1 | All Maps","protocol":17,"map":"pl_frontier_final","folder":"tf","game":"Team Fortress","app_id":440,"player_count":24,"max_players":24,"Bots":0,"server_type":"Dedicated","server_os":"Linux","password":true,"vac":true,"version":"7882260","steam_id":85568392924469993,"keywords":["nocrits","nodmgspread","payload","uncletopia"],"game_id":440,"stv_port":27016,"stv_name":"Uncletopia | New York City | 1 | All Maps | STV","players":[{"user_id":134,"name":"Sha-Woompa","steam_id":76561199068063459,"connected_time":2441000000000,"state":"active","ping":66},{"user_id":140,"name":"TLG, Certified Gamer Mom","steam_id":76561198076669951,"connected_time":1654000000000,"state":"active","ping":51},{"user_id":145,"name":"ObsessedNerd505","steam_id":76561199045531456,"connected_time":829000000000,"state":"active","ping":44},{"user_id":143,"name":"Kobrakiddmeow","steam_id":76561198080696266,"connected_time":924000000000,"state":"active","ping":86},{"user_id":146,"name":"Aviyarn","steam_id":76561199074194652,"connected_time":829000000000,"state":"active","ping":66},{"user_id":141,"name":"googy doogy","steam_id":76561199025852100,"connected_time":1620000000000,"state":"active","ping":62},{"user_id":159,"name":"foiled again...","steam_id":76561199013337543,"connected_time":32000000000,"state":"active","ping":73},{"user_id":103,"name":"trobin120","steam_id":76561199122420273,"connected_time":5012000000000,"state":"active","ping":54},{"user_id":138,"name":"Ian","steam_id":76561199078852180,"connected_time":1820000000000,"state":"active","ping":73},{"user_id":137,"name":"Baron von Whoopsie","steam_id":76561197996691013,"connected_time":1833000000000,"state":"active","ping":50},{"user_id":157,"name":"leafs fan eternal suffering","steam_id":76561198011329825,"connected_time":55000000000,"state":"active","ping":121},{"user_id":142,"name":"「ＦＵＮＫ」","steam_id":76561198190323610,"connected_time":1590000000000,"state":"active","ping":61},{"user_id":152,"name":"riskyboobingle","steam_id":76561198037604133,"connected_time":726000000000,"state":"active","ping":64},{"user_id":118,"name":"the pest","steam_id":76561198826298849,"connected_time":3741000000000,"state":"active","ping":84},{"user_id":154,"name":"Umbra","steam_id":76561198122650609,"connected_time":671000000000,"state":"active","ping":93},{"user_id":158,"name":"Slazzer","steam_id":76561198404351844,"connected_time":54000000000,"state":"active","ping":58},{"user_id":149,"name":"Rain","steam_id":76561198032318897,"connected_time":778000000000,"state":"active","ping":125},{"user_id":144,"name":"Primal","steam_id":76561197983118203,"connected_time":916000000000,"state":"active","ping":80},{"user_id":150,"name":"transfem demo main","steam_id":76561198405168492,"connected_time":776000000000,"state":"active","ping":82},{"user_id":128,"name":"Zenabie","steam_id":76561198088372680,"connected_time":2832000000000,"state":"active","ping":62},{"user_id":156,"name":"F0restFerret","steam_id":76561199112458876,"connected_time":230000000000,"state":"active","ping":36},{"user_id":135,"name":"Gorgon Freeman","steam_id":76561198000367036,"connected_time":2424000000000,"state":"active","ping":72},{"user_id":114,"name":"xen","steam_id":76561198048568188,"connected_time":3991000000000,"state":"active","ping":47},{"user_id":116,"name":"guac","steam_id":76561198070305720,"connected_time":3981000000000,"state":"active","ping":96}]},{"server_id":14,"name":"Uncletopia | New York City | 2 | All Maps","name_short":"nyc-2","host":"nyc-1.us.uncletopia.com","port":27025,"enabled":true,"region":"us-east","cc":"us","latitude":40.73061,"longitude":-73.93524,"reserved":0,"last_update":"0001-01-01T00:00:00Z","name_a2s":"Uncletopia | New York City | 2 | All Maps","protocol":17,"map":"cp_snakewater_final1","folder":"tf","game":"Team Fortress","app_id":440,"player_count":0,"max_players":24,"Bots":0,"server_type":"Dedicated","server_os":"Linux","password":true,"vac":true,"version":"7882260","steam_id":85568392924469994,"keywords":["cp","nocrits","nodmgspread","uncletopia"],"game_id":440,"stv_port":27026,"stv_name":"Uncletopia | New York City | 2 | All Maps | STV","players":null},{"server_id":15,"name":"Uncletopia | New York City | 3 | Stopwatch Beta","name_short":"nyc-3","host":"nyc-1.us.uncletopia.com","port":27035,"enabled":true,"region":"us-east","cc":"us","latitude":40.73061,"longitude":-73.93524,"reserved":0,"last_update":"0001-01-01T00:00:00Z","name_a2s":"Uncletopia | New York City | 3 | Stopwatch Beta","protocol":17,"map":"koth_lakeside_final","folder":"tf","game":"Team Fortress","app_id":440,"player_count":0,"max_players":24,"Bots":0,"server_type":"Dedicated","server_os":"Linux","password":true,"vac":true,"version":"7882260","steam_id":85568392924742820,"keywords":["cp","nocrits","nodmgspread","uncletopia"],"game_id":440,"stv_port":27036,"stv_name":"Uncletopia | New York City | 3 | Stopwatch Beta | STV","players":null},{"server_id":16,"name":"Uncletopia | New York City | 4 | Community","name_short":"nyc-4","host":"nyc-1.us.uncletopia.com","port":27045,"enabled":true,"region":"us-east","cc":"us","latitude":40.73061,"longitude":-73.93524,"reserved":0,"last_update":"0001-01-01T00:00:00Z","name_a2s":"Uncletopia | New York City | 4 | Community","protocol":17,"map":"workshop/cp_fulgur_rc2a.ugc2068252300","folder":"tf","game":"Team Fortress","app_id":440,"player_count":0,"max_players":24,"Bots":0,"server_type":"Dedicated","server_os":"Linux","password":true,"vac":true,"version":"7882260","steam_id":85568392924742821,"keywords":["cp","nocrits","nodmgspread","uncletopia"],"game_id":440,"stv_port":27046,"stv_name":"Uncletopia | New York City | 4 | Community | STV","players":null},{"server_id":142,"name":"Uncletopia | São Paulo | 1 | All Maps","name_short":"sao-1","host":"sao-1.br.uncletopia.com","port":27015,"enabled":true,"region":"sa","cc":"br","latitude":-23.533773,"longitude":-46.62529,"reserved":0,"last_update":"0001-01-01T00:00:00Z","name_a2s":"Uncletopia | São Paulo | 1 | All Maps","protocol":17,"map":"pl_swiftwater_final1","folder":"tf","game":"Team Fortress","app_id":440,"player_count":0,"max_players":24,"Bots":0,"server_type":"Dedicated","server_os":"Linux","password":true,"vac":true,"version":"7882260","steam_id":85568392924469996,"keywords":["nocrits","nodmgspread","payload","uncletopia"],"game_id":440,"stv_port":27016,"stv_name":"Uncletopia | São Paulo | 1 | All Maps | STV","players":null},{"server_id":143,"name":"Uncletopia | São Paulo | 2 | All Maps","name_short":"sao-2","host":"sao-2.br.uncletopia.com","port":27015,"enabled":true,"region":"sa","cc":"br","latitude":-23.533773,"longitude":-46.62529,"reserved":0,"last_update":"0001-01-01T00:00:00Z","name_a2s":"Uncletopia | São Paulo | 2 | All Maps","protocol":17,"map":"cp_altitude","folder":"tf","game":"Team Fortress","app_id":440,"player_count":0,"max_players":24,"Bots":0,"server_type":"Dedicated","server_os":"Linux","password":true,"vac":true,"version":"7882260","steam_id":85568392924485349,"keywords":["cp","nocrits","nodmgspread","uncletopia"],"game_id":440,"stv_port":27016,"stv_name":"Uncletopia | São Paulo | 2 | All Maps | STV","players":null},{"server_id":7,"name":"Uncletopia | Seattle | 1 | All Maps","name_short":"sea-1","host":"sea-1.us.uncletopia.com","port":27015,"enabled":true,"region":"us-west","cc":"us","latitude":47.608013,"longitude":-122.33517,"reserved":0,"last_update":"0001-01-01T00:00:00Z","name_a2s":"Uncletopia | Seattle | 1 | All Maps","protocol":17,"map":"pl_pier","folder":"tf","game":"Team Fortress","app_id":440,"player_count":24,"max_players":24,"Bots":0,"server_type":"Dedicated","server_os":"Linux","password":true,"vac":true,"version":"7882260","steam_id":85568392924469997,"keywords":["nocrits","nodmgspread","payload","uncletopia"],"game_id":440,"stv_port":27016,"stv_name":"Uncletopia | Seattle | 1 | All Maps | STV","players":[{"user_id":218,"name":"YourFriendJessie #savetf2","steam_id":76561198176883097,"connected_time":574000000000,"state":"active","ping":113},{"user_id":199,"name":"lil Froag","steam_id":76561198072722879,"connected_time":3117000000000,"state":"active","ping":99},{"user_id":219,"name":"kab789","steam_id":76561198069842202,"connected_time":331000000000,"state":"active","ping":114},{"user_id":200,"name":"ORANGE","steam_id":76561198000401769,"connected_time":3112000000000,"state":"active","ping":45},{"user_id":210,"name":"DeadMeme","steam_id":76561198269707793,"connected_time":2067000000000,"state":"active","ping":103},{"user_id":154,"name":"spider_murphy","steam_id":76561198079057101,"connected_time":7337000000000,"state":"active","ping":55},{"user_id":187,"name":"4logan","steam_id":76561198835163155,"connected_time":4715000000000,"state":"active","ping":44},{"user_id":206,"name":"fart","steam_id":76561198206922028,"connected_time":2713000000000,"state":"active","ping":75},{"user_id":194,"name":"INeverFold","steam_id":76561198285482224,"connected_time":3297000000000,"state":"active","ping":98},{"user_id":178,"name":"evilOlive","steam_id":76561198106222025,"connected_time":5255000000000,"state":"active","ping":84},{"user_id":172,"name":"Level 99 Mudcrab","steam_id":76561198077452771,"connected_time":6173000000000,"state":"active","ping":57},{"user_id":160,"name":"Mythical Lag","steam_id":76561198347031281,"connected_time":7214000000000,"state":"active","ping":114},{"user_id":208,"name":"Teddy","steam_id":76561198048106221,"connected_time":2244000000000,"state":"active","ping":60},{"user_id":152,"name":"my monitor is off","steam_id":76561198074499537,"connected_time":7348000000000,"state":"active","ping":73},{"user_id":216,"name":"Good Ol' Hentai","steam_id":76561198242328900,"connected_time":877000000000,"state":"active","ping":130},{"user_id":202,"name":"BluBear","steam_id":76561198068768319,"connected_time":3007000000000,"state":"active","ping":115},{"user_id":203,"name":"Hi I'm Dom","steam_id":76561197977920457,"connected_time":2994000000000,"state":"active","ping":132},{"user_id":204,"name":"DanceBunny","steam_id":76561198243610560,"connected_time":2960000000000,"state":"active","ping":81},{"user_id":212,"name":"Pinky","steam_id":76561198084685841,"connected_time":1741000000000,"state":"active","ping":59},{"user_id":141,"name":"lil uzi vert","steam_id":76561198326466375,"connected_time":8857000000000,"state":"active","ping":88},{"user_id":209,"name":"fw00v","steam_id":76561198129166260,"connected_time":2185000000000,"state":"active","ping":77},{"user_id":191,"name":"HiFivr","steam_id":76561198285190162,"connected_time":4462000000000,"state":"active","ping":62},{"user_id":205,"name":"♥ur :3 medic gf♥ (51ref/hr)","steam_id":76561198816778484,"connected_time":2933000000000,"state":"active","ping":136},{"user_id":213,"name":"Son Goku","steam_id":76561198271939793,"connected_time":1584000000000,"state":"active","ping":49}]},{"server_id":119,"name":"Uncletopia | Seattle | 2 | All Maps","name_short":"sea-2","host":"sea-1.us.uncletopia.com","port":27025,"enabled":true,"region":"us-west","cc":"us","latitude":47.608013,"longitude":-122.33517,"reserved":0,"last_update":"0001-01-01T00:00:00Z","name_a2s":"Uncletopia | Seattle | 2 | All Maps","protocol":17,"map":"cp_altitude","folder":"tf","game":"Team Fortress","app_id":440,"player_count":19,"max_players":24,"Bots":0,"server_type":"Dedicated","server_os":"Linux","password":true,"vac":true,"version":"7882260","steam_id":85568392924469998,"keywords":["cp","nocrits","nodmgspread","uncletopia"],"game_id":440,"stv_port":27026,"stv_name":"Uncletopia | Seattle | 2 | All Maps | STV","players":[{"user_id":145,"name":"Chrisscar","steam_id":76561198086298130,"connected_time":31000000000,"state":"active","ping":69},{"user_id":49,"name":"YouCantSpellNutritionW/OutNUT","steam_id":76561198060588059,"connected_time":5304000000000,"state":"active","ping":87},{"user_id":83,"name":"Ryshy02","steam_id":76561198055425447,"connected_time":3729000000000,"state":"active","ping":87},{"user_id":126,"name":"harrison.avenue","steam_id":76561198037288988,"connected_time":1192000000000,"state":"active","ping":137},{"user_id":121,"name":"Lesbian Futa Mommy","steam_id":76561198130479030,"connected_time":1389000000000,"state":"active","ping":52},{"user_id":143,"name":"Shark Sandwich","steam_id":76561198025007938,"connected_time":232000000000,"state":"active","ping":56},{"user_id":127,"name":"Eosson","steam_id":76561198108642113,"connected_time":1120000000000,"state":"active","ping":59},{"user_id":129,"name":"Jezebel","steam_id":76561198315484462,"connected_time":1004000000000,"state":"active","ping":73},{"user_id":142,"name":"J.G. Klaus","steam_id":76561198001111196,"connected_time":388000000000,"state":"active","ping":88},{"user_id":112,"name":"Limbo","steam_id":76561198028148931,"connected_time":1828000000000,"state":"active","ping":131},{"user_id":140,"name":"Mr Felicio Sexopants","steam_id":76561197970008706,"connected_time":582000000000,"state":"active","ping":70},{"user_id":133,"name":"Homura Simp","steam_id":76561198246080762,"connected_time":888000000000,"state":"active","ping":51},{"user_id":138,"name":"Drakon","steam_id":76561198078210822,"connected_time":663000000000,"state":"active","ping":79},{"user_id":117,"name":"BIG Money Salvia","steam_id":76561198909415646,"connected_time":1548000000000,"state":"active","ping":64},{"user_id":108,"name":"paradise","steam_id":76561198044192429,"connected_time":2065000000000,"state":"active","ping":108},{"user_id":134,"name":"Sleempreem","steam_id":76561198131987251,"connected_time":886000000000,"state":"active","ping":60},{"user_id":120,"name":"dweaver","steam_id":76561198119610135,"connected_time":1451000000000,"state":"active","ping":86},{"user_id":135,"name":"Camaleon","steam_id":76561198041329791,"connected_time":879000000000,"state":"active","ping":64},{"user_id":125,"name":"Ze pyroman","steam_id":76561199137572898,"connected_time":1272000000000,"state":"active","ping":107}]},{"server_id":406,"name":"Uncletopia | Seattle | 3 | Stopwatch Beta","name_short":"sea-3","host":"sea-1.us.uncletopia.com","port":27035,"enabled":true,"region":"us-west","cc":"us","latitude":47.608013,"longitude":-122.33517,"reserved":0,"last_update":"0001-01-01T00:00:00Z","name_a2s":"Uncletopia | Seattle | 3 | Stopwatch Beta","protocol":17,"map":"workshop/pl_summercoast_rc8e.ugc1761528829","folder":"tf","game":"Team Fortress","app_id":440,"player_count":0,"max_players":24,"Bots":0,"server_type":"Dedicated","server_os":"Linux","password":true,"vac":true,"version":"7882260","steam_id":85568392924515217,"keywords":["nocrits","nodmgspread","payload","uncletopia"],"game_id":440,"stv_port":27036,"stv_name":"Uncletopia | Seattle | 3 | Stopwatch Beta | STV","players":null},{"server_id":17,"name":"Uncletopia | San Francisco | 1 | All Maps","name_short":"sfo-1","host":"sfo-1.us.uncletopia.com","port":27015,"enabled":true,"region":"us-west","cc":"us","latitude":37.77397,"longitude":-122.4313,"reserved":0,"last_update":"0001-01-01T00:00:00Z","name_a2s":"Uncletopia | San Francisco | 1 | All Maps","protocol":17,"map":"cp_process_final","folder":"tf","game":"Team Fortress","app_id":440,"player_count":0,"max_players":24,"Bots":0,"server_type":"Dedicated","server_os":"Linux","password":true,"vac":true,"version":"7757534","steam_id":85568392924469999,"keywords":["cp","nocrits","nodmgspread","uncletopia"],"game_id":440,"stv_port":27016,"stv_name":"Uncletopia | San Francisco | 1 | All Maps | STV","players":null},{"server_id":18,"name":"Uncletopia | San Francisco | 2 | All Maps","name_short":"sfo-2","host":"sfo-1.us.uncletopia.com","port":27025,"enabled":true,"region":"us-west","cc":"us","latitude":37.77397,"longitude":-122.4313,"reserved":0,"last_update":"0001-01-01T00:00:00Z","name_a2s":"Uncletopia | San Francisco | 2 | All Maps","protocol":17,"map":"koth_highpass","folder":"tf","game":"Team Fortress","app_id":440,"player_count":0,"max_players":24,"Bots":0,"server_type":"Dedicated","server_os":"Linux","password":true,"vac":true,"version":"7757534","steam_id":85568392924470000,"keywords":["cp","nocrits","nodmgspread","uncletopia"],"game_id":440,"stv_port":27026,"stv_name":"Uncletopia | San Francisco | 2 | All Maps | STV","players":null},{"server_id":19,"name":"Uncletopia | San Francisco | 3 | Stopwatch Beta","name_short":"sfo-3","host":"sfo-1.us.uncletopia.com","port":27035,"enabled":true,"region":"us-west","cc":"us","latitude":37.77397,"longitude":-122.4313,"reserved":0,"last_update":"0001-01-01T00:00:00Z","name_a2s":"Uncletopia | San Francisco | 3 | Stopwatch Beta","protocol":17,"map":"koth_lakeside_final","folder":"tf","game":"Team Fortress","app_id":440,"player_count":0,"max_players":24,"Bots":0,"server_type":"Dedicated","server_os":"Linux","password":true,"vac":true,"version":"7757534","steam_id":85568392924742824,"keywords":["cp","nocrits","nodmgspread","uncletopia"],"game_id":440,"stv_port":27036,"stv_name":"Uncletopia | San Francisco | 3 | Stopwatch Beta | STV","players":null},{"server_id":20,"name":"Uncletopia | San Francisco | 4 | Community","name_short":"sfo-4","host":"sfo-1.us.uncletopia.com","port":27045,"enabled":true,"region":"us-west","cc":"us","latitude":37.77397,"longitude":-122.4313,"reserved":0,"last_update":"0001-01-01T00:00:00Z","name_a2s":"Uncletopia | San Francisco | 4 | Community","protocol":17,"map":"cp_altitude","folder":"tf","game":"Team Fortress","app_id":440,"player_count":0,"max_players":24,"Bots":0,"server_type":"Dedicated","server_os":"Linux","password":true,"vac":true,"version":"7757534","steam_id":85568392924742826,"keywords":["cp","nocrits","nodmgspread","uncletopia"],"game_id":440,"stv_port":27046,"stv_name":"Uncletopia | San Francisco | 4 | Community | STV","players":null},{"server_id":141,"name":"Uncletopia | Sydney | 1 | All Maps","name_short":"syd-1","host":"syd-1.au.uncletopia.com","port":27015,"enabled":true,"region":"au","cc":"au","latitude":-33.865143,"longitude":151.2099,"reserved":0,"last_update":"0001-01-01T00:00:00Z","name_a2s":"Uncletopia | Sydney | 1 | All Maps","protocol":17,"map":"koth_viaduct","folder":"tf","game":"Team Fortress","app_id":440,"player_count":0,"max_players":24,"Bots":0,"server_type":"Dedicated","server_os":"Linux","password":true,"vac":true,"version":"7882260","steam_id":85568392924470001,"keywords":["cp","nocrits","nodmgspread","uncletopia"],"game_id":440,"stv_port":27016,"stv_name":"Uncletopia | Sydney | 1 | All Maps | STV","players":null},{"server_id":123,"name":"Uncletopia | Sydney | 2 | All Maps","name_short":"syd-2","host":"syd-1.au.uncletopia.com","port":27025,"enabled":true,"region":"au","cc":"au","latitude":-33.865143,"longitude":151.2099,"reserved":0,"last_update":"0001-01-01T00:00:00Z","name_a2s":"Uncletopia | Sydney | 2 | All Maps","protocol":17,"map":"cp_mountainlab","folder":"tf","game":"Team Fortress","app_id":440,"player_count":0,"max_players":24,"Bots":0,"server_type":"Dedicated","server_os":"Linux","password":true,"vac":true,"version":"7882260","steam_id":85568392924470002,"keywords":["cp","nocrits","nodmgspread","uncletopia"],"game_id":440,"stv_port":27026,"stv_name":"Uncletopia | Sydney | 2 | All Maps | STV","players":null},{"server_id":395,"name":"Uncletopia | Sydney | 3 | All Maps","name_short":"syd-3","host":"syd-1.au.uncletopia.com","port":27035,"enabled":true,"region":"au","cc":"au","latitude":-33.865143,"longitude":151.2099,"reserved":0,"last_update":"0001-01-01T00:00:00Z","name_a2s":"Uncletopia | Sydney | 3 | All Maps","protocol":17,"map":"koth_highpass","folder":"tf","game":"Team Fortress","app_id":440,"player_count":0,"max_players":24,"Bots":0,"server_type":"Dedicated","server_os":"Linux","password":true,"vac":true,"version":"7882260","steam_id":85568392925194467,"keywords":["cp","nocrits","nodmgspread","uncletopia"],"game_id":440,"stv_port":27036,"stv_name":"Uncletopia | Sydney | 3 | All Maps | STV","players":null},{"server_id":396,"name":"Uncletopia | Sydney | 4 | All Maps","name_short":"syd-4","host":"syd-1.au.uncletopia.com","port":27045,"enabled":true,"region":"au","cc":"au","latitude":-33.865143,"longitude":151.2099,"reserved":0,"last_update":"0001-01-01T00:00:00Z","name_a2s":"Uncletopia | Sydney | 4 | All Maps","protocol":17,"map":"koth_cascade","folder":"tf","game":"Team Fortress","app_id":440,"player_count":0,"max_players":24,"Bots":0,"server_type":"Dedicated","server_os":"Linux","password":true,"vac":true,"version":"7882260","steam_id":85568392925397958,"keywords":["cp","nocrits","nodmgspread","uncletopia"],"game_id":440,"stv_port":27046,"stv_name":"Uncletopia | Sydney | 4 | All Maps | STV","players":null},{"server_id":58,"name":"Uncletopia | Sydney | 5 | Stopwatch Beta","name_short":"syd-5","host":"syd-1.au.uncletopia.com","port":27055,"enabled":true,"region":"au","cc":"au","latitude":-33.865143,"longitude":151.2099,"reserved":0,"last_update":"0001-01-01T00:00:00Z","name_a2s":"Uncletopia | Sydney | 5 | Stopwatch Beta","protocol":17,"map":"koth_lakeside_final","folder":"tf","game":"Team Fortress","app_id":440,"player_count":0,"max_players":24,"Bots":0,"server_type":"Dedicated","server_os":"Linux","password":true,"vac":true,"version":"7882260","steam_id":85568392925397959,"keywords":["cp","nocrits","nodmgspread","uncletopia"],"game_id":440,"stv_port":27056,"stv_name":"Uncletopia | Sydney | 5 | Stopwatch Beta | STV","players":null},{"server_id":59,"name":"Uncletopia | Sydney | 6 | Community","name_short":"syd-6","host":"syd-1.au.uncletopia.com","port":27065,"enabled":true,"region":"au","cc":"au","latitude":-33.865143,"longitude":151.2099,"reserved":0,"last_update":"0001-01-01T00:00:00Z","name_a2s":"Uncletopia | Sydney | 6 | Community","protocol":17,"map":"workshop/rd_asteroid_redux_b1.ugc2154902912","folder":"tf","game":"Team Fortress","app_id":440,"player_count":0,"max_players":24,"Bots":0,"server_type":"Dedicated","server_os":"Linux","password":true,"vac":true,"version":"7882260","steam_id":85568392925397960,"keywords":["beta","nocrits","nodmgspread","rd","uncletopia"],"game_id":440,"stv_port":27066,"stv_name":"Uncletopia | Sydney | 6 | Community | STV","players":null},{"server_id":49,"name":"Uncletopia | Warsaw | 1 | All Maps","name_short":"waw-1","host":"waw-1.pl.uncletopia.com","port":27015,"enabled":true,"region":"eu","cc":"pl","latitude":52.2297,"longitude":21.017532,"reserved":0,"last_update":"0001-01-01T00:00:00Z","name_a2s":"","protocol":0,"map":"","folder":"","game":"","app_id":0,"player_count":0,"max_players":0,"Bots":0,"server_type":"","server_os":"","password":false,"vac":false,"version":"","steam_id":0,"keywords":null,"game_id":0,"stv_port":0,"stv_name":"","players":null},{"server_id":50,"name":"Uncletopia | Warsaw | 2 | All Maps","name_short":"waw-2","host":"waw-1.pl.uncletopia.com","port":27025,"enabled":true,"region":"eu","cc":"pl","latitude":52.2297,"longitude":21.017532,"reserved":0,"last_update":"0001-01-01T00:00:00Z","name_a2s":"Uncletopia | Warsaw | 2 | All Maps","protocol":17,"map":"koth_cascade","folder":"tf","game":"Team Fortress","app_id":440,"player_count":0,"max_players":24,"Bots":0,"server_type":"Dedicated","server_os":"Linux","password":true,"vac":true,"version":"7882260","steam_id":85568392925397851,"keywords":["cp","nocrits","nodmgspread","uncletopia"],"game_id":440,"stv_port":27026,"stv_name":"Uncletopia | Warsaw | 2 | All Maps | STV","players":null},{"server_id":51,"name":"Uncletopia | Warsaw | 3 | All Maps","name_short":"waw-3","host":"waw-1.pl.uncletopia.com","port":27035,"enabled":true,"region":"eu","cc":"pl","latitude":52.2297,"longitude":21.017532,"reserved":0,"last_update":"0001-01-01T00:00:00Z","name_a2s":"Uncletopia | Warsaw | 3 | All Maps","protocol":17,"map":"pl_swiftwater_final1","folder":"tf","game":"Team Fortress","app_id":440,"player_count":16,"max_players":24,"Bots":0,"server_type":"Dedicated","server_os":"Linux","password":true,"vac":true,"version":"7882260","steam_id":85568392925397852,"keywords":["nocrits","nodmgspread","payload","uncletopia"],"game_id":440,"stv_port":27036,"stv_name":"Uncletopia | Warsaw | 3 | All Maps | STV","players":[{"user_id":189,"name":"Augiz","steam_id":76561198332529555,"connected_time":1621000000000,"state":"active","ping":90},{"user_id":196,"name":"Average meme enjoyer","steam_id":76561199087566663,"connected_time":838000000000,"state":"active","ping":66},{"user_id":209,"name":"Cagnus Marlsen","steam_id":76561198077859721,"connected_time":127000000000,"state":"active","ping":75},{"user_id":203,"name":"Ankle Dane","steam_id":76561198134378108,"connected_time":350000000000,"state":"active","ping":92},{"user_id":152,"name":"Риддик","steam_id":76561199019105314,"connected_time":4460000000000,"state":"active","ping":102},{"user_id":208,"name":"Kamanie","steam_id":76561198135448255,"connected_time":234000000000,"state":"active","ping":76},{"user_id":179,"name":"dispenser (vibegoose)","steam_id":76561199065362078,"connected_time":2545000000000,"state":"active","ping":60},{"user_id":194,"name":"kranet №535","steam_id":76561198343910974,"connected_time":1278000000000,"state":"active","ping":90},{"user_id":201,"name":"Storm's Foreshadow","steam_id":76561198098462526,"connected_time":435000000000,"state":"active","ping":52},{"user_id":202,"name":"bro, it's bruh moment","steam_id":76561198830637623,"connected_time":412000000000,"state":"active","ping":119},{"user_id":184,"name":"Cirmicica","steam_id":76561198331970012,"connected_time":2376000000000,"state":"active","ping":75},{"user_id":210,"name":"Uber","steam_id":76561198036528206,"connected_time":64000000000,"state":"spawning","ping":52},{"user_id":162,"name":"znunney","steam_id":76561199438501613,"connected_time":3811000000000,"state":"active","ping":87},{"user_id":178,"name":"EternalChicken (Soldier Gaming)","steam_id":76561199080012040,"connected_time":2579000000000,"state":"active","ping":73},{"user_id":191,"name":"eduardo","steam_id":76561198014491925,"connected_time":1559000000000,"state":"active","ping":53},{"user_id":188,"name":"usia","steam_id":76561198120406679,"connected_time":2053000000000,"state":"active","ping":73}]},{"server_id":52,"name":"Uncletopia | Warsaw | 4 | All Maps","name_short":"waw-4","host":"waw-1.pl.uncletopia.com","port":27045,"enabled":true,"region":"eu","cc":"pl","latitude":52.2297,"longitude":21.017532,"reserved":0,"last_update":"0001-01-01T00:00:00Z","name_a2s":"Uncletopia | Warsaw | 4 | All Maps","protocol":17,"map":"koth_highpass","folder":"tf","game":"Team Fortress","app_id":440,"player_count":0,"max_players":24,"Bots":0,"server_type":"Dedicated","server_os":"Linux","password":true,"vac":true,"version":"7882260","steam_id":85568392925397853,"keywords":["cp","nocrits","nodmgspread","uncletopia"],"game_id":440,"stv_port":27046,"stv_name":"Uncletopia | Warsaw | 4 | All Maps | STV","players":null},{"server_id":53,"name":"Uncletopia | Warsaw | 5 | Stopwatch Beta","name_short":"waw-5","host":"waw-1.pl.uncletopia.com","port":27055,"enabled":true,"region":"eu","cc":"pl","latitude":52.2297,"longitude":21.017532,"reserved":0,"last_update":"0001-01-01T00:00:00Z","name_a2s":"Uncletopia | Warsaw | 5 | Stopwatch Beta","protocol":17,"map":"cp_mountainlab","folder":"tf","game":"Team Fortress","app_id":440,"player_count":0,"max_players":24,"Bots":0,"server_type":"Dedicated","server_os":"Linux","password":true,"vac":true,"version":"7882260","steam_id":85568392925397854,"keywords":["cp","nocrits","nodmgspread","uncletopia"],"game_id":440,"stv_port":27056,"stv_name":"Uncletopia | Warsaw | 5 | Stopwatch Beta | STV","players":null},{"server_id":54,"name":"Uncletopia | Warsaw | 6 | Community","name_short":"waw-6","host":"waw-1.pl.uncletopia.com","port":27065,"enabled":true,"region":"eu","cc":"pl","latitude":52.2297,"longitude":21.017532,"reserved":0,"last_update":"0001-01-01T00:00:00Z","name_a2s":"Uncletopia | Warsaw | 6 | Community","protocol":17,"map":"workshop/cp_indulge.ugc528106646","folder":"tf","game":"Team Fortress","app_id":440,"player_count":0,"max_players":24,"Bots":0,"server_type":"Dedicated","server_os":"Linux","password":true,"vac":true,"version":"7882260","steam_id":85568392925397856,"keywords":["cp","nocrits","nodmgspread","uncletopia"],"game_id":440,"stv_port":27066,"stv_name":"Uncletopia | Warsaw | 6 | Community | STV","players":null}]}