{"status":true,"message":"","result":[{"server_id":9,"name":"Uncletopia | Atlanta | 1 | All Maps","name_short":"atl-1","host":"atl-1.us.uncletopia.com","port":27015,"enabled":true,"region":"us-east","cc":"us","latitude":33.753746,"longitude":-84.38633,"reserved":0,"last_update":"0001-01-01T00:00:00Z","name_a2s":"Uncletopia | Atlanta | 1 | All Maps","protocol":17,"map":"pl_frontier_final","folder":"tf","game":"Team Fortress","app_id":440,"player_count":24,"max_players":24,"Bots":0,"server_type":"Dedicated","server_os":"Linux","password":true,"vac":true,"version":"7961495","steam_id":85568392924469982,"keywords":["nocrits","nodmgspread","payload","uncletopia"],"game_id":440,"stv_port":27016,"stv_name":"Uncletopia | Atlanta | 1 | All Maps | STV","players":null},{"server_id":104,"name":"Uncletopia | Atlanta | 2 | All Maps","name_short":"atl-2","host":"atl-1.us.uncletopia.com","port":27025,"enabled":true,"region":"us-east","cc":"us","latitude":33.753746,"longitude":-84.38633,"reserved":0,"last_update":"0001-01-01T00:00:00Z","name_a2s":"Uncletopia | Atlanta | 2 | All Maps","protocol":17,"map":"pl_upward","folder":"tf","game":"Team Fortress","app_id":440,"player_count":24,"max_players":24,"Bots":0,"server_type":"Dedicated","server_os":"Linux","password":true,"vac":true,"version":"7961495","steam_id":85568392924469983,"keywords":["nocrits","nodmgspread","payload","uncletopia"],"game_id":440,"stv_port":27026,"stv_name":"Uncletopia | Atlanta | 2 | All Maps | STV","players":null},{"server_id":400,"name":"Uncletopia | Atlanta | 3 | All Maps","name_short":"atl-3","host":"atl-1.us.uncletopia.com","port":27035,"enabled":true,"region":"us-east","cc":"us","latitude":33.753746,"longitude":-84.38633,"reserved":0,"last_update":"0001-01-01T00:00:00Z","name_a2s":"Uncletopia | Atlanta | 3 | All Maps","protocol":17,"map":"pl_thundermountain","folder":"tf","game":"Team Fortress","app_id":440,"player_count":24,"max_players":24,"Bots":0,"server_type":"Dedicated","server_os":"Linux","password":true,"vac":true,"version":"7961495","steam_id":85568392924515187,"keywords":["nocrits","nodmgspread","payload","uncletopia"],"game_id":440,"stv_port":27036,"stv_name":"Uncletopia | Atlanta | 3 | All Maps | STV","players":null},{"server_id":401,"name":"Uncletopia | Atlanta | 4 | Community","name_short":"atl-4","host":"atl-1.us.uncletopia.com","port":27045,"enabled":true,"region":"us-east","cc":"us","latitude":33.753746,"longitude":-84.38633,"reserved":0,"last_update":"0001-01-01T00:00:00Z","name_a2s":"Uncletopia | Atlanta | 4 | Community","protocol":17,"map":"rd_asteroid_redux_b1","folder":"tf","game":"Team Fortress","app_id":440,"player_count":0,"max_players":24,"Bots":0,"server_type":"Dedicated","server_os":"Linux","password":true,"vac":true,"version":"7961495","steam_id":85568392924515188,"keywords":["beta","nocrits","nodmgspread","rd","uncletopia"],"game_id":440,"stv_port":27046,"stv_name":"Uncletopia | Atlanta | 4 | Community | STV","players":null},{"server_id":2,"name":"Uncletopia | Chicago | 1 | All Maps","name_short":"chi-1","host":"chi-1.us.uncletopia.com","port":27015,"enabled":true,"region":"us-central","cc":"us","latitude":41.881832,"longitude":-87.62318,"reserved":0,"last_update":"0001-01-01T00:00:00Z","name_a2s":"Uncletopia | Chicago | 1 | All Maps","protocol":17,"map":"cp_coldfront","folder":"tf","game":"Team Fortress","app_id":440,"player_count":24,"max_players":24,"Bots":0,"server_type":"Dedicated","server_os":"Linux","password":true,"vac":true,"version":"7961495","steam_id":85568392924469984,"keywords":["cp","nocrits","nodmgspread","uncletopia"],"game_id":440,"stv_port":27016,"stv_name":"Uncletopia | Chicago | 1 | All Maps | STV","players":[{"user_id":714,"name":"Snom","steam_id":76561198333827920,"connected_time":1852000000000,"state":"active","ping":96},{"user_id":703,"name":"Kattnesta","steam_id":76561198210927551,"connected_time":2332000000000,"state":"active","ping":51},{"user_id":687,"name":"Tito","steam_id":76561198041702529,"connected_time":4028000000000,"state":"active","ping":84},{"user_id":695,"name":"Peppino","steam_id":76561198189176634,"connected_time":3645000000000,"state":"active","ping":101},{"user_id":720,"name":"toastman","steam_id":76561198207073088,"connected_time":1164000000000,"state":"active","ping":87},{"user_id":729,"name":"Coffeemelon","steam_id":76561198285891257,"connected_time":884000000000,"state":"active","ping":110},{"user_id":713,"name":"Bee","steam_id":76561198074681324,"connected_time":1899000000000,"state":"active","ping":62},{"user_id":716,"name":"Odd Life","steam_id":76561198244979998,"connected_time":1672000000000,"state":"active","ping":108},{"user_id":710,"name":"I'M LOOKING AT GAY PORNO","steam_id":76561198002105259,"connected_time":2075000000000,"state":"active","ping":62},{"user_id":728,"name":"zapphique","steam_id":76561198083575802,"connected_time":1009000000000,"state":"active","ping":75},{"user_id":725,"name":"Aristotle Voulton","steam_id":76561198100174923,"connected_time":1141000000000,"state":"active","ping":85},{"user_id":704,"name":"Gustavo","steam_id":76561198190288063,"connected_time":2316000000000,"state":"active","ping":97},{"user_id":730,"name":"Raccoon Wizard","steam_id":76561198072562591,"connected_time":396000000000,"state":"active","ping":81},{"user_id":708,"name":"Dick Grimes","steam_id":76561198157414556,"connected_time":2155000000000,"state":"active","ping":83},{"user_id":732,"name":"jailbreak","steam_id":76561198802085218,"connected_time":67000000000,"state":"active","ping":76},{"user_id":694,"name":"Aster","steam_id":76561198037920420,"connected_time":3711000000000,"state":"active","ping":73},{"user_id":700,"name":"Thy Stupid Rat","steam_id":76561198272075712,"connected_time":2821000000000,"state":"active","ping":78},{"user_id":697,"name":"k8o","steam_id":76561198042481882,"connected_time":3537000000000,"state":"active","ping":53},{"user_id":717,"name":"Kero","steam_id":76561198343231436,"connected_time":1560000000000,"state":"active","ping":60},{"user_id":724,"name":"Nightmare","steam_id":76561198409907417,"connected_time":1141000000000,"state":"active","ping":105},{"user_id":705,"name":"BigNugs","steam_id":76561198056402610,"connected_time":2225000000000,"state":"active","ping":72},{"user_id":576,"name":"Praise_to_the_Flashlight!","steam_id":76561199001728789,"connected_time":12212000000000,"state":"active","ping":64},{"user_id":726,"name":"Ike Yard","steam_id":76561197998954523,"connected_time":1111000000000,"state":"active","ping":67},{"user_id":632,"name":"Mank","steam_id":76561198189421005,"connected_time":7398000000000,"state":"active","ping":45}]},{"server_id":106,"name":"Uncletopia | Chicago | 2 | All Maps","name_short":"chi-2","host":"chi-1.us.uncletopia.com","port":27025,"enabled":true,"region":"us-central","cc":"us","latitude":41.881832,"longitude":-87.62318,"reserved":0,"last_update":"0001-01-01T00:00:00Z","name_a2s":"Uncletopia | Chicago | 2 | All Maps","protocol":17,"map":"pl_snowycoast","folder":"tf","game":"Team Fortress","app_id":440,"player_count":24,"max_players":24,"Bots":0,"server_type":"Dedicated","server_os":"Linux","password":true,"vac":true,"version":"7961495","steam_id":85568392924469985,"keywords":["nocrits","nodmgspread","payload","uncletopia"],"game_id":440,"stv_port":27026,"stv_name":"Uncletopia | Chicago | 2 | All Maps | STV","players":[{"user_id":863,"name":"Mr. Soupman","steam_id":76561198021649598,"connected_time":46000000000,"state":"active","ping":70},{"user_id":808,"name":"Mufalito","steam_id":76561198951889482,"connected_time":6564000000000,"state":"active","ping":136},{"user_id":813,"name":"bojack from the show bojack hor","steam_id":76561198053006712,"connected_time":5625000000000,"state":"active","ping":58},{"user_id":862,"name":"scoshar","steam_id":76561198056769956,"connected_time":237000000000,"state":"active","ping":115},{"user_id":851,"name":"xXx_Eg0_d3aTh_419_xXx (ironic)","steam_id":76561198077551754,"connected_time":1179000000000,"state":"active","ping":85},{"user_id":830,"name":"Flowers","steam_id":76561198031669899,"connected_time":3792000000000,"state":"active","ping":77},{"user_id":855,"name":"Zesty Zucchini Ziti","steam_id":76561198092494136,"connected_time":1095000000000,"state":"active","ping":60},{"user_id":795,"name":"I Cast Spells on the Pussy","steam_id":76561198087532369,"connected_time":8258000000000,"state":"active","ping":72},{"user_id":770,"name":"scarybroccoli","steam_id":76561198296440084,"connected_time":9982000000000,"state":"active","ping":73},{"user_id":848,"name":"Professor","steam_id":76561198097038169,"connected_time":1504000000000,"state":"active","ping":61},{"user_id":845,"name":"Cats and Beans","steam_id":76561198068518036,"connected_time":1562000000000,"state":"active","ping":95},{"user_id":844,"name":"Burger Bazooker","steam_id":76561199122315920,"connected_time":1626000000000,"state":"active","ping":58},{"user_id":860,"name":"rice white","steam_id":76561198320732910,"connected_time":904000000000,"state":"active","ping":72},{"user_id":806,"name":"zpalmtree","steam_id":76561198134307620,"connected_time":7174000000000,"state":"active","ping":75},{"user_id":832,"name":"AJTarcza","steam_id":76561198070800190,"connected_time":3610000000000,"state":"active","ping":76},{"user_id":843,"name":"[F2P] Noob Medic [CAN'T TALK]","steam_id":76561198207987376,"connected_time":1975000000000,"state":"active","ping":51},{"user_id":812,"name":"Am I Good At The Video Game?","steam_id":76561198046053281,"connected_time":5652000000000,"state":"active","ping":66},{"user_id":826,"name":"QueeQuey","steam_id":76561198117204064,"connected_time":3873000000000,"state":"active","ping":47},{"user_id":836,"name":"MedRed™ #IATAH","steam_id":76561198002962970,"connected_time":2997000000000,"state":"active","ping":102},{"user_id":823,"name":"hej","steam_id":76561197996366940,"connected_time":3919000000000,"state":"active","ping":60},{"user_id":854,"name":"Waffles The Cat","steam_id":76561197993926065,"connected_time":1131000000000,"state":"active","ping":82},{"user_id":853,"name":"Nebe0","steam_id":76561199133770186,"connected_time":1154000000000,"state":"active","ping":74},{"user_id":833,"name":"Swash","steam_id":76561197969421355,"connected_time":3390000000000,"state":"active","ping":75},{"user_id":858,"name":"Vogelkop","steam_id":76561198176379705,"connected_time":1068000000000,"state":"active","ping":91}]},{"server_id":402,"name":"Uncletopia | Chicago | 3 | All Maps","name_short":"chi-3","host":"chi-1.us.uncletopia.com","port":27035,"enabled":true,"region":"us-central","cc":"us","latitude":41.881832,"longitude":-87.62318,"reserved":0,"last_update":"0001-01-01T00:00:00Z","name_a2s":"Uncletopia | Chicago | 3 | All Maps","protocol":17,"map":"pl_badwater","folder":"tf","game":"Team Fortress","app_id":440,"player_count":24,"max_players":24,"Bots":0,"server_type":"Dedicated","server_os":"Linux","password":true,"vac":true,"version":"7961495","steam_id":85568392924515191,"keywords":["nocrits","nodmgspread","payload","uncletopia"],"game_id":440,"stv_port":27036,"stv_name":"Uncletopia | Chicago | 3 | All Maps | STV","players":[{"user_id":392,"name":"Amish Supremacist","steam_id":76561198396181197,"connected_time":222000000000,"state":"active","ping":80},{"user_id":344,"name":"Lord TriM","steam_id":76561198048332533,"connected_time":3926000000000,"state":"active","ping":58},{"user_id":377,"name":"eat your fish supper","steam_id":76561198154459274,"connected_time":1057000000000,"state":"active","ping":61},{"user_id":394,"name":"(pro) semitic ye","steam_id":76561198068830312,"connected_time":53000000000,"state":"active","ping":50},{"user_id":370,"name":"ShadowDragon0125","steam_id":76561198343849022,"connected_time":1756000000000,"state":"active","ping":70},{"user_id":328,"name":"bare","steam_id":76561198046624654,"connected_time":4535000000000,"state":"active","ping":74},{"user_id":360,"name":"drrockso20[MicS]","steam_id":76561198001003987,"connected_time":2985000000000,"state":"active","ping":102},{"user_id":374,"name":"M","steam_id":76561198017539604,"connected_time":1156000000000,"state":"active","ping":63},{"user_id":378,"name":"They could be ********","steam_id":76561198441020995,"connected_time":948000000000,"state":"active","ping":84},{"user_id":355,"name":"thixon","steam_id":76561198046655575,"connected_time":3437000000000,"state":"active","ping":64},{"user_id":348,"name":"looloopaa","steam_id":76561198048179242,"connected_time":3660000000000,"state":"active","ping":56},{"user_id":379,"name":"Killerfish360","steam_id":76561198115029584,"connected_time":937000000000,"state":"active","ping":96},{"user_id":380,"name":"Cliffigriff","steam_id":76561198121924499,"connected_time":898000000000,"state":"active","ping":88},{"user_id":375,"name":"Fraglin","steam_id":76561198124964000,"connected_time":1122000000000,"state":"active","ping":73},{"user_id":391,"name":"tomandjerry085","steam_id":76561198800789071,"connected_time":241000000000,"state":"active","ping":104},{"user_id":383,"name":"NerdyEnforcement","steam_id":76561198437710820,"connected_time":858000000000,"state":"active","ping":68},{"user_id":349,"name":"Cyrano","steam_id":76561198043669706,"connected_time":3502000000000,"state":"active","ping":66},{"user_id":395,"name":"feliser","steam_id":76561198084336096,"connected_time":28000000000,"state":"active","ping":53},{"user_id":385,"name":"JavaScript Frappuccino","steam_id":76561198111620153,"connected_time":843000000000,"state":"active","ping":85},{"user_id":362,"name":"OlympicChamp_12","steam_id":76561198830574526,"connected_time":2387000000000,"state":"active","ping":123},{"user_id":393,"name":"Muffin","steam_id":76561198050715053,"connected_time":72000000000,"state":"active","ping":78},{"user_id":390,"name":"basket","steam_id":76561199486768009,"connected_time":733000000000,"state":"active","ping":99},{"user_id":388,"name":"newport menthol 100s CEO","steam_id":76561198050976060,"connected_time":792000000000,"state":"active","ping":45},{"user_id":313,"name":"Nivi!","steam_id":76561198097857418,"connected_time":5700000000000,"state":"active","ping":90}]},{"server_id":403,"name":"Uncletopia | Chicago | 4 | All Maps","name_short":"chi-4","host":"chi-1.us.uncletopia.com","port":27045,"enabled":true,"region":"us-central","cc":"us","latitude":41.881832,"longitude":-87.62318,"reserved":0,"last_update":"0001-01-01T00:00:00Z","name_a2s":"Uncletopia | Chicago | 4 | All Maps","protocol":17,"map":"pl_hoodoo_final","folder":"tf","game":"Team Fortress","app_id":440,"player_count":24,"max_players":24,"Bots":0,"server_type":"Dedicated","server_os":"Linux","password":true,"vac":true,"version":"7961495","steam_id":85568392924515193,"keywords":["nocrits","nodmgspread","payload","uncletopia"],"game_id":440,"stv_port":27046,"stv_name":"Uncletopia | Chicago | 4 | All Maps | STV","players":[{"user_id":257,"name":"AutoCon17","steam_id":76561198209977473,"connected_time":2514000000000,"state":"active","ping":40},{"user_id":300,"name":"Malex","steam_id":76561198012216805,"connected_time":111000000000,"state":"active","ping":59},{"user_id":296,"name":"smooth brain","steam_id":76561198049253541,"connected_time":146000000000,"state":"active","ping":65},{"user_id":267,"name":"Grand Piano Tuna","steam_id":76561198135137213,"connected_time":2233000000000,"state":"active","ping":56},{"user_id":286,"name":"DarkSpace","steam_id":76561198884668517,"connected_time":1218000000000,"state":"active","ping":103},{"user_id":264,"name":"feudalism (real)","steam_id":76561198057374871,"connected_time":2305000000000,"state":"active","ping":60},{"user_id":259,"name":"only a spoonful","steam_id":76561198113180616,"connected_time":2486000000000,"state":"active","ping":67},{"user_id":297,"name":"ryqset","steam_id":76561198349299874,"connected_time":139000000000,"state":"active","ping":96},{"user_id":279,"name":"No Chance of Pearly Gates","steam_id":76561198042570322,"connected_time":2061000000000,"state":"active","ping":52},{"user_id":269,"name":"uheggwhite","steam_id":76561199199795741,"connected_time":2220000000000,"state":"active","ping":83},{"user_id":249,"name":"Walkiing","steam_id":76561198074473413,"connected_time":3616000000000,"state":"active","ping":34},{"user_id":233,"name":"ya sabes quien","steam_id":76561197996713526,"connected_time":4131000000000,"state":"active","ping":97},{"user_id":281,"name":"Pizza","steam_id":76561198118748364,"connected_time":1961000000000,"state":"active","ping":75},{"user_id":295,"name":"Mitchu The Bidness Man","steam_id":76561198102494381,"connected_time":162000000000,"state":"active","ping":60},{"user_id":251,"name":"4 life","steam_id":76561198175961598,"connected_time":3145000000000,"state":"active","ping":108},{"user_id":298,"name":"black ops 2 hank hill trolling","steam_id":76561198095313463,"connected_time":132000000000,"state":"active","ping":58},{"user_id":242,"name":"Scrumpy Main","steam_id":76561198146302597,"connected_time":4011000000000,"state":"active","ping":49},{"user_id":299,"name":"genset90","steam_id":76561199025671520,"connected_time":130000000000,"state":"active","ping":85},{"user_id":307,"name":"Robin","steam_id":76561198121165149,"connected_time":47000000000,"state":"active","ping":44},{"user_id":301,"name":"Extro","steam_id":76561198178908694,"connected_time":105000000000,"state":"active","ping":55},{"user_id":302,"name":"havarti gaming","steam_id":76561198069895678,"connected_time":94000000000,"state":"active","ping":141},{"user_id":291,"name":"brrr","steam_id":76561197968436606,"connected_time":473000000000,"state":"active","ping":73},{"user_id":303,"name":"handsome toby","steam_id":76561198056059261,"connected_time":92000000000,"state":"active","ping":74},{"user_id":304,"name":"The Killer","steam_id":76561198313536233,"connected_time":78000000000,"state":"active","ping":87}]},{"server_id":36,"name":"Uncletopia | Chicago | 5 | All Maps","name_short":"chi-5","host":"chi-2.us.uncletopia.com","port":27015,"enabled":true,"region":"us-central","cc":"us","latitude":41.881832,"longitude":-87.62318,"reserved":0,"last_update":"0001-01-01T00:00:00Z","name_a2s":"Uncletopia | Chicago | 5 | All Maps","protocol":17,"map":"pl_upward","folder":"tf","game":"Team Fortress","app_id":440,"player_count":24,"max_players":24,"Bots":0,"server_type":"Dedicated","server_os":"Linux","password":true,"vac":true,"version":"7961495","steam_id":85568392924866362,"keywords":["nocrits","nodmgspread","payload","uncletopia"],"game_id":440,"stv_port":27016,"stv_name":"Uncletopia | Chicago | 5 | All Maps | STV","players":[{"user_id":665,"name":"King (real)","steam_id":76561199086357213,"connected_time":1703000000000,"state":"active","ping":80},{"user_id":675,"name":"black","steam_id":76561198847749278,"connected_time":914000000000,"state":"active","ping":71},{"user_id":680,"name":"Steve (from Minecraft)","steam_id":76561198232026076,"connected_time":382000000000,"state":"active","ping":60},{"user_id":667,"name":"Emoji Movie 2","steam_id":76561198043774928,"connected_time":1625000000000,"state":"active","ping":71},{"user_id":679,"name":"goopgrabber","steam_id":76561199029951083,"connected_time":388000000000,"state":"active","ping":97},{"user_id":602,"name":"bottleknight tf2","steam_id":76561198398918486,"connected_time":7783000000000,"state":"active","ping":69},{"user_id":670,"name":"GreekGoat_Coffee","steam_id":76561198129331088,"connected_time":1071000000000,"state":"active","ping":46},{"user_id":681,"name":"Snoopy","steam_id":76561198273735974,"connected_time":329000000000,"state":"active","ping":91},{"user_id":628,"name":"jubanya","steam_id":76561198830921046,"connected_time":5356000000000,"state":"active","ping":67},{"user_id":676,"name":"Swampi(:","steam_id":76561199221072495,"connected_time":906000000000,"state":"active","ping":102},{"user_id":672,"name":"Capt.Swag","steam_id":76561198088340994,"connected_time":990000000000,"state":"active","ping":79},{"user_id":677,"name":"werecat","steam_id":76561198005091213,"connected_time":838000000000,"state":"active","ping":59},{"user_id":649,"name":"evilclownattack","steam_id":76561198001627114,"connected_time":3815000000000,"state":"active","ping":75},{"user_id":611,"name":"Mini-Stalin","steam_id":76561198384513180,"connected_time":6908000000000,"state":"active","ping":117},{"user_id":664,"name":"*Gage*","steam_id":76561197975233869,"connected_time":1759000000000,"state":"active","ping":83},{"user_id":640,"name":"s71nk3y","steam_id":76561198060954715,"connected_time":4082000000000,"state":"active","ping":83},{"user_id":659,"name":"tin.seal","steam_id":76561199120227184,"connected_time":1804000000000,"state":"active","ping":113},{"user_id":654,"name":"Lucon","steam_id":76561198067147724,"connected_time":2939000000000,"state":"active","ping":57},{"user_id":656,"name":":3","steam_id":76561198120772700,"connected_time":2798000000000,"state":"active","ping":99},{"user_id":678,"name":"Bheem","steam_id":76561198170453459,"connected_time":817000000000,"state":"active","ping":89},{"user_id":668,"name":"vaurien13","steam_id":76561198088553270,"connected_time":1495000000000,"state":"active","ping":102},{"user_id":683,"name":"[chef] iron","steam_id":76561197970888616,"connected_time":317000000000,"state":"active","ping":48},{"user_id":652,"name":"sensitize","steam_id":76561198350134869,"connected_time":3096000000000,"state":"active","ping":60},{"user_id":647,"name":"Fiendish Frog","steam_id":76561198029478821,"connected_time":3922000000000,"state":"active","ping":73}]},{"server_id":37,"name":"Uncletopia | Chicago | 6 | All Maps","name_short":"chi-6","host":"chi-2.us.uncletopia.com","port":27025,"enabled":true,"region":"us-central","cc":"us","latitude":41.881832,"longitude":-87.62318,"reserved":0,"last_update":"0001-01-01T00:00:00Z","name_a2s":"Uncletopia | Chicago | 6 | All Maps","protocol":17,"map":"pl_barnblitz","folder":"tf","game":"Team Fortress","app_id":440,"player_count":22,"max_players":24,"Bots":0,"server_type":"Dedicated","server_os":"Linux","password":true,"vac":true,"version":"7961495","steam_id":85568392924866363,"keywords":["nocrits","nodmgspread","payload","uncletopia"],"game_id":440,"stv_port":27026,"stv_name":"Uncletopia | Chicago | 6 | All Maps | STV","players":[{"user_id":734,"name":"dunky donut","steam_id":76561198070574618,"connected_time":1000000000,"state":"spawning","ping":40},{"user_id":721,"name":"Elon Tusk","steam_id":76561198977359400,"connected_time":1323000000000,"state":"spawning","ping":63},{"user_id":732,"name":"quacked!","steam_id":76561198970819395,"connected_time":14000000000,"state":"spawning","ping":362},{"user_id":654,"name":"HOW2TAKEASHIT@ABITCHCRIB","steam_id":76561198144766439,"connected_time":5194000000000,"state":"active","ping":217},{"user_id":730,"name":"dunk","steam_id":76561198132476501,"connected_time":44000000000,"state":"connecting","ping":50},{"user_id":733,"name":"Wiggle Wiggle","steam_id":76561199053447896,"connected_time":9000000000,"state":"spawning","ping":79},{"user_id":710,"name":"gorf?","steam_id":76561198142286417,"connected_time":1980000000000,"state":"active","ping":70},{"user_id":712,"name":"SuperNovaFox","steam_id":76561198052172564,"connected_time":1953000000000,"state":"spawning","ping":222},{"user_id":717,"name":"wunkem","steam_id":76561198055948497,"connected_time":1620000000000,"state":"active","ping":155},{"user_id":667,"name":"t","steam_id":76561198175988929,"connected_time":3921000000000,"state":"spawning","ping":61},{"user_id":729,"name":"Monty","steam_id":76561197993567253,"connected_time":446000000000,"state":"active","ping":177},{"user_id":668,"name":"Deliqene","steam_id":76561198227901308,"connected_time":3908000000000,"state":"spawning","ping":65},{"user_id":680,"name":"[MRY] Sk-iLite","steam_id":76561198041797350,"connected_time":3105000000000,"state":"spawning","ping":166},{"user_id":735,"name":"Flutters__","steam_id":76561198087647754,"connected_time":0,"state":"connecting","ping":0},{"user_id":648,"name":"Jeremy Lin in 2012","steam_id":76561198136642793,"connected_time":6230000000000,"state":"spawning","ping":167},{"user_id":670,"name":"Wolfie","steam_id":76561198971938881,"connected_time":3888000000000,"state":"spawning","ping":421},{"user_id":703,"name":"The_atom_bomb","steam_id":76561198139944683,"connected_time":2548000000000,"state":"spawning","ping":55},{"user_id":728,"name":"xXConManABQXx","steam_id":76561198875469297,"connected_time":563000000000,"state":"active","ping":60},{"user_id":711,"name":"eve","steam_id":76561198796536072,"connected_time":1958000000000,"state":"spawning","ping":55},{"user_id":724,"name":"The_Tax_Man","steam_id":76561198205246144,"connected_time":1310000000000,"state":"active","ping":128},{"user_id":704,"name":"GruntRule","steam_id":76561198039987143,"connected_time":2465000000000,"state":"active","ping":238},{"user_id":720,"name":"Mcdiddle","steam_id":76561198025390097,"connected_time":1474000000000,"state":"active","ping":121}]},{"server_id":38,"name":"Uncletopia | Chicago | 7 | Stopwatch Beta","name_short":"chi-7","host":"chi-2.us.uncletopia.com","port":27035,"enabled":true,"region":"us-central","cc":"us","latitude":41.881832,"longitude":-87.62318,"reserved":0,"last_update":"0001-01-01T00:00:00Z","name_a2s":"Uncletopia | Chicago | 7 | Stopwatch Beta","protocol":17,"map":"pl_badwater","folder":"tf","game":"Team Fortress","app_id":440,"player_count":0,"max_players":24,"Bots":0,"server_type":"Dedicated","server_os":"Linux","password":true,"vac":true,"version":"7961495","steam_id":85568392924866364,"keywords":["nocrits","nodmgspread","payload","uncletopia"],"game_id":440,"stv_port":27036,"stv_name":"Uncletopia | Chicago | 7 | Stopwatch Beta | STV","players":null},{"server_id":39,"name":"Uncletopia | Chicago | 8 | Community","name_short":"chi-8","host":"chi-2.us.uncletopia.com","port":27045,"enabled":true,"region":"us-central","cc":"us","latitude":41.881832,"longitude":-87.62318,"reserved":0,"last_update":"0001-01-01T00:00:00Z","name_a2s":"Uncletopia | Chicago | 8 | Community","protocol":17,"map":"workshop/cp_bruhstbowl_b6.ugc2878604990","folder":"tf","game":"Team Fortress","app_id":440,"player_count":24,"max_players":24,"Bots":0,"server_type":"Dedicated","server_os":"Linux","password":true,"vac":true,"version":"7961495","steam_id":85568392924866365,"keywords":["cp","nocrits","nodmgspread","uncletopia"],"game_id":440,"stv_port":27046,"stv_name":"Uncletopia | Chicago | 8 | Community | STV","players":[{"user_id":653,"name":"menk3","steam_id":76561198120888597,"connected_time":2011000000000,"state":"active","ping":75},{"user_id":635,"name":"frank","steam_id":76561198137777483,"connected_time":3267000000000,"state":"active","ping":70},{"user_id":609,"name":"mr_random_mr","steam_id":76561199485678347,"connected_time":5282000000000,"state":"active","ping":55},{"user_id":667,"name":"starkiller_141","steam_id":76561198162426849,"connected_time":838000000000,"state":"active","ping":54},{"user_id":576,"name":"RexCreeper456","steam_id":76561199319578396,"connected_time":7730000000000,"state":"active","ping":65},{"user_id":656,"name":"kalsamir","steam_id":76561198120634061,"connected_time":1950000000000,"state":"active","ping":64},{"user_id":650,"name":"Steev Stanman","steam_id":76561198048417796,"connected_time":2244000000000,"state":"active","ping":45},{"user_id":668,"name":"vanta","steam_id":76561198084317504,"connected_time":818000000000,"state":"active","ping":46},{"user_id":644,"name":"ImmortalProphet","steam_id":76561198012352477,"connected_time":2725000000000,"state":"active","ping":44},{"user_id":670,"name":"SS. ODDLOG","steam_id":76561198397624578,"connected_time":661000000000,"state":"active","ping":50},{"user_id":671,"name":"MALWARE9000","steam_id":76561198065238093,"connected_time":619000000000,"state":"active","ping":79},{"user_id":640,"name":"Nivet Fox","steam_id":76561198135362867,"connected_time":3075000000000,"state":"active","ping":47},{"user_id":629,"name":"ROGUE-PLANET","steam_id":76561198116023052,"connected_time":3802000000000,"state":"active","ping":70},{"user_id":672,"name":"SS. Skeptical","steam_id":76561198038261789,"connected_time":614000000000,"state":"active","ping":101},{"user_id":652,"name":"OWEENIE","steam_id":76561198083135927,"connected_time":2159000000000,"state":"active","ping":53},{"user_id":660,"name":"Nordie","steam_id":76561198102297774,"connected_time":1918000000000,"state":"active","ping":61},{"user_id":676,"name":"TheGreenBullet","steam_id":76561199218310346,"connected_time":293000000000,"state":"active","ping":89},{"user_id":659,"name":"Random Person","steam_id":76561198990531385,"connected_time":1923000000000,"state":"active","ping":79},{"user_id":674,"name":"Ike","steam_id":76561198136182766,"connected_time":506000000000,"state":"active","ping":89},{"user_id":572,"name":"Fatpoob","steam_id":76561198056730096,"connected_time":7930000000000,"state":"active","ping":76},{"user_id":677,"name":"OneTrueCorvid","steam_id":76561199012953221,"connected_time":177000000000,"state":"active","ping":81},{"user_id":678,"name":"slicc","steam_id":76561198297514076,"connected_time":157000000000,"state":"active","ping":74},{"user_id":618,"name":"TheGrassMan (He/Him)","steam_id":76561198118984048,"connected_time":4868000000000,"state":"active","ping":59},{"user_id":666,"name":"Gamin' Cobra","steam_id":76561199069582026,"connected_time":1096000000000,"state":"active","ping":75}]},{"server_id":8,"name":"Uncletopia | Dallas | 1 | All Maps","name_short":"dal-1","host":"dal-1.us.uncletopia.com","port":27015,"enabled":true,"region":"us-central","cc":"us","latitude":32.779167,"longitude":-96.80889,"reserved":0,"last_update":"0001-01-01T00:00:00Z","name_a2s":"Uncletopia | Dallas | 1 | All Maps","protocol":17,"map":"pl_snowycoast","folder":"tf","game":"Team Fortress","app_id":440,"player_count":24,"max_players":24,"Bots":0,"server_type":"Dedicated","server_os":"Linux","password":true,"vac":true,"version":"7961495","steam_id":85568392924469986,"keywords":["nocrits","nodmgspread","payload","uncletopia"],"game_id":440,"stv_port":27016,"stv_name":"Uncletopia | Dallas | 1 | All Maps | STV","players":[{"user_id":763,"name":"Soup","steam_id":76561198448801117,"connected_time":1882000000000,"state":"active","ping":71},{"user_id":782,"name":"Gwando","steam_id":76561198294629124,"connected_time":351000000000,"state":"active","ping":45},{"user_id":777,"name":"Drilly22","steam_id":76561198068838338,"connected_time":957000000000,"state":"active","ping":68},{"user_id":744,"name":"leesh","steam_id":76561198079603938,"connected_time":3492000000000,"state":"active","ping":61},{"user_id":732,"name":"Sup m8","steam_id":76561198081659121,"connected_time":4598000000000,"state":"active","ping":39},{"user_id":764,"name":"Pizza Party","steam_id":76561198165730754,"connected_time":1861000000000,"state":"active","ping":99},{"user_id":787,"name":"fish fingers","steam_id":76561199078516567,"connected_time":264000000000,"state":"active","ping":106},{"user_id":723,"name":"Wood Crow","steam_id":76561198046802071,"connected_time":5835000000000,"state":"active","ping":54},{"user_id":768,"name":"KevilPo","steam_id":76561199244507267,"connected_time":1742000000000,"state":"active","ping":94},{"user_id":761,"name":"cc","steam_id":76561199215821942,"connected_time":2226000000000,"state":"active","ping":47},{"user_id":736,"name":"Ballista","steam_id":76561197983182562,"connected_time":4168000000000,"state":"active","ping":52},{"user_id":747,"name":"Wang of Wall St","steam_id":76561198047460598,"connected_time":3469000000000,"state":"active","ping":99},{"user_id":784,"name":"Nuke Dukem","steam_id":76561198214263107,"connected_time":342000000000,"state":"active","ping":87},{"user_id":766,"name":"Wingsaber","steam_id":76561198045010390,"connected_time":1847000000000,"state":"active","ping":90},{"user_id":749,"name":"hammythegreat #SaveTF2","steam_id":76561198079526946,"connected_time":3383000000000,"state":"active","ping":96},{"user_id":781,"name":"KnawledgeDealer","steam_id":76561198834599269,"connected_time":392000000000,"state":"active","ping":72},{"user_id":769,"name":"ooidial","steam_id":76561199086221916,"connected_time":1526000000000,"state":"active","ping":93},{"user_id":778,"name":"Transgender Spider Priestess","steam_id":76561198111286397,"connected_time":814000000000,"state":"active","ping":101},{"user_id":780,"name":"JtsRes","steam_id":76561197994809241,"connected_time":652000000000,"state":"active","ping":61},{"user_id":752,"name":"your local forecast","steam_id":76561198042243083,"connected_time":3363000000000,"state":"active","ping":76},{"user_id":785,"name":"chanoc","steam_id":76561198026734746,"connected_time":338000000000,"state":"active","ping":90},{"user_id":767,"name":"A Can of AriZona Green Tea","steam_id":76561198062481133,"connected_time":1816000000000,"state":"active","ping":77},{"user_id":786,"name":"I am NOT a Spy","steam_id":76561199153596010,"connected_time":330000000000,"state":"active","ping":121},{"user_id":756,"name":"Ryzema","steam_id":76561198165594229,"connected_time":3214000000000,"state":"active","ping":88}]},{"server_id":108,"name":"Uncletopia | Dallas | 2 | All Maps","name_short":"dal-2","host":"dal-1.us.uncletopia.com","port":27025,"enabled":true,"region":"us-central","cc":"us","latitude":32.779167,"longitude":-96.80889,"reserved":0,"last_update":"0001-01-01T00:00:00Z","name_a2s":"Uncletopia | Dallas | 2 | All Maps","protocol":17,"map":"pl_pier","folder":"tf","game":"Team Fortress","app_id":440,"player_count":24,"max_players":24,"Bots":0,"server_type":"Dedicated","server_os":"Linux","password":true,"vac":true,"version":"7961495","steam_id":85568392924469988,"keywords":["nocrits","nodmgspread","payload","uncletopia"],"game_id":440,"stv_port":27026,"stv_name":"Uncletopia | Dallas | 2 | All Maps | STV","players":[{"user_id":551,"name":"intek","steam_id":76561198052705291,"connected_time":1377000000000,"state":"active","ping":73},{"user_id":584,"name":"Reague","steam_id":76561199092175631,"connected_time":145000000000,"state":"active","ping":74},{"user_id":537,"name":"BoomerBuzzard","steam_id":76561198099293606,"connected_time":1851000000000,"state":"active","ping":83},{"user_id":520,"name":"x","steam_id":76561198013735714,"connected_time":3741000000000,"state":"active","ping":93},{"user_id":519,"name":"Dknight2","steam_id":76561199187382295,"connected_time":3920000000000,"state":"active","ping":69},{"user_id":559,"name":"HUESO","steam_id":76561198276383681,"connected_time":1238000000000,"state":"active","ping":88},{"user_id":575,"name":"Hashslinging Slasher","steam_id":76561198099015430,"connected_time":345000000000,"state":"active","ping":135},{"user_id":572,"name":"Blackattak","steam_id":76561197961372427,"connected_time":468000000000,"state":"active","ping":90},{"user_id":573,"name":"MrMind","steam_id":76561199321657653,"connected_time":463000000000,"state":"active","ping":81},{"user_id":553,"name":"Ratimedes","steam_id":76561199083035892,"connected_time":1304000000000,"state":"active","ping":64},{"user_id":576,"name":"meme_lad21","steam_id":76561199229567068,"connected_time":335000000000,"state":"active","ping":99},{"user_id":543,"name":"dog","steam_id":76561198263873491,"connected_time":1586000000000,"state":"active","ping":62},{"user_id":501,"name":"Emberdened","steam_id":76561199163688421,"connected_time":5063000000000,"state":"active","ping":79},{"user_id":574,"name":"C^a^L","steam_id":76561198241124222,"connected_time":454000000000,"state":"active","ping":96},{"user_id":577,"name":"McBurns","steam_id":76561198038651415,"connected_time":269000000000,"state":"active","ping":84},{"user_id":578,"name":"$limek✔ngEM0.an1me.B0Y_33309","steam_id":76561198283687382,"connected_time":239000000000,"state":"active","ping":85},{"user_id":554,"name":"Irritated Duck","steam_id":76561198247792076,"connected_time":1299000000000,"state":"active","ping":137},{"user_id":579,"name":"Thewaffleman141","steam_id":76561198083068694,"connected_time":236000000000,"state":"active","ping":52},{"user_id":580,"name":"EmersonDream","steam_id":76561198881663442,"connected_time":228000000000,"state":"active","ping":98},{"user_id":581,"name":"PhattyPhlop","steam_id":76561198153349473,"connected_time":223000000000,"state":"active","ping":80},{"user_id":480,"name":"E P H E M E R A L","steam_id":76561198128614882,"connected_time":6472000000000,"state":"active","ping":91},{"user_id":570,"name":"Mr. Bixby","steam_id":76561198868839264,"connected_time":520000000000,"state":"active","ping":53},{"user_id":582,"name":"Phos","steam_id":76561198122339506,"connected_time":186000000000,"state":"active","ping":71},{"user_id":583,"name":"Noisgamer02","steam_id":76561198129665722,"connected_time":184000000000,"state":"active","ping":66}]},{"server_id":404,"name":"Uncletopia | Dallas | 3 | All Maps","name_short":"dal-3","host":"dal-1.us.uncletopia.com","port":27035,"enabled":true,"region":"us-central","cc":"us","latitude":32.779167,"longitude":-96.80889,"reserved":0,"last_update":"0001-01-01T00:00:00Z","name_a2s":"Uncletopia | Dallas | 3 | All Maps","protocol":17,"map":"cp_sunshine","folder":"tf","game":"Team Fortress","app_id":440,"player_count":23,"max_players":24,"Bots":0,"server_type":"Dedicated","server_os":"Linux","password":true,"vac":true,"version":"7961495","steam_id":85568392924515219,"keywords":["cp","nocrits","nodmgspread","uncletopia"],"game_id":440,"stv_port":27036,"stv_name":"Uncletopia | Dallas | 3 | All Maps | STV","players":[{"user_id":194,"name":"CampinCarl","steam_id":76561197997373624,"connected_time":290000000000,"state":"active","ping":89},{"user_id":192,"name":"Sabaktes","steam_id":76561199018313476,"connected_time":318000000000,"state":"active","ping":69},{"user_id":172,"name":"DeltaForce4Life","steam_id":76561198355534614,"connected_time":1415000000000,"state":"active","ping":66},{"user_id":189,"name":"The AntAgonizer","steam_id":76561198135875192,"connected_time":882000000000,"state":"active","ping":67},{"user_id":193,"name":"winrar","steam_id":76561198418239391,"connected_time":294000000000,"state":"active","ping":74},{"user_id":176,"name":"Derp :p","steam_id":76561198303081758,"connected_time":1326000000000,"state":"active","ping":79},{"user_id":148,"name":"Marc Antony","steam_id":76561198011366517,"connected_time":2910000000000,"state":"active","ping":72},{"user_id":184,"name":"License","steam_id":76561197967501494,"connected_time":1067000000000,"state":"active","ping":60},{"user_id":190,"name":"Moe","steam_id":76561198220436140,"connected_time":594000000000,"state":"active","ping":64},{"user_id":150,"name":"spot_the_cow","steam_id":76561198151135298,"connected_time":2869000000000,"state":"active","ping":59},{"user_id":181,"name":"Draven","steam_id":76561198074776388,"connected_time":1123000000000,"state":"active","ping":55},{"user_id":196,"name":"Dude","steam_id":76561199058616824,"connected_time":253000000000,"state":"active","ping":62},{"user_id":152,"name":"Op banana","steam_id":76561198303231451,"connected_time":2770000000000,"state":"active","ping":41},{"user_id":182,"name":"Aldinach","steam_id":76561198079912615,"connected_time":1097000000000,"state":"active","ping":75},{"user_id":156,"name":"MancalaMadMan","steam_id":76561198347324053,"connected_time":2686000000000,"state":"active","ping":100},{"user_id":195,"name":"Kontrast","steam_id":76561198822353564,"connected_time":286000000000,"state":"active","ping":56},{"user_id":183,"name":"Jimothy","steam_id":76561198361536109,"connected_time":1093000000000,"state":"active","ping":58},{"user_id":185,"name":"NERV","steam_id":76561198111023744,"connected_time":1061000000000,"state":"active","ping":97},{"user_id":197,"name":"Tetris Speedrunner","steam_id":76561198984917566,"connected_time":31000000000,"state":"active","ping":63},{"user_id":127,"name":"cozy","steam_id":76561199044037628,"connected_time":5877000000000,"state":"active","ping":87},{"user_id":187,"name":"zubi.","steam_id":76561198320839216,"connected_time":1039000000000,"state":"active","ping":66},{"user_id":188,"name":"Broomfrog","steam_id":76561198197932090,"connected_time":1034000000000,"state":"active","ping":69},{"user_id":162,"name":"LordOfTheNoobs","steam_id":76561197962697523,"connected_time":2549000000000,"state":"active","ping":69}]},{"server_id":405,"name":"Uncletopia | Dallas | 4 | Community","name_short":"dal-4","host":"dal-1.us.uncletopia.com","port":27045,"enabled":true,"region":"us-central","cc":"us","latitude":32.779167,"longitude":-96.80889,"reserved":0,"last_update":"0001-01-01T00:00:00Z","name_a2s":"Uncletopia | Dallas | 4 | Community","protocol":17,"map":"workshop/cp_fulgur_rc2a.ugc2068252300","folder":"tf","game":"Team Fortress","app_id":440,"player_count":0,"max_players":24,"Bots":0,"server_type":"Dedicated","server_os":"Linux","password":true,"vac":true,"version":"7961495","steam_id":85568392924515220,"keywords":["cp","nocrits","nodmgspread","uncletopia"],"game_id":440,"stv_port":27046,"stv_name":"Uncletopia | Dallas | 4 | Community | STV","players":null},{"server_id":5,"name":"Uncletopia | Frankfurt | 1 | All Maps","name_short":"frk-1","host":"frk-1.de.uncletopia.com","port":27015,"enabled":true,"region":"eu","cc":"de","latitude":50.110924,"longitude":8.682127,"reserved":0,"last_update":"0001-01-01T00:00:00Z","name_a2s":"Uncletopia | Frankfurt | 1 | All Maps","protocol":17,"map":"pl_badwater","folder":"tf","game":"Team Fortress","app_id":440,"player_count":0,"max_players":24,"Bots":0,"server_type":"Dedicated","server_os":"Linux","password":true,"vac":true,"version":"7961495","steam_id":85568392924469989,"keywords":["nocrits","nodmgspread","payload","uncletopia"],"game_id":440,"stv_port":27016,"stv_name":"Uncletopia | Frankfurt | 1 | All Maps | STV","players":null},{"server_id":110,"name":"Uncletopia | Frankfurt | 2 | All Maps","name_short":"frk-2","host":"frk-1.de.uncletopia.com","port":27025,"enabled":true,"region":"eu","cc":"de","latitude":50.110924,"longitude":8.682127,"reserved":0,"last_update":"0001-01-01T00:00:00Z","name_a2s":"Uncletopia | Frankfurt | 2 | All Maps","protocol":17,"map":"koth_lakeside_final","folder":"tf","game":"Team Fortress","app_id":440,"player_count":0,"max_players":24,"Bots":0,"server_type":"Dedicated","server_os":"Linux","password":true,"vac":true,"version":"7961495","steam_id":85568392924469990,"keywords":["cp","nocrits","nodmgspread","uncletopia"],"game_id":440,"stv_port":27026,"stv_name":"Uncletopia | Frankfurt | 2 | All Maps | STV","players":null},{"server_id":308,"name":"Uncletopia | Frankfurt | 3 | All Maps","name_short":"frk-3","host":"frk-1.de.uncletopia.com","port":27035,"enabled":true,"region":"eu","cc":"de","latitude":50.110924,"longitude":8.682127,"reserved":0,"last_update":"0001-01-01T00:00:00Z","name_a2s":"Uncletopia | Frankfurt | 3 | All Maps","protocol":17,"map":"cp_sunshine","folder":"tf","game":"Team Fortress","app_id":440,"player_count":0,"max_players":24,"Bots":0,"server_type":"Dedicated","server_os":"Linux","password":true,"vac":true,"version":"7961495","steam_id":85568392924504274,"keywords":["cp","nocrits","nodmgspread","uncletopia"],"game_id":440,"stv_port":27036,"stv_name":"Uncletopia | Frankfurt | 3 | All Maps | STV","players":null},{"server_id":309,"name":"Uncletopia | Frankfurt | 4 | All Maps","name_short":"frk-4","host":"frk-1.de.uncletopia.com","port":27045,"enabled":true,"region":"eu","cc":"de","latitude":50.110924,"longitude":8.682127,"reserved":0,"last_update":"0001-01-01T00:00:00Z","name_a2s":"Uncletopia | Frankfurt | 4 | All Maps","protocol":17,"map":"cp_altitude","folder":"tf","game":"Team Fortress","app_id":440,"player_count":0,"max_players":24,"Bots":0,"server_type":"Dedicated","server_os":"Linux","password":true,"vac":true,"version":"7961495","steam_id":85568392924504275,"keywords":["cp","nocrits","nodmgspread","uncletopia"],"game_id":440,"stv_port":27046,"stv_name":"Uncletopia | Frankfurt | 4 | All Maps | STV","players":null},{"server_id":310,"name":"Uncletopia | Frankfurt | 5 | All Maps","name_short":"frk-5","host":"frk-1.de.uncletopia.com","port":27055,"enabled":true,"region":"eu","cc":"de","latitude":50.110924,"longitude":8.682127,"reserved":0,"last_update":"0001-01-01T00:00:00Z","name_a2s":"Uncletopia | Frankfurt | 5 | All Maps","protocol":17,"map":"cp_process_final","folder":"tf","game":"Team Fortress","app_id":440,"player_count":0,"max_players":24,"Bots":0,"server_type":"Dedicated","server_os":"Linux","password":true,"vac":true,"version":"7961495","steam_id":85568392924504277,"keywords":["cp","nocrits","nodmgspread","uncletopia"],"game_id":440,"stv_port":27056,"stv_name":"Uncletopia | Frankfurt | 5 | All Maps | STV","players":null},{"server_id":311,"name":"Uncletopia | Frankfurt | 6 | All Maps","name_short":"frk-6","host":"frk-1.de.uncletopia.com","port":27065,"enabled":true,"region":"eu","cc":"de","latitude":50.110924,"longitude":8.682127,"reserved":0,"last_update":"0001-01-01T00:00:00Z","name_a2s":"Uncletopia | Frankfurt | 6 | All Maps","protocol":17,"map":"pl_barnblitz","folder":"tf","game":"Team Fortress","app_id":440,"player_count":0,"max_players":24,"Bots":0,"server_type":"Dedicated","server_os":"Linux","password":true,"vac":true,"version":"7961495","steam_id":85568392924504278,"keywords":["nocrits","nodmgspread","payload","uncletopia"],"game_id":440,"stv_port":27066,"stv_name":"Uncletopia | Frankfurt | 6 | All Maps | STV","players":null},{"server_id":23,"name":"Uncletopia | Frankfurt | 7 | Stopwatch Beta","name_short":"frk-7","host":"frk-1.de.uncletopia.com","port":27075,"enabled":true,"region":"eu","cc":"de","latitude":50.110924,"longitude":8.682127,"reserved":0,"last_update":"0001-01-01T00:00:00Z","name_a2s":"Uncletopia | Frankfurt | 7 | Stopwatch Beta","protocol":17,"map":"koth_cascade","folder":"tf","game":"Team Fortress","app_id":440,"player_count":0,"max_players":24,"Bots":0,"server_type":"Dedicated","server_os":"Linux","password":true,"vac":true,"version":"7961495","steam_id":85568392924742827,"keywords":["cp","nocrits","nodmgspread","uncletopia"],"game_id":440,"stv_port":27076,"stv_name":"Uncletopia | Frankfurt | 7 | Stopwatch Beta | STV","players":null},{"server_id":24,"name":"Uncletopia | Frankfurt | 8 | Community","name_short":"frk-8","host":"frk-1.de.uncletopia.com","port":27085,"enabled":true,"region":"eu","cc":"de","latitude":50.110924,"longitude":8.682127,"reserved":0,"last_update":"0001-01-01T00:00:00Z","name_a2s":"Uncletopia | Frankfurt | 8 | Community","protocol":17,"map":"cp_dustbowl","folder":"tf","game":"Team Fortress","app_id":440,"player_count":0,"max_players":24,"Bots":0,"server_type":"Dedicated","server_os":"Linux","password":true,"vac":true,"version":"7961495","steam_id":85568392924742828,"keywords":["cp","nocrits","nodmgspread","uncletopia"],"game_id":440,"stv_port":27086,"stv_name":"Uncletopia | Frankfurt | 8 | Community | STV","players":null},{"server_id":202,"name":"Uncletopia | Hong Kong | 1 | All Maps","name_short":"hgk-1","host":"hgk-1.hk.uncletopia.com","port":27015,"enabled":true,"region":"asia","cc":"hk","latitude":22.302711,"longitude":114.177216,"reserved":0,"last_update":"0001-01-01T00:00:00Z","name_a2s":"Uncletopia | Hong Kong | 1 | All Maps","protocol":17,"map":"cp_altitude","folder":"tf","game":"Team Fortress","app_id":440,"player_count":0,"max_players":24,"Bots":0,"server_type":"Dedicated","server_os":"Linux","password":true,"vac":true,"version":"7961495","steam_id":85568392924494504,"keywords":["cp","nocrits","nodmgspread","uncletopia"],"game_id":440,"stv_port":27016,"stv_name":"Uncletopia | Hong Kong | 1 | All Maps | STV","players":null},{"server_id":1,"name":"Uncletopia | Los Angeles | 1 | All Maps","name_short":"lax-1","host":"lax-1.us.uncletopia.com","port":27015,"enabled":true,"region":"us-west","cc":"us","latitude":33.94279,"longitude":-118.41004,"reserved":0,"last_update":"0001-01-01T00:00:00Z","name_a2s":"Uncletopia | Los Angeles | 1 | All Maps","protocol":17,"map":"koth_viaduct","folder":"tf","game":"Team Fortress","app_id":440,"player_count":24,"max_players":24,"Bots":0,"server_type":"Dedicated","server_os":"Linux","password":true,"vac":true,"version":"7961495","steam_id":85568392924469991,"keywords":["cp","nocrits","nodmgspread","uncletopia"],"game_id":440,"stv_port":27016,"stv_name":"Uncletopia | Los Angeles | 1 | All Maps | STV","players":[{"user_id":604,"name":"Taco+Taco=Burrito","steam_id":76561198063128663,"connected_time":811000000000,"state":"active","ping":41},{"user_id":614,"name":"Buckeye Crusader","steam_id":76561198126115279,"connected_time":399000000000,"state":"active","ping":126},{"user_id":609,"name":"SodaKid_7","steam_id":76561198079419485,"connected_time":642000000000,"state":"active","ping":45},{"user_id":595,"name":"harley","steam_id":76561198799384110,"connected_time":1771000000000,"state":"active","ping":131},{"user_id":607,"name":"evil","steam_id":76561199001918194,"connected_time":787000000000,"state":"active","ping":57},{"user_id":503,"name":"Velgrauder","steam_id":76561198848526938,"connected_time":8468000000000,"state":"active","ping":99},{"user_id":515,"name":"vee the fenn","steam_id":76561198049510832,"connected_time":6942000000000,"state":"active","ping":62},{"user_id":611,"name":"Kito","steam_id":76561198032401946,"connected_time":573000000000,"state":"active","ping":77},{"user_id":608,"name":"dedaF","steam_id":76561198006568936,"connected_time":758000000000,"state":"active","ping":56},{"user_id":615,"name":"Weakforanimebitches","steam_id":76561198217663016,"connected_time":367000000000,"state":"active","ping":46},{"user_id":616,"name":"TheTalentlessChicken","steam_id":76561198148390834,"connected_time":331000000000,"state":"active","ping":74},{"user_id":617,"name":"zinnk","steam_id":76561198092081825,"connected_time":287000000000,"state":"active","ping":45},{"user_id":618,"name":"Godzylian","steam_id":76561198084832040,"connected_time":273000000000,"state":"active","ping":54},{"user_id":620,"name":"10,000 Opossums","steam_id":76561198111840734,"connected_time":205000000000,"state":"active","ping":128},{"user_id":588,"name":"circus","steam_id":76561199085524751,"connected_time":2007000000000,"state":"active","ping":53},{"user_id":619,"name":"berry delight","steam_id":76561198115254326,"connected_time":265000000000,"state":"active","ping":90},{"user_id":564,"name":"SanitysEdge","steam_id":76561198130732813,"connected_time":3535000000000,"state":"active","ping":49},{"user_id":598,"name":"TheMedic","steam_id":76561198092612990,"connected_time":1399000000000,"state":"active","ping":67},{"user_id":621,"name":"Tideflat","steam_id":76561198179850851,"connected_time":175000000000,"state":"active","ping":82},{"user_id":622,"name":"BuncusBeffer","steam_id":76561198285936616,"connected_time":159000000000,"state":"active","ping":65},{"user_id":623,"name":"Bonky","steam_id":76561198965756070,"connected_time":147000000000,"state":"active","ping":56},{"user_id":570,"name":"jovial","steam_id":76561198297130941,"connected_time":3302000000000,"state":"active","ping":45},{"user_id":471,"name":"Squids023","steam_id":76561199013031576,"connected_time":10958000000000,"state":"active","ping":77},{"user_id":624,"name":"Lo-Pan","steam_id":76561198085670133,"connected_time":147000000000,"state":"active","ping":82}]},{"server_id":112,"name":"Uncletopia | Los Angeles | 2 | All Maps","name_short":"lax-2","host":"lax-1.us.uncletopia.com","port":27025,"enabled":true,"region":"us-west","cc":"us","latitude":33.94279,"longitude":-118.41004,"reserved":0,"last_update":"0001-01-01T00:00:00Z","name_a2s":"Uncletopia | Los Angeles | 2 | All Maps","protocol":17,"map":"pl_badwater","folder":"tf","game":"Team Fortress","app_id":440,"player_count":24,"max_players":24,"Bots":0,"server_type":"Dedicated","server_os":"Linux","password":true,"vac":true,"version":"7961495","steam_id":85568392924469992,"keywords":["nocrits","nodmgspread","payload","uncletopia"],"game_id":440,"stv_port":27026,"stv_name":"Uncletopia | Los Angeles | 2 | All Maps | STV","players":[{"user_id":37,"name":"Mom","steam_id":76561198207936000,"connected_time":4496000000000,"state":"active","ping":45},{"user_id":71,"name":"cash rules everything around me","steam_id":76561198935158462,"connected_time":2262000000000,"state":"active","ping":46},{"user_id":79,"name":"GreenApples","steam_id":76561198120559543,"connected_time":1207000000000,"state":"active","ping":47},{"user_id":86,"name":"Shroomie Tucker","steam_id":76561198151343629,"connected_time":261000000000,"state":"active","ping":87},{"user_id":87,"name":"Outis","steam_id":76561198408747483,"connected_time":226000000000,"state":"active","ping":68},{"user_id":38,"name":"NagitoTheLucky","steam_id":76561198065096327,"connected_time":4389000000000,"state":"active","ping":61},{"user_id":41,"name":"squid","steam_id":76561198070236972,"connected_time":4196000000000,"state":"active","ping":59},{"user_id":88,"name":"unspoken rizz","steam_id":76561198294258002,"connected_time":210000000000,"state":"active","ping":101},{"user_id":85,"name":"Gaige","steam_id":76561198063462825,"connected_time":323000000000,"state":"active","ping":62},{"user_id":44,"name":"Thunder","steam_id":76561198097721532,"connected_time":4072000000000,"state":"active","ping":46},{"user_id":45,"name":"walrooos","steam_id":76561198024521839,"connected_time":4017000000000,"state":"active","ping":48},{"user_id":69,"name":"Grace Us With Your Presents","steam_id":76561198170381402,"connected_time":2283000000000,"state":"active","ping":103},{"user_id":60,"name":"Barnie Sandlers","steam_id":76561198153295482,"connected_time":3571000000000,"state":"active","ping":36},{"user_id":48,"name":"riSygneD","steam_id":76561198331618687,"connected_time":3973000000000,"state":"active","ping":32},{"user_id":74,"name":"Amogous Supreme","steam_id":76561198025476774,"connected_time":2177000000000,"state":"active","ping":59},{"user_id":84,"name":"Semen Protector (Real)","steam_id":76561199247095754,"connected_time":675000000000,"state":"active","ping":132},{"user_id":70,"name":"selling rice","steam_id":76561198063357023,"connected_time":2277000000000,"state":"active","ping":50},{"user_id":52,"name":"Sleuth","steam_id":76561198418288939,"connected_time":3837000000000,"state":"active","ping":65},{"user_id":61,"name":"CJspellsfish","steam_id":76561198277342368,"connected_time":3525000000000,"state":"active","ping":116},{"user_id":66,"name":"Veritox","steam_id":76561198075778026,"connected_time":2693000000000,"state":"active","ping":67},{"user_id":82,"name":"Dullahan","steam_id":76561198119668908,"connected_time":1077000000000,"state":"active","ping":59},{"user_id":64,"name":"Bada Bingus","steam_id":76561198046743307,"connected_time":3172000000000,"state":"active","ping":122},{"user_id":77,"name":"Broccoli Rob","steam_id":76561198026250024,"connected_time":1541000000000,"state":"active","ping":113},{"user_id":89,"name":"shreklover69","steam_id":76561198054070811,"connected_time":85000000000,"state":"active","ping":53}]},{"server_id":324,"name":"Uncletopia | Los Angeles | 3 | All Maps","name_short":"lax-3","host":"lax-1.us.uncletopia.com","port":27035,"enabled":true,"region":"us-west","cc":"us","latitude":33.94279,"longitude":-118.41004,"reserved":0,"last_update":"0001-01-01T00:00:00Z","name_a2s":"Uncletopia | Los Angeles | 3 | All Maps","protocol":17,"map":"cp_dustbowl","folder":"tf","game":"Team Fortress","app_id":440,"player_count":24,"max_players":24,"Bots":0,"server_type":"Dedicated","server_os":"Linux","password":true,"vac":true,"version":"7961495","steam_id":85568392924510198,"keywords":["cp","nocrits","nodmgspread","uncletopia"],"game_id":440,"stv_port":27036,"stv_name":"Uncletopia | Los Angeles | 3 | All Maps | STV","players":[{"user_id":714,"name":"Dani","steam_id":76561198348012378,"connected_time":433000000000,"state":"active","ping":108},{"user_id":691,"name":"Sirphantom","steam_id":76561198125415432,"connected_time":1673000000000,"state":"active","ping":63},{"user_id":647,"name":"can karson","steam_id":76561199102391736,"connected_time":3894000000000,"state":"active","ping":49},{"user_id":738,"name":"Ian","steam_id":76561198159334435,"connected_time":44000000000,"state":"active","ping":169},{"user_id":686,"name":"online","steam_id":76561198192531745,"connected_time":1750000000000,"state":"active","ping":60},{"user_id":705,"name":"plutonium isotope","steam_id":76561198319442494,"connected_time":786000000000,"state":"active","ping":54},{"user_id":676,"name":"John John","steam_id":76561198819733507,"connected_time":2099000000000,"state":"active","ping":43},{"user_id":700,"name":"josep1199","steam_id":76561198247653734,"connected_time":983000000000,"state":"active","ping":70},{"user_id":683,"name":"Lots0","steam_id":76561198043143145,"connected_time":1898000000000,"state":"active","ping":96},{"user_id":696,"name":"SkywellGames","steam_id":76561198058851234,"connected_time":1522000000000,"state":"active","ping":85},{"user_id":723,"name":"papi Chulo","steam_id":76561198126274984,"connected_time":283000000000,"state":"active","ping":88},{"user_id":701,"name":"Antwan","steam_id":76561198246200638,"connected_time":958000000000,"state":"active","ping":74},{"user_id":641,"name":"AimBütter","steam_id":76561198060108739,"connected_time":4583000000000,"state":"active","ping":45},{"user_id":692,"name":"Loader","steam_id":76561198141199058,"connected_time":1598000000000,"state":"active","ping":69},{"user_id":682,"name":"ĐïɐȐɹɦɆa","steam_id":76561198981411945,"connected_time":1928000000000,"state":"active","ping":39},{"user_id":707,"name":"jordanfer111","steam_id":76561198044993097,"connected_time":604000000000,"state":"active","ping":88},{"user_id":711,"name":"type \"bad med\" to kick","steam_id":76561198076402476,"connected_time":476000000000,"state":"active","ping":66},{"user_id":690,"name":"EatSomeBEES","steam_id":76561198047334307,"connected_time":1690000000000,"state":"active","ping":71},{"user_id":708,"name":"dewey.","steam_id":76561198138325039,"connected_time":564000000000,"state":"active","ping":65},{"user_id":693,"name":"pyro","steam_id":76561198335260229,"connected_time":1563000000000,"state":"active","ping":68},{"user_id":673,"name":"Flexo","steam_id":76561198111618506,"connected_time":2242000000000,"state":"active","ping":110},{"user_id":694,"name":"gregg","steam_id":76561198034242401,"connected_time":1553000000000,"state":"active","ping":105},{"user_id":712,"name":"Kamin","steam_id":76561198255299559,"connected_time":464000000000,"state":"active","ping":93},{"user_id":717,"name":"Herdez Hot Salsa","steam_id":76561197991740906,"connected_time":399000000000,"state":"active","ping":134}]},{"server_id":25,"name":"Uncletopia | Los Angeles | 4 | Stopwatch Beta","name_short":"lax-4","host":"lax-1.us.uncletopia.com","port":27045,"enabled":true,"region":"us-west","cc":"us","latitude":33.94279,"longitude":-118.41004,"reserved":0,"last_update":"0001-01-01T00:00:00Z","name_a2s":"Uncletopia | Los Angeles | 4 | Stopwatch Beta","protocol":17,"map":"pl_upward","folder":"tf","game":"Team Fortress","app_id":440,"player_count":1,"max_players":24,"Bots":0,"server_type":"Dedicated","server_os":"Linux","password":true,"vac":true,"version":"7961495","steam_id":85568392924510199,"keywords":["nocrits","nodmgspread","payload","uncletopia"],"game_id":440,"stv_port":27046,"stv_name":"Uncletopia | Los Angeles | 4 | Stopwatch Beta | STV","players":[{"user_id":10,"name":"nae nae goblin68","steam_id":76561199115259028,"connected_time":11000000000,"state":"spawning","ping":79}]},{"server_id":11,"name":"Uncletopia | London | 1 | All Maps","name_short":"lon-1","host":"lon-1.uk.uncletopia.com","port":27015,"enabled":true,"region":"eu","cc":"gb","latitude":51.509865,"longitude":-0.118092,"reserved":0,"last_update":"0001-01-01T00:00:00Z","name_a2s":"Uncletopia | London | 1 | All Maps","protocol":17,"map":"koth_harvest_final","folder":"tf","game":"Team Fortress","app_id":440,"player_count":2,"max_players":24,"Bots":0,"server_type":"Dedicated","server_os":"Linux","password":true,"vac":true,"version":"7961495","steam_id":85568392924367362,"keywords":["cp","nocrits","nodmgspread","uncletopia"],"game_id":440,"stv_port":27016,"stv_name":"Uncletopia | London | 1 | All Maps | STV","players":[{"user_id":814,"name":"yuno appreciator","steam_id":76561198083286511,"connected_time":1768000000000,"state":"active","ping":31},{"user_id":820,"name":"Gooby","steam_id":76561198383937031,"connected_time":902000000000,"state":"active","ping":44}]},{"server_id":114,"name":"Uncletopia | London | 2 | All Maps","name_short":"lon-2","host":"lon-1.uk.uncletopia.com","port":27025,"enabled":true,"region":"eu","cc":"gb","latitude":51.509865,"longitude":-0.118092,"reserved":0,"last_update":"0001-01-01T00:00:00Z","name_a2s":"Uncletopia | London | 2 | All Maps","protocol":17,"map":"koth_lakeside_final","folder":"tf","game":"Team Fortress","app_id":440,"player_count":0,"max_players":24,"Bots":0,"server_type":"Dedicated","server_os":"Linux","password":true,"vac":true,"version":"7961495","steam_id":85568392924470941,"keywords":["cp","nocrits","nodmgspread","uncletopia"],"game_id":440,"stv_port":27026,"stv_name":"Uncletopia | London | 2 | All Maps | STV","players":null},{"server_id":320,"name":"Uncletopia | London | 3 | All Maps","name_short":"lon-3","host":"lon-1.uk.uncletopia.com","port":27035,"enabled":true,"region":"eu","cc":"gb","latitude":51.509865,"longitude":-0.118092,"reserved":0,"last_update":"0001-01-01T00:00:00Z","name_a2s":"Uncletopia | London | 3 | All Maps","protocol":17,"map":"koth_highpass","folder":"tf","game":"Team Fortress","app_id":440,"player_count":0,"max_players":24,"Bots":0,"server_type":"Dedicated","server_os":"Linux","password":true,"vac":true,"version":"7961495","steam_id":85568392924510192,"keywords":["cp","nocrits","nodmgspread","uncletopia"],"game_id":440,"stv_port":27036,"stv_name":"Uncletopia | London | 3 | All Maps | STV","players":null},{"server_id":321,"name":"Uncletopia | London | 4 | All Maps","name_short":"lon-4","host":"lon-1.uk.uncletopia.com","port":27045,"enabled":true,"region":"eu","cc":"gb","latitude":51.509865,"longitude":-0.118092,"reserved":0,"last_update":"0001-01-01T00:00:00Z","name_a2s":"Uncletopia | London | 4 | All Maps","protocol":17,"map":"koth_cascade","folder":"tf","game":"Team Fortress","app_id":440,"player_count":0,"max_players":24,"Bots":0,"server_type":"Dedicated","server_os":"Linux","password":true,"vac":true,"version":"7961495","steam_id":85568392924510193,"keywords":["cp","nocrits","nodmgspread","uncletopia"],"game_id":440,"stv_port":27046,"stv_name":"Uncletopia | London | 4 | All Maps | STV","players":null},{"server_id":21,"name":"Uncletopia | London | 5 | All Maps","name_short":"lon-5","host":"lon-1.uk.uncletopia.com","port":27055,"enabled":true,"region":"eu","cc":"gb","latitude":51.509865,"longitude":-0.118092,"reserved":0,"last_update":"0001-01-01T00:00:00Z","name_a2s":"Uncletopia | London | 5 | All Maps","protocol":17,"map":"cp_snakewater_final1","folder":"tf","game":"Team Fortress","app_id":440,"player_count":0,"max_players":24,"Bots":0,"server_type":"Dedicated","server_os":"Linux","password":true,"vac":true,"version":"7961495","steam_id":85568392924742829,"keywords":["cp","nocrits","nodmgspread","uncletopia"],"game_id":440,"stv_port":27056,"stv_name":"Uncletopia | London | 5 | All Maps | STV","players":null},{"server_id":22,"name":"Uncletopia | London | 6 | All Maps","name_short":"lon-6","host":"lon-1.uk.uncletopia.com","port":27065,"enabled":true,"region":"eu","cc":"gb","latitude":51.509865,"longitude":-0.118092,"reserved":0,"last_update":"0001-01-01T00:00:00Z","name_a2s":"Uncletopia | London | 6 | All Maps","protocol":17,"map":"koth_lakeside_final","folder":"tf","game":"Team Fortress","app_id":440,"player_count":0,"max_players":24,"Bots":0,"server_type":"Dedicated","server_os":"Linux","password":true,"vac":true,"version":"7961495","steam_id":85568392924742830,"keywords":["cp","nocrits","nodmgspread","uncletopia"],"game_id":440,"stv_port":27066,"stv_name":"Uncletopia | London | 6 | All Maps | STV","players":null},{"server_id":40,"name":"Uncletopia | London | 7 | No Payload","name_short":"lon-7","host":"lon-1.uk.uncletopia.com","port":27075,"enabled":true,"region":"eu","cc":"gb","latitude":51.509865,"longitude":-0.118092,"reserved":0,"last_update":"0001-01-01T00:00:00Z","name_a2s":"Uncletopia | London | 7 | No Payload","protocol":17,"map":"koth_harvest_final","folder":"tf","game":"Team Fortress","app_id":440,"player_count":0,"max_players":24,"Bots":0,"server_type":"Dedicated","server_os":"Linux","password":true,"vac":true,"version":"7961495","steam_id":85568392924964314,"keywords":["cp","nocrits","nodmgspread","uncletopia"],"game_id":440,"stv_port":27076,"stv_name":"Uncletopia | London | 7 | No Payload | STV","players":null},{"server_id":41,"name":"Uncletopia | London | 8 | Community","name_short":"lon-8","host":"lon-1.uk.uncletopia.com","port":27085,"enabled":true,"region":"eu","cc":"gb","latitude":51.509865,"longitude":-0.118092,"reserved":0,"last_update":"0001-01-01T00:00:00Z","name_a2s":"Uncletopia | London | 8 | Community","protocol":17,"map":"workshop/pl_cashworks_final1.ugc2904065412","folder":"tf","game":"Team Fortress","app_id":440,"player_count":0,"max_players":24,"Bots":0,"server_type":"Dedicated","server_os":"Linux","password":true,"vac":true,"version":"7961495","steam_id":85568392924964315,"keywords":["nocrits","nodmgspread","payload","uncletopia"],"game_id":440,"stv_port":27086,"stv_name":"Uncletopia | London | 8 | Community | STV","players":null},{"server_id":300,"name":"Uncletopia | Montréal | 1 | All Maps","name_short":"mtl-1","host":"mtl-1.ca.uncletopia.com","port":27015,"enabled":true,"region":"us-east","cc":"ca","latitude":45.50889,"longitude":-73.56167,"reserved":0,"last_update":"0001-01-01T00:00:00Z","name_a2s":"","protocol":0,"map":"","folder":"","game":"","app_id":0,"player_count":1,"max_players":0,"Bots":0,"server_type":"","server_os":"","password":false,"vac":false,"version":"","steam_id":0,"keywords":null,"game_id":0,"stv_port":0,"stv_name":"","players":[{"user_id":431,"name":"XboxGold14dayfreetrial","steam_id":76561199087480628,"connected_time":64000000000,"state":"active","ping":114}]},{"server_id":301,"name":"Uncletopia | Montréal | 2 | All Maps","name_short":"mtl-2","host":"mtl-1.ca.uncletopia.com","port":27025,"enabled":true,"region":"us-east","cc":"ca","latitude":45.50889,"longitude":-73.56167,"reserved":0,"last_update":"0001-01-01T00:00:00Z","name_a2s":"","protocol":0,"map":"","folder":"","game":"","app_id":0,"player_count":0,"max_players":0,"Bots":0,"server_type":"","server_os":"","password":false,"vac":false,"version":"","steam_id":0,"keywords":null,"game_id":0,"stv_port":0,"stv_name":"","players":null},{"server_id":302,"name":"Uncletopia | Montréal | 3 | All Maps","name_short":"mtl-3","host":"mtl-1.ca.uncletopia.com","port":27035,"enabled":true,"region":"us-east","cc":"ca","latitude":45.50889,"longitude":-73.56167,"reserved":0,"last_update":"0001-01-01T00:00:00Z","name_a2s":"","protocol":0,"map":"","folder":"","game":"","app_id":0,"player_count":0,"max_players":0,"Bots":0,"server_type":"","server_os":"","password":false,"vac":false,"version":"","steam_id":0,"keywords":null,"game_id":0,"stv_port":0,"stv_name":"","players":null},{"server_id":303,"name":"Uncletopia | Montréal | 4 | No Payload","name_short":"mtl-4","host":"mtl-1.ca.uncletopia.com","port":27045,"enabled":true,"region":"us-east","cc":"ca","latitude":45.50889,"longitude":-73.56167,"reserved":0,"last_update":"0001-01-01T00:00:00Z","name_a2s":"","protocol":0,"map":"","folder":"","game":"","app_id":0,"player_count":0,"max_players":0,"Bots":0,"server_type":"","server_os":"","password":false,"vac":false,"version":"","steam_id":0,"keywords":null,"game_id":0,"stv_port":0,"stv_name":"","players":null},{"server_id":13,"name":"Uncletopia | New York City | 1 | All Maps","name_short":"nyc-1","host":"nyc-1.us.uncletopia.com","port":27015,"enabled":true,"region":"us-east","cc":"us","latitude":40.73061,"longitude":-73.93524,"reserved":0,"last_update":"0001-01-01T00:00:00Z","name_a2s":"Uncletopia | New York City | 1 | All Maps","protocol":17,"map":"pl_frontier_final","folder":"tf","game":"Team Fortress","app_id":440,"player_count":23,"max_players":24,"Bots":0,"server_type":"Dedicated","server_os":"Linux","password":true,"vac":true,"version":"7961495","steam_id":85568392924469993,"keywords":["nocrits","nodmgspread","payload","uncletopia"],"game_id":440,"stv_port":27016,"stv_name":"Uncletopia | New York City | 1 | All Maps | STV","players":[{"user_id":683,"name":"chee zee bread","steam_id":76561198326620513,"connected_time":2746000000000,"state":"active","ping":56},{"user_id":687,"name":"tesagi","steam_id":76561198026664629,"connected_time":2293000000000,"state":"active","ping":43},{"user_id":695,"name":"DB1","steam_id":76561199172642819,"connected_time":1127000000000,"state":"active","ping":62},{"user_id":674,"name":"aversa","steam_id":76561198840460101,"connected_time":3675000000000,"state":"active","ping":49},{"user_id":671,"name":"Ellis McGruber","steam_id":76561198060739536,"connected_time":3729000000000,"state":"active","ping":54},{"user_id":660,"name":"visibleforce","steam_id":76561198104178938,"connected_time":4847000000000,"state":"active","ping":65},{"user_id":702,"name":"Dam","steam_id":76561198146943059,"connected_time":771000000000,"state":"active","ping":61},{"user_id":705,"name":"Deep Curly","steam_id":76561197981290558,"connected_time":94000000000,"state":"active","ping":59},{"user_id":706,"name":"Preacher","steam_id":76561198022215764,"connected_time":18000000000,"state":"active","ping":70},{"user_id":703,"name":"Bert.","steam_id":76561198140666346,"connected_time":682000000000,"state":"active","ping":48},{"user_id":704,"name":"MasKingDark","steam_id":76561198820069625,"connected_time":550000000000,"state":"active","ping":86},{"user_id":692,"name":"Wesley","steam_id":76561198198676057,"connected_time":1542000000000,"state":"active","ping":53},{"user_id":623,"name":"foreskin gaming","steam_id":76561198113407992,"connected_time":7553000000000,"state":"active","ping":37},{"user_id":664,"name":"schalldämpfer","steam_id":76561198178303726,"connected_time":4692000000000,"state":"active","ping":36},{"user_id":677,"name":"[GUT] RiDiK®","steam_id":76561197969756446,"connected_time":3602000000000,"state":"active","ping":84},{"user_id":686,"name":"ColdTooth","steam_id":76561197994963901,"connected_time":2328000000000,"state":"active","ping":62},{"user_id":690,"name":"Prsm","steam_id":76561198053344995,"connected_time":2224000000000,"state":"active","ping":32},{"user_id":707,"name":"The Collective(Hypnotist)","steam_id":76561198170423483,"connected_time":10000000000,"state":"spawning","ping":65},{"user_id":678,"name":"Pyro Takes Skill","steam_id":76561198148353860,"connected_time":3594000000000,"state":"active","ping":68},{"user_id":694,"name":"Connection","steam_id":76561199230740231,"connected_time":1175000000000,"state":"active","ping":59},{"user_id":693,"name":"Purplesphere","steam_id":76561198202786833,"connected_time":1366000000000,"state":"active","ping":173},{"user_id":697,"name":"fwaeoij-4","steam_id":76561198057691823,"connected_time":1087000000000,"state":"active","ping":47},{"user_id":557,"name":"Unk","steam_id":76561198031717617,"connected_time":11532000000000,"state":"active","ping":32}]},{"server_id":14,"name":"Uncletopia | New York City | 2 | All Maps","name_short":"nyc-2","host":"nyc-1.us.uncletopia.com","port":27025,"enabled":true,"region":"us-east","cc":"us","latitude":40.73061,"longitude":-73.93524,"reserved":0,"last_update":"0001-01-01T00:00:00Z","name_a2s":"Uncletopia | New York City | 2 | All Maps","protocol":17,"map":"pl_snowycoast","folder":"tf","game":"Team Fortress","app_id":440,"player_count":2,"max_players":24,"Bots":0,"server_type":"Dedicated","server_os":"Linux","password":true,"vac":true,"version":"7961495","steam_id":85568392924469994,"keywords":["nocrits","nodmgspread","payload","uncletopia"],"game_id":440,"stv_port":27026,"stv_name":"Uncletopia | New York City | 2 | All Maps | STV","players":[{"user_id":560,"name":"Slime Rancher 2 Enjoyer","steam_id":76561199171272762,"connected_time":377000000000,"state":"active","ping":69},{"user_id":561,"name":"BoyKisser","steam_id":76561199200969139,"connected_time":146000000000,"state":"active","ping":115}]},{"server_id":15,"name":"Uncletopia | New York City | 3 | Stopwatch Beta","name_short":"nyc-3","host":"nyc-1.us.uncletopia.com","port":27035,"enabled":true,"region":"us-east","cc":"us","latitude":40.73061,"longitude":-73.93524,"reserved":0,"last_update":"0001-01-01T00:00:00Z","name_a2s":"Uncletopia | New York City | 3 | Stopwatch Beta","protocol":17,"map":"workshop/koth_bagel_rc6.ugc2514036946","folder":"tf","game":"Team Fortress","app_id":440,"player_count":24,"max_players":24,"Bots":0,"server_type":"Dedicated","server_os":"Linux","password":true,"vac":true,"version":"7961495","steam_id":85568392924742820,"keywords":["cp","nocrits","nodmgspread","uncletopia"],"game_id":440,"stv_port":27036,"stv_name":"Uncletopia | New York City | 3 | Stopwatch Beta | STV","players":[{"user_id":195,"name":"Truffleoil","steam_id":76561198114689041,"connected_time":413000000000,"state":"active","ping":57},{"user_id":179,"name":"NewKidTheKappa","steam_id":76561198883414469,"connected_time":1081000000000,"state":"active","ping":61},{"user_id":180,"name":"Tʜᴇ Fᴏᴏʟ.","steam_id":76561198047167199,"connected_time":1045000000000,"state":"active","ping":85},{"user_id":118,"name":"cheeser","steam_id":76561198281772700,"connected_time":5523000000000,"state":"active","ping":43},{"user_id":193,"name":"Tupac Shakur","steam_id":76561198247651486,"connected_time":463000000000,"state":"active","ping":30},{"user_id":173,"name":"Flex Pexico","steam_id":76561198041838930,"connected_time":1305000000000,"state":"active","ping":86},{"user_id":168,"name":"shr","steam_id":76561198449852071,"connected_time":1734000000000,"state":"active","ping":106},{"user_id":199,"name":"Kav","steam_id":76561198331562055,"connected_time":239000000000,"state":"active","ping":70},{"user_id":203,"name":"EliminateSingleFamilyZoning","steam_id":76561198276653985,"connected_time":99000000000,"state":"active","ping":53},{"user_id":45,"name":"Vitzenhauzer","steam_id":76561198116449787,"connected_time":11072000000000,"state":"active","ping":53},{"user_id":176,"name":"Versuski","steam_id":76561198085193084,"connected_time":1215000000000,"state":"active","ping":61},{"user_id":202,"name":"Santamen","steam_id":76561198119478199,"connected_time":140000000000,"state":"active","ping":46},{"user_id":48,"name":"Feathercrown","steam_id":76561198397221488,"connected_time":11029000000000,"state":"active","ping":78},{"user_id":182,"name":"theghazinator","steam_id":76561198188027695,"connected_time":997000000000,"state":"active","ping":62},{"user_id":196,"name":"RailRunner66","steam_id":76561198053779091,"connected_time":386000000000,"state":"active","ping":103},{"user_id":183,"name":"freyja","steam_id":76561198012480197,"connected_time":993000000000,"state":"active","ping":119},{"user_id":184,"name":"Willowl","steam_id":76561198074612980,"connected_time":987000000000,"state":"active","ping":97},{"user_id":83,"name":"FrodobagginsTNT","steam_id":76561198224940688,"connected_time":9093000000000,"state":"active","ping":73},{"user_id":161,"name":"cornshot","steam_id":76561198043496387,"connected_time":2450000000000,"state":"active","ping":98},{"user_id":204,"name":"Chickenman_swager","steam_id":76561199140276474,"connected_time":98000000000,"state":"active","ping":58},{"user_id":148,"name":"rude boi","steam_id":76561198006783260,"connected_time":3013000000000,"state":"active","ping":45},{"user_id":205,"name":"leumas","steam_id":76561198240408540,"connected_time":87000000000,"state":"active","ping":46},{"user_id":206,"name":"Wso1123","steam_id":76561198048040111,"connected_time":7000000000,"state":"spawning","ping":114},{"user_id":162,"name":"sc67","steam_id":76561199302471485,"connected_time":2397000000000,"state":"active","ping":58}]},{"server_id":16,"name":"Uncletopia | New York City | 4 | Community","name_short":"nyc-4","host":"nyc-1.us.uncletopia.com","port":27045,"enabled":true,"region":"us-east","cc":"us","latitude":40.73061,"longitude":-73.93524,"reserved":0,"last_update":"0001-01-01T00:00:00Z","name_a2s":"Uncletopia | New York City | 4 | Community","protocol":17,"map":"workshop/pl_boundary_final1.ugc456799153","folder":"tf","game":"Team Fortress","app_id":440,"player_count":23,"max_players":24,"Bots":0,"server_type":"Dedicated","server_os":"Linux","password":true,"vac":true,"version":"7961495","steam_id":85568392924742821,"keywords":["cp","nocrits","nodmgspread","uncletopia"],"game_id":440,"stv_port":27046,"stv_name":"Uncletopia | New York City | 4 | Community | STV","players":[{"user_id":443,"name":"Gram Tokers Count Doinkula","steam_id":76561198112811565,"connected_time":2248000000000,"state":"connecting","ping":74},{"user_id":459,"name":"Park","steam_id":76561198057222814,"connected_time":1139000000000,"state":"connecting","ping":63},{"user_id":417,"name":"Brad Bones","steam_id":76561198068129320,"connected_time":4735000000000,"state":"connecting","ping":74},{"user_id":468,"name":"fruitcake","steam_id":76561198436085863,"connected_time":4000000000,"state":"connecting","ping":203},{"user_id":426,"name":"NFT(non functioning testicle)","steam_id":76561198092435966,"connected_time":4390000000000,"state":"connecting","ping":81},{"user_id":463,"name":"minidrwho","steam_id":76561199257935625,"connected_time":569000000000,"state":"connecting","ping":73},{"user_id":464,"name":"Noobmaster67","steam_id":76561199257965062,"connected_time":537000000000,"state":"connecting","ping":58},{"user_id":457,"name":"A Puppy","steam_id":76561198828184456,"connected_time":1328000000000,"state":"connecting","ping":65},{"user_id":427,"name":"Grengus Kahn","steam_id":76561198119568498,"connected_time":4375000000000,"state":"connecting","ping":73},{"user_id":450,"name":"Primitive","steam_id":76561198060500671,"connected_time":1885000000000,"state":"connecting","ping":62},{"user_id":436,"name":"Som Ting Wong","steam_id":76561198174985707,"connected_time":2713000000000,"state":"connecting","ping":91},{"user_id":458,"name":"7Tales","steam_id":76561198121572869,"connected_time":1297000000000,"state":"connecting","ping":166},{"user_id":445,"name":"Uncomfortably long toilet flush","steam_id":76561197993151595,"connected_time":2205000000000,"state":"connecting","ping":118},{"user_id":439,"name":"Blue Plasma","steam_id":76561198065614646,"connected_time":2401000000000,"state":"connecting","ping":84},{"user_id":447,"name":"Cat","steam_id":76561198328159094,"connected_time":2033000000000,"state":"connecting","ping":78},{"user_id":448,"name":"jerma but crying and lesbian","steam_id":76561198110661425,"connected_time":2032000000000,"state":"connecting","ping":89},{"user_id":465,"name":"Sandwich","steam_id":76561199475848606,"connected_time":511000000000,"state":"connecting","ping":74},{"user_id":455,"name":"Tom Crúaich","steam_id":76561197999439911,"connected_time":1438000000000,"state":"connecting","ping":122},{"user_id":452,"name":"Katzenwerfer","steam_id":76561198345464748,"connected_time":1864000000000,"state":"connecting","ping":150},{"user_id":466,"name":"Chihuahua","steam_id":76561199133120527,"connected_time":376000000000,"state":"connecting","ping":154},{"user_id":414,"name":"♡Ame♡","steam_id":76561198071217748,"connected_time":5169000000000,"state":"connecting","ping":76},{"user_id":467,"name":"3hunna56k.n3t","steam_id":76561198404564240,"connected_time":348000000000,"state":"connecting","ping":66}]},{"server_id":142,"name":"Uncletopia | São Paulo | 1 | All Maps","name_short":"sao-1","host":"sao-1.br.uncletopia.com","port":27015,"enabled":true,"region":"sa","cc":"br","latitude":-23.533773,"longitude":-46.62529,"reserved":0,"last_update":"0001-01-01T00:00:00Z","name_a2s":"Uncletopia | São Paulo | 1 | All Maps","protocol":17,"map":"koth_viaduct","folder":"tf","game":"Team Fortress","app_id":440,"player_count":0,"max_players":24,"Bots":0,"server_type":"Dedicated","server_os":"Linux","password":true,"vac":true,"version":"7961495","steam_id":85568392924469996,"keywords":["cp","nocrits","nodmgspread","uncletopia"],"game_id":440,"stv_port":27016,"stv_name":"Uncletopia | São Paulo | 1 | All Maps | STV","players":null},{"server_id":143,"name":"Uncletopia | São Paulo | 2 | Community","name_short":"sao-2","host":"sao-2.br.uncletopia.com","port":27015,"enabled":true,"region":"sa","cc":"br","latitude":-23.533773,"longitude":-46.62529,"reserved":0,"last_update":"0001-01-01T00:00:00Z","name_a2s":"Uncletopia | São Paulo | 2 | Community","protocol":17,"map":"workshop/koth_bagel_rc6.ugc2514036946","folder":"tf","game":"Team Fortress","app_id":440,"player_count":0,"max_players":24,"Bots":0,"server_type":"Dedicated","server_os":"Linux","password":true,"vac":true,"version":"7961495","steam_id":85568392924485349,"keywords":["cp","nocrits","nodmgspread","uncletopia"],"game_id":440,"stv_port":27016,"stv_name":"Uncletopia | São Paulo | 2 | Community | STV","players":null},{"server_id":7,"name":"Uncletopia | Seattle | 1 | All Maps","name_short":"sea-1","host":"sea-1.us.uncletopia.com","port":27015,"enabled":true,"region":"us-west","cc":"us","latitude":47.608013,"longitude":-122.33517,"reserved":0,"last_update":"0001-01-01T00:00:00Z","name_a2s":"Uncletopia | Seattle | 1 | All Maps","protocol":17,"map":"pl_borneo","folder":"tf","game":"Team Fortress","app_id":440,"player_count":24,"max_players":24,"Bots":0,"server_type":"Dedicated","server_os":"Linux","password":true,"vac":true,"version":"7961495","steam_id":85568392924469997,"keywords":["nocrits","nodmgspread","payload","uncletopia"],"game_id":440,"stv_port":27016,"stv_name":"Uncletopia | Seattle | 1 | All Maps | STV","players":[{"user_id":683,"name":"Yammie","steam_id":76561197987304489,"connected_time":49000000000,"state":"spawning","ping":36},{"user_id":671,"name":"William P. Ennis","steam_id":76561198073464877,"connected_time":1050000000000,"state":"active","ping":107},{"user_id":682,"name":"Casleau","steam_id":76561198011835184,"connected_time":112000000000,"state":"spawning","ping":184},{"user_id":688,"name":"Spooky","steam_id":76561198030817605,"connected_time":20000000000,"state":"spawning","ping":39},{"user_id":634,"name":"PJROCK101","steam_id":76561198070616561,"connected_time":3913000000000,"state":"spawning","ping":83},{"user_id":685,"name":"zzrat","steam_id":76561198014925415,"connected_time":34000000000,"state":"active","ping":98},{"user_id":630,"name":"jole","steam_id":76561198037292232,"connected_time":4092000000000,"state":"active","ping":152},{"user_id":644,"name":"Sol","steam_id":76561198121500201,"connected_time":2879000000000,"state":"active","ping":262},{"user_id":678,"name":"The Oatmeal Man","steam_id":76561198093882498,"connected_time":583000000000,"state":"active","ping":99},{"user_id":578,"name":"Sailor","steam_id":76561199081983517,"connected_time":9851000000000,"state":"active","ping":98},{"user_id":672,"name":"SAP","steam_id":76561198005186905,"connected_time":1009000000000,"state":"active","ping":109},{"user_id":656,"name":"spenca","steam_id":76561198025371154,"connected_time":2003000000000,"state":"active","ping":81},{"user_id":565,"name":"[COS]SonneyDonkeh","steam_id":76561198091284496,"connected_time":11213000000000,"state":"spawning","ping":139},{"user_id":652,"name":"Sweatpants","steam_id":76561198097188001,"connected_time":2468000000000,"state":"spawning","ping":51},{"user_id":662,"name":"firefish","steam_id":76561199135656474,"connected_time":1463000000000,"state":"spawning","ping":123},{"user_id":663,"name":"NOT FRIENDLY","steam_id":76561198041327231,"connected_time":1444000000000,"state":"spawning","ping":237},{"user_id":684,"name":"lil boogie","steam_id":76561198064059721,"connected_time":49000000000,"state":"spawning","ping":120},{"user_id":654,"name":"CatyushaTheGreat","steam_id":76561198295878299,"connected_time":2131000000000,"state":"active","ping":75},{"user_id":666,"name":"CassieIrradiated","steam_id":76561198094123940,"connected_time":1403000000000,"state":"spawning","ping":90},{"user_id":633,"name":"kid squid","steam_id":76561198167016289,"connected_time":3948000000000,"state":"active","ping":176},{"user_id":664,"name":"TeriyakiDynamite","steam_id":76561198050049346,"connected_time":1443000000000,"state":"spawning","ping":69},{"user_id":604,"name":"lasky","steam_id":76561198017030029,"connected_time":7425000000000,"state":"spawning","ping":101},{"user_id":665,"name":"fragadelphia","steam_id":76561198066116363,"connected_time":1440000000000,"state":"active","ping":215},{"user_id":687,"name":"Stapler","steam_id":76561198099295077,"connected_time":31000000000,"state":"active","ping":263}]},{"server_id":119,"name":"Uncletopia | Seattle | 2 | All Maps","name_short":"sea-2","host":"sea-1.us.uncletopia.com","port":27025,"enabled":true,"region":"us-west","cc":"us","latitude":47.608013,"longitude":-122.33517,"reserved":0,"last_update":"0001-01-01T00:00:00Z","name_a2s":"Uncletopia | Seattle | 2 | All Maps","protocol":17,"map":"koth_nucleus","folder":"tf","game":"Team Fortress","app_id":440,"player_count":24,"max_players":24,"Bots":0,"server_type":"Dedicated","server_os":"Linux","password":true,"vac":true,"version":"7961495","steam_id":85568392924469998,"keywords":["cp","nocrits","nodmgspread","uncletopia"],"game_id":440,"stv_port":27026,"stv_name":"Uncletopia | Seattle | 2 | All Maps | STV","players":[{"user_id":410,"name":"M@","steam_id":76561198053117503,"connected_time":3520000000000,"state":"active","ping":57},{"user_id":382,"name":"PiolaCat","steam_id":76561199100535345,"connected_time":5653000000000,"state":"active","ping":223},{"user_id":422,"name":"okiki_114","steam_id":76561199192983913,"connected_time":3195000000000,"state":"active","ping":98},{"user_id":350,"name":"Digitic","steam_id":76561198080295536,"connected_time":7726000000000,"state":"active","ping":120},{"user_id":351,"name":"DoubleX2000","steam_id":76561198164134387,"connected_time":7720000000000,"state":"active","ping":61},{"user_id":411,"name":"mub","steam_id":76561197961943948,"connected_time":3480000000000,"state":"active","ping":45},{"user_id":436,"name":"[Industrial] A_HUMBLEBUMBLED","steam_id":76561198064771878,"connected_time":2024000000000,"state":"active","ping":36},{"user_id":437,"name":"juan.png","steam_id":76561199276894516,"connected_time":2004000000000,"state":"active","ping":55},{"user_id":398,"name":"♦Benji♦","steam_id":76561198313529973,"connected_time":4396000000000,"state":"active","ping":43},{"user_id":361,"name":"Immortal8Reaper","steam_id":76561198297661559,"connected_time":7271000000000,"state":"active","ping":92},{"user_id":362,"name":"Toddinator","steam_id":76561198303329028,"connected_time":7257000000000,"state":"active","ping":76},{"user_id":439,"name":"bobbymcbobington","steam_id":76561199089411172,"connected_time":1931000000000,"state":"active","ping":162},{"user_id":385,"name":"Mr. DeLarge","steam_id":76561198336820066,"connected_time":5622000000000,"state":"active","ping":61},{"user_id":450,"name":"Three(3)SlicesOfBread","steam_id":76561199386210740,"connected_time":236000000000,"state":"active","ping":99},{"user_id":429,"name":"Angela :3","steam_id":76561198991101353,"connected_time":2889000000000,"state":"active","ping":45},{"user_id":438,"name":"Gibby","steam_id":76561198359568579,"connected_time":1987000000000,"state":"active","ping":56},{"user_id":448,"name":"♫ Gilgion","steam_id":76561198050297529,"connected_time":287000000000,"state":"active","ping":45},{"user_id":407,"name":"MonteJT","steam_id":76561198055409360,"connected_time":3976000000000,"state":"active","ping":34},{"user_id":396,"name":"Tripll-L","steam_id":76561197998077437,"connected_time":4405000000000,"state":"active","ping":52},{"user_id":431,"name":"Ġ1 ♦ Synth","steam_id":76561198058660228,"connected_time":2787000000000,"state":"active","ping":115},{"user_id":441,"name":"your girl","steam_id":76561199050118111,"connected_time":1259000000000,"state":"active","ping":61},{"user_id":440,"name":"Buswolley","steam_id":76561197995205571,"connected_time":1925000000000,"state":"active","ping":69},{"user_id":420,"name":"Inflight","steam_id":76561198920049475,"connected_time":3328000000000,"state":"active","ping":108},{"user_id":442,"name":"Mocha Josie","steam_id":76561198066452726,"connected_time":944000000000,"state":"active","ping":83}]},{"server_id":406,"name":"Uncletopia | Seattle | 3 | Stopwatch Beta","name_short":"sea-3","host":"sea-1.us.uncletopia.com","port":27035,"enabled":true,"region":"us-west","cc":"us","latitude":47.608013,"longitude":-122.33517,"reserved":0,"last_update":"0001-01-01T00:00:00Z","name_a2s":"Uncletopia | Seattle | 3 | Stopwatch Beta","protocol":17,"map":"koth_lakeside_final","folder":"tf","game":"Team Fortress","app_id":440,"player_count":0,"max_players":24,"Bots":0,"server_type":"Dedicated","server_os":"Linux","password":true,"vac":true,"version":"7961495","steam_id":85568392924515217,"keywords":["cp","nocrits","nodmgspread","uncletopia"],"game_id":440,"stv_port":27036,"stv_name":"Uncletopia | Seattle | 3 | Stopwatch Beta | STV","players":null},{"server_id":17,"name":"Uncletopia | San Francisco | 1 | All Maps","name_short":"sfo-1","host":"sfo-1.us.uncletopia.com","port":27015,"enabled":true,"region":"us-west","cc":"us","latitude":37.77397,"longitude":-122.4313,"reserved":0,"last_update":"0001-01-01T00:00:00Z","name_a2s":"Uncletopia | San Francisco | 1 | All Maps","protocol":17,"map":"cp_dustbowl","folder":"tf","game":"Team Fortress","app_id":440,"player_count":24,"max_players":24,"Bots":0,"server_type":"Dedicated","server_os":"Linux","password":true,"vac":true,"version":"7961495","steam_id":85568392924469999,"keywords":["cp","nocrits","nodmgspread","uncletopia"],"game_id":440,"stv_port":27016,"stv_name":"Uncletopia | San Francisco | 1 | All Maps | STV","players":[{"user_id":542,"name":"Autogyro","steam_id":76561198047943679,"connected_time":1320000000000,"state":"active","ping":60},{"user_id":548,"name":"Villchip","steam_id":76561198198599982,"connected_time":795000000000,"state":"active","ping":66},{"user_id":534,"name":"Pyhoms","steam_id":76561198167809962,"connected_time":2169000000000,"state":"active","ping":44},{"user_id":498,"name":"ふわふわ毛布","steam_id":76561198088403016,"connected_time":4896000000000,"state":"active","ping":150},{"user_id":524,"name":"jude","steam_id":76561198186405021,"connected_time":2882000000000,"state":"active","ping":75},{"user_id":549,"name":"SpeKtre","steam_id":76561197973661069,"connected_time":788000000000,"state":"active","ping":77},{"user_id":537,"name":"Gugomo","steam_id":76561198121428316,"connected_time":2035000000000,"state":"active","ping":45},{"user_id":543,"name":"Lilmaggedon","steam_id":76561198072393166,"connected_time":1150000000000,"state":"active","ping":101},{"user_id":506,"name":"Droozlex","steam_id":76561198157221366,"connected_time":3856000000000,"state":"active","ping":70},{"user_id":507,"name":"Bloodgoat","steam_id":76561198047407295,"connected_time":3853000000000,"state":"active","ping":71},{"user_id":511,"name":"Rose","steam_id":76561198955581861,"connected_time":3586000000000,"state":"active","ping":48},{"user_id":547,"name":"PizzaMuncher89","steam_id":76561199121856753,"connected_time":805000000000,"state":"active","ping":79},{"user_id":554,"name":"salt","steam_id":76561198072214979,"connected_time":55000000000,"state":"active","ping":112},{"user_id":555,"name":"YASAI JUICE","steam_id":76561198131971992,"connected_time":10000000000,"state":"spawning","ping":89},{"user_id":551,"name":"TruthHut","steam_id":76561198093452436,"connected_time":698000000000,"state":"active","ping":67},{"user_id":527,"name":"Royal Birb","steam_id":76561198124184158,"connected_time":2379000000000,"state":"active","ping":70},{"user_id":552,"name":"Rabid Ham","steam_id":76561198154931014,"connected_time":688000000000,"state":"active","ping":62},{"user_id":544,"name":"LameNameJame","steam_id":76561198164714852,"connected_time":960000000000,"state":"active","ping":105},{"user_id":488,"name":"lker","steam_id":76561197976975075,"connected_time":5857000000000,"state":"active","ping":100},{"user_id":521,"name":"Giorno Giovanna","steam_id":76561198044106874,"connected_time":3261000000000,"state":"active","ping":84},{"user_id":476,"name":"Silly Shark","steam_id":76561198130714378,"connected_time":6742000000000,"state":"active","ping":86},{"user_id":518,"name":"Carrol","steam_id":76561198316384960,"connected_time":3465000000000,"state":"active","ping":82},{"user_id":529,"name":"JawnyMac","steam_id":76561198179529599,"connected_time":2344000000000,"state":"active","ping":55},{"user_id":523,"name":"Chad the Sex Haver","steam_id":76561198058236528,"connected_time":3181000000000,"state":"active","ping":60}]},{"server_id":18,"name":"Uncletopia | San Francisco | 2 | All Maps","name_short":"sfo-2","host":"sfo-1.us.uncletopia.com","port":27025,"enabled":true,"region":"us-west","cc":"us","latitude":37.77397,"longitude":-122.4313,"reserved":0,"last_update":"0001-01-01T00:00:00Z","name_a2s":"Uncletopia | San Francisco | 2 | All Maps","protocol":17,"map":"pl_thundermountain","folder":"tf","game":"Team Fortress","app_id":440,"player_count":24,"max_players":24,"Bots":0,"server_type":"Dedicated","server_os":"Linux","password":true,"vac":true,"version":"7961495","steam_id":85568392924470000,"keywords":["nocrits","nodmgspread","payload","uncletopia"],"game_id":440,"stv_port":27026,"stv_name":"Uncletopia | San Francisco | 2 | All Maps | STV","players":[{"user_id":151,"name":"Caspian","steam_id":76561199041466962,"connected_time":9164000000000,"state":"active","ping":48},{"user_id":267,"name":"Eurobeat too loud, can't hear :","steam_id":76561198330743199,"connected_time":798000000000,"state":"active","ping":56},{"user_id":268,"name":"Interrobang","steam_id":76561198385044529,"connected_time":777000000000,"state":"active","ping":103},{"user_id":269,"name":"Cardboardcoin","steam_id":76561199421284163,"connected_time":749000000000,"state":"active","ping":97},{"user_id":245,"name":"Quigi","steam_id":76561198144645874,"connected_time":2082000000000,"state":"active","ping":70},{"user_id":263,"name":"stinker","steam_id":76561198295640486,"connected_time":817000000000,"state":"active","ping":54},{"user_id":155,"name":"a cat plushie","steam_id":76561198080046542,"connected_time":8842000000000,"state":"active","ping":60},{"user_id":275,"name":"rf","steam_id":76561198195359229,"connected_time":51000000000,"state":"active","ping":57},{"user_id":270,"name":"Mattoy","steam_id":76561198047236889,"connected_time":691000000000,"state":"active","ping":62},{"user_id":259,"name":"gidmarsh","steam_id":76561198057199456,"connected_time":1034000000000,"state":"active","ping":55},{"user_id":152,"name":"ilun","steam_id":76561198042913843,"connected_time":9159000000000,"state":"active","ping":74},{"user_id":255,"name":"caca sniffer","steam_id":76561199099914725,"connected_time":1449000000000,"state":"active","ping":72},{"user_id":274,"name":"Michael Fettuccine","steam_id":76561198056953903,"connected_time":539000000000,"state":"active","ping":53},{"user_id":231,"name":"Igrium","steam_id":76561198119549811,"connected_time":2878000000000,"state":"active","ping":61},{"user_id":240,"name":"Ugly_Fat","steam_id":76561198123418237,"connected_time":2582000000000,"state":"active","ping":72},{"user_id":271,"name":"Live Toons Bootleg","steam_id":76561199109286338,"connected_time":621000000000,"state":"active","ping":80},{"user_id":238,"name":"itwaslag1337","steam_id":76561198217276345,"connected_time":2638000000000,"state":"active","ping":71},{"user_id":272,"name":"NaeNaeChungusBozo","steam_id":76561199446407203,"connected_time":618000000000,"state":"active","ping":84},{"user_id":222,"name":"Lord Brocktree","steam_id":76561198415527061,"connected_time":3674000000000,"state":"active","ping":68},{"user_id":228,"name":"LammyOW","steam_id":76561198816094950,"connected_time":2948000000000,"state":"active","ping":86},{"user_id":239,"name":"degeneracy","steam_id":76561198836102519,"connected_time":2617000000000,"state":"active","ping":116},{"user_id":232,"name":"SolarusD","steam_id":76561198029279861,"connected_time":2787000000000,"state":"active","ping":46},{"user_id":273,"name":"WaWaSkittleTits","steam_id":76561198411234398,"connected_time":574000000000,"state":"active","ping":113},{"user_id":244,"name":"Lynus","steam_id":76561198201470929,"connected_time":2243000000000,"state":"active","ping":136}]},{"server_id":19,"name":"Uncletopia | San Francisco | 3 | Stopwatch Beta","name_short":"sfo-3","host":"sfo-1.us.uncletopia.com","port":27035,"enabled":true,"region":"us-west","cc":"us","latitude":37.77397,"longitude":-122.4313,"reserved":0,"last_update":"0001-01-01T00:00:00Z","name_a2s":"Uncletopia | San Francisco | 3 | Stopwatch Beta","protocol":17,"map":"pl_borneo","folder":"tf","game":"Team Fortress","app_id":440,"player_count":0,"max_players":24,"Bots":0,"server_type":"Dedicated","server_os":"Linux","password":true,"vac":true,"version":"7961495","steam_id":85568392924742824,"keywords":["nocrits","nodmgspread","payload","uncletopia"],"game_id":440,"stv_port":27036,"stv_name":"Uncletopia | San Francisco | 3 | Stopwatch Beta | STV","players":null},{"server_id":20,"name":"Uncletopia | San Francisco | 4 | Community","name_short":"sfo-4","host":"sfo-1.us.uncletopia.com","port":27045,"enabled":true,"region":"us-west","cc":"us","latitude":37.77397,"longitude":-122.4313,"reserved":0,"last_update":"0001-01-01T00:00:00Z","name_a2s":"Uncletopia | San Francisco | 4 | Community","protocol":17,"map":"workshop/koth_bagel_rc6.ugc2514036946","folder":"tf","game":"Team Fortress","app_id":440,"player_count":0,"max_players":24,"Bots":0,"server_type":"Dedicated","server_os":"Linux","password":true,"vac":true,"version":"7961495","steam_id":85568392924742826,"keywords":["cp","nocrits","nodmgspread","uncletopia"],"game_id":440,"stv_port":27046,"stv_name":"Uncletopia | San Francisco | 4 | Community | STV","players":null},{"server_id":141,"name":"Uncletopia | Sydney | 1 | All Maps","name_short":"syd-1","host":"syd-1.au.uncletopia.com","port":27015,"enabled":true,"region":"au","cc":"au","latitude":-33.865143,"longitude":151.2099,"reserved":0,"last_update":"0001-01-01T00:00:00Z","name_a2s":"Uncletopia | Sydney | 1 | All Maps","protocol":17,"map":"pl_pier","folder":"tf","game":"Team Fortress","app_id":440,"player_count":24,"max_players":24,"Bots":0,"server_type":"Dedicated","server_os":"Linux","password":true,"vac":true,"version":"7961495","steam_id":85568392924470001,"keywords":["nocrits","nodmgspread","payload","uncletopia"],"game_id":440,"stv_port":27016,"stv_name":"Uncletopia | Sydney | 1 | All Maps | STV","players":[{"user_id":131,"name":"Evil Dragons 11","steam_id":76561199010001803,"connected_time":2824000000000,"state":"active","ping":51},{"user_id":110,"name":"Chromosome Crusader","steam_id":76561198073555817,"connected_time":3931000000000,"state":"active","ping":55},{"user_id":143,"name":"r","steam_id":76561199436707447,"connected_time":1594000000000,"state":"active","ping":53},{"user_id":133,"name":"SaltierThanYou","steam_id":76561198444395188,"connected_time":2730000000000,"state":"active","ping":88},{"user_id":134,"name":"Vaconcovat","steam_id":76561198024284041,"connected_time":2701000000000,"state":"active","ping":62},{"user_id":121,"name":"ibus","steam_id":76561199026701614,"connected_time":3194000000000,"state":"active","ping":55},{"user_id":147,"name":"ravioli","steam_id":76561198001765827,"connected_time":1205000000000,"state":"active","ping":47},{"user_id":152,"name":"Cyrome","steam_id":76561198049602369,"connected_time":799000000000,"state":"active","ping":70},{"user_id":138,"name":"FreeBeers","steam_id":76561198095448607,"connected_time":2157000000000,"state":"active","ping":70},{"user_id":150,"name":"uso","steam_id":76561198028756598,"connected_time":1181000000000,"state":"active","ping":76},{"user_id":148,"name":"The Duck of Taunton","steam_id":76561198032000556,"connected_time":1196000000000,"state":"active","ping":63},{"user_id":151,"name":"Trotter","steam_id":76561198343965263,"connected_time":1181000000000,"state":"active","ping":62},{"user_id":145,"name":"SIRROM12 (SIRR)","steam_id":76561198116738329,"connected_time":1236000000000,"state":"active","ping":69},{"user_id":124,"name":"Honey I hit the kids","steam_id":76561198318135663,"connected_time":3140000000000,"state":"active","ping":58},{"user_id":99,"name":"Marzell","steam_id":76561198151276153,"connected_time":4569000000000,"state":"active","ping":88},{"user_id":100,"name":"Foxivan","steam_id":76561198428775175,"connected_time":4532000000000,"state":"active","ping":71},{"user_id":154,"name":"hive","steam_id":76561199099744527,"connected_time":173000000000,"state":"active","ping":48},{"user_id":137,"name":"✪ Silver-Axe","steam_id":76561198254915260,"connected_time":2172000000000,"state":"active","ping":57},{"user_id":103,"name":"Emerald the Snake","steam_id":76561199013344853,"connected_time":4452000000000,"state":"active","ping":50},{"user_id":129,"name":"soupy","steam_id":76561198073734936,"connected_time":2875000000000,"state":"active","ping":84},{"user_id":136,"name":"Zilvera","steam_id":76561198065801850,"connected_time":2386000000000,"state":"active","ping":52},{"user_id":132,"name":"adammagee","steam_id":76561197972653972,"connected_time":2768000000000,"state":"active","ping":58},{"user_id":141,"name":"xbox2070","steam_id":76561198452767008,"connected_time":1853000000000,"state":"active","ping":50},{"user_id":146,"name":"Tiblyat","steam_id":76561198093077688,"connected_time":1236000000000,"state":"active","ping":75}]},{"server_id":123,"name":"Uncletopia | Sydney | 2 | All Maps","name_short":"syd-2","host":"syd-1.au.uncletopia.com","port":27025,"enabled":true,"region":"au","cc":"au","latitude":-33.865143,"longitude":151.2099,"reserved":0,"last_update":"0001-01-01T00:00:00Z","name_a2s":"Uncletopia | Sydney | 2 | All Maps","protocol":17,"map":"koth_highpass","folder":"tf","game":"Team Fortress","app_id":440,"player_count":0,"max_players":24,"Bots":0,"server_type":"Dedicated","server_os":"Linux","password":true,"vac":true,"version":"7961495","steam_id":85568392924470002,"keywords":["cp","nocrits","nodmgspread","uncletopia"],"game_id":440,"stv_port":27026,"stv_name":"Uncletopia | Sydney | 2 | All Maps | STV","players":null},{"server_id":395,"name":"Uncletopia | Sydney | 3 | All Maps","name_short":"syd-3","host":"syd-1.au.uncletopia.com","port":27035,"enabled":true,"region":"au","cc":"au","latitude":-33.865143,"longitude":151.2099,"reserved":0,"last_update":"0001-01-01T00:00:00Z","name_a2s":"Uncletopia | Sydney | 3 | All Maps","protocol":17,"map":"pl_swiftwater_final1","folder":"tf","game":"Team Fortress","app_id":440,"player_count":0,"max_players":24,"Bots":0,"server_type":"Dedicated","server_os":"Linux","password":true,"vac":true,"version":"7961495","steam_id":85568392925194467,"keywords":["nocrits","nodmgspread","payload","uncletopia"],"game_id":440,"stv_port":27036,"stv_name":"Uncletopia | Sydney | 3 | All Maps | STV","players":null},{"server_id":396,"name":"Uncletopia | Sydney | 4 | All Maps","name_short":"syd-4","host":"syd-1.au.uncletopia.com","port":27045,"enabled":true,"region":"au","cc":"au","latitude":-33.865143,"longitude":151.2099,"reserved":0,"last_update":"0001-01-01T00:00:00Z","name_a2s":"Uncletopia | Sydney | 4 | All Maps","protocol":17,"map":"koth_viaduct","folder":"tf","game":"Team Fortress","app_id":440,"player_count":5,"max_players":24,"Bots":0,"server_type":"Dedicated","server_os":"Linux","password":true,"vac":true,"version":"7961495","steam_id":85568392925397958,"keywords":["cp","nocrits","nodmgspread","uncletopia"],"game_id":440,"stv_port":27046,"stv_name":"Uncletopia | Sydney | 4 | All Maps | STV","players":[{"user_id":23,"name":"moosemeow","steam_id":76561198849004573,"connected_time":138000000000,"state":"active","ping":42},{"user_id":24,"name":"Cleisthenes","steam_id":76561198142861283,"connected_time":113000000000,"state":"active","ping":90},{"user_id":19,"name":"Squark","steam_id":76561199117672518,"connected_time":764000000000,"state":"active","ping":46},{"user_id":20,"name":"LaFleur","steam_id":76561198869499113,"connected_time":524000000000,"state":"active","ping":54},{"user_id":25,"name":"myyyth #MoreDM","steam_id":76561198241303512,"connected_time":36000000000,"state":"active","ping":52}]},{"server_id":58,"name":"Uncletopia | Sydney | 5 | Stopwatch Beta","name_short":"syd-5","host":"syd-1.au.uncletopia.com","port":27055,"enabled":true,"region":"au","cc":"au","latitude":-33.865143,"longitude":151.2099,"reserved":0,"last_update":"0001-01-01T00:00:00Z","name_a2s":"Uncletopia | Sydney | 5 | Stopwatch Beta","protocol":17,"map":"koth_viaduct","folder":"tf","game":"Team Fortress","app_id":440,"player_count":0,"max_players":24,"Bots":0,"server_type":"Dedicated","server_os":"Linux","password":true,"vac":true,"version":"7961495","steam_id":85568392925397959,"keywords":["cp","nocrits","nodmgspread","uncletopia"],"game_id":440,"stv_port":27056,"stv_name":"Uncletopia | Sydney | 5 | Stopwatch Beta | STV","players":null},{"server_id":59,"name":"Uncletopia | Sydney | 6 | Community","name_short":"syd-6","host":"syd-1.au.uncletopia.com","port":27065,"enabled":true,"region":"au","cc":"au","latitude":-33.865143,"longitude":151.2099,"reserved":0,"last_update":"0001-01-01T00:00:00Z","name_a2s":"Uncletopia | Sydney | 6 | Community","protocol":17,"map":"koth_cascade","folder":"tf","game":"Team Fortress","app_id":440,"player_count":0,"max_players":24,"Bots":0,"server_type":"Dedicated","server_os":"Linux","password":true,"vac":true,"version":"7961495","steam_id":85568392925397960,"keywords":["cp","nocrits","nodmgspread","uncletopia"],"game_id":440,"stv_port":27066,"stv_name":"Uncletopia | Sydney | 6 | Community | STV","players":null},{"server_id":49,"name":"Uncletopia | Warsaw | 1 | All Maps","name_short":"waw-1","host":"waw-1.pl.uncletopia.com","port":27015,"enabled":true,"region":"eu","cc":"pl","latitude":52.2297,"longitude":21.017532,"reserved":0,"last_update":"0001-01-01T00:00:00Z","name_a2s":"Uncletopia | Warsaw | 1 | All Maps","protocol":17,"map":"pl_swiftwater_final1","folder":"tf","game":"Team Fortress","app_id":440,"player_count":0,"max_players":24,"Bots":0,"server_type":"Dedicated","server_os":"Linux","password":true,"vac":true,"version":"7961495","steam_id":85568392925397850,"keywords":["nocrits","nodmgspread","payload","uncletopia"],"game_id":440,"stv_port":27016,"stv_name":"Uncletopia | Warsaw | 1 | All Maps | STV","players":null},{"server_id":50,"name":"Uncletopia | Warsaw | 2 | All Maps","name_short":"waw-2","host":"waw-1.pl.uncletopia.com","port":27025,"enabled":true,"region":"eu","cc":"pl","latitude":52.2297,"longitude":21.017532,"reserved":0,"last_update":"0001-01-01T00:00:00Z","name_a2s":"Uncletopia | Warsaw | 2 | All Maps","protocol":17,"map":"cp_dustbowl","folder":"tf","game":"Team Fortress","app_id":440,"player_count":0,"max_players":24,"Bots":0,"server_type":"Dedicated","server_os":"Linux","password":true,"vac":true,"version":"7961495","steam_id":85568392925397851,"keywords":["cp","nocrits","nodmgspread","uncletopia"],"game_id":440,"stv_port":27026,"stv_name":"Uncletopia | Warsaw | 2 | All Maps | STV","players":null},{"server_id":51,"name":"Uncletopia | Warsaw | 3 | All Maps","name_short":"waw-3","host":"waw-1.pl.uncletopia.com","port":27035,"enabled":true,"region":"eu","cc":"pl","latitude":52.2297,"longitude":21.017532,"reserved":0,"last_update":"0001-01-01T00:00:00Z","name_a2s":"Uncletopia | Warsaw | 3 | All Maps","protocol":17,"map":"pl_upward","folder":"tf","game":"Team Fortress","app_id":440,"player_count":0,"max_players":24,"Bots":0,"server_type":"Dedicated","server_os":"Linux","password":true,"vac":true,"version":"7961495","steam_id":85568392925397852,"keywords":["nocrits","nodmgspread","payload","uncletopia"],"game_id":440,"stv_port":27036,"stv_name":"Uncletopia | Warsaw | 3 | All Maps | STV","players":null},{"server_id":52,"name":"Uncletopia | Warsaw | 4 | All Maps","name_short":"waw-4","host":"waw-1.pl.uncletopia.com","port":27045,"enabled":true,"region":"eu","cc":"pl","latitude":52.2297,"longitude":21.017532,"reserved":0,"last_update":"0001-01-01T00:00:00Z","name_a2s":"Uncletopia | Warsaw | 4 | All Maps","protocol":17,"map":"koth_viaduct","folder":"tf","game":"Team Fortress","app_id":440,"player_count":0,"max_players":24,"Bots":0,"server_type":"Dedicated","server_os":"Linux","password":true,"vac":true,"version":"7961495","steam_id":85568392925397853,"keywords":["cp","nocrits","nodmgspread","uncletopia"],"game_id":440,"stv_port":27046,"stv_name":"Uncletopia | Warsaw | 4 | All Maps | STV","players":null},{"server_id":53,"name":"Uncletopia | Warsaw | 5 | Stopwatch Beta","name_short":"waw-5","host":"waw-1.pl.uncletopia.com","port":27055,"enabled":true,"region":"eu","cc":"pl","latitude":52.2297,"longitude":21.017532,"reserved":0,"last_update":"0001-01-01T00:00:00Z","name_a2s":"Uncletopia | Warsaw | 5 | Stopwatch Beta","protocol":17,"map":"cp_snakewater_final1","folder":"tf","game":"Team Fortress","app_id":440,"player_count":0,"max_players":24,"Bots":0,"server_type":"Dedicated","server_os":"Linux","password":true,"vac":true,"version":"7961495","steam_id":85568392925397854,"keywords":["cp","nocrits","nodmgspread","uncletopia"],"game_id":440,"stv_port":27056,"stv_name":"Uncletopia | Warsaw | 5 | Stopwatch Beta | STV","players":null},{"server_id":54,"name":"Uncletopia | Warsaw | 6 | Community","name_short":"waw-6","host":"waw-1.pl.uncletopia.com","port":27065,"enabled":true,"region":"eu","cc":"pl","latitude":52.2297,"longitude":21.017532,"reserved":0,"last_update":"0001-01-01T00:00:00Z","name_a2s":"Uncletopia | Warsaw | 6 | Community","protocol":17,"map":"cp_mountainlab","folder":"tf","game":"Team Fortress","app_id":440,"player_count":0,"max_players":24,"Bots":0,"server_type":"Dedicated","server_os":"Linux","password":true,"vac":true,"version":"7961495","steam_id":85568392925397856,"keywords":["cp","nocrits","nodmgspread","uncletopia"],"game_id":440,"stv_port":27066,"stv_name":"Uncletopia | Warsaw | 6 | Community | STV","players":null}]}