{"status":true,"message":"","result":[{"server_id":9,"name":"Uncletopia | Atlanta | 1 | All Maps","name_short":"atl-1","host":"atl-1.us.uncletopia.com","port":27015,"enabled":true,"region":"us-east","cc":"us","latitude":33.753746,"longitude":-84.38633,"reserved":0,"last_update":"0001-01-01T00:00:00Z","name_a2s":"Uncletopia | Atlanta | 1 | All Maps","protocol":17,"map":"pl_borneo","folder":"tf","game":"Team Fortress","app_id":440,"player_count":24,"max_players":24,"Bots":0,"server_type":"Dedicated","server_os":"Linux","password":true,"vac":true,"version":"7742253","steam_id":85568392924469982,"keywords":["nocrits","nodmgspread","payload","uncletopia"],"game_id":440,"stv_port":27016,"stv_name":"Uncletopia | Atlanta | 1 | All Maps | STV","players":[{"user_id":842,"name":"ash","steam_id":76561198127890645,"connected_time":1122000000000,"state":"active","ping":61},{"user_id":815,"name":"Dill","steam_id":76561197985091914,"connected_time":3405000000000,"state":"active","ping":65},{"user_id":826,"name":"ATL1 | Kramer","steam_id":76561198083595936,"connected_time":2663000000000,"state":"active","ping":79},{"user_id":749,"name":"nickleodeonfan449","steam_id":76561198073967747,"connected_time":7016000000000,"state":"active","ping":82},{"user_id":848,"name":"dingus","steam_id":76561198128742436,"connected_time":562000000000,"state":"active","ping":68},{"user_id":844,"name":"[TF2Apples] Intense Green Apple","steam_id":76561198803561622,"connected_time":988000000000,"state":"active","ping":81},{"user_id":849,"name":"Eins","steam_id":76561199030343810,"connected_time":292000000000,"state":"active","ping":44},{"user_id":850,"name":"Milk Queen","steam_id":76561197999125544,"connected_time":284000000000,"state":"active","ping":76},{"user_id":851,"name":"Scooter O'Boyl","steam_id":76561197971687069,"connected_time":270000000000,"state":"active","ping":66},{"user_id":830,"name":"ATL1 | Psionic Present","steam_id":76561198151019322,"connected_time":2461000000000,"state":"active","ping":70},{"user_id":825,"name":"psy·cho·so·cial","steam_id":76561197962696818,"connected_time":2683000000000,"state":"active","ping":65},{"user_id":831,"name":"Paladin Roselia","steam_id":76561198001584041,"connected_time":2399000000000,"state":"active","ping":51},{"user_id":834,"name":"Jimmy","steam_id":76561197970838363,"connected_time":2066000000000,"state":"active","ping":62},{"user_id":833,"name":"Red","steam_id":76561197998285162,"connected_time":2232000000000,"state":"active","ping":81},{"user_id":835,"name":"rat","steam_id":76561198146602622,"connected_time":2011000000000,"state":"active","ping":60},{"user_id":840,"name":"twitch.tv/Yoshi21 | TF2Pugs.com","steam_id":76561198002516729,"connected_time":1427000000000,"state":"active","ping":59},{"user_id":841,"name":"Samantha UwUwU \u003c333","steam_id":76561198176786799,"connected_time":1407000000000,"state":"active","ping":67},{"user_id":837,"name":"Pizza Party","steam_id":76561198165730754,"connected_time":1743000000000,"state":"active","ping":66},{"user_id":819,"name":"merty","steam_id":76561198067874268,"connected_time":3206000000000,"state":"active","ping":53},{"user_id":845,"name":"Ashric","steam_id":76561198044655935,"connected_time":945000000000,"state":"active","ping":61},{"user_id":846,"name":"akirajimbo","steam_id":76561197979960008,"connected_time":811000000000,"state":"active","ping":82},{"user_id":852,"name":"killerdragon130","steam_id":76561198899790922,"connected_time":245000000000,"state":"active","ping":76},{"user_id":853,"name":"glug slug","steam_id":76561197988690273,"connected_time":50000000000,"state":"active","ping":74},{"user_id":823,"name":"stolen loot","steam_id":76561198069954956,"connected_time":2737000000000,"state":"active","ping":49}]},{"server_id":400,"name":"Uncletopia | Atlanta | 3 | Stopwatch Beta","name_short":"atl-3","host":"atl-1.us.uncletopia.com","port":27035,"enabled":true,"region":"us-east","cc":"us","latitude":33.753746,"longitude":-84.38633,"reserved":0,"last_update":"0001-01-01T00:00:00Z","name_a2s":"Uncletopia | Atlanta | 3 | Stopwatch Beta","protocol":17,"map":"workshop/koth_product_final.ugc454272353","folder":"tf","game":"Team Fortress","app_id":440,"player_count":0,"max_players":24,"Bots":0,"server_type":"Dedicated","server_os":"Linux","password":true,"vac":true,"version":"7742253","steam_id":85568392924515187,"keywords":["cp","nocrits","nodmgspread","uncletopia"],"game_id":440,"stv_port":27036,"stv_name":"Uncletopia | Atlanta | 3 | Stopwatch Beta | STV","players":null},{"server_id":401,"name":"Uncletopia | Atlanta | 4 | No Payload","name_short":"atl-4","host":"atl-1.us.uncletopia.com","port":27045,"enabled":true,"region":"us-east","cc":"us","latitude":33.753746,"longitude":-84.38633,"reserved":0,"last_update":"0001-01-01T00:00:00Z","name_a2s":"Uncletopia | Atlanta | 4 | No Payload","protocol":17,"map":"pl_pier","folder":"tf","game":"Team Fortress","app_id":440,"player_count":0,"max_players":24,"Bots":0,"server_type":"Dedicated","server_os":"Linux","password":true,"vac":true,"version":"7723704","steam_id":85568392924515188,"keywords":["nocrits","nodmgspread","payload","uncletopia"],"game_id":440,"stv_port":27046,"stv_name":"Uncletopia | Atlanta | 4 | No Payload | STV","players":null},{"server_id":2,"name":"Uncletopia | Chicago | 1 | All Maps","name_short":"chi-1","host":"chi-1.us.uncletopia.com","port":27015,"enabled":true,"region":"us-central","cc":"us","latitude":41.881832,"longitude":-87.62318,"reserved":0,"last_update":"0001-01-01T00:00:00Z","name_a2s":"Uncletopia | Chicago | 1 | All Maps","protocol":17,"map":"pl_pier","folder":"tf","game":"Team Fortress","app_id":440,"player_count":20,"max_players":24,"Bots":0,"server_type":"Dedicated","server_os":"Linux","password":true,"vac":true,"version":"7742253","steam_id":85568392924469984,"keywords":["nocrits","nodmgspread","payload","uncletopia"],"game_id":440,"stv_port":27016,"stv_name":"Uncletopia | Chicago | 1 | All Maps | STV","players":[{"user_id":886,"name":"Anxiety","steam_id":76561198365627687,"connected_time":200000000000,"state":"active","ping":110},{"user_id":854,"name":"Myracle","steam_id":76561198070916920,"connected_time":2941000000000,"state":"active","ping":46},{"user_id":849,"name":"zoiboi","steam_id":76561198069598590,"connected_time":3757000000000,"state":"active","ping":105},{"user_id":839,"name":"Stormz64 (but festive)","steam_id":76561198239036482,"connected_time":4616000000000,"state":"active","ping":50},{"user_id":876,"name":"peachy","steam_id":76561198026664629,"connected_time":999000000000,"state":"active","ping":59},{"user_id":887,"name":"Goldy","steam_id":76561198432675701,"connected_time":33000000000,"state":"active","ping":195},{"user_id":879,"name":"Kim Kitsuragi","steam_id":76561198057374871,"connected_time":873000000000,"state":"active","ping":59},{"user_id":867,"name":"Gay Cake","steam_id":76561198004388831,"connected_time":1828000000000,"state":"active","ping":51},{"user_id":877,"name":"MoonWolf","steam_id":76561198095735033,"connected_time":962000000000,"state":"active","ping":84},{"user_id":868,"name":"Featherless Biped","steam_id":76561198034171721,"connected_time":1826000000000,"state":"active","ping":61},{"user_id":825,"name":"swift","steam_id":76561198082496000,"connected_time":5587000000000,"state":"active","ping":76},{"user_id":883,"name":"DivineWin","steam_id":76561198044415932,"connected_time":723000000000,"state":"active","ping":163},{"user_id":885,"name":"Souper Scott","steam_id":76561198045518926,"connected_time":346000000000,"state":"active","ping":52},{"user_id":875,"name":"Crazy","steam_id":76561198102772209,"connected_time":1071000000000,"state":"active","ping":55},{"user_id":852,"name":"triangleman","steam_id":76561198972733542,"connected_time":3439000000000,"state":"active","ping":62},{"user_id":871,"name":"u/unhinged_person","steam_id":76561198085839920,"connected_time":1436000000000,"state":"active","ping":86},{"user_id":833,"name":"[K.Y.L.L.]Pup (she/they)","steam_id":76561198027321950,"connected_time":5140000000000,"state":"active","ping":90},{"user_id":834,"name":"Be Gay, Do Crimes, Smoke Weed!","steam_id":76561198092419868,"connected_time":5132000000000,"state":"active","ping":90},{"user_id":862,"name":"your colonoscopy results","steam_id":76561198017705248,"connected_time":2771000000000,"state":"active","ping":45},{"user_id":873,"name":"perezdev","steam_id":76561198044549331,"connected_time":1192000000000,"state":"active","ping":60}]},{"server_id":106,"name":"Uncletopia | Chicago | 2 | All Maps","name_short":"chi-2","host":"chi-1.us.uncletopia.com","port":27025,"enabled":true,"region":"us-central","cc":"us","latitude":41.881832,"longitude":-87.62318,"reserved":0,"last_update":"0001-01-01T00:00:00Z","name_a2s":"Uncletopia | Chicago | 2 | All Maps","protocol":17,"map":"pl_snowycoast","folder":"tf","game":"Team Fortress","app_id":440,"player_count":1,"max_players":24,"Bots":0,"server_type":"Dedicated","server_os":"Linux","password":true,"vac":true,"version":"7742253","steam_id":85568392924469985,"keywords":["nocrits","nodmgspread","payload","uncletopia"],"game_id":440,"stv_port":27026,"stv_name":"Uncletopia | Chicago | 2 | All Maps | STV","players":[{"user_id":1100,"name":"Random","steam_id":76561198318879454,"connected_time":52000000000,"state":"connecting","ping":91}]},{"server_id":402,"name":"Uncletopia | Chicago | 3 | All Maps","name_short":"chi-3","host":"chi-1.us.uncletopia.com","port":27035,"enabled":true,"region":"us-central","cc":"us","latitude":41.881832,"longitude":-87.62318,"reserved":0,"last_update":"0001-01-01T00:00:00Z","name_a2s":"Uncletopia | Chicago | 3 | All Maps","protocol":17,"map":"pl_barnblitz","folder":"tf","game":"Team Fortress","app_id":440,"player_count":0,"max_players":24,"Bots":0,"server_type":"Dedicated","server_os":"Linux","password":true,"vac":true,"version":"7742253","steam_id":85568392924515191,"keywords":["nocrits","nodmgspread","payload","uncletopia"],"game_id":440,"stv_port":27036,"stv_name":"Uncletopia | Chicago | 3 | All Maps | STV","players":null},{"server_id":403,"name":"Uncletopia | Chicago | 4 | All Maps","name_short":"chi-4","host":"chi-1.us.uncletopia.com","port":27045,"enabled":true,"region":"us-central","cc":"us","latitude":41.881832,"longitude":-87.62318,"reserved":0,"last_update":"0001-01-01T00:00:00Z","name_a2s":"Uncletopia | Chicago | 4 | All Maps","protocol":17,"map":"pl_upward","folder":"tf","game":"Team Fortress","app_id":440,"player_count":17,"max_players":24,"Bots":0,"server_type":"Dedicated","server_os":"Linux","password":true,"vac":true,"version":"7742253","steam_id":85568392924515193,"keywords":["nocrits","nodmgspread","payload","uncletopia"],"game_id":440,"stv_port":27046,"stv_name":"Uncletopia | Chicago | 4 | All Maps | STV","players":[{"user_id":419,"name":"Fantastic","steam_id":76561198079088978,"connected_time":6669000000000,"state":"active","ping":44},{"user_id":460,"name":"1 0 0 . m i l ‘","steam_id":76561198255308129,"connected_time":3415000000000,"state":"active","ping":123},{"user_id":502,"name":"Vladikr1","steam_id":76561198401495362,"connected_time":286000000000,"state":"active","ping":50},{"user_id":359,"name":"C papi","steam_id":76561198027779564,"connected_time":12096000000000,"state":"active","ping":49},{"user_id":488,"name":"End.","steam_id":76561199129374922,"connected_time":1100000000000,"state":"active","ping":81},{"user_id":490,"name":"Psychosis","steam_id":76561198078659070,"connected_time":1082000000000,"state":"active","ping":64},{"user_id":453,"name":"lili.winters","steam_id":76561199391478575,"connected_time":3876000000000,"state":"active","ping":102},{"user_id":497,"name":"Kamin","steam_id":76561198255299559,"connected_time":656000000000,"state":"active","ping":74},{"user_id":382,"name":"Hameas","steam_id":76561198195620918,"connected_time":9896000000000,"state":"active","ping":111},{"user_id":363,"name":"Jeremy","steam_id":76561198286240347,"connected_time":11241000000000,"state":"active","ping":52},{"user_id":454,"name":"new years rizzolution","steam_id":76561198086193212,"connected_time":3847000000000,"state":"active","ping":50},{"user_id":444,"name":"Brown $keez","steam_id":76561198053621664,"connected_time":4738000000000,"state":"active","ping":49},{"user_id":496,"name":"daemon","steam_id":76561198001541433,"connected_time":720000000000,"state":"active","ping":45},{"user_id":501,"name":"Ye (I Love Hanukkah( Day6 ) Wes","steam_id":76561198068830312,"connected_time":329000000000,"state":"active","ping":45},{"user_id":491,"name":"COOL.HAMMER !!","steam_id":76561198013652313,"connected_time":1048000000000,"state":"active","ping":55},{"user_id":495,"name":"NubKat","steam_id":76561199132262158,"connected_time":877000000000,"state":"active","ping":58},{"user_id":494,"name":"theo","steam_id":76561198246006026,"connected_time":991000000000,"state":"active","ping":92}]},{"server_id":36,"name":"Uncletopia | Chicago | 5 | All Maps","name_short":"chi-5","host":"chi-2.us.uncletopia.com","port":27015,"enabled":true,"region":"us-central","cc":"us","latitude":41.881832,"longitude":-87.62318,"reserved":0,"last_update":"0001-01-01T00:00:00Z","name_a2s":"Uncletopia | Chicago | 5 | All Maps","protocol":17,"map":"koth_lakeside_final","folder":"tf","game":"Team Fortress","app_id":440,"player_count":19,"max_players":24,"Bots":0,"server_type":"Dedicated","server_os":"Linux","password":true,"vac":true,"version":"7742253","steam_id":85568392924866362,"keywords":["cp","nocrits","nodmgspread","uncletopia"],"game_id":440,"stv_port":27016,"stv_name":"Uncletopia | Chicago | 5 | All Maps | STV","players":[{"user_id":589,"name":"shoko","steam_id":76561198431770137,"connected_time":830000000000,"state":"active","ping":63},{"user_id":518,"name":"Nobuunga","steam_id":76561198100614981,"connected_time":6871000000000,"state":"active","ping":72},{"user_id":556,"name":"drezzo","steam_id":76561198028444359,"connected_time":3196000000000,"state":"active","ping":150},{"user_id":567,"name":"christmas larguu","steam_id":76561197994336210,"connected_time":2922000000000,"state":"active","ping":60},{"user_id":594,"name":"Breezy","steam_id":76561198046903890,"connected_time":493000000000,"state":"active","ping":48},{"user_id":597,"name":"Webi Wabo","steam_id":76561198799224408,"connected_time":402000000000,"state":"active","ping":54},{"user_id":595,"name":"Nodin","steam_id":76561198135757376,"connected_time":486000000000,"state":"active","ping":46},{"user_id":591,"name":"Mr.Dies a lot","steam_id":76561199061602946,"connected_time":656000000000,"state":"active","ping":175},{"user_id":596,"name":"Killroy NQP ❤","steam_id":76561198006983771,"connected_time":423000000000,"state":"active","ping":75},{"user_id":598,"name":"Tzigon","steam_id":76561198045300405,"connected_time":382000000000,"state":"active","ping":53},{"user_id":576,"name":"aqua","steam_id":76561199407709552,"connected_time":2339000000000,"state":"active","ping":45},{"user_id":599,"name":"Osaka!!!","steam_id":76561199015692132,"connected_time":322000000000,"state":"active","ping":95},{"user_id":584,"name":"Plasmabolt","steam_id":76561198210609169,"connected_time":1049000000000,"state":"active","ping":104},{"user_id":585,"name":"P E C K","steam_id":76561198065753890,"connected_time":1040000000000,"state":"active","ping":106},{"user_id":600,"name":"JM","steam_id":76561198201872929,"connected_time":305000000000,"state":"active","ping":75},{"user_id":587,"name":"reis","steam_id":76561199232952016,"connected_time":936000000000,"state":"active","ping":175},{"user_id":590,"name":"Taco","steam_id":76561198024471874,"connected_time":803000000000,"state":"active","ping":81},{"user_id":535,"name":"Passes the Bungus","steam_id":76561198040647717,"connected_time":5038000000000,"state":"active","ping":77},{"user_id":574,"name":"pizzaguy4","steam_id":76561198058821622,"connected_time":2616000000000,"state":"active","ping":65}]},{"server_id":37,"name":"Uncletopia | Chicago | 6 | All Maps","name_short":"chi-6","host":"chi-2.us.uncletopia.com","port":27025,"enabled":true,"region":"us-central","cc":"us","latitude":41.881832,"longitude":-87.62318,"reserved":0,"last_update":"0001-01-01T00:00:00Z","name_a2s":"Uncletopia | Chicago | 6 | All Maps","protocol":17,"map":"cp_dustbowl","folder":"tf","game":"Team Fortress","app_id":440,"player_count":0,"max_players":24,"Bots":0,"server_type":"Dedicated","server_os":"Linux","password":true,"vac":true,"version":"7742253","steam_id":85568392924866363,"keywords":["cp","nocrits","nodmgspread","uncletopia"],"game_id":440,"stv_port":27026,"stv_name":"Uncletopia | Chicago | 6 | All Maps | STV","players":null},{"server_id":38,"name":"Uncletopia | Chicago | 7 | Stopwatch Beta","name_short":"chi-7","host":"chi-2.us.uncletopia.com","port":27035,"enabled":true,"region":"us-central","cc":"us","latitude":41.881832,"longitude":-87.62318,"reserved":0,"last_update":"0001-01-01T00:00:00Z","name_a2s":"Uncletopia | Chicago | 7 | Stopwatch Beta","protocol":17,"map":"workshop/pl_barnblitz_pro7.ugc582280235","folder":"tf","game":"Team Fortress","app_id":440,"player_count":0,"max_players":24,"Bots":0,"server_type":"Dedicated","server_os":"Linux","password":true,"vac":true,"version":"7742253","steam_id":85568392924866364,"keywords":["nocrits","nodmgspread","payload","uncletopia"],"game_id":440,"stv_port":27036,"stv_name":"Uncletopia | Chicago | 7 | Stopwatch Beta | STV","players":null},{"server_id":39,"name":"Uncletopia | Chicago | 8 | Community","name_short":"chi-8","host":"chi-2.us.uncletopia.com","port":27045,"enabled":true,"region":"us-central","cc":"us","latitude":41.881832,"longitude":-87.62318,"reserved":0,"last_update":"0001-01-01T00:00:00Z","name_a2s":"Uncletopia | Chicago | 8 | Community","protocol":17,"map":"workshop/koth_bagel_rc5.ugc2514036946","folder":"tf","game":"Team Fortress","app_id":440,"player_count":0,"max_players":24,"Bots":0,"server_type":"Dedicated","server_os":"Linux","password":true,"vac":true,"version":"7742253","steam_id":85568392924866365,"keywords":["cp","nocrits","nodmgspread","uncletopia"],"game_id":440,"stv_port":27046,"stv_name":"Uncletopia | Chicago | 8 | Community | STV","players":null},{"server_id":8,"name":"Uncletopia | Dallas | 1 | All Maps","name_short":"dal-1","host":"dal-1.us.uncletopia.com","port":27015,"enabled":true,"region":"us-central","cc":"us","latitude":32.779167,"longitude":-96.80889,"reserved":0,"last_update":"0001-01-01T00:00:00Z","name_a2s":"Uncletopia | Dallas | 1 | All Maps","protocol":17,"map":"pl_barnblitz","folder":"tf","game":"Team Fortress","app_id":440,"player_count":23,"max_players":24,"Bots":0,"server_type":"Dedicated","server_os":"Linux","password":true,"vac":true,"version":"7742253","steam_id":85568392924469986,"keywords":["nocrits","nodmgspread","payload","uncletopia"],"game_id":440,"stv_port":27016,"stv_name":"Uncletopia | Dallas | 1 | All Maps | STV","players":[{"user_id":387,"name":"|Ruco Sama|","steam_id":76561198408593857,"connected_time":5354000000000,"state":"active","ping":59},{"user_id":419,"name":"Peak","steam_id":76561198118772175,"connected_time":3354000000000,"state":"active","ping":69},{"user_id":433,"name":"canine defecation","steam_id":76561198115656778,"connected_time":2421000000000,"state":"active","ping":73},{"user_id":424,"name":"Medic","steam_id":76561198067869016,"connected_time":3198000000000,"state":"active","ping":70},{"user_id":421,"name":"ӋԼן.maS","steam_id":76561198114953928,"connected_time":3265000000000,"state":"active","ping":177},{"user_id":406,"name":"ATL1 | Rat","steam_id":76561198137925582,"connected_time":4884000000000,"state":"active","ping":88},{"user_id":453,"name":"Just Another Stoned Eevee","steam_id":76561198262852705,"connected_time":521000000000,"state":"active","ping":83},{"user_id":435,"name":"King Cotton","steam_id":76561198292444376,"connected_time":2364000000000,"state":"active","ping":54},{"user_id":450,"name":"Can You Believe It Guys?","steam_id":76561198401455467,"connected_time":714000000000,"state":"active","ping":79},{"user_id":426,"name":"Shipmunk","steam_id":76561198063062670,"connected_time":3031000000000,"state":"active","ping":73},{"user_id":390,"name":"Zorlovo","steam_id":76561198006443283,"connected_time":5347000000000,"state":"active","ping":85},{"user_id":455,"name":"-","steam_id":76561198021308963,"connected_time":335000000000,"state":"active","ping":60},{"user_id":418,"name":"Ap1hw","steam_id":76561199122883466,"connected_time":3391000000000,"state":"active","ping":50},{"user_id":431,"name":"SALEM","steam_id":76561198116281100,"connected_time":2461000000000,"state":"active","ping":57},{"user_id":379,"name":"Brainfreezzzzz","steam_id":76561198068496884,"connected_time":6098000000000,"state":"active","ping":89},{"user_id":442,"name":"VerociousVee","steam_id":76561198289106015,"connected_time":1734000000000,"state":"active","ping":93},{"user_id":446,"name":"i love rocks","steam_id":76561199088355714,"connected_time":771000000000,"state":"active","ping":96},{"user_id":456,"name":"purple drink","steam_id":76561198120973162,"connected_time":74000000000,"state":"active","ping":86},{"user_id":401,"name":"Sol","steam_id":76561198803824764,"connected_time":5155000000000,"state":"active","ping":124},{"user_id":452,"name":"LeviticusDB","steam_id":76561199079690162,"connected_time":577000000000,"state":"active","ping":115},{"user_id":445,"name":"pew pew user","steam_id":76561198307845869,"connected_time":1477000000000,"state":"active","ping":89},{"user_id":454,"name":"_narwool_","steam_id":76561198175955138,"connected_time":490000000000,"state":"active","ping":89},{"user_id":405,"name":"mahik","steam_id":76561198012270322,"connected_time":4985000000000,"state":"active","ping":85}]},{"server_id":108,"name":"Uncletopia | Dallas | 2 | All Maps","name_short":"dal-2","host":"dal-1.us.uncletopia.com","port":27025,"enabled":true,"region":"us-central","cc":"us","latitude":32.779167,"longitude":-96.80889,"reserved":0,"last_update":"0001-01-01T00:00:00Z","name_a2s":"Uncletopia | Dallas | 2 | All Maps","protocol":17,"map":"cp_sunshine","folder":"tf","game":"Team Fortress","app_id":440,"player_count":0,"max_players":24,"Bots":0,"server_type":"Dedicated","server_os":"Linux","password":true,"vac":true,"version":"7742253","steam_id":85568392924469988,"keywords":["cp","nocrits","nodmgspread","uncletopia"],"game_id":440,"stv_port":27026,"stv_name":"Uncletopia | Dallas | 2 | All Maps | STV","players":null},{"server_id":5,"name":"Uncletopia | Frankfurt | 1 | All Maps","name_short":"frk-1","host":"frk-1.de.uncletopia.com","port":27015,"enabled":true,"region":"eu","cc":"de","latitude":50.110924,"longitude":8.682127,"reserved":0,"last_update":"0001-01-01T00:00:00Z","name_a2s":"Uncletopia | Frankfurt | 1 | All Maps","protocol":17,"map":"pl_upward","folder":"tf","game":"Team Fortress","app_id":440,"player_count":24,"max_players":24,"Bots":0,"server_type":"Dedicated","server_os":"Linux","password":true,"vac":true,"version":"7742253","steam_id":85568392924469989,"keywords":["nocrits","nodmgspread","payload","uncletopia"],"game_id":440,"stv_port":27016,"stv_name":"Uncletopia | Frankfurt | 1 | All Maps | STV","players":[{"user_id":22,"name":"ratoshin","steam_id":76561198194433657,"connected_time":963000000000,"state":"active","ping":46},{"user_id":6,"name":"leminsc8","steam_id":76561198825084995,"connected_time":5599000000000,"state":"active","ping":35},{"user_id":7,"name":"Vol't","steam_id":76561198808294219,"connected_time":4743000000000,"state":"active","ping":165},{"user_id":12,"name":"peruna","steam_id":76561198000721196,"connected_time":3246000000000,"state":"active","ping":90},{"user_id":15,"name":"Doctor Marijuana","steam_id":76561198288289879,"connected_time":1851000000000,"state":"active","ping":66},{"user_id":26,"name":"wieto","steam_id":76561198050626427,"connected_time":683000000000,"state":"active","ping":59},{"user_id":32,"name":"The Funny Cat-Heaby","steam_id":76561198439978112,"connected_time":440000000000,"state":"active","ping":122},{"user_id":19,"name":"yan.tsaulouski","steam_id":76561199206920490,"connected_time":1413000000000,"state":"active","ping":103},{"user_id":41,"name":"Polar Wolf","steam_id":76561198442981093,"connected_time":192000000000,"state":"active","ping":55},{"user_id":25,"name":"Accident","steam_id":76561198115160396,"connected_time":751000000000,"state":"active","ping":73},{"user_id":33,"name":"E1s #TransPhobic","steam_id":76561198894958917,"connected_time":417000000000,"state":"active","ping":49},{"user_id":29,"name":"jp-karam","steam_id":76561198048947685,"connected_time":524000000000,"state":"active","ping":121},{"user_id":30,"name":"SynthBox3","steam_id":76561199094075745,"connected_time":516000000000,"state":"active","ping":102},{"user_id":31,"name":"Juhkuu","steam_id":76561198079326000,"connected_time":494000000000,"state":"active","ping":63},{"user_id":34,"name":"Guy with squares as username","steam_id":76561198269524918,"connected_time":414000000000,"state":"active","ping":53},{"user_id":35,"name":"Инспектор Атас","steam_id":76561199175688390,"connected_time":410000000000,"state":"active","ping":83},{"user_id":36,"name":"Mi PRO | FIH","steam_id":76561199023108666,"connected_time":369000000000,"state":"active","ping":111},{"user_id":38,"name":"technologicalMayhem","steam_id":76561198077216014,"connected_time":324000000000,"state":"active","ping":46},{"user_id":39,"name":"SirniBurekFensi","steam_id":76561198840826674,"connected_time":318000000000,"state":"active","ping":65},{"user_id":40,"name":"Floppa The Slav","steam_id":76561199388080503,"connected_time":258000000000,"state":"active","ping":61},{"user_id":42,"name":"Iva","steam_id":76561198254963150,"connected_time":171000000000,"state":"active","ping":53},{"user_id":43,"name":"Ivun","steam_id":76561198250199228,"connected_time":164000000000,"state":"active","ping":145},{"user_id":44,"name":"Gwishin","steam_id":76561198257158275,"connected_time":148000000000,"state":"active","ping":135},{"user_id":45,"name":"Cheese","steam_id":76561198146419076,"connected_time":121000000000,"state":"active","ping":62}]},{"server_id":110,"name":"Uncletopia | Frankfurt | 2 | All Maps","name_short":"frk-2","host":"frk-1.de.uncletopia.com","port":27025,"enabled":true,"region":"eu","cc":"de","latitude":50.110924,"longitude":8.682127,"reserved":0,"last_update":"0001-01-01T00:00:00Z","name_a2s":"Uncletopia | Frankfurt | 2 | All Maps","protocol":17,"map":"pl_upward","folder":"tf","game":"Team Fortress","app_id":440,"player_count":0,"max_players":24,"Bots":0,"server_type":"Dedicated","server_os":"Linux","password":true,"vac":true,"version":"7742253","steam_id":85568392924469990,"keywords":["nocrits","nodmgspread","payload","uncletopia"],"game_id":440,"stv_port":27026,"stv_name":"Uncletopia | Frankfurt | 2 | All Maps | STV","players":null},{"server_id":308,"name":"Uncletopia | Frankfurt | 3 | All Maps","name_short":"frk-3","host":"frk-1.de.uncletopia.com","port":27035,"enabled":true,"region":"eu","cc":"de","latitude":50.110924,"longitude":8.682127,"reserved":0,"last_update":"0001-01-01T00:00:00Z","name_a2s":"Uncletopia | Frankfurt | 3 | All Maps","protocol":17,"map":"koth_viaduct","folder":"tf","game":"Team Fortress","app_id":440,"player_count":0,"max_players":24,"Bots":0,"server_type":"Dedicated","server_os":"Linux","password":true,"vac":true,"version":"7742253","steam_id":85568392924504274,"keywords":["cp","nocrits","nodmgspread","uncletopia"],"game_id":440,"stv_port":27036,"stv_name":"Uncletopia | Frankfurt | 3 | All Maps | STV","players":null},{"server_id":309,"name":"Uncletopia | Frankfurt | 4 | All Maps","name_short":"frk-4","host":"frk-1.de.uncletopia.com","port":27045,"enabled":true,"region":"eu","cc":"de","latitude":50.110924,"longitude":8.682127,"reserved":0,"last_update":"0001-01-01T00:00:00Z","name_a2s":"Uncletopia | Frankfurt | 4 | All Maps","protocol":17,"map":"pl_frontier_final","folder":"tf","game":"Team Fortress","app_id":440,"player_count":0,"max_players":24,"Bots":0,"server_type":"Dedicated","server_os":"Linux","password":true,"vac":true,"version":"7742253","steam_id":85568392924504275,"keywords":["nocrits","nodmgspread","payload","uncletopia"],"game_id":440,"stv_port":27046,"stv_name":"Uncletopia | Frankfurt | 4 | All Maps | STV","players":null},{"server_id":310,"name":"Uncletopia | Frankfurt | 5 | All Maps","name_short":"frk-5","host":"frk-1.de.uncletopia.com","port":27055,"enabled":true,"region":"eu","cc":"de","latitude":50.110924,"longitude":8.682127,"reserved":0,"last_update":"0001-01-01T00:00:00Z","name_a2s":"Uncletopia | Frankfurt | 5 | All Maps","protocol":17,"map":"cp_sunshine","folder":"tf","game":"Team Fortress","app_id":440,"player_count":0,"max_players":24,"Bots":0,"server_type":"Dedicated","server_os":"Linux","password":true,"vac":true,"version":"7742253","steam_id":85568392924504277,"keywords":["cp","nocrits","nodmgspread","uncletopia"],"game_id":440,"stv_port":27056,"stv_name":"Uncletopia | Frankfurt | 5 | All Maps | STV","players":null},{"server_id":311,"name":"Uncletopia | Frankfurt | 6 | All Maps","name_short":"frk-6","host":"frk-1.de.uncletopia.com","port":27065,"enabled":true,"region":"eu","cc":"de","latitude":50.110924,"longitude":8.682127,"reserved":0,"last_update":"0001-01-01T00:00:00Z","name_a2s":"Uncletopia | Frankfurt | 6 | All Maps","protocol":17,"map":"koth_highpass","folder":"tf","game":"Team Fortress","app_id":440,"player_count":0,"max_players":24,"Bots":0,"server_type":"Dedicated","server_os":"Linux","password":true,"vac":true,"version":"7742253","steam_id":85568392924504278,"keywords":["cp","nocrits","nodmgspread","uncletopia"],"game_id":440,"stv_port":27066,"stv_name":"Uncletopia | Frankfurt | 6 | All Maps | STV","players":null},{"server_id":23,"name":"Uncletopia | Frankfurt | 7 | Stopwatch Beta","name_short":"frk-7","host":"frk-1.de.uncletopia.com","port":27075,"enabled":true,"region":"eu","cc":"de","latitude":50.110924,"longitude":8.682127,"reserved":0,"last_update":"0001-01-01T00:00:00Z","name_a2s":"Uncletopia | Frankfurt | 7 | Stopwatch Beta","protocol":17,"map":"koth_lakeside_final","folder":"tf","game":"Team Fortress","app_id":440,"player_count":0,"max_players":24,"Bots":0,"server_type":"Dedicated","server_os":"Linux","password":true,"vac":true,"version":"7742253","steam_id":85568392924742827,"keywords":["cp","nocrits","nodmgspread","uncletopia"],"game_id":440,"stv_port":27076,"stv_name":"Uncletopia | Frankfurt | 7 | Stopwatch Beta | STV","players":null},{"server_id":24,"name":"Uncletopia | Frankfurt | 8 | Community","name_short":"frk-8","host":"frk-1.de.uncletopia.com","port":27085,"enabled":true,"region":"eu","cc":"de","latitude":50.110924,"longitude":8.682127,"reserved":0,"last_update":"0001-01-01T00:00:00Z","name_a2s":"Uncletopia | Frankfurt | 8 | Community","protocol":17,"map":"workshop/cp_villa_b19.ugc2113052569","folder":"tf","game":"Team Fortress","app_id":440,"player_count":0,"max_players":24,"Bots":0,"server_type":"Dedicated","server_os":"Linux","password":true,"vac":true,"version":"7742253","steam_id":85568392924742828,"keywords":["cp","nocrits","nodmgspread","uncletopia"],"game_id":440,"stv_port":27086,"stv_name":"Uncletopia | Frankfurt | 8 | Community | STV","players":null},{"server_id":202,"name":"Uncletopia | Hong Kong | 1 | All Maps","name_short":"hgk-1","host":"hgk-1.hk.uncletopia.com","port":27015,"enabled":true,"region":"asia","cc":"hk","latitude":22.302711,"longitude":114.177216,"reserved":0,"last_update":"0001-01-01T00:00:00Z","name_a2s":"Uncletopia | Hong Kong | 1 | All Maps","protocol":17,"map":"pl_frontier_final","folder":"tf","game":"Team Fortress","app_id":440,"player_count":24,"max_players":24,"Bots":0,"server_type":"Dedicated","server_os":"Linux","password":true,"vac":true,"version":"7742253","steam_id":85568392924494504,"keywords":["nocrits","nodmgspread","payload","uncletopia"],"game_id":440,"stv_port":27016,"stv_name":"Uncletopia | Hong Kong | 1 | All Maps | STV","players":[{"user_id":283,"name":"RX-5100 AM/FM Cassette Player","steam_id":76561199010267814,"connected_time":1677000000000,"state":"active","ping":100},{"user_id":258,"name":"DUDE","steam_id":76561198017159562,"connected_time":2741000000000,"state":"active","ping":65},{"user_id":279,"name":"yuyu26071","steam_id":76561199363142727,"connected_time":1828000000000,"state":"active","ping":102},{"user_id":281,"name":"RedHelluva","steam_id":76561199079993069,"connected_time":1725000000000,"state":"active","ping":106},{"user_id":277,"name":"Ok I Pull up","steam_id":76561198866364958,"connected_time":1894000000000,"state":"active","ping":67},{"user_id":292,"name":"screaming sniper","steam_id":76561199085568674,"connected_time":1084000000000,"state":"active","ping":60},{"user_id":289,"name":"I AM ALWAYS WATCHING","steam_id":76561199400336025,"connected_time":1279000000000,"state":"active","ping":75},{"user_id":297,"name":"ass fucker","steam_id":76561198289017817,"connected_time":337000000000,"state":"active","ping":101},{"user_id":263,"name":"god of cum (gold cum arc)","steam_id":76561199161406614,"connected_time":2449000000000,"state":"active","ping":98},{"user_id":237,"name":"can we get much higher","steam_id":76561199390507975,"connected_time":4220000000000,"state":"active","ping":43},{"user_id":222,"name":"water tastes good","steam_id":76561199375947670,"connected_time":6293000000000,"state":"active","ping":74},{"user_id":293,"name":"Du57Y","steam_id":76561198120973476,"connected_time":1036000000000,"state":"active","ping":83},{"user_id":262,"name":"Dumbledore asked calmly","steam_id":76561198164137234,"connected_time":2486000000000,"state":"active","ping":177},{"user_id":275,"name":"The Piss Man","steam_id":76561198136685157,"connected_time":2029000000000,"state":"active","ping":56},{"user_id":265,"name":"novice","steam_id":76561197998916345,"connected_time":2430000000000,"state":"active","ping":103},{"user_id":261,"name":"goofy goober","steam_id":76561199010558927,"connected_time":2646000000000,"state":"active","ping":132},{"user_id":135,"name":"lilla laxum","steam_id":76561198230213828,"connected_time":13336000000000,"state":"active","ping":71},{"user_id":300,"name":"17","steam_id":76561198241530712,"connected_time":256000000000,"state":"active","ping":60},{"user_id":295,"name":"Shenko","steam_id":76561198082921407,"connected_time":898000000000,"state":"active","ping":87},{"user_id":299,"name":"cap","steam_id":76561198146520654,"connected_time":319000000000,"state":"active","ping":113},{"user_id":244,"name":"brizzard","steam_id":76561198048438653,"connected_time":3784000000000,"state":"active","ping":51},{"user_id":294,"name":"road4567","steam_id":76561198089982839,"connected_time":989000000000,"state":"active","ping":108},{"user_id":286,"name":"Peter Python","steam_id":76561198353760830,"connected_time":1436000000000,"state":"active","ping":79},{"user_id":290,"name":"moguizhong","steam_id":76561198152588681,"connected_time":1142000000000,"state":"active","ping":94}]},{"server_id":1,"name":"Uncletopia | Los Angeles | 1 | All Maps","name_short":"lax-1","host":"lax-1.us.uncletopia.com","port":27015,"enabled":true,"region":"us-west","cc":"us","latitude":33.94279,"longitude":-118.41004,"reserved":0,"last_update":"0001-01-01T00:00:00Z","name_a2s":"Uncletopia | Los Angeles | 1 | All Maps","protocol":17,"map":"pl_swiftwater_final1","folder":"tf","game":"Team Fortress","app_id":440,"player_count":24,"max_players":24,"Bots":0,"server_type":"Dedicated","server_os":"Linux","password":true,"vac":true,"version":"7742253","steam_id":85568392924469991,"keywords":["nocrits","nodmgspread","payload","uncletopia"],"game_id":440,"stv_port":27016,"stv_name":"Uncletopia | Los Angeles | 1 | All Maps | STV","players":[{"user_id":394,"name":"KILLDIEGO","steam_id":76561198295113883,"connected_time":593000000000,"state":"active","ping":70},{"user_id":379,"name":"Doctor X (Michiko Daemon)","steam_id":76561199106264424,"connected_time":1826000000000,"state":"active","ping":103},{"user_id":391,"name":"Sidekick","steam_id":76561198392740835,"connected_time":740000000000,"state":"active","ping":70},{"user_id":378,"name":"Pog","steam_id":76561198957479336,"connected_time":1841000000000,"state":"active","ping":95},{"user_id":382,"name":"TheKyleB","steam_id":76561198202515104,"connected_time":1560000000000,"state":"active","ping":47},{"user_id":366,"name":"resh","steam_id":76561198239598834,"connected_time":3930000000000,"state":"active","ping":98},{"user_id":332,"name":"Bob the Minion","steam_id":76561197972389354,"connected_time":6285000000000,"state":"active","ping":43},{"user_id":392,"name":"PirateJet","steam_id":76561198050858744,"connected_time":665000000000,"state":"active","ping":49},{"user_id":365,"name":"goldsrc","steam_id":76561198332694127,"connected_time":3939000000000,"state":"active","ping":110},{"user_id":364,"name":"Perididdle","steam_id":76561198056864606,"connected_time":3952000000000,"state":"active","ping":74},{"user_id":344,"name":"33","steam_id":76561198894676484,"connected_time":5418000000000,"state":"active","ping":44},{"user_id":381,"name":"soup mode","steam_id":76561198071451771,"connected_time":1741000000000,"state":"active","ping":46},{"user_id":359,"name":"The Caretaker","steam_id":76561198125241411,"connected_time":4601000000000,"state":"active","ping":57},{"user_id":369,"name":"2 Point Tom","steam_id":76561198087617008,"connected_time":3706000000000,"state":"active","ping":87},{"user_id":400,"name":"goldhed","steam_id":76561198051751133,"connected_time":243000000000,"state":"active","ping":84},{"user_id":401,"name":"CheeseCake488","steam_id":76561199407617942,"connected_time":234000000000,"state":"active","ping":96},{"user_id":326,"name":"BurningPride","steam_id":76561198080592800,"connected_time":6734000000000,"state":"active","ping":47},{"user_id":312,"name":"SLJhammer","steam_id":76561198236320848,"connected_time":7676000000000,"state":"active","ping":87},{"user_id":396,"name":"hedahman","steam_id":76561198052398134,"connected_time":507000000000,"state":"active","ping":69},{"user_id":375,"name":"big car","steam_id":76561198067082350,"connected_time":2706000000000,"state":"active","ping":56},{"user_id":393,"name":"Scrux","steam_id":76561198129763115,"connected_time":648000000000,"state":"active","ping":48},{"user_id":399,"name":"Spooper","steam_id":76561198311552216,"connected_time":275000000000,"state":"active","ping":107},{"user_id":398,"name":"Ray","steam_id":76561198015119575,"connected_time":414000000000,"state":"active","ping":79},{"user_id":402,"name":"Goombagrunt","steam_id":76561198272125947,"connected_time":194000000000,"state":"active","ping":115}]},{"server_id":112,"name":"Uncletopia | Los Angeles | 2 | All Maps","name_short":"lax-2","host":"lax-1.us.uncletopia.com","port":27025,"enabled":true,"region":"us-west","cc":"us","latitude":33.94279,"longitude":-118.41004,"reserved":0,"last_update":"0001-01-01T00:00:00Z","name_a2s":"Uncletopia | Los Angeles | 2 | All Maps","protocol":17,"map":"koth_cascade","folder":"tf","game":"Team Fortress","app_id":440,"player_count":0,"max_players":24,"Bots":0,"server_type":"Dedicated","server_os":"Linux","password":true,"vac":true,"version":"7742253","steam_id":85568392924469992,"keywords":["cp","nocrits","nodmgspread","uncletopia"],"game_id":440,"stv_port":27026,"stv_name":"Uncletopia | Los Angeles | 2 | All Maps | STV","players":null},{"server_id":324,"name":"Uncletopia | Los Angeles | 3 | All Maps","name_short":"lax-3","host":"lax-1.us.uncletopia.com","port":27035,"enabled":true,"region":"us-west","cc":"us","latitude":33.94279,"longitude":-118.41004,"reserved":0,"last_update":"0001-01-01T00:00:00Z","name_a2s":"Uncletopia | Los Angeles | 3 | All Maps","protocol":17,"map":"koth_lakeside_final","folder":"tf","game":"Team Fortress","app_id":440,"player_count":1,"max_players":24,"Bots":0,"server_type":"Dedicated","server_os":"Linux","password":true,"vac":true,"version":"7742253","steam_id":85568392924510198,"keywords":["cp","nocrits","nodmgspread","uncletopia"],"game_id":440,"stv_port":27036,"stv_name":"Uncletopia | Los Angeles | 3 | All Maps | STV","players":[{"user_id":14,"name":"abegon3","steam_id":76561199203655911,"connected_time":51000000000,"state":"active","ping":58}]},{"server_id":25,"name":"Uncletopia | Los Angeles | 4 | Stopwatch Beta","name_short":"lax-4","host":"lax-1.us.uncletopia.com","port":27045,"enabled":true,"region":"us-west","cc":"us","latitude":33.94279,"longitude":-118.41004,"reserved":0,"last_update":"0001-01-01T00:00:00Z","name_a2s":"Uncletopia | Los Angeles | 4 | Stopwatch Beta","protocol":17,"map":"cp_process_final","folder":"tf","game":"Team Fortress","app_id":440,"player_count":0,"max_players":24,"Bots":0,"server_type":"Dedicated","server_os":"Linux","password":true,"vac":true,"version":"7742253","steam_id":85568392924510199,"keywords":["cp","nocrits","nodmgspread","uncletopia"],"game_id":440,"stv_port":27046,"stv_name":"Uncletopia | Los Angeles | 4 | Stopwatch Beta | STV","players":null},{"server_id":11,"name":"Uncletopia | London | 1 | All Maps","name_short":"lon-1","host":"lon-1.uk.uncletopia.com","port":27015,"enabled":true,"region":"eu","cc":"gb","latitude":51.509865,"longitude":-0.118092,"reserved":0,"last_update":"0001-01-01T00:00:00Z","name_a2s":"Uncletopia | London | 1 | All Maps","protocol":17,"map":"cp_dustbowl","folder":"tf","game":"Team Fortress","app_id":440,"player_count":0,"max_players":24,"Bots":0,"server_type":"Dedicated","server_os":"Linux","password":true,"vac":true,"version":"7742253","steam_id":85568392924367362,"keywords":["cp","nocrits","nodmgspread","uncletopia"],"game_id":440,"stv_port":27016,"stv_name":"Uncletopia | London | 1 | All Maps | STV","players":null},{"server_id":114,"name":"Uncletopia | London | 2 | All Maps","name_short":"lon-2","host":"lon-1.uk.uncletopia.com","port":27025,"enabled":true,"region":"eu","cc":"gb","latitude":51.509865,"longitude":-0.118092,"reserved":0,"last_update":"0001-01-01T00:00:00Z","name_a2s":"Uncletopia | London | 2 | All Maps","protocol":17,"map":"cp_altitude","folder":"tf","game":"Team Fortress","app_id":440,"player_count":0,"max_players":24,"Bots":0,"server_type":"Dedicated","server_os":"Linux","password":true,"vac":true,"version":"7742253","steam_id":85568392924470941,"keywords":["cp","nocrits","nodmgspread","uncletopia"],"game_id":440,"stv_port":27026,"stv_name":"Uncletopia | London | 2 | All Maps | STV","players":null},{"server_id":320,"name":"Uncletopia | London | 3 | All Maps","name_short":"lon-3","host":"lon-1.uk.uncletopia.com","port":27035,"enabled":true,"region":"eu","cc":"gb","latitude":51.509865,"longitude":-0.118092,"reserved":0,"last_update":"0001-01-01T00:00:00Z","name_a2s":"Uncletopia | London | 3 | All Maps","protocol":17,"map":"cp_mountainlab","folder":"tf","game":"Team Fortress","app_id":440,"player_count":0,"max_players":24,"Bots":0,"server_type":"Dedicated","server_os":"Linux","password":true,"vac":true,"version":"7742253","steam_id":85568392924510192,"keywords":["cp","nocrits","nodmgspread","uncletopia"],"game_id":440,"stv_port":27036,"stv_name":"Uncletopia | London | 3 | All Maps | STV","players":null},{"server_id":321,"name":"Uncletopia | London | 4 | All Maps","name_short":"lon-4","host":"lon-1.uk.uncletopia.com","port":27045,"enabled":true,"region":"eu","cc":"gb","latitude":51.509865,"longitude":-0.118092,"reserved":0,"last_update":"0001-01-01T00:00:00Z","name_a2s":"Uncletopia | London | 4 | All Maps","protocol":17,"map":"pl_borneo","folder":"tf","game":"Team Fortress","app_id":440,"player_count":0,"max_players":24,"Bots":0,"server_type":"Dedicated","server_os":"Linux","password":true,"vac":true,"version":"7742253","steam_id":85568392924510193,"keywords":["nocrits","nodmgspread","payload","uncletopia"],"game_id":440,"stv_port":27046,"stv_name":"Uncletopia | London | 4 | All Maps | STV","players":null},{"server_id":21,"name":"Uncletopia | London | 5 | All Maps","name_short":"lon-5","host":"lon-1.uk.uncletopia.com","port":27055,"enabled":true,"region":"eu","cc":"gb","latitude":51.509865,"longitude":-0.118092,"reserved":0,"last_update":"0001-01-01T00:00:00Z","name_a2s":"Uncletopia | London | 5 | All Maps","protocol":17,"map":"cp_process_final","folder":"tf","game":"Team Fortress","app_id":440,"player_count":0,"max_players":24,"Bots":0,"server_type":"Dedicated","server_os":"Linux","password":true,"vac":true,"version":"7742253","steam_id":85568392924742829,"keywords":["cp","nocrits","nodmgspread","uncletopia"],"game_id":440,"stv_port":27056,"stv_name":"Uncletopia | London | 5 | All Maps | STV","players":null},{"server_id":22,"name":"Uncletopia | London | 6 | All Maps","name_short":"lon-6","host":"lon-1.uk.uncletopia.com","port":27065,"enabled":true,"region":"eu","cc":"gb","latitude":51.509865,"longitude":-0.118092,"reserved":0,"last_update":"0001-01-01T00:00:00Z","name_a2s":"Uncletopia | London | 6 | All Maps","protocol":17,"map":"pl_badwater","folder":"tf","game":"Team Fortress","app_id":440,"player_count":0,"max_players":24,"Bots":0,"server_type":"Dedicated","server_os":"Linux","password":true,"vac":true,"version":"7742253","steam_id":85568392924742830,"keywords":["nocrits","nodmgspread","payload","uncletopia"],"game_id":440,"stv_port":27066,"stv_name":"Uncletopia | London | 6 | All Maps | STV","players":null},{"server_id":40,"name":"Uncletopia | London | 7 | No Payload","name_short":"lon-7","host":"lon-1.uk.uncletopia.com","port":27075,"enabled":true,"region":"eu","cc":"gb","latitude":51.509865,"longitude":-0.118092,"reserved":0,"last_update":"0001-01-01T00:00:00Z","name_a2s":"Uncletopia | London | 7 | No Payload","protocol":17,"map":"pl_borneo","folder":"tf","game":"Team Fortress","app_id":440,"player_count":0,"max_players":24,"Bots":0,"server_type":"Dedicated","server_os":"Linux","password":true,"vac":true,"version":"7742253","steam_id":85568392924964314,"keywords":["nocrits","nodmgspread","payload","uncletopia"],"game_id":440,"stv_port":27076,"stv_name":"Uncletopia | London | 7 | No Payload | STV","players":null},{"server_id":41,"name":"Uncletopia | London | 8 | Community","name_short":"lon-8","host":"lon-1.uk.uncletopia.com","port":27085,"enabled":true,"region":"eu","cc":"gb","latitude":51.509865,"longitude":-0.118092,"reserved":0,"last_update":"0001-01-01T00:00:00Z","name_a2s":"Uncletopia | London | 8 | Community","protocol":17,"map":"cp_process_final","folder":"tf","game":"Team Fortress","app_id":440,"player_count":0,"max_players":24,"Bots":0,"server_type":"Dedicated","server_os":"Linux","password":true,"vac":true,"version":"7742253","steam_id":85568392924964315,"keywords":["cp","nocrits","nodmgspread","uncletopia"],"game_id":440,"stv_port":27086,"stv_name":"Uncletopia | London | 8 | Community | STV","players":null},{"server_id":300,"name":"Uncletopia | Montréal | 1 | All Maps","name_short":"mtl-1","host":"mtl-1.ca.uncletopia.com","port":27015,"enabled":true,"region":"us-east","cc":"ca","latitude":45.50889,"longitude":-73.56167,"reserved":0,"last_update":"0001-01-01T00:00:00Z","name_a2s":"Uncletopia | Montréal | 1 | All Maps","protocol":17,"map":"koth_lakeside_final","folder":"tf","game":"Team Fortress","app_id":440,"player_count":0,"max_players":24,"Bots":0,"server_type":"Dedicated","server_os":"Linux","password":true,"vac":true,"version":"7742253","steam_id":85568392924500087,"keywords":["cp","nocrits","nodmgspread","uncletopia"],"game_id":440,"stv_port":27016,"stv_name":"Uncletopia | Montréal | 1 | All Maps | STV","players":null},{"server_id":301,"name":"Uncletopia | Montréal | 2 | All Maps","name_short":"mtl-2","host":"mtl-1.ca.uncletopia.com","port":27025,"enabled":true,"region":"us-east","cc":"ca","latitude":45.50889,"longitude":-73.56167,"reserved":0,"last_update":"0001-01-01T00:00:00Z","name_a2s":"Uncletopia | Montréal | 2 | All Maps","protocol":17,"map":"koth_lakeside_final","folder":"tf","game":"Team Fortress","app_id":440,"player_count":0,"max_players":24,"Bots":0,"server_type":"Dedicated","server_os":"Linux","password":true,"vac":true,"version":"7742253","steam_id":85568392924500088,"keywords":["cp","nocrits","nodmgspread","uncletopia"],"game_id":440,"stv_port":27026,"stv_name":"Uncletopia | Montréal | 2 | All Maps | STV","players":null},{"server_id":302,"name":"Uncletopia | Montréal | 3 | All Maps","name_short":"mtl-3","host":"mtl-1.ca.uncletopia.com","port":27035,"enabled":true,"region":"us-east","cc":"ca","latitude":45.50889,"longitude":-73.56167,"reserved":0,"last_update":"0001-01-01T00:00:00Z","name_a2s":"Uncletopia | Montréal | 3 | All Maps","protocol":17,"map":"cp_altitude","folder":"tf","game":"Team Fortress","app_id":440,"player_count":0,"max_players":24,"Bots":0,"server_type":"Dedicated","server_os":"Linux","password":true,"vac":true,"version":"7742253","steam_id":85568392924500089,"keywords":["cp","nocrits","nodmgspread","uncletopia"],"game_id":440,"stv_port":27036,"stv_name":"Uncletopia | Montréal | 3 | All Maps | STV","players":null},{"server_id":303,"name":"Uncletopia | Montréal | 4 | No Payload","name_short":"mtl-4","host":"mtl-1.ca.uncletopia.com","port":27045,"enabled":true,"region":"us-east","cc":"ca","latitude":45.50889,"longitude":-73.56167,"reserved":0,"last_update":"0001-01-01T00:00:00Z","name_a2s":"Uncletopia | Montréal | 4 | No Payload","protocol":17,"map":"koth_highpass","folder":"tf","game":"Team Fortress","app_id":440,"player_count":0,"max_players":24,"Bots":0,"server_type":"Dedicated","server_os":"Linux","password":true,"vac":true,"version":"7742253","steam_id":85568392924500090,"keywords":["cp","nocrits","nodmgspread","uncletopia"],"game_id":440,"stv_port":27046,"stv_name":"Uncletopia | Montréal | 4 | No Payload | STV","players":null},{"server_id":13,"name":"Uncletopia | New York City | 1 | All Maps","name_short":"nyc-1","host":"nyc-1.us.uncletopia.com","port":27015,"enabled":true,"region":"us-east","cc":"us","latitude":40.73061,"longitude":-73.93524,"reserved":0,"last_update":"0001-01-01T00:00:00Z","name_a2s":"Uncletopia | New York City | 1 | All Maps","protocol":17,"map":"cp_sunshine","folder":"tf","game":"Team Fortress","app_id":440,"player_count":0,"max_players":24,"Bots":0,"server_type":"Dedicated","server_os":"Linux","password":true,"vac":true,"version":"7742253","steam_id":85568392924469993,"keywords":["cp","nocrits","nodmgspread","uncletopia"],"game_id":440,"stv_port":27016,"stv_name":"Uncletopia | New York City | 1 | All Maps | STV","players":null},{"server_id":14,"name":"Uncletopia | New York City | 2 | All Maps","name_short":"nyc-2","host":"nyc-1.us.uncletopia.com","port":27025,"enabled":true,"region":"us-east","cc":"us","latitude":40.73061,"longitude":-73.93524,"reserved":0,"last_update":"0001-01-01T00:00:00Z","name_a2s":"Uncletopia | New York City | 2 | All Maps","protocol":17,"map":"cp_process_final","folder":"tf","game":"Team Fortress","app_id":440,"player_count":7,"max_players":24,"Bots":0,"server_type":"Dedicated","server_os":"Linux","password":true,"vac":true,"version":"7742253","steam_id":85568392924469994,"keywords":["cp","nocrits","nodmgspread","uncletopia"],"game_id":440,"stv_port":27026,"stv_name":"Uncletopia | New York City | 2 | All Maps | STV","players":[{"user_id":932,"name":"Wolfie","steam_id":76561199081625951,"connected_time":3066000000000,"state":"active","ping":148},{"user_id":953,"name":"DeckofDragons","steam_id":76561198057398213,"connected_time":736000000000,"state":"active","ping":79},{"user_id":955,"name":"Man lagger","steam_id":76561199219955074,"connected_time":517000000000,"state":"active","ping":265},{"user_id":956,"name":"Commando Booce","steam_id":76561199209786129,"connected_time":478000000000,"state":"active","ping":172},{"user_id":943,"name":"beees?","steam_id":76561198024549500,"connected_time":2255000000000,"state":"active","ping":130},{"user_id":957,"name":".:Exclusive:.","steam_id":76561198341825997,"connected_time":371000000000,"state":"active","ping":150},{"user_id":948,"name":"poopmigoel","steam_id":76561199293283319,"connected_time":1636000000000,"state":"active","ping":140}]},{"server_id":15,"name":"Uncletopia | New York City | 3 | Stopwatch Beta","name_short":"nyc-3","host":"nyc-1.us.uncletopia.com","port":27035,"enabled":true,"region":"us-east","cc":"us","latitude":40.73061,"longitude":-73.93524,"reserved":0,"last_update":"0001-01-01T00:00:00Z","name_a2s":"Uncletopia | New York City | 3 | Stopwatch Beta","protocol":17,"map":"koth_lakeside_final","folder":"tf","game":"Team Fortress","app_id":440,"player_count":0,"max_players":24,"Bots":0,"server_type":"Dedicated","server_os":"Linux","password":true,"vac":true,"version":"7742253","steam_id":85568392924742820,"keywords":["cp","nocrits","nodmgspread","uncletopia"],"game_id":440,"stv_port":27036,"stv_name":"Uncletopia | New York City | 3 | Stopwatch Beta | STV","players":null},{"server_id":16,"name":"Uncletopia | New York City | 4 | Community","name_short":"nyc-4","host":"nyc-1.us.uncletopia.com","port":27045,"enabled":true,"region":"us-east","cc":"us","latitude":40.73061,"longitude":-73.93524,"reserved":0,"last_update":"0001-01-01T00:00:00Z","name_a2s":"Uncletopia | New York City | 4 | Community","protocol":17,"map":"workshop/koth_product_final.ugc454272353","folder":"tf","game":"Team Fortress","app_id":440,"player_count":0,"max_players":24,"Bots":0,"server_type":"Dedicated","server_os":"Linux","password":true,"vac":true,"version":"7742253","steam_id":85568392924742821,"keywords":["cp","nocrits","nodmgspread","uncletopia"],"game_id":440,"stv_port":27046,"stv_name":"Uncletopia | New York City | 4 | Community | STV","players":null},{"server_id":142,"name":"Uncletopia | São Paulo | 1 | All Maps","name_short":"sao-1","host":"sao-1.br.uncletopia.com","port":27015,"enabled":true,"region":"sa","cc":"br","latitude":-23.533773,"longitude":-46.62529,"reserved":0,"last_update":"0001-01-01T00:00:00Z","name_a2s":"Uncletopia | São Paulo | 1 | All Maps","protocol":17,"map":"pl_borneo","folder":"tf","game":"Team Fortress","app_id":440,"player_count":0,"max_players":24,"Bots":0,"server_type":"Dedicated","server_os":"Linux","password":true,"vac":true,"version":"7742253","steam_id":85568392924469996,"keywords":["nocrits","nodmgspread","payload","uncletopia"],"game_id":440,"stv_port":27016,"stv_name":"Uncletopia | São Paulo | 1 | All Maps | STV","players":null},{"server_id":143,"name":"Uncletopia | São Paulo | 2 | All Maps","name_short":"sao-2","host":"sao-2.br.uncletopia.com","port":27015,"enabled":true,"region":"sa","cc":"br","latitude":-23.533773,"longitude":-46.62529,"reserved":0,"last_update":"0001-01-01T00:00:00Z","name_a2s":"Uncletopia | São Paulo | 2 | All Maps","protocol":17,"map":"pl_badwater","folder":"tf","game":"Team Fortress","app_id":440,"player_count":0,"max_players":24,"Bots":0,"server_type":"Dedicated","server_os":"Linux","password":true,"vac":true,"version":"7742253","steam_id":85568392924485349,"keywords":["nocrits","nodmgspread","payload","uncletopia"],"game_id":440,"stv_port":27016,"stv_name":"Uncletopia | São Paulo | 2 | All Maps | STV","players":null},{"server_id":7,"name":"Uncletopia | Seattle | 1 | All Maps","name_short":"sea-1","host":"sea-1.us.uncletopia.com","port":27015,"enabled":true,"region":"us-west","cc":"us","latitude":47.608013,"longitude":-122.33517,"reserved":0,"last_update":"0001-01-01T00:00:00Z","name_a2s":"Uncletopia | Seattle | 1 | All Maps","protocol":17,"map":"pl_frontier_final","folder":"tf","game":"Team Fortress","app_id":440,"player_count":24,"max_players":24,"Bots":0,"server_type":"Dedicated","server_os":"Linux","password":true,"vac":true,"version":"7742253","steam_id":85568392924469997,"keywords":["nocrits","nodmgspread","payload","uncletopia"],"game_id":440,"stv_port":27016,"stv_name":"Uncletopia | Seattle | 1 | All Maps | STV","players":[{"user_id":557,"name":"Defeat","steam_id":76561198065203818,"connected_time":7073000000000,"state":"active","ping":34},{"user_id":647,"name":"Soap Man","steam_id":76561198000490235,"connected_time":671000000000,"state":"active","ping":66},{"user_id":652,"name":"lol","steam_id":76561198026491738,"connected_time":164000000000,"state":"active","ping":83},{"user_id":651,"name":"FCKGW-RHQQ2-YXRKT-8TG6W-2B7Q8","steam_id":76561197993138592,"connected_time":208000000000,"state":"active","ping":36},{"user_id":552,"name":"hotdog every meal","steam_id":76561198392514273,"connected_time":7804000000000,"state":"active","ping":58},{"user_id":616,"name":"a spider monkey trying his best","steam_id":76561198165473340,"connected_time":2425000000000,"state":"active","ping":95},{"user_id":579,"name":"smeasly","steam_id":76561198028718812,"connected_time":5933000000000,"state":"active","ping":44},{"user_id":634,"name":"trashboat","steam_id":76561199067882406,"connected_time":1314000000000,"state":"active","ping":90},{"user_id":620,"name":"Bobby Ray","steam_id":76561198044131188,"connected_time":2282000000000,"state":"active","ping":85},{"user_id":627,"name":"Robert M. Slackson, DDS","steam_id":76561197963562896,"connected_time":1543000000000,"state":"active","ping":64},{"user_id":605,"name":"Mak","steam_id":76561198089197922,"connected_time":3390000000000,"state":"active","ping":56},{"user_id":617,"name":"Shah","steam_id":76561198047508851,"connected_time":2320000000000,"state":"active","ping":62},{"user_id":654,"name":"Peter","steam_id":76561198065796300,"connected_time":123000000000,"state":"active","ping":44},{"user_id":624,"name":"Seriously Bruh","steam_id":76561198070408485,"connected_time":1785000000000,"state":"active","ping":63},{"user_id":631,"name":"Tachi","steam_id":76561198158581216,"connected_time":1347000000000,"state":"active","ping":88},{"user_id":648,"name":"Strikerbolt","steam_id":76561199095622897,"connected_time":371000000000,"state":"active","ping":94},{"user_id":653,"name":"Yu Plush","steam_id":76561198800891125,"connected_time":144000000000,"state":"active","ping":70},{"user_id":597,"name":"gorlab","steam_id":76561198025089694,"connected_time":4535000000000,"state":"active","ping":65},{"user_id":655,"name":"Saggle","steam_id":76561198056075147,"connected_time":118000000000,"state":"active","ping":188},{"user_id":645,"name":"nothing behind the eyes","steam_id":76561198017748754,"connected_time":780000000000,"state":"active","ping":97},{"user_id":657,"name":"BabaGhanoush53","steam_id":76561198169025765,"connected_time":103000000000,"state":"active","ping":90},{"user_id":640,"name":"Quietsharp","steam_id":76561198277968438,"connected_time":991000000000,"state":"active","ping":87},{"user_id":618,"name":"SmallErection","steam_id":76561198071770147,"connected_time":2320000000000,"state":"active","ping":61},{"user_id":587,"name":"Soap","steam_id":76561197994893383,"connected_time":5012000000000,"state":"active","ping":78}]},{"server_id":119,"name":"Uncletopia | Seattle | 2 | All Maps","name_short":"sea-2","host":"sea-1.us.uncletopia.com","port":27025,"enabled":true,"region":"us-west","cc":"us","latitude":47.608013,"longitude":-122.33517,"reserved":0,"last_update":"0001-01-01T00:00:00Z","name_a2s":"Uncletopia | Seattle | 2 | All Maps","protocol":17,"map":"koth_harvest_final","folder":"tf","game":"Team Fortress","app_id":440,"player_count":19,"max_players":24,"Bots":0,"server_type":"Dedicated","server_os":"Linux","password":true,"vac":true,"version":"7742253","steam_id":85568392924469998,"keywords":["cp","nocrits","nodmgspread","uncletopia"],"game_id":440,"stv_port":27026,"stv_name":"Uncletopia | Seattle | 2 | All Maps | STV","players":[{"user_id":567,"name":"PopcornNinja101","steam_id":76561198330680181,"connected_time":4338000000000,"state":"active","ping":46},{"user_id":602,"name":"Shock'N'Lock","steam_id":76561198072583012,"connected_time":72000000000,"state":"active","ping":66},{"user_id":557,"name":"Mom","steam_id":76561198207936000,"connected_time":4869000000000,"state":"active","ping":74},{"user_id":597,"name":"mub","steam_id":76561197961943948,"connected_time":1463000000000,"state":"active","ping":42},{"user_id":570,"name":"Cosykoala","steam_id":76561199194539536,"connected_time":3729000000000,"state":"active","ping":75},{"user_id":599,"name":"A Z U R E","steam_id":76561198799958027,"connected_time":467000000000,"state":"active","ping":32},{"user_id":577,"name":"Big Jackalicious","steam_id":76561199135213338,"connected_time":2836000000000,"state":"active","ping":50},{"user_id":584,"name":"OLE SAINTE NICKE HIMSELVE","steam_id":76561198103331056,"connected_time":2337000000000,"state":"active","ping":66},{"user_id":578,"name":"KingToaster","steam_id":76561198007903802,"connected_time":2739000000000,"state":"active","ping":44},{"user_id":581,"name":"rE_d0","steam_id":76561198975450630,"connected_time":2623000000000,"state":"active","ping":55},{"user_id":601,"name":"Magpies Know All","steam_id":76561198868286632,"connected_time":144000000000,"state":"active","ping":87},{"user_id":586,"name":"BoomieMcBoomPants","steam_id":76561198144516828,"connected_time":2320000000000,"state":"active","ping":75},{"user_id":587,"name":"Google","steam_id":76561198857237473,"connected_time":2276000000000,"state":"active","ping":45},{"user_id":463,"name":"MS Paint Gamer","steam_id":76561198964527916,"connected_time":10816000000000,"state":"active","ping":56},{"user_id":600,"name":"timmy","steam_id":76561198063322988,"connected_time":267000000000,"state":"active","ping":46},{"user_id":593,"name":"sure why not","steam_id":76561197998677639,"connected_time":1961000000000,"state":"active","ping":64},{"user_id":594,"name":"Profilenamehere","steam_id":76561198046562394,"connected_time":1950000000000,"state":"active","ping":89},{"user_id":596,"name":"baby bread","steam_id":76561198134352970,"connected_time":1849000000000,"state":"active","ping":64},{"user_id":552,"name":"ena - d","steam_id":76561198072329335,"connected_time":5546000000000,"state":"active","ping":130}]},{"server_id":406,"name":"Uncletopia | Seattle | 3 | Stopwatch Beta","name_short":"sea-3","host":"sea-1.us.uncletopia.com","port":27035,"enabled":true,"region":"us-west","cc":"us","latitude":47.608013,"longitude":-122.33517,"reserved":0,"last_update":"0001-01-01T00:00:00Z","name_a2s":"Uncletopia | Seattle | 3 | Stopwatch Beta","protocol":17,"map":"pl_upward","folder":"tf","game":"Team Fortress","app_id":440,"player_count":2,"max_players":24,"Bots":0,"server_type":"Dedicated","server_os":"Linux","password":true,"vac":false,"version":"7742253","steam_id":0,"keywords":["nocrits","nodmgspread","payload","uncletopia"],"game_id":440,"stv_port":27036,"stv_name":"Uncletopia | Seattle | 3 | Stopwatch Beta | STV","players":[{"user_id":8,"name":"Luke","steam_id":76561198335956790,"connected_time":394000000000,"state":"active","ping":125},{"user_id":9,"name":"Morse","steam_id":76561198039944542,"connected_time":220000000000,"state":"active","ping":45}]},{"server_id":17,"name":"Uncletopia | San Francisco | 1 | All Maps","name_short":"sfo-1","host":"sfo-1.us.uncletopia.com","port":27015,"enabled":true,"region":"us-west","cc":"us","latitude":37.77397,"longitude":-122.4313,"reserved":0,"last_update":"0001-01-01T00:00:00Z","name_a2s":"Uncletopia | San Francisco | 1 | All Maps","protocol":17,"map":"koth_cascade","folder":"tf","game":"Team Fortress","app_id":440,"player_count":0,"max_players":24,"Bots":0,"server_type":"Dedicated","server_os":"Linux","password":true,"vac":true,"version":"7742253","steam_id":85568392924469999,"keywords":["cp","nocrits","nodmgspread","uncletopia"],"game_id":440,"stv_port":27016,"stv_name":"Uncletopia | San Francisco | 1 | All Maps | STV","players":null},{"server_id":18,"name":"Uncletopia | San Francisco | 2 | All Maps","name_short":"sfo-2","host":"sfo-1.us.uncletopia.com","port":27025,"enabled":true,"region":"us-west","cc":"us","latitude":37.77397,"longitude":-122.4313,"reserved":0,"last_update":"0001-01-01T00:00:00Z","name_a2s":"Uncletopia | San Francisco | 2 | All Maps","protocol":17,"map":"cp_process_final","folder":"tf","game":"Team Fortress","app_id":440,"player_count":0,"max_players":24,"Bots":0,"server_type":"Dedicated","server_os":"Linux","password":true,"vac":true,"version":"7742253","steam_id":85568392924470000,"keywords":["cp","nocrits","nodmgspread","uncletopia"],"game_id":440,"stv_port":27026,"stv_name":"Uncletopia | San Francisco | 2 | All Maps | STV","players":null},{"server_id":19,"name":"Uncletopia | San Francisco | 3 | Stopwatch Beta","name_short":"sfo-3","host":"sfo-1.us.uncletopia.com","port":27035,"enabled":true,"region":"us-west","cc":"us","latitude":37.77397,"longitude":-122.4313,"reserved":0,"last_update":"0001-01-01T00:00:00Z","name_a2s":"Uncletopia | San Francisco | 3 | Stopwatch Beta","protocol":17,"map":"cp_snakewater_final1","folder":"tf","game":"Team Fortress","app_id":440,"player_count":0,"max_players":24,"Bots":0,"server_type":"Dedicated","server_os":"Linux","password":true,"vac":true,"version":"7742253","steam_id":85568392924742824,"keywords":["cp","nocrits","nodmgspread","uncletopia"],"game_id":440,"stv_port":27036,"stv_name":"Uncletopia | San Francisco | 3 | Stopwatch Beta | STV","players":null},{"server_id":20,"name":"Uncletopia | San Francisco | 4 | Community","name_short":"sfo-4","host":"sfo-1.us.uncletopia.com","port":27045,"enabled":true,"region":"us-west","cc":"us","latitude":37.77397,"longitude":-122.4313,"reserved":0,"last_update":"0001-01-01T00:00:00Z","name_a2s":"Uncletopia | San Francisco | 4 | Community","protocol":17,"map":"workshop/koth_bagel_rc5.ugc2514036946","folder":"tf","game":"Team Fortress","app_id":440,"player_count":0,"max_players":24,"Bots":0,"server_type":"Dedicated","server_os":"Linux","password":true,"vac":true,"version":"7742253","steam_id":85568392924742826,"keywords":["cp","nocrits","nodmgspread","uncletopia"],"game_id":440,"stv_port":27046,"stv_name":"Uncletopia | San Francisco | 4 | Community | STV","players":null},{"server_id":141,"name":"Uncletopia | Sydney | 1 | All Maps","name_short":"syd-1","host":"syd-1.au.uncletopia.com","port":27015,"enabled":true,"region":"au","cc":"au","latitude":-33.865143,"longitude":151.2099,"reserved":0,"last_update":"0001-01-01T00:00:00Z","name_a2s":"Uncletopia | Sydney | 1 | All Maps","protocol":17,"map":"pl_snowycoast","folder":"tf","game":"Team Fortress","app_id":440,"player_count":23,"max_players":24,"Bots":0,"server_type":"Dedicated","server_os":"Linux","password":true,"vac":true,"version":"7742253","steam_id":85568392924470001,"keywords":["nocrits","nodmgspread","payload","uncletopia"],"game_id":440,"stv_port":27016,"stv_name":"Uncletopia | Sydney | 1 | All Maps | STV","players":[{"user_id":375,"name":"nojnosbod11","steam_id":76561199176012151,"connected_time":4949000000000,"state":"active","ping":56},{"user_id":441,"name":"GLUMBO","steam_id":76561198964802096,"connected_time":419000000000,"state":"active","ping":84},{"user_id":393,"name":"dc","steam_id":76561198040993425,"connected_time":3782000000000,"state":"active","ping":82},{"user_id":432,"name":"Luno","steam_id":76561198961145861,"connected_time":747000000000,"state":"active","ping":52},{"user_id":413,"name":"Gamma","steam_id":76561198281131757,"connected_time":2586000000000,"state":"active","ping":54},{"user_id":433,"name":"Bosic012","steam_id":76561199084821580,"connected_time":739000000000,"state":"active","ping":56},{"user_id":374,"name":"hobo","steam_id":76561199046481213,"connected_time":5185000000000,"state":"active","ping":70},{"user_id":444,"name":"james16","steam_id":76561198362678073,"connected_time":121000000000,"state":"active","ping":30},{"user_id":443,"name":"wody","steam_id":76561198867007873,"connected_time":194000000000,"state":"active","ping":99},{"user_id":445,"name":"krandlez` (Any/All)","steam_id":76561198044839726,"connected_time":98000000000,"state":"active","ping":40},{"user_id":410,"name":"AfroNinja","steam_id":76561198120372011,"connected_time":2914000000000,"state":"active","ping":66},{"user_id":435,"name":"Asshat Arnold","steam_id":76561198340730741,"connected_time":729000000000,"state":"active","ping":60},{"user_id":436,"name":"xX\u003e\u003cscareboi\u003e\u003cXx","steam_id":76561199102744824,"connected_time":709000000000,"state":"active","ping":92},{"user_id":438,"name":"Hot Yoga Instructor","steam_id":76561199163801558,"connected_time":604000000000,"state":"active","ping":46},{"user_id":406,"name":"Teags","steam_id":76561198310870519,"connected_time":3011000000000,"state":"active","ping":48},{"user_id":446,"name":"huey","steam_id":76561199069777966,"connected_time":66000000000,"state":"active","ping":82},{"user_id":430,"name":"Selling Anti-Matter for $543","steam_id":76561198070708382,"connected_time":944000000000,"state":"active","ping":50},{"user_id":401,"name":"l.ion","steam_id":76561198261172910,"connected_time":3636000000000,"state":"active","ping":48},{"user_id":354,"name":"Rant","steam_id":76561198949751771,"connected_time":7270000000000,"state":"active","ping":31},{"user_id":442,"name":"Denton","steam_id":76561198061940295,"connected_time":283000000000,"state":"active","ping":70},{"user_id":411,"name":"SuperNinja1273","steam_id":76561199447087375,"connected_time":2845000000000,"state":"active","ping":78},{"user_id":440,"name":"NewChris","steam_id":76561198254754182,"connected_time":577000000000,"state":"active","ping":79},{"user_id":412,"name":"pixerler2point0","steam_id":76561199102787464,"connected_time":2828000000000,"state":"active","ping":53}]},{"server_id":123,"name":"Uncletopia | Sydney | 2 | All Maps","name_short":"syd-2","host":"syd-1.au.uncletopia.com","port":27025,"enabled":true,"region":"au","cc":"au","latitude":-33.865143,"longitude":151.2099,"reserved":0,"last_update":"0001-01-01T00:00:00Z","name_a2s":"Uncletopia | Sydney | 2 | All Maps","protocol":17,"map":"cp_dustbowl","folder":"tf","game":"Team Fortress","app_id":440,"player_count":13,"max_players":24,"Bots":0,"server_type":"Dedicated","server_os":"Linux","password":true,"vac":true,"version":"7742253","steam_id":85568392924470002,"keywords":["cp","nocrits","nodmgspread","uncletopia"],"game_id":440,"stv_port":27026,"stv_name":"Uncletopia | Sydney | 2 | All Maps | STV","players":[{"user_id":77,"name":"Epic medic GF (Totally a woman)","steam_id":76561199387907037,"connected_time":1781000000000,"state":"active","ping":155},{"user_id":72,"name":"Nyda","steam_id":76561198152311904,"connected_time":3137000000000,"state":"active","ping":97},{"user_id":76,"name":"✿hydatid✿","steam_id":76561198796773396,"connected_time":2020000000000,"state":"active","ping":55},{"user_id":90,"name":"plr_jack","steam_id":76561199124321542,"connected_time":367000000000,"state":"active","ping":64},{"user_id":88,"name":"Kyo","steam_id":76561198356387399,"connected_time":521000000000,"state":"active","ping":72},{"user_id":92,"name":"Evojr","steam_id":76561198211512664,"connected_time":321000000000,"state":"active","ping":41},{"user_id":86,"name":"uncle fungus","steam_id":76561199089531604,"connected_time":744000000000,"state":"active","ping":133},{"user_id":89,"name":"Wuzzle (Trans rights)","steam_id":76561198009868777,"connected_time":410000000000,"state":"active","ping":60},{"user_id":87,"name":"lavendermelody","steam_id":76561198238001880,"connected_time":605000000000,"state":"active","ping":44},{"user_id":93,"name":"Username","steam_id":76561198285831999,"connected_time":224000000000,"state":"active","ping":160},{"user_id":94,"name":"XeRoDaWilde2","steam_id":76561199407417926,"connected_time":199000000000,"state":"active","ping":288},{"user_id":95,"name":"Sprytt","steam_id":76561198153838550,"connected_time":156000000000,"state":"active","ping":35},{"user_id":96,"name":"Jack","steam_id":76561198041716013,"connected_time":152000000000,"state":"active","ping":31}]},{"server_id":395,"name":"Uncletopia | Sydney | 3 | All Maps","name_short":"syd-3","host":"syd-1.au.uncletopia.com","port":27035,"enabled":true,"region":"au","cc":"au","latitude":-33.865143,"longitude":151.2099,"reserved":0,"last_update":"0001-01-01T00:00:00Z","name_a2s":"Uncletopia | Sydney | 3 | All Maps","protocol":17,"map":"koth_lakeside_final","folder":"tf","game":"Team Fortress","app_id":440,"player_count":0,"max_players":24,"Bots":0,"server_type":"Dedicated","server_os":"Linux","password":true,"vac":true,"version":"7742253","steam_id":85568392925194467,"keywords":["cp","nocrits","nodmgspread","uncletopia"],"game_id":440,"stv_port":27036,"stv_name":"Uncletopia | Sydney | 3 | All Maps | STV","players":null},{"server_id":396,"name":"Uncletopia | Sydney | 4 | All Maps","name_short":"syd-4","host":"syd-1.au.uncletopia.com","port":27045,"enabled":true,"region":"au","cc":"au","latitude":-33.865143,"longitude":151.2099,"reserved":0,"last_update":"0001-01-01T00:00:00Z","name_a2s":"Uncletopia | Sydney | 4 | All Maps","protocol":17,"map":"pl_borneo","folder":"tf","game":"Team Fortress","app_id":440,"player_count":0,"max_players":24,"Bots":0,"server_type":"Dedicated","server_os":"Linux","password":true,"vac":true,"version":"7742253","steam_id":85568392925397958,"keywords":["nocrits","nodmgspread","payload","uncletopia"],"game_id":440,"stv_port":27046,"stv_name":"Uncletopia | Sydney | 4 | All Maps | STV","players":null},{"server_id":58,"name":"Uncletopia | Sydney | 5 | Stopwatch Beta","name_short":"syd-5","host":"syd-1.au.uncletopia.com","port":27055,"enabled":true,"region":"au","cc":"au","latitude":-33.865143,"longitude":151.2099,"reserved":0,"last_update":"0001-01-01T00:00:00Z","name_a2s":"Uncletopia | Sydney | 5 | Stopwatch Beta","protocol":17,"map":"workshop/koth_ashville_final.ugc2130459942","folder":"tf","game":"Team Fortress","app_id":440,"player_count":5,"max_players":24,"Bots":0,"server_type":"Dedicated","server_os":"Linux","password":true,"vac":true,"version":"7742253","steam_id":85568392925397959,"keywords":["cp","nocrits","nodmgspread","uncletopia"],"game_id":440,"stv_port":27056,"stv_name":"Uncletopia | Sydney | 5 | Stopwatch Beta | STV","players":[{"user_id":16,"name":"Dark Knight","steam_id":76561198250889884,"connected_time":5573000000000,"state":"active","ping":47},{"user_id":23,"name":"Rajab","steam_id":76561198236077918,"connected_time":3078000000000,"state":"active","ping":53},{"user_id":18,"name":"Stinke","steam_id":76561198973797001,"connected_time":3412000000000,"state":"active","ping":55},{"user_id":22,"name":"dudepooter","steam_id":76561198256765153,"connected_time":3120000000000,"state":"active","ping":74},{"user_id":25,"name":"RACE","steam_id":76561198872521195,"connected_time":2796000000000,"state":"active","ping":59}]},{"server_id":59,"name":"Uncletopia | Sydney | 6 | Community","name_short":"syd-6","host":"syd-1.au.uncletopia.com","port":27065,"enabled":true,"region":"au","cc":"au","latitude":-33.865143,"longitude":151.2099,"reserved":0,"last_update":"0001-01-01T00:00:00Z","name_a2s":"Uncletopia | Sydney | 6 | Community","protocol":17,"map":"workshop/pl_fifthcurve_rc1.ugc648227046","folder":"tf","game":"Team Fortress","app_id":440,"player_count":0,"max_players":24,"Bots":0,"server_type":"Dedicated","server_os":"Linux","password":true,"vac":true,"version":"7742253","steam_id":85568392925397960,"keywords":["nocrits","nodmgspread","payload","uncletopia"],"game_id":440,"stv_port":27066,"stv_name":"Uncletopia | Sydney | 6 | Community | STV","players":null},{"server_id":49,"name":"Uncletopia | Warsaw | 1 | All Maps","name_short":"waw-1","host":"waw-1.pl.uncletopia.com","port":27015,"enabled":true,"region":"eu","cc":"pl","latitude":52.2297,"longitude":21.017532,"reserved":0,"last_update":"0001-01-01T00:00:00Z","name_a2s":"Uncletopia | Warsaw | 1 | All Maps","protocol":17,"map":"koth_lakeside_final","folder":"tf","game":"Team Fortress","app_id":440,"player_count":0,"max_players":24,"Bots":0,"server_type":"Dedicated","server_os":"Linux","password":true,"vac":true,"version":"7723704","steam_id":85568392925397850,"keywords":["cp","nocrits","nodmgspread","uncletopia"],"game_id":440,"stv_port":27016,"stv_name":"Uncletopia | Warsaw | 1 | All Maps | STV","players":null},{"server_id":50,"name":"Uncletopia | Warsaw | 2 | All Maps","name_short":"waw-2","host":"waw-1.pl.uncletopia.com","port":27025,"enabled":true,"region":"eu","cc":"pl","latitude":52.2297,"longitude":21.017532,"reserved":0,"last_update":"0001-01-01T00:00:00Z","name_a2s":"Uncletopia | Warsaw | 2 | All Maps","protocol":17,"map":"koth_harvest_final","folder":"tf","game":"Team Fortress","app_id":440,"player_count":0,"max_players":24,"Bots":0,"server_type":"Dedicated","server_os":"Linux","password":true,"vac":true,"version":"7742253","steam_id":85568392925397851,"keywords":["cp","nocrits","nodmgspread","uncletopia"],"game_id":440,"stv_port":27026,"stv_name":"Uncletopia | Warsaw | 2 | All Maps | STV","players":null},{"server_id":51,"name":"Uncletopia | Warsaw | 3 | All Maps","name_short":"waw-3","host":"waw-1.pl.uncletopia.com","port":27035,"enabled":true,"region":"eu","cc":"pl","latitude":52.2297,"longitude":21.017532,"reserved":0,"last_update":"0001-01-01T00:00:00Z","name_a2s":"Uncletopia | Warsaw | 3 | All Maps","protocol":17,"map":"pl_frontier_final","folder":"tf","game":"Team Fortress","app_id":440,"player_count":0,"max_players":24,"Bots":0,"server_type":"Dedicated","server_os":"Linux","password":true,"vac":true,"version":"7742253","steam_id":85568392925397852,"keywords":["nocrits","nodmgspread","payload","uncletopia"],"game_id":440,"stv_port":27036,"stv_name":"Uncletopia | Warsaw | 3 | All Maps | STV","players":null},{"server_id":52,"name":"Uncletopia | Warsaw | 4 | All Maps","name_short":"waw-4","host":"waw-1.pl.uncletopia.com","port":27045,"enabled":true,"region":"eu","cc":"pl","latitude":52.2297,"longitude":21.017532,"reserved":0,"last_update":"0001-01-01T00:00:00Z","name_a2s":"Uncletopia | Warsaw | 4 | All Maps","protocol":17,"map":"pl_swiftwater_final1","folder":"tf","game":"Team Fortress","app_id":440,"player_count":0,"max_players":24,"Bots":0,"server_type":"Dedicated","server_os":"Linux","password":true,"vac":true,"version":"7742253","steam_id":85568392925397853,"keywords":["nocrits","nodmgspread","payload","uncletopia"],"game_id":440,"stv_port":27046,"stv_name":"Uncletopia | Warsaw | 4 | All Maps | STV","players":null},{"server_id":53,"name":"Uncletopia | Warsaw | 5 | Stopwatch Beta","name_short":"waw-5","host":"waw-1.pl.uncletopia.com","port":27055,"enabled":true,"region":"eu","cc":"pl","latitude":52.2297,"longitude":21.017532,"reserved":0,"last_update":"0001-01-01T00:00:00Z","name_a2s":"Uncletopia | Warsaw | 5 | Stopwatch Beta","protocol":17,"map":"pl_pier","folder":"tf","game":"Team Fortress","app_id":440,"player_count":0,"max_players":24,"Bots":0,"server_type":"Dedicated","server_os":"Linux","password":true,"vac":true,"version":"7742253","steam_id":85568392925397854,"keywords":["nocrits","nodmgspread","payload","uncletopia"],"game_id":440,"stv_port":27056,"stv_name":"Uncletopia | Warsaw | 5 | Stopwatch Beta | STV","players":null},{"server_id":54,"name":"Uncletopia | Warsaw | 6 | Community","name_short":"waw-6","host":"waw-1.pl.uncletopia.com","port":27065,"enabled":true,"region":"eu","cc":"pl","latitude":52.2297,"longitude":21.017532,"reserved":0,"last_update":"0001-01-01T00:00:00Z","name_a2s":"Uncletopia | Warsaw | 6 | Community","protocol":17,"map":"workshop/koth_slaughter_rc1.ugc1712845210","folder":"tf","game":"Team Fortress","app_id":440,"player_count":0,"max_players":24,"Bots":0,"server_type":"Dedicated","server_os":"Linux","password":true,"vac":true,"version":"7742253","steam_id":85568392925397856,"keywords":["cp","nocrits","nodmgspread","uncletopia"],"game_id":440,"stv_port":27066,"stv_name":"Uncletopia | Warsaw | 6 | Community | STV","players":null}]}