{"status":true,"message":"","result":[{"server_id":9,"name":"Uncletopia | Atlanta | 1 | All Maps","name_short":"atl-1","host":"atl-1.us.uncletopia.com","port":27015,"enabled":true,"region":"us-east","cc":"us","latitude":33.753746,"longitude":-84.38633,"reserved":0,"last_update":"0001-01-01T00:00:00Z","name_a2s":"Uncletopia | Atlanta | 1 | All Maps","protocol":17,"map":"pl_barnblitz","folder":"tf","game":"Team Fortress","app_id":440,"player_count":23,"max_players":24,"Bots":0,"server_type":"Dedicated","server_os":"Linux","password":true,"vac":true,"version":"7757534","steam_id":85568392924469982,"keywords":["nocrits","nodmgspread","payload","uncletopia"],"game_id":440,"stv_port":27016,"stv_name":"Uncletopia | Atlanta | 1 | All Maps | STV","players":[{"user_id":705,"name":"drain!drain!","steam_id":76561199253405698,"connected_time":491000000000,"state":"active","ping":105},{"user_id":673,"name":"Ping-a-ling","steam_id":76561198972634055,"connected_time":3224000000000,"state":"active","ping":90},{"user_id":701,"name":"Cpapi","steam_id":76561198027779564,"connected_time":723000000000,"state":"active","ping":56},{"user_id":702,"name":"Tank_Mai","steam_id":76561199202346622,"connected_time":714000000000,"state":"active","ping":92},{"user_id":691,"name":"Megadesk","steam_id":76561198078219641,"connected_time":1740000000000,"state":"active","ping":89},{"user_id":696,"name":"Apus","steam_id":76561198141524204,"connected_time":1150000000000,"state":"active","ping":179},{"user_id":711,"name":"Victor","steam_id":76561198848984975,"connected_time":76000000000,"state":"active","ping":70},{"user_id":677,"name":"HP Office InkJet Pro 6978","steam_id":76561198084003153,"connected_time":2804000000000,"state":"active","ping":57},{"user_id":682,"name":"Bliztank | RGL.gg","steam_id":76561198019252798,"connected_time":2550000000000,"state":"active","ping":49},{"user_id":699,"name":"JustAWisp","steam_id":76561198311924005,"connected_time":782000000000,"state":"active","ping":88},{"user_id":703,"name":"Jotiban","steam_id":76561198180719355,"connected_time":661000000000,"state":"active","ping":115},{"user_id":675,"name":"Jesus Loves You57","steam_id":76561199058833769,"connected_time":3196000000000,"state":"active","ping":103},{"user_id":698,"name":"295.3","steam_id":76561198126358045,"connected_time":829000000000,"state":"active","ping":71},{"user_id":679,"name":"riri ·óú·¥ó·óú","steam_id":76561198055462404,"connected_time":2728000000000,"state":"active","ping":80},{"user_id":687,"name":"Spoof","steam_id":76561198283928331,"connected_time":2338000000000,"state":"active","ping":56},{"user_id":707,"name":"remina","steam_id":76561198046091954,"connected_time":333000000000,"state":"active","ping":89},{"user_id":694,"name":"homestuck","steam_id":76561198085042338,"connected_time":1488000000000,"state":"active","ping":120},{"user_id":686,"name":"TheKillah | stoicism.tf","steam_id":76561198180890982,"connected_time":2462000000000,"state":"active","ping":71},{"user_id":653,"name":"floofy","steam_id":76561198389769098,"connected_time":6684000000000,"state":"active","ping":81},{"user_id":708,"name":"cybercat","steam_id":76561199120774107,"connected_time":315000000000,"state":"active","ping":115},{"user_id":709,"name":"Big_John [Real]","steam_id":76561198099825954,"connected_time":240000000000,"state":"active","ping":95},{"user_id":658,"name":"joyeuxnoelle","steam_id":76561198062423120,"connected_time":6185000000000,"state":"active","ping":70},{"user_id":710,"name":"twitch.tv/Yoshi21 | TF2Pugs.com","steam_id":76561198002516729,"connected_time":199000000000,"state":"active","ping":59}]},{"server_id":400,"name":"Uncletopia | Atlanta | 3 | Stopwatch Beta","name_short":"atl-3","host":"atl-1.us.uncletopia.com","port":27035,"enabled":true,"region":"us-east","cc":"us","latitude":33.753746,"longitude":-84.38633,"reserved":0,"last_update":"0001-01-01T00:00:00Z","name_a2s":"Uncletopia | Atlanta | 3 | Stopwatch Beta","protocol":17,"map":"workshop/pl_barnblitz_pro7.ugc582280235","folder":"tf","game":"Team Fortress","app_id":440,"player_count":0,"max_players":24,"Bots":0,"server_type":"Dedicated","server_os":"Linux","password":true,"vac":true,"version":"7757534","steam_id":85568392924515187,"keywords":["nocrits","nodmgspread","payload","uncletopia"],"game_id":440,"stv_port":27036,"stv_name":"Uncletopia | Atlanta | 3 | Stopwatch Beta | STV","players":null},{"server_id":401,"name":"Uncletopia | Atlanta | 4 | No Payload","name_short":"atl-4","host":"atl-1.us.uncletopia.com","port":27045,"enabled":true,"region":"us-east","cc":"us","latitude":33.753746,"longitude":-84.38633,"reserved":0,"last_update":"0001-01-01T00:00:00Z","name_a2s":"Uncletopia | Atlanta | 4 | No Payload","protocol":17,"map":"pl_pier","folder":"tf","game":"Team Fortress","app_id":440,"player_count":0,"max_players":24,"Bots":0,"server_type":"Dedicated","server_os":"Linux","password":true,"vac":true,"version":"7723704","steam_id":85568392924515188,"keywords":["nocrits","nodmgspread","payload","uncletopia"],"game_id":440,"stv_port":27046,"stv_name":"Uncletopia | Atlanta | 4 | No Payload | STV","players":null},{"server_id":2,"name":"Uncletopia | Chicago | 1 | All Maps","name_short":"chi-1","host":"chi-1.us.uncletopia.com","port":27015,"enabled":true,"region":"us-central","cc":"us","latitude":41.881832,"longitude":-87.62318,"reserved":0,"last_update":"0001-01-01T00:00:00Z","name_a2s":"Uncletopia | Chicago | 1 | All Maps","protocol":17,"map":"pl_snowycoast","folder":"tf","game":"Team Fortress","app_id":440,"player_count":12,"max_players":24,"Bots":0,"server_type":"Dedicated","server_os":"Linux","password":true,"vac":true,"version":"7757534","steam_id":85568392924469984,"keywords":["nocrits","nodmgspread","payload","uncletopia"],"game_id":440,"stv_port":27016,"stv_name":"Uncletopia | Chicago | 1 | All Maps | STV","players":[{"user_id":958,"name":"engineer gaming","steam_id":76561199218582893,"connected_time":683000000000,"state":"active","ping":310},{"user_id":808,"name":"blob","steam_id":76561198122375328,"connected_time":9129000000000,"state":"active","ping":61},{"user_id":960,"name":"ARegularJohnDoe","steam_id":76561198015020139,"connected_time":659000000000,"state":"active","ping":59},{"user_id":921,"name":"totally not a pile of beans","steam_id":76561198119851931,"connected_time":4300000000000,"state":"active","ping":83},{"user_id":961,"name":"Comfy!","steam_id":76561198008818346,"connected_time":633000000000,"state":"active","ping":59},{"user_id":941,"name":"Golden Robot","steam_id":76561198149576075,"connected_time":2321000000000,"state":"active","ping":85},{"user_id":965,"name":"Kyot","steam_id":76561198059297868,"connected_time":30000000000,"state":"spawning","ping":92},{"user_id":964,"name":"Lennu","steam_id":76561198060730154,"connected_time":420000000000,"state":"active","ping":72},{"user_id":926,"name":"Crayfry","steam_id":76561198146525237,"connected_time":3615000000000,"state":"active","ping":45},{"user_id":937,"name":"herb","steam_id":76561198185980055,"connected_time":2817000000000,"state":"active","ping":56},{"user_id":923,"name":"Cleric","steam_id":76561198045887994,"connected_time":4277000000000,"state":"active","ping":45},{"user_id":930,"name":"Crunchy Marshmallow","steam_id":76561198065658371,"connected_time":3461000000000,"state":"active","ping":109}]},{"server_id":106,"name":"Uncletopia | Chicago | 2 | All Maps","name_short":"chi-2","host":"chi-1.us.uncletopia.com","port":27025,"enabled":true,"region":"us-central","cc":"us","latitude":41.881832,"longitude":-87.62318,"reserved":0,"last_update":"0001-01-01T00:00:00Z","name_a2s":"Uncletopia | Chicago | 2 | All Maps","protocol":17,"map":"pl_frontier_final","folder":"tf","game":"Team Fortress","app_id":440,"player_count":24,"max_players":24,"Bots":0,"server_type":"Dedicated","server_os":"Linux","password":true,"vac":true,"version":"7757534","steam_id":85568392924469985,"keywords":["nocrits","nodmgspread","payload","uncletopia"],"game_id":440,"stv_port":27026,"stv_name":"Uncletopia | Chicago | 2 | All Maps | STV","players":[{"user_id":925,"name":"Newt","steam_id":76561198842909288,"connected_time":3385000000000,"state":"active","ping":105},{"user_id":916,"name":"DO NOT call me BART SIMPSON!!","steam_id":76561198069113375,"connected_time":3707000000000,"state":"active","ping":68},{"user_id":926,"name":"gettysburg","steam_id":76561198016157051,"connected_time":3358000000000,"state":"active","ping":62},{"user_id":940,"name":"Mr. Snatched Yo Nutsack","steam_id":76561199075873174,"connected_time":2648000000000,"state":"active","ping":71},{"user_id":835,"name":"[50] domo","steam_id":76561198048026825,"connected_time":7060000000000,"state":"active","ping":111},{"user_id":939,"name":"Jazz2T","steam_id":76561198154418867,"connected_time":2717000000000,"state":"active","ping":107},{"user_id":836,"name":"R4wbeef","steam_id":76561198178072673,"connected_time":7042000000000,"state":"active","ping":137},{"user_id":955,"name":"GRONT","steam_id":76561198040464533,"connected_time":557000000000,"state":"active","ping":73},{"user_id":833,"name":"I Rush ‚Åß‚ÅßRussians","steam_id":76561198119454013,"connected_time":7277000000000,"state":"active","ping":75},{"user_id":930,"name":"Karne","steam_id":76561198253592575,"connected_time":3213000000000,"state":"active","ping":73},{"user_id":905,"name":"Rasputia","steam_id":76561198132051047,"connected_time":4386000000000,"state":"active","ping":106},{"user_id":837,"name":"Supreme Mega Gamer Master","steam_id":76561198000715387,"connected_time":7018000000000,"state":"active","ping":113},{"user_id":956,"name":"Jimothy","steam_id":76561197992050160,"connected_time":526000000000,"state":"active","ping":60},{"user_id":960,"name":"yomommasabitch","steam_id":76561198323217150,"connected_time":141000000000,"state":"active","ping":60},{"user_id":879,"name":"24dustin1","steam_id":76561198059506390,"connected_time":5473000000000,"state":"active","ping":96},{"user_id":953,"name":"riff","steam_id":76561198168924361,"connected_time":750000000000,"state":"active","ping":76},{"user_id":958,"name":"Positive :-) badboy6996","steam_id":76561197969386201,"connected_time":500000000000,"state":"active","ping":58},{"user_id":943,"name":"Gutatto","steam_id":76561197993293282,"connected_time":2087000000000,"state":"active","ping":114},{"user_id":934,"name":"Disco Fever","steam_id":76561198069532215,"connected_time":3041000000000,"state":"active","ping":74},{"user_id":949,"name":"yema","steam_id":76561198095638530,"connected_time":1620000000000,"state":"active","ping":90},{"user_id":942,"name":"Caretnose","steam_id":76561198021762583,"connected_time":2516000000000,"state":"active","ping":49},{"user_id":959,"name":"truundrscr","steam_id":76561198213525809,"connected_time":497000000000,"state":"active","ping":120},{"user_id":954,"name":"177013","steam_id":76561198072303290,"connected_time":650000000000,"state":"active","ping":60},{"user_id":952,"name":"the owner of a headache","steam_id":76561198862623007,"connected_time":1278000000000,"state":"active","ping":166}]},{"server_id":402,"name":"Uncletopia | Chicago | 3 | All Maps","name_short":"chi-3","host":"chi-1.us.uncletopia.com","port":27035,"enabled":true,"region":"us-central","cc":"us","latitude":41.881832,"longitude":-87.62318,"reserved":0,"last_update":"0001-01-01T00:00:00Z","name_a2s":"Uncletopia | Chicago | 3 | All Maps","protocol":17,"map":"koth_cascade","folder":"tf","game":"Team Fortress","app_id":440,"player_count":0,"max_players":24,"Bots":0,"server_type":"Dedicated","server_os":"Linux","password":true,"vac":true,"version":"7757534","steam_id":85568392924515191,"keywords":["cp","nocrits","nodmgspread","uncletopia"],"game_id":440,"stv_port":27036,"stv_name":"Uncletopia | Chicago | 3 | All Maps | STV","players":null},{"server_id":403,"name":"Uncletopia | Chicago | 4 | All Maps","name_short":"chi-4","host":"chi-1.us.uncletopia.com","port":27045,"enabled":true,"region":"us-central","cc":"us","latitude":41.881832,"longitude":-87.62318,"reserved":0,"last_update":"0001-01-01T00:00:00Z","name_a2s":"Uncletopia | Chicago | 4 | All Maps","protocol":17,"map":"pl_thundermountain","folder":"tf","game":"Team Fortress","app_id":440,"player_count":23,"max_players":24,"Bots":0,"server_type":"Dedicated","server_os":"Linux","password":true,"vac":true,"version":"7757534","steam_id":85568392924515193,"keywords":["nocrits","nodmgspread","payload","uncletopia"],"game_id":440,"stv_port":27046,"stv_name":"Uncletopia | Chicago | 4 | All Maps | STV","players":[{"user_id":743,"name":"Prolapse of Judgement","steam_id":76561197982908898,"connected_time":2899000000000,"state":"active","ping":63},{"user_id":768,"name":"jake1west","steam_id":76561199468452444,"connected_time":686000000000,"state":"active","ping":140},{"user_id":770,"name":"rlty","steam_id":76561198009395055,"connected_time":678000000000,"state":"active","ping":59},{"user_id":732,"name":"maybe 3 brain cells","steam_id":76561198081282228,"connected_time":3553000000000,"state":"active","ping":70},{"user_id":765,"name":"Water","steam_id":76561198070297536,"connected_time":1057000000000,"state":"active","ping":80},{"user_id":753,"name":"Spike Bones","steam_id":76561198234926120,"connected_time":1751000000000,"state":"active","ping":94},{"user_id":709,"name":"KingQuaken","steam_id":76561198140733826,"connected_time":5601000000000,"state":"active","ping":76},{"user_id":763,"name":"Gram Cracker","steam_id":76561198064989909,"connected_time":1423000000000,"state":"active","ping":56},{"user_id":761,"name":"akirajimbo","steam_id":76561197979960008,"connected_time":1481000000000,"state":"active","ping":60},{"user_id":726,"name":"febfowl","steam_id":76561198023888890,"connected_time":3940000000000,"state":"active","ping":87},{"user_id":744,"name":"Eden","steam_id":76561198075587475,"connected_time":2890000000000,"state":"active","ping":40},{"user_id":772,"name":"sweaterfan","steam_id":76561199389567214,"connected_time":127000000000,"state":"active","ping":78},{"user_id":752,"name":"Jon Snuh","steam_id":76561198075298635,"connected_time":1813000000000,"state":"active","ping":60},{"user_id":720,"name":"gamers aren't real","steam_id":76561198113748347,"connected_time":4623000000000,"state":"active","ping":91},{"user_id":655,"name":"Wug","steam_id":76561198084112264,"connected_time":8737000000000,"state":"active","ping":82},{"user_id":774,"name":"Resistance","steam_id":76561198146782074,"connected_time":3000000000,"state":"spawning","ping":57},{"user_id":767,"name":"Kaluka","steam_id":76561198036861445,"connected_time":844000000000,"state":"active","ping":75},{"user_id":737,"name":"Lucy","steam_id":76561198032590343,"connected_time":3367000000000,"state":"active","ping":84},{"user_id":694,"name":"John Taxenfraud","steam_id":76561199011358805,"connected_time":6076000000000,"state":"active","ping":121},{"user_id":707,"name":"mrstealthg","steam_id":76561198059088381,"connected_time":5635000000000,"state":"active","ping":117},{"user_id":748,"name":"Fish Politics","steam_id":76561198214754864,"connected_time":2860000000000,"state":"active","ping":101},{"user_id":773,"name":"PokemonMaster_Ryan2010","steam_id":76561198305758852,"connected_time":36000000000,"state":"active","ping":70},{"user_id":725,"name":"Snazzi","steam_id":76561198085208276,"connected_time":3975000000000,"state":"active","ping":87}]},{"server_id":36,"name":"Uncletopia | Chicago | 5 | All Maps","name_short":"chi-5","host":"chi-2.us.uncletopia.com","port":27015,"enabled":true,"region":"us-central","cc":"us","latitude":41.881832,"longitude":-87.62318,"reserved":0,"last_update":"0001-01-01T00:00:00Z","name_a2s":"Uncletopia | Chicago | 5 | All Maps","protocol":17,"map":"koth_viaduct","folder":"tf","game":"Team Fortress","app_id":440,"player_count":5,"max_players":24,"Bots":0,"server_type":"Dedicated","server_os":"Linux","password":true,"vac":true,"version":"7757534","steam_id":85568392924866362,"keywords":["cp","nocrits","nodmgspread","uncletopia"],"game_id":440,"stv_port":27016,"stv_name":"Uncletopia | Chicago | 5 | All Maps | STV","players":[{"user_id":331,"name":"Osirin111","steam_id":76561198201033414,"connected_time":3067000000000,"state":"active","ping":93},{"user_id":334,"name":"Putramandela","steam_id":76561199373932400,"connected_time":2347000000000,"state":"active","ping":264},{"user_id":323,"name":"ansoonii","steam_id":76561198092494136,"connected_time":4234000000000,"state":"active","ping":74},{"user_id":324,"name":"Tythrin","steam_id":76561198073174497,"connected_time":4174000000000,"state":"active","ping":63},{"user_id":336,"name":"ChillBill","steam_id":76561199094459126,"connected_time":2217000000000,"state":"active","ping":87}]},{"server_id":37,"name":"Uncletopia | Chicago | 6 | All Maps","name_short":"chi-6","host":"chi-2.us.uncletopia.com","port":27025,"enabled":true,"region":"us-central","cc":"us","latitude":41.881832,"longitude":-87.62318,"reserved":0,"last_update":"0001-01-01T00:00:00Z","name_a2s":"Uncletopia | Chicago | 6 | All Maps","protocol":17,"map":"pl_borneo","folder":"tf","game":"Team Fortress","app_id":440,"player_count":15,"max_players":24,"Bots":0,"server_type":"Dedicated","server_os":"Linux","password":true,"vac":true,"version":"7757534","steam_id":85568392924866363,"keywords":["nocrits","nodmgspread","payload","uncletopia"],"game_id":440,"stv_port":27026,"stv_name":"Uncletopia | Chicago | 6 | All Maps | STV","players":[{"user_id":424,"name":"toad enthusiast","steam_id":76561199200907594,"connected_time":4617000000000,"state":"active","ping":87},{"user_id":493,"name":"Saul Evilman","steam_id":76561198091606182,"connected_time":21000000000,"state":"active","ping":90},{"user_id":442,"name":"Alonso","steam_id":76561198079998648,"connected_time":3852000000000,"state":"active","ping":85},{"user_id":472,"name":"Mikidy","steam_id":76561197972958970,"connected_time":1004000000000,"state":"active","ping":50},{"user_id":415,"name":"Melon Man Of Melon","steam_id":76561198074803752,"connected_time":4833000000000,"state":"active","ping":91},{"user_id":417,"name":"Joe","steam_id":76561198184346185,"connected_time":4809000000000,"state":"active","ping":104},{"user_id":431,"name":"Hydrostasis","steam_id":76561198412399283,"connected_time":4197000000000,"state":"active","ping":72},{"user_id":471,"name":"psy¬∑cho¬∑so¬∑cial","steam_id":76561197962696818,"connected_time":1231000000000,"state":"active","ping":72},{"user_id":484,"name":"MagicalBoyChan","steam_id":76561198024776873,"connected_time":270000000000,"state":"active","ping":121},{"user_id":485,"name":"Pharthus","steam_id":76561198093866050,"connected_time":262000000000,"state":"active","ping":88},{"user_id":434,"name":"Bri","steam_id":76561198089908485,"connected_time":4035000000000,"state":"active","ping":93},{"user_id":490,"name":"theogliam","steam_id":76561198814626472,"connected_time":149000000000,"state":"active","ping":152},{"user_id":491,"name":"flora","steam_id":76561197994492154,"connected_time":145000000000,"state":"active","ping":165},{"user_id":454,"name":"shellaa","steam_id":76561198044124102,"connected_time":2947000000000,"state":"active","ping":73},{"user_id":480,"name":"Grandma","steam_id":76561198192419939,"connected_time":946000000000,"state":"active","ping":140}]},{"server_id":38,"name":"Uncletopia | Chicago | 7 | Stopwatch Beta","name_short":"chi-7","host":"chi-2.us.uncletopia.com","port":27035,"enabled":true,"region":"us-central","cc":"us","latitude":41.881832,"longitude":-87.62318,"reserved":0,"last_update":"0001-01-01T00:00:00Z","name_a2s":"Uncletopia | Chicago | 7 | Stopwatch Beta","protocol":17,"map":"workshop/pl_vigil_rc9.ugc1266210012","folder":"tf","game":"Team Fortress","app_id":440,"player_count":0,"max_players":24,"Bots":0,"server_type":"Dedicated","server_os":"Linux","password":true,"vac":true,"version":"7757534","steam_id":85568392924866364,"keywords":["nocrits","nodmgspread","payload","uncletopia"],"game_id":440,"stv_port":27036,"stv_name":"Uncletopia | Chicago | 7 | Stopwatch Beta | STV","players":null},{"server_id":39,"name":"Uncletopia | Chicago | 8 | Community","name_short":"chi-8","host":"chi-2.us.uncletopia.com","port":27045,"enabled":true,"region":"us-central","cc":"us","latitude":41.881832,"longitude":-87.62318,"reserved":0,"last_update":"0001-01-01T00:00:00Z","name_a2s":"Uncletopia | Chicago | 8 | Community","protocol":17,"map":"workshop/koth_bagel_rc5.ugc2514036946","folder":"tf","game":"Team Fortress","app_id":440,"player_count":0,"max_players":24,"Bots":0,"server_type":"Dedicated","server_os":"Linux","password":true,"vac":true,"version":"7757534","steam_id":85568392924866365,"keywords":["cp","nocrits","nodmgspread","uncletopia"],"game_id":440,"stv_port":27046,"stv_name":"Uncletopia | Chicago | 8 | Community | STV","players":null},{"server_id":8,"name":"Uncletopia | Dallas | 1 | All Maps","name_short":"dal-1","host":"dal-1.us.uncletopia.com","port":27015,"enabled":true,"region":"us-central","cc":"us","latitude":32.779167,"longitude":-96.80889,"reserved":0,"last_update":"0001-01-01T00:00:00Z","name_a2s":"Uncletopia | Dallas | 1 | All Maps","protocol":17,"map":"pl_upward","folder":"tf","game":"Team Fortress","app_id":440,"player_count":24,"max_players":24,"Bots":0,"server_type":"Dedicated","server_os":"Linux","password":true,"vac":true,"version":"7757534","steam_id":85568392924469986,"keywords":["nocrits","nodmgspread","payload","uncletopia"],"game_id":440,"stv_port":27016,"stv_name":"Uncletopia | Dallas | 1 | All Maps | STV","players":[{"user_id":778,"name":"WILD BRADY pov","steam_id":76561198146255593,"connected_time":120000000000,"state":"active","ping":87},{"user_id":741,"name":"IggyYT","steam_id":76561198317980567,"connected_time":2171000000000,"state":"active","ping":76},{"user_id":754,"name":"xMystic_Fire","steam_id":76561198189961543,"connected_time":1612000000000,"state":"active","ping":55},{"user_id":745,"name":"Porytal","steam_id":76561198306101889,"connected_time":2026000000000,"state":"active","ping":107},{"user_id":766,"name":"Dapeep","steam_id":76561198065508243,"connected_time":990000000000,"state":"active","ping":38},{"user_id":775,"name":"Tots","steam_id":76561198027485007,"connected_time":771000000000,"state":"active","ping":57},{"user_id":744,"name":"girr","steam_id":76561198995114110,"connected_time":2044000000000,"state":"active","ping":112},{"user_id":764,"name":"Twighnightplane","steam_id":76561198127483168,"connected_time":1097000000000,"state":"active","ping":145},{"user_id":767,"name":"Jango","steam_id":76561198121922413,"connected_time":929000000000,"state":"active","ping":75},{"user_id":711,"name":"Certified Hood Classic","steam_id":76561199086159354,"connected_time":4446000000000,"state":"active","ping":53},{"user_id":768,"name":"SubZeroDestruction","steam_id":76561198145082209,"connected_time":884000000000,"state":"active","ping":80},{"user_id":769,"name":"I'mWillow","steam_id":76561198229691912,"connected_time":878000000000,"state":"active","ping":87},{"user_id":740,"name":"Eliteplaster","steam_id":76561198846417774,"connected_time":2210000000000,"state":"active","ping":70},{"user_id":770,"name":"SleepingBrim","steam_id":76561198067650229,"connected_time":877000000000,"state":"active","ping":119},{"user_id":771,"name":"itsmajestic","steam_id":76561198304790008,"connected_time":855000000000,"state":"active","ping":89},{"user_id":750,"name":"Female Gamer","steam_id":76561199366482682,"connected_time":1793000000000,"state":"active","ping":114},{"user_id":763,"name":"Beeveelution","steam_id":76561198331526301,"connected_time":1143000000000,"state":"active","ping":94},{"user_id":772,"name":"mos","steam_id":76561197995777973,"connected_time":851000000000,"state":"active","ping":90},{"user_id":737,"name":"Friggy","steam_id":76561198131467867,"connected_time":2642000000000,"state":"active","ping":75},{"user_id":774,"name":"Hifumi Togo","steam_id":76561198074930636,"connected_time":814000000000,"state":"active","ping":62},{"user_id":759,"name":"JUSTICE!!!!!!!!!!!!!!!!!!!!!!!","steam_id":76561198334511480,"connected_time":1322000000000,"state":"active","ping":74},{"user_id":753,"name":"donger man","steam_id":76561199011880402,"connected_time":1672000000000,"state":"active","ping":61},{"user_id":776,"name":"bbbbbbbbbbbbbbbbbbbbbbbbbbbbbbb","steam_id":76561198339644583,"connected_time":704000000000,"state":"active","ping":85},{"user_id":777,"name":"üêáBunnyüêá","steam_id":76561198822773578,"connected_time":409000000000,"state":"active","ping":78}]},{"server_id":108,"name":"Uncletopia | Dallas | 2 | All Maps","name_short":"dal-2","host":"dal-1.us.uncletopia.com","port":27025,"enabled":true,"region":"us-central","cc":"us","latitude":32.779167,"longitude":-96.80889,"reserved":0,"last_update":"0001-01-01T00:00:00Z","name_a2s":"Uncletopia | Dallas | 2 | All Maps","protocol":17,"map":"pl_barnblitz","folder":"tf","game":"Team Fortress","app_id":440,"player_count":0,"max_players":24,"Bots":0,"server_type":"Dedicated","server_os":"Linux","password":true,"vac":true,"version":"7757534","steam_id":85568392924469988,"keywords":["nocrits","nodmgspread","payload","uncletopia"],"game_id":440,"stv_port":27026,"stv_name":"Uncletopia | Dallas | 2 | All Maps | STV","players":null},{"server_id":5,"name":"Uncletopia | Frankfurt | 1 | All Maps","name_short":"frk-1","host":"frk-1.de.uncletopia.com","port":27015,"enabled":true,"region":"eu","cc":"de","latitude":50.110924,"longitude":8.682127,"reserved":0,"last_update":"0001-01-01T00:00:00Z","name_a2s":"Uncletopia | Frankfurt | 1 | All Maps","protocol":17,"map":"pl_borneo","folder":"tf","game":"Team Fortress","app_id":440,"player_count":0,"max_players":24,"Bots":0,"server_type":"Dedicated","server_os":"Linux","password":true,"vac":true,"version":"7757534","steam_id":85568392924469989,"keywords":["nocrits","nodmgspread","payload","uncletopia"],"game_id":440,"stv_port":27016,"stv_name":"Uncletopia | Frankfurt | 1 | All Maps | STV","players":null},{"server_id":110,"name":"Uncletopia | Frankfurt | 2 | All Maps","name_short":"frk-2","host":"frk-1.de.uncletopia.com","port":27025,"enabled":true,"region":"eu","cc":"de","latitude":50.110924,"longitude":8.682127,"reserved":0,"last_update":"0001-01-01T00:00:00Z","name_a2s":"Uncletopia | Frankfurt | 2 | All Maps","protocol":17,"map":"cp_altitude","folder":"tf","game":"Team Fortress","app_id":440,"player_count":0,"max_players":24,"Bots":0,"server_type":"Dedicated","server_os":"Linux","password":true,"vac":true,"version":"7757534","steam_id":85568392924469990,"keywords":["cp","nocrits","nodmgspread","uncletopia"],"game_id":440,"stv_port":27026,"stv_name":"Uncletopia | Frankfurt | 2 | All Maps | STV","players":null},{"server_id":308,"name":"Uncletopia | Frankfurt | 3 | All Maps","name_short":"frk-3","host":"frk-1.de.uncletopia.com","port":27035,"enabled":true,"region":"eu","cc":"de","latitude":50.110924,"longitude":8.682127,"reserved":0,"last_update":"0001-01-01T00:00:00Z","name_a2s":"Uncletopia | Frankfurt | 3 | All Maps","protocol":17,"map":"koth_highpass","folder":"tf","game":"Team Fortress","app_id":440,"player_count":0,"max_players":24,"Bots":0,"server_type":"Dedicated","server_os":"Linux","password":true,"vac":true,"version":"7757534","steam_id":85568392924504274,"keywords":["cp","nocrits","nodmgspread","uncletopia"],"game_id":440,"stv_port":27036,"stv_name":"Uncletopia | Frankfurt | 3 | All Maps | STV","players":null},{"server_id":309,"name":"Uncletopia | Frankfurt | 4 | All Maps","name_short":"frk-4","host":"frk-1.de.uncletopia.com","port":27045,"enabled":true,"region":"eu","cc":"de","latitude":50.110924,"longitude":8.682127,"reserved":0,"last_update":"0001-01-01T00:00:00Z","name_a2s":"Uncletopia | Frankfurt | 4 | All Maps","protocol":17,"map":"pl_snowycoast","folder":"tf","game":"Team Fortress","app_id":440,"player_count":0,"max_players":24,"Bots":0,"server_type":"Dedicated","server_os":"Linux","password":true,"vac":true,"version":"7757534","steam_id":85568392924504275,"keywords":["nocrits","nodmgspread","payload","uncletopia"],"game_id":440,"stv_port":27046,"stv_name":"Uncletopia | Frankfurt | 4 | All Maps | STV","players":null},{"server_id":310,"name":"Uncletopia | Frankfurt | 5 | All Maps","name_short":"frk-5","host":"frk-1.de.uncletopia.com","port":27055,"enabled":true,"region":"eu","cc":"de","latitude":50.110924,"longitude":8.682127,"reserved":0,"last_update":"0001-01-01T00:00:00Z","name_a2s":"Uncletopia | Frankfurt | 5 | All Maps","protocol":17,"map":"cp_altitude","folder":"tf","game":"Team Fortress","app_id":440,"player_count":0,"max_players":24,"Bots":0,"server_type":"Dedicated","server_os":"Linux","password":true,"vac":true,"version":"7757534","steam_id":85568392924504277,"keywords":["cp","nocrits","nodmgspread","uncletopia"],"game_id":440,"stv_port":27056,"stv_name":"Uncletopia | Frankfurt | 5 | All Maps | STV","players":null},{"server_id":311,"name":"Uncletopia | Frankfurt | 6 | All Maps","name_short":"frk-6","host":"frk-1.de.uncletopia.com","port":27065,"enabled":true,"region":"eu","cc":"de","latitude":50.110924,"longitude":8.682127,"reserved":0,"last_update":"0001-01-01T00:00:00Z","name_a2s":"Uncletopia | Frankfurt | 6 | All Maps","protocol":17,"map":"koth_highpass","folder":"tf","game":"Team Fortress","app_id":440,"player_count":0,"max_players":24,"Bots":0,"server_type":"Dedicated","server_os":"Linux","password":true,"vac":true,"version":"7757534","steam_id":85568392924504278,"keywords":["cp","nocrits","nodmgspread","uncletopia"],"game_id":440,"stv_port":27066,"stv_name":"Uncletopia | Frankfurt | 6 | All Maps | STV","players":null},{"server_id":23,"name":"Uncletopia | Frankfurt | 7 | Stopwatch Beta","name_short":"frk-7","host":"frk-1.de.uncletopia.com","port":27075,"enabled":true,"region":"eu","cc":"de","latitude":50.110924,"longitude":8.682127,"reserved":0,"last_update":"0001-01-01T00:00:00Z","name_a2s":"Uncletopia | Frankfurt | 7 | Stopwatch Beta","protocol":17,"map":"pl_borneo","folder":"tf","game":"Team Fortress","app_id":440,"player_count":0,"max_players":24,"Bots":0,"server_type":"Dedicated","server_os":"Linux","password":true,"vac":true,"version":"7757534","steam_id":85568392924742827,"keywords":["nocrits","nodmgspread","payload","uncletopia"],"game_id":440,"stv_port":27076,"stv_name":"Uncletopia | Frankfurt | 7 | Stopwatch Beta | STV","players":null},{"server_id":24,"name":"Uncletopia | Frankfurt | 8 | Community","name_short":"frk-8","host":"frk-1.de.uncletopia.com","port":27085,"enabled":true,"region":"eu","cc":"de","latitude":50.110924,"longitude":8.682127,"reserved":0,"last_update":"0001-01-01T00:00:00Z","name_a2s":"Uncletopia | Frankfurt | 8 | Community","protocol":17,"map":"koth_cascade","folder":"tf","game":"Team Fortress","app_id":440,"player_count":0,"max_players":24,"Bots":0,"server_type":"Dedicated","server_os":"Linux","password":true,"vac":true,"version":"7757534","steam_id":85568392924742828,"keywords":["cp","nocrits","nodmgspread","uncletopia"],"game_id":440,"stv_port":27086,"stv_name":"Uncletopia | Frankfurt | 8 | Community | STV","players":null},{"server_id":202,"name":"Uncletopia | Hong Kong | 1 | All Maps","name_short":"hgk-1","host":"hgk-1.hk.uncletopia.com","port":27015,"enabled":true,"region":"asia","cc":"hk","latitude":22.302711,"longitude":114.177216,"reserved":0,"last_update":"0001-01-01T00:00:00Z","name_a2s":"Uncletopia | Hong Kong | 1 | All Maps","protocol":17,"map":"pl_swiftwater_final1","folder":"tf","game":"Team Fortress","app_id":440,"player_count":24,"max_players":24,"Bots":0,"server_type":"Dedicated","server_os":"Linux","password":true,"vac":true,"version":"7757534","steam_id":85568392924494504,"keywords":["nocrits","nodmgspread","payload","uncletopia"],"game_id":440,"stv_port":27016,"stv_name":"Uncletopia | Hong Kong | 1 | All Maps | STV","players":[{"user_id":264,"name":"Leroy","steam_id":76561199137927625,"connected_time":2750000000000,"state":"active","ping":124},{"user_id":263,"name":"Buttman","steam_id":76561198044693388,"connected_time":2765000000000,"state":"active","ping":51},{"user_id":124,"name":"Bertengkar","steam_id":76561198213031155,"connected_time":14833000000000,"state":"active","ping":100},{"user_id":276,"name":"rtgod","steam_id":76561198125363469,"connected_time":1453000000000,"state":"active","ping":78},{"user_id":277,"name":"TomProPlayer","steam_id":76561199223292521,"connected_time":1182000000000,"state":"active","ping":70},{"user_id":236,"name":"Violezine","steam_id":76561199000502615,"connected_time":6270000000000,"state":"active","ping":93},{"user_id":282,"name":"fy","steam_id":76561198121591901,"connected_time":685000000000,"state":"active","ping":147},{"user_id":225,"name":"Shades on Goggles","steam_id":76561198406067629,"connected_time":7076000000000,"state":"active","ping":58},{"user_id":262,"name":"Michael Scott","steam_id":76561198023082794,"connected_time":2945000000000,"state":"active","ping":51},{"user_id":228,"name":"Windmill","steam_id":76561199230997986,"connected_time":7064000000000,"state":"active","ping":81},{"user_id":266,"name":"ÊØç„ÅÆËÇâÂõ£Â≠ê","steam_id":76561198069561896,"connected_time":2750000000000,"state":"active","ping":43},{"user_id":259,"name":"uptriste","steam_id":76561198158666692,"connected_time":3212000000000,"state":"active","ping":29},{"user_id":250,"name":"…îu·ó°‡∂û …ü∆®u·íê","steam_id":76561199031283970,"connected_time":4639000000000,"state":"active","ping":77},{"user_id":193,"name":"spinach (new mouse)","steam_id":76561198042539541,"connected_time":10386000000000,"state":"active","ping":90},{"user_id":278,"name":"junbi OK","steam_id":76561198116387218,"connected_time":1065000000000,"state":"active","ping":100},{"user_id":280,"name":"Nonexistent","steam_id":76561198980563251,"connected_time":1014000000000,"state":"active","ping":85},{"user_id":219,"name":"Milk‚ù§ (most loved guy in ut)","steam_id":76561198163911560,"connected_time":7748000000000,"state":"active","ping":163},{"user_id":279,"name":"Pisces","steam_id":76561198429887240,"connected_time":1065000000000,"state":"active","ping":74},{"user_id":210,"name":"iced","steam_id":76561198999114004,"connected_time":8510000000000,"state":"active","ping":114},{"user_id":281,"name":"„Äå‚ùà„ÄçSMMN","steam_id":76561198857366167,"connected_time":848000000000,"state":"active","ping":106},{"user_id":179,"name":"loreley","steam_id":76561198230213828,"connected_time":11723000000000,"state":"active","ping":67},{"user_id":98,"name":"ÁÖôÊµ∑ | Enkai","steam_id":76561198050460825,"connected_time":16536000000000,"state":"active","ping":80},{"user_id":269,"name":"Zacy","steam_id":76561198114841670,"connected_time":2738000000000,"state":"active","ping":70},{"user_id":247,"name":"axtinguisher? i hardly know er!","steam_id":76561198834445483,"connected_time":5606000000000,"state":"active","ping":67}]},{"server_id":1,"name":"Uncletopia | Los Angeles | 1 | All Maps","name_short":"lax-1","host":"lax-1.us.uncletopia.com","port":27015,"enabled":true,"region":"us-west","cc":"us","latitude":33.94279,"longitude":-118.41004,"reserved":0,"last_update":"0001-01-01T00:00:00Z","name_a2s":"Uncletopia | Los Angeles | 1 | All Maps","protocol":17,"map":"pl_pier","folder":"tf","game":"Team Fortress","app_id":440,"player_count":11,"max_players":24,"Bots":0,"server_type":"Dedicated","server_os":"Linux","password":true,"vac":true,"version":"7757534","steam_id":85568392924469991,"keywords":["nocrits","nodmgspread","payload","uncletopia"],"game_id":440,"stv_port":27016,"stv_name":"Uncletopia | Los Angeles | 1 | All Maps | STV","players":[{"user_id":624,"name":"o2","steam_id":76561199262570913,"connected_time":384000000000,"state":"active","ping":184},{"user_id":620,"name":"kilometers","steam_id":76561198090642147,"connected_time":749000000000,"state":"active","ping":53},{"user_id":618,"name":"Adam Levine (Real)","steam_id":76561199199257149,"connected_time":847000000000,"state":"active","ping":121},{"user_id":627,"name":"Punished Jeff #NeverSimpAgain","steam_id":76561198304252584,"connected_time":61000000000,"state":"active","ping":59},{"user_id":622,"name":"Angel","steam_id":76561198438499067,"connected_time":567000000000,"state":"active","ping":131},{"user_id":623,"name":"matto1120","steam_id":76561198201321499,"connected_time":550000000000,"state":"active","ping":54},{"user_id":431,"name":"Mothma","steam_id":76561198353789504,"connected_time":15510000000000,"state":"active","ping":62},{"user_id":625,"name":"lukednoob","steam_id":76561199158872193,"connected_time":194000000000,"state":"active","ping":52},{"user_id":614,"name":"Sevfront","steam_id":76561198249207818,"connected_time":1211000000000,"state":"active","ping":45},{"user_id":615,"name":"Victoria","steam_id":76561198283509000,"connected_time":1211000000000,"state":"active","ping":56},{"user_id":586,"name":"Galactamarx","steam_id":76561198028065755,"connected_time":4787000000000,"state":"active","ping":563}]},{"server_id":112,"name":"Uncletopia | Los Angeles | 2 | All Maps","name_short":"lax-2","host":"lax-1.us.uncletopia.com","port":27025,"enabled":true,"region":"us-west","cc":"us","latitude":33.94279,"longitude":-118.41004,"reserved":0,"last_update":"0001-01-01T00:00:00Z","name_a2s":"Uncletopia | Los Angeles | 2 | All Maps","protocol":17,"map":"pl_borneo","folder":"tf","game":"Team Fortress","app_id":440,"player_count":25,"max_players":24,"Bots":0,"server_type":"Dedicated","server_os":"Linux","password":true,"vac":true,"version":"7757534","steam_id":85568392924469992,"keywords":["nocrits","nodmgspread","payload","uncletopia"],"game_id":440,"stv_port":27026,"stv_name":"Uncletopia | Los Angeles | 2 | All Maps | STV","players":[{"user_id":287,"name":"nothowon","steam_id":76561198937601452,"connected_time":2859000000000,"state":"active","ping":112},{"user_id":292,"name":"doobie destroyer 2021","steam_id":76561198827445448,"connected_time":2800000000000,"state":"active","ping":70},{"user_id":317,"name":"Karma's Camera","steam_id":76561198059385185,"connected_time":630000000000,"state":"active","ping":120},{"user_id":304,"name":"foucault","steam_id":76561198043411930,"connected_time":2129000000000,"state":"active","ping":52},{"user_id":289,"name":"phoozetoomble","steam_id":76561199185678987,"connected_time":2854000000000,"state":"active","ping":74},{"user_id":291,"name":"bengineer","steam_id":76561198171912174,"connected_time":2814000000000,"state":"active","ping":79},{"user_id":294,"name":"delight","steam_id":76561197980280272,"connected_time":2731000000000,"state":"active","ping":74},{"user_id":318,"name":"Isopentyl Ethanoate","steam_id":76561198116389072,"connected_time":601000000000,"state":"active","ping":88},{"user_id":311,"name":"kezia","steam_id":76561198059815894,"connected_time":1298000000000,"state":"active","ping":105},{"user_id":263,"name":"mage mode","steam_id":76561198169755734,"connected_time":5173000000000,"state":"active","ping":48},{"user_id":296,"name":"Windows1800s","steam_id":76561198145093014,"connected_time":2696000000000,"state":"active","ping":53},{"user_id":295,"name":"everythingrhymeswithorange","steam_id":76561198010306193,"connected_time":2720000000000,"state":"active","ping":68},{"user_id":266,"name":"ed","steam_id":76561198080475712,"connected_time":4335000000000,"state":"active","ping":51},{"user_id":307,"name":"Oinker","steam_id":76561198033130631,"connected_time":2038000000000,"state":"active","ping":59},{"user_id":261,"name":"p9 squash","steam_id":76561198150281353,"connected_time":5314000000000,"state":"active","ping":89},{"user_id":298,"name":"ExplosiveGamer21","steam_id":76561198132370955,"connected_time":2640000000000,"state":"active","ping":81},{"user_id":276,"name":"Anxious Nerd Bird","steam_id":76561198112178602,"connected_time":3727000000000,"state":"active","ping":56},{"user_id":310,"name":"monjiro","steam_id":76561198239598834,"connected_time":1893000000000,"state":"active","ping":106},{"user_id":309,"name":"oil","steam_id":76561198099980149,"connected_time":2003000000000,"state":"active","ping":47},{"user_id":300,"name":"Mr Majesticals","steam_id":76561198015242706,"connected_time":2596000000000,"state":"active","ping":57},{"user_id":301,"name":"Comically Large Spoon","steam_id":76561198837887872,"connected_time":2513000000000,"state":"active","ping":93},{"user_id":302,"name":"Prime","steam_id":76561198218218705,"connected_time":2498000000000,"state":"active","ping":51},{"user_id":315,"name":"The Caretaker","steam_id":76561198125241411,"connected_time":878000000000,"state":"active","ping":68},{"user_id":322,"name":"fulices","steam_id":76561198420163702,"connected_time":15000000000,"state":"spawning","ping":38},{"user_id":89,"name":"p9 jorts","steam_id":76561199041179985,"connected_time":15486000000000,"state":"active","ping":85}]},{"server_id":324,"name":"Uncletopia | Los Angeles | 3 | All Maps","name_short":"lax-3","host":"lax-1.us.uncletopia.com","port":27035,"enabled":true,"region":"us-west","cc":"us","latitude":33.94279,"longitude":-118.41004,"reserved":0,"last_update":"0001-01-01T00:00:00Z","name_a2s":"Uncletopia | Los Angeles | 3 | All Maps","protocol":17,"map":"cp_sunshine","folder":"tf","game":"Team Fortress","app_id":440,"player_count":0,"max_players":24,"Bots":0,"server_type":"Dedicated","server_os":"Linux","password":true,"vac":true,"version":"7757534","steam_id":85568392924510198,"keywords":["cp","nocrits","nodmgspread","uncletopia"],"game_id":440,"stv_port":27036,"stv_name":"Uncletopia | Los Angeles | 3 | All Maps | STV","players":null},{"server_id":25,"name":"Uncletopia | Los Angeles | 4 | Stopwatch Beta","name_short":"lax-4","host":"lax-1.us.uncletopia.com","port":27045,"enabled":true,"region":"us-west","cc":"us","latitude":33.94279,"longitude":-118.41004,"reserved":0,"last_update":"0001-01-01T00:00:00Z","name_a2s":"Uncletopia | Los Angeles | 4 | Stopwatch Beta","protocol":17,"map":"koth_viaduct","folder":"tf","game":"Team Fortress","app_id":440,"player_count":0,"max_players":24,"Bots":0,"server_type":"Dedicated","server_os":"Linux","password":true,"vac":true,"version":"7757534","steam_id":85568392924510199,"keywords":["cp","nocrits","nodmgspread","uncletopia"],"game_id":440,"stv_port":27046,"stv_name":"Uncletopia | Los Angeles | 4 | Stopwatch Beta | STV","players":null},{"server_id":11,"name":"Uncletopia | London | 1 | All Maps","name_short":"lon-1","host":"lon-1.uk.uncletopia.com","port":27015,"enabled":true,"region":"eu","cc":"gb","latitude":51.509865,"longitude":-0.118092,"reserved":0,"last_update":"0001-01-01T00:00:00Z","name_a2s":"Uncletopia | London | 1 | All Maps","protocol":17,"map":"cp_snakewater_final1","folder":"tf","game":"Team Fortress","app_id":440,"player_count":0,"max_players":24,"Bots":0,"server_type":"Dedicated","server_os":"Linux","password":true,"vac":true,"version":"7757534","steam_id":85568392924367362,"keywords":["cp","nocrits","nodmgspread","uncletopia"],"game_id":440,"stv_port":27016,"stv_name":"Uncletopia | London | 1 | All Maps | STV","players":null},{"server_id":114,"name":"Uncletopia | London | 2 | All Maps","name_short":"lon-2","host":"lon-1.uk.uncletopia.com","port":27025,"enabled":true,"region":"eu","cc":"gb","latitude":51.509865,"longitude":-0.118092,"reserved":0,"last_update":"0001-01-01T00:00:00Z","name_a2s":"Uncletopia | London | 2 | All Maps","protocol":17,"map":"pl_pier","folder":"tf","game":"Team Fortress","app_id":440,"player_count":24,"max_players":24,"Bots":0,"server_type":"Dedicated","server_os":"Linux","password":true,"vac":true,"version":"7757534","steam_id":85568392924470941,"keywords":["nocrits","nodmgspread","payload","uncletopia"],"game_id":440,"stv_port":27026,"stv_name":"Uncletopia | London | 2 | All Maps | STV","players":[{"user_id":136,"name":"ÔΩÑÔΩÖÔΩìÔΩãÔΩíÔΩÅÔΩô","steam_id":76561198805536170,"connected_time":429000000000,"state":"active","ping":75},{"user_id":114,"name":"`Fox","steam_id":76561198079000692,"connected_time":1414000000000,"state":"active","ping":147},{"user_id":99,"name":"Nickel (28)","steam_id":76561199082683456,"connected_time":2618000000000,"state":"active","ping":124},{"user_id":137,"name":"Zombi3","steam_id":76561198326290621,"connected_time":422000000000,"state":"active","ping":60},{"user_id":133,"name":"hud_saytext_time 0","steam_id":76561198010327228,"connected_time":456000000000,"state":"active","ping":76},{"user_id":131,"name":"Ledze Shuns Dope","steam_id":76561198049945010,"connected_time":575000000000,"state":"active","ping":49},{"user_id":112,"name":"Maik","steam_id":76561198795607661,"connected_time":1717000000000,"state":"active","ping":64},{"user_id":118,"name":"Choruptian","steam_id":76561198017686366,"connected_time":1381000000000,"state":"active","ping":68},{"user_id":95,"name":"peruna","steam_id":76561198000721196,"connected_time":3417000000000,"state":"active","ping":75},{"user_id":138,"name":"Low Level Gamer","steam_id":76561198875409640,"connected_time":269000000000,"state":"active","ping":74},{"user_id":134,"name":"Catface","steam_id":76561198963378933,"connected_time":447000000000,"state":"active","ping":36},{"user_id":97,"name":"cop killer","steam_id":76561198039966198,"connected_time":2905000000000,"state":"active","ping":71},{"user_id":16,"name":"Pineapple Okan„Å§ ‚óï_‚óï ‡ºΩ\ufffd\ufffd","steam_id":76561198069199449,"connected_time":8100000000000,"state":"active","ping":113},{"user_id":119,"name":"im_g4m3r","steam_id":76561199086480891,"connected_time":1317000000000,"state":"active","ping":81},{"user_id":139,"name":"WhyBumADude","steam_id":76561198049354236,"connected_time":6000000000,"state":"spawning","ping":116},{"user_id":94,"name":"Deva Path","steam_id":76561198085763542,"connected_time":3807000000000,"state":"active","ping":85},{"user_id":124,"name":"vergil (dmc) gaming","steam_id":76561198023613143,"connected_time":970000000000,"state":"active","ping":74},{"user_id":140,"name":"night.s","steam_id":76561198326287823,"connected_time":3000000000,"state":"spawning","ping":73},{"user_id":98,"name":"All Muted, no hard feelings...","steam_id":76561198094862469,"connected_time":2806000000000,"state":"active","ping":87},{"user_id":129,"name":"CouchPotato","steam_id":76561198849369915,"connected_time":826000000000,"state":"active","ping":64},{"user_id":87,"name":"raime","steam_id":76561198024903775,"connected_time":4500000000000,"state":"active","ping":98},{"user_id":125,"name":"-Marco-","steam_id":76561198016388514,"connected_time":867000000000,"state":"active","ping":117},{"user_id":101,"name":"Tata Cobraz0r","steam_id":76561198017693962,"connected_time":2601000000000,"state":"active","ping":85},{"user_id":108,"name":"Yeoudal","steam_id":76561198217559555,"connected_time":2045000000000,"state":"active","ping":105}]},{"server_id":320,"name":"Uncletopia | London | 3 | All Maps","name_short":"lon-3","host":"lon-1.uk.uncletopia.com","port":27035,"enabled":true,"region":"eu","cc":"gb","latitude":51.509865,"longitude":-0.118092,"reserved":0,"last_update":"0001-01-01T00:00:00Z","name_a2s":"Uncletopia | London | 3 | All Maps","protocol":17,"map":"pl_badwater","folder":"tf","game":"Team Fortress","app_id":440,"player_count":0,"max_players":24,"Bots":0,"server_type":"Dedicated","server_os":"Linux","password":true,"vac":true,"version":"7757534","steam_id":85568392924510192,"keywords":["nocrits","nodmgspread","payload","uncletopia"],"game_id":440,"stv_port":27036,"stv_name":"Uncletopia | London | 3 | All Maps | STV","players":null},{"server_id":321,"name":"Uncletopia | London | 4 | All Maps","name_short":"lon-4","host":"lon-1.uk.uncletopia.com","port":27045,"enabled":true,"region":"eu","cc":"gb","latitude":51.509865,"longitude":-0.118092,"reserved":0,"last_update":"0001-01-01T00:00:00Z","name_a2s":"Uncletopia | London | 4 | All Maps","protocol":17,"map":"cp_snakewater_final1","folder":"tf","game":"Team Fortress","app_id":440,"player_count":0,"max_players":24,"Bots":0,"server_type":"Dedicated","server_os":"Linux","password":true,"vac":true,"version":"7757534","steam_id":85568392924510193,"keywords":["cp","nocrits","nodmgspread","uncletopia"],"game_id":440,"stv_port":27046,"stv_name":"Uncletopia | London | 4 | All Maps | STV","players":null},{"server_id":21,"name":"Uncletopia | London | 5 | All Maps","name_short":"lon-5","host":"lon-1.uk.uncletopia.com","port":27055,"enabled":true,"region":"eu","cc":"gb","latitude":51.509865,"longitude":-0.118092,"reserved":0,"last_update":"0001-01-01T00:00:00Z","name_a2s":"Uncletopia | London | 5 | All Maps","protocol":17,"map":"pl_snowycoast","folder":"tf","game":"Team Fortress","app_id":440,"player_count":0,"max_players":24,"Bots":0,"server_type":"Dedicated","server_os":"Linux","password":true,"vac":true,"version":"7757534","steam_id":85568392924742829,"keywords":["nocrits","nodmgspread","payload","uncletopia"],"game_id":440,"stv_port":27056,"stv_name":"Uncletopia | London | 5 | All Maps | STV","players":null},{"server_id":22,"name":"Uncletopia | London | 6 | All Maps","name_short":"lon-6","host":"lon-1.uk.uncletopia.com","port":27065,"enabled":true,"region":"eu","cc":"gb","latitude":51.509865,"longitude":-0.118092,"reserved":0,"last_update":"0001-01-01T00:00:00Z","name_a2s":"Uncletopia | London | 6 | All Maps","protocol":17,"map":"pl_snowycoast","folder":"tf","game":"Team Fortress","app_id":440,"player_count":0,"max_players":24,"Bots":0,"server_type":"Dedicated","server_os":"Linux","password":true,"vac":true,"version":"7757534","steam_id":85568392924742830,"keywords":["nocrits","nodmgspread","payload","uncletopia"],"game_id":440,"stv_port":27066,"stv_name":"Uncletopia | London | 6 | All Maps | STV","players":null},{"server_id":40,"name":"Uncletopia | London | 7 | No Payload","name_short":"lon-7","host":"lon-1.uk.uncletopia.com","port":27075,"enabled":true,"region":"eu","cc":"gb","latitude":51.509865,"longitude":-0.118092,"reserved":0,"last_update":"0001-01-01T00:00:00Z","name_a2s":"Uncletopia | London | 7 | No Payload","protocol":17,"map":"cp_fastlane","folder":"tf","game":"Team Fortress","app_id":440,"player_count":0,"max_players":24,"Bots":0,"server_type":"Dedicated","server_os":"Linux","password":true,"vac":true,"version":"7757534","steam_id":85568392924964314,"keywords":["cp","nocrits","nodmgspread","uncletopia"],"game_id":440,"stv_port":27076,"stv_name":"Uncletopia | London | 7 | No Payload | STV","players":null},{"server_id":41,"name":"Uncletopia | London | 8 | Community","name_short":"lon-8","host":"lon-1.uk.uncletopia.com","port":27085,"enabled":true,"region":"eu","cc":"gb","latitude":51.509865,"longitude":-0.118092,"reserved":0,"last_update":"0001-01-01T00:00:00Z","name_a2s":"Uncletopia | London | 8 | Community","protocol":17,"map":"workshop/koth_ashville_final.ugc2130459942","folder":"tf","game":"Team Fortress","app_id":440,"player_count":0,"max_players":24,"Bots":0,"server_type":"Dedicated","server_os":"Linux","password":true,"vac":true,"version":"7757534","steam_id":85568392924964315,"keywords":["cp","nocrits","nodmgspread","uncletopia"],"game_id":440,"stv_port":27086,"stv_name":"Uncletopia | London | 8 | Community | STV","players":null},{"server_id":300,"name":"Uncletopia | Montr√©al | 1 | All Maps","name_short":"mtl-1","host":"mtl-1.ca.uncletopia.com","port":27015,"enabled":true,"region":"us-east","cc":"ca","latitude":45.50889,"longitude":-73.56167,"reserved":0,"last_update":"0001-01-01T00:00:00Z","name_a2s":"Uncletopia | Montr√©al | 1 | All Maps","protocol":17,"map":"koth_highpass","folder":"tf","game":"Team Fortress","app_id":440,"player_count":0,"max_players":24,"Bots":0,"server_type":"Dedicated","server_os":"Linux","password":true,"vac":true,"version":"7757534","steam_id":85568392924500087,"keywords":["cp","nocrits","nodmgspread","uncletopia"],"game_id":440,"stv_port":27016,"stv_name":"Uncletopia | Montr√©al | 1 | All Maps | STV","players":null},{"server_id":301,"name":"Uncletopia | Montr√©al | 2 | All Maps","name_short":"mtl-2","host":"mtl-1.ca.uncletopia.com","port":27025,"enabled":true,"region":"us-east","cc":"ca","latitude":45.50889,"longitude":-73.56167,"reserved":0,"last_update":"0001-01-01T00:00:00Z","name_a2s":"Uncletopia | Montr√©al | 2 | All Maps","protocol":17,"map":"koth_lakeside_final","folder":"tf","game":"Team Fortress","app_id":440,"player_count":0,"max_players":24,"Bots":0,"server_type":"Dedicated","server_os":"Linux","password":true,"vac":true,"version":"7757534","steam_id":85568392924500088,"keywords":["cp","nocrits","nodmgspread","uncletopia"],"game_id":440,"stv_port":27026,"stv_name":"Uncletopia | Montr√©al | 2 | All Maps | STV","players":null},{"server_id":302,"name":"Uncletopia | Montr√©al | 3 | All Maps","name_short":"mtl-3","host":"mtl-1.ca.uncletopia.com","port":27035,"enabled":true,"region":"us-east","cc":"ca","latitude":45.50889,"longitude":-73.56167,"reserved":0,"last_update":"0001-01-01T00:00:00Z","name_a2s":"Uncletopia | Montr√©al | 3 | All Maps","protocol":17,"map":"koth_cascade","folder":"tf","game":"Team Fortress","app_id":440,"player_count":0,"max_players":24,"Bots":0,"server_type":"Dedicated","server_os":"Linux","password":true,"vac":true,"version":"7757534","steam_id":85568392924500089,"keywords":["cp","nocrits","nodmgspread","uncletopia"],"game_id":440,"stv_port":27036,"stv_name":"Uncletopia | Montr√©al | 3 | All Maps | STV","players":null},{"server_id":303,"name":"Uncletopia | Montr√©al | 4 | No Payload","name_short":"mtl-4","host":"mtl-1.ca.uncletopia.com","port":27045,"enabled":true,"region":"us-east","cc":"ca","latitude":45.50889,"longitude":-73.56167,"reserved":0,"last_update":"0001-01-01T00:00:00Z","name_a2s":"Uncletopia | Montr√©al | 4 | No Payload","protocol":17,"map":"koth_lakeside_final","folder":"tf","game":"Team Fortress","app_id":440,"player_count":0,"max_players":24,"Bots":0,"server_type":"Dedicated","server_os":"Linux","password":true,"vac":true,"version":"7757534","steam_id":85568392924500090,"keywords":["cp","nocrits","nodmgspread","uncletopia"],"game_id":440,"stv_port":27046,"stv_name":"Uncletopia | Montr√©al | 4 | No Payload | STV","players":null},{"server_id":13,"name":"Uncletopia | New York City | 1 | All Maps","name_short":"nyc-1","host":"nyc-1.us.uncletopia.com","port":27015,"enabled":true,"region":"us-east","cc":"us","latitude":40.73061,"longitude":-73.93524,"reserved":0,"last_update":"0001-01-01T00:00:00Z","name_a2s":"Uncletopia | New York City | 1 | All Maps","protocol":17,"map":"cp_snakewater_final1","folder":"tf","game":"Team Fortress","app_id":440,"player_count":0,"max_players":24,"Bots":0,"server_type":"Dedicated","server_os":"Linux","password":true,"vac":true,"version":"7757534","steam_id":85568392924469993,"keywords":["cp","nocrits","nodmgspread","uncletopia"],"game_id":440,"stv_port":27016,"stv_name":"Uncletopia | New York City | 1 | All Maps | STV","players":null},{"server_id":14,"name":"Uncletopia | New York City | 2 | All Maps","name_short":"nyc-2","host":"nyc-1.us.uncletopia.com","port":27025,"enabled":true,"region":"us-east","cc":"us","latitude":40.73061,"longitude":-73.93524,"reserved":0,"last_update":"0001-01-01T00:00:00Z","name_a2s":"Uncletopia | New York City | 2 | All Maps","protocol":17,"map":"pl_barnblitz","folder":"tf","game":"Team Fortress","app_id":440,"player_count":0,"max_players":24,"Bots":0,"server_type":"Dedicated","server_os":"Linux","password":true,"vac":true,"version":"7757534","steam_id":85568392924469994,"keywords":["nocrits","nodmgspread","payload","uncletopia"],"game_id":440,"stv_port":27026,"stv_name":"Uncletopia | New York City | 2 | All Maps | STV","players":null},{"server_id":15,"name":"Uncletopia | New York City | 3 | Stopwatch Beta","name_short":"nyc-3","host":"nyc-1.us.uncletopia.com","port":27035,"enabled":true,"region":"us-east","cc":"us","latitude":40.73061,"longitude":-73.93524,"reserved":0,"last_update":"0001-01-01T00:00:00Z","name_a2s":"Uncletopia | New York City | 3 | Stopwatch Beta","protocol":17,"map":"workshop/koth_clearcut_b15.ugc2107050255","folder":"tf","game":"Team Fortress","app_id":440,"player_count":0,"max_players":24,"Bots":0,"server_type":"Dedicated","server_os":"Linux","password":true,"vac":true,"version":"7757534","steam_id":85568392924742820,"keywords":["cp","nocrits","nodmgspread","uncletopia"],"game_id":440,"stv_port":27036,"stv_name":"Uncletopia | New York City | 3 | Stopwatch Beta | STV","players":null},{"server_id":16,"name":"Uncletopia | New York City | 4 | Community","name_short":"nyc-4","host":"nyc-1.us.uncletopia.com","port":27045,"enabled":true,"region":"us-east","cc":"us","latitude":40.73061,"longitude":-73.93524,"reserved":0,"last_update":"0001-01-01T00:00:00Z","name_a2s":"Uncletopia | New York City | 4 | Community","protocol":17,"map":"workshop/pl_barnblitz_pro7.ugc582280235","folder":"tf","game":"Team Fortress","app_id":440,"player_count":0,"max_players":24,"Bots":0,"server_type":"Dedicated","server_os":"Linux","password":true,"vac":true,"version":"7757534","steam_id":85568392924742821,"keywords":["nocrits","nodmgspread","payload","uncletopia"],"game_id":440,"stv_port":27046,"stv_name":"Uncletopia | New York City | 4 | Community | STV","players":null},{"server_id":142,"name":"Uncletopia | S√£o Paulo | 1 | All Maps","name_short":"sao-1","host":"sao-1.br.uncletopia.com","port":27015,"enabled":true,"region":"sa","cc":"br","latitude":-23.533773,"longitude":-46.62529,"reserved":0,"last_update":"0001-01-01T00:00:00Z","name_a2s":"Uncletopia | S√£o Paulo | 1 | All Maps","protocol":17,"map":"plr_pipeline","folder":"tf","game":"Team Fortress","app_id":440,"player_count":0,"max_players":24,"Bots":0,"server_type":"Dedicated","server_os":"Linux","password":true,"vac":true,"version":"7757534","steam_id":85568392924469996,"keywords":["nocrits","nodmgspread","payload","uncletopia"],"game_id":440,"stv_port":27016,"stv_name":"Uncletopia | S√£o Paulo | 1 | All Maps | STV","players":null},{"server_id":143,"name":"Uncletopia | S√£o Paulo | 2 | All Maps","name_short":"sao-2","host":"sao-2.br.uncletopia.com","port":27015,"enabled":true,"region":"sa","cc":"br","latitude":-23.533773,"longitude":-46.62529,"reserved":0,"last_update":"0001-01-01T00:00:00Z","name_a2s":"Uncletopia | S√£o Paulo | 2 | All Maps","protocol":17,"map":"koth_cascade","folder":"tf","game":"Team Fortress","app_id":440,"player_count":0,"max_players":24,"Bots":0,"server_type":"Dedicated","server_os":"Linux","password":true,"vac":true,"version":"7757534","steam_id":85568392924485349,"keywords":["cp","nocrits","nodmgspread","uncletopia"],"game_id":440,"stv_port":27016,"stv_name":"Uncletopia | S√£o Paulo | 2 | All Maps | STV","players":null},{"server_id":7,"name":"Uncletopia | Seattle | 1 | All Maps","name_short":"sea-1","host":"sea-1.us.uncletopia.com","port":27015,"enabled":true,"region":"us-west","cc":"us","latitude":47.608013,"longitude":-122.33517,"reserved":0,"last_update":"0001-01-01T00:00:00Z","name_a2s":"Uncletopia | Seattle | 1 | All Maps","protocol":17,"map":"koth_viaduct","folder":"tf","game":"Team Fortress","app_id":440,"player_count":24,"max_players":24,"Bots":0,"server_type":"Dedicated","server_os":"Linux","password":true,"vac":true,"version":"7757534","steam_id":85568392924469997,"keywords":["cp","nocrits","nodmgspread","uncletopia"],"game_id":440,"stv_port":27016,"stv_name":"Uncletopia | Seattle | 1 | All Maps | STV","players":[{"user_id":898,"name":"Agentnickel","steam_id":76561199186723516,"connected_time":368000000000,"state":"active","ping":66},{"user_id":851,"name":"Arsonist Goose","steam_id":76561198147441830,"connected_time":2450000000000,"state":"active","ping":72},{"user_id":852,"name":"Ayayahuasca","steam_id":76561199002906056,"connected_time":2359000000000,"state":"active","ping":47},{"user_id":890,"name":"sussymeister","steam_id":76561198294281809,"connected_time":624000000000,"state":"active","ping":87},{"user_id":873,"name":"Naffers","steam_id":76561198195957335,"connected_time":1229000000000,"state":"active","ping":39},{"user_id":885,"name":"Golgi Apparatus","steam_id":76561198013399809,"connected_time":743000000000,"state":"active","ping":76},{"user_id":869,"name":"ImChom","steam_id":76561198970425609,"connected_time":1336000000000,"state":"active","ping":65},{"user_id":886,"name":"Xyvanereth","steam_id":76561198844137326,"connected_time":728000000000,"state":"active","ping":56},{"user_id":900,"name":"SuaveFrenchman","steam_id":76561198043762683,"connected_time":69000000000,"state":"active","ping":64},{"user_id":872,"name":"Bubbamanme","steam_id":76561198119778504,"connected_time":1317000000000,"state":"active","ping":60},{"user_id":874,"name":"cilo","steam_id":76561198046163502,"connected_time":1220000000000,"state":"active","ping":72},{"user_id":892,"name":"Lavernius41","steam_id":76561198807274102,"connected_time":603000000000,"state":"active","ping":75},{"user_id":876,"name":"Magic Jack","steam_id":76561198227459488,"connected_time":1154000000000,"state":"active","ping":95},{"user_id":877,"name":"RaceNinja","steam_id":76561199075606555,"connected_time":1141000000000,"state":"active","ping":58},{"user_id":878,"name":"caramelCase","steam_id":76561198871689972,"connected_time":1059000000000,"state":"active","ping":183},{"user_id":891,"name":"shoe","steam_id":76561198451476220,"connected_time":621000000000,"state":"active","ping":61},{"user_id":893,"name":"Cloud","steam_id":76561198272454184,"connected_time":574000000000,"state":"active","ping":174},{"user_id":883,"name":"Tom Skirrett","steam_id":76561198014600788,"connected_time":835000000000,"state":"active","ping":74},{"user_id":894,"name":"K.A.R.M.A.","steam_id":76561198240750142,"connected_time":569000000000,"state":"active","ping":79},{"user_id":888,"name":"The Flavor Savior","steam_id":76561198430508592,"connected_time":662000000000,"state":"active","ping":84},{"user_id":889,"name":"Left 4 Life","steam_id":76561198080820057,"connected_time":640000000000,"state":"active","ping":86},{"user_id":895,"name":"owlbortch","steam_id":76561198042849350,"connected_time":488000000000,"state":"active","ping":172},{"user_id":896,"name":"Oomitch","steam_id":76561198071702759,"connected_time":443000000000,"state":"active","ping":55},{"user_id":897,"name":"Klopo","steam_id":76561198871108633,"connected_time":379000000000,"state":"active","ping":56}]},{"server_id":119,"name":"Uncletopia | Seattle | 2 | All Maps","name_short":"sea-2","host":"sea-1.us.uncletopia.com","port":27025,"enabled":true,"region":"us-west","cc":"us","latitude":47.608013,"longitude":-122.33517,"reserved":0,"last_update":"0001-01-01T00:00:00Z","name_a2s":"Uncletopia | Seattle | 2 | All Maps","protocol":17,"map":"pl_swiftwater_final1","folder":"tf","game":"Team Fortress","app_id":440,"player_count":22,"max_players":24,"Bots":0,"server_type":"Dedicated","server_os":"Linux","password":true,"vac":true,"version":"7757534","steam_id":85568392924469998,"keywords":["nocrits","nodmgspread","payload","uncletopia"],"game_id":440,"stv_port":27026,"stv_name":"Uncletopia | Seattle | 2 | All Maps | STV","players":[{"user_id":506,"name":"dgmonkee","steam_id":76561198308592006,"connected_time":212000000000,"state":"active","ping":85},{"user_id":489,"name":"cyborgor","steam_id":76561198040782513,"connected_time":1829000000000,"state":"active","ping":60},{"user_id":496,"name":"Dosario","steam_id":76561198298095535,"connected_time":1209000000000,"state":"active","ping":63},{"user_id":493,"name":"MonteJT","steam_id":76561198055409360,"connected_time":1248000000000,"state":"active","ping":42},{"user_id":430,"name":"SvicidalBug","steam_id":76561198221390504,"connected_time":6075000000000,"state":"active","ping":67},{"user_id":507,"name":"frozenwasanokmovie","steam_id":76561198157407952,"connected_time":67000000000,"state":"active","ping":82},{"user_id":490,"name":"Pie","steam_id":76561198002480476,"connected_time":1591000000000,"state":"active","ping":111},{"user_id":494,"name":"mayor of penjamin city","steam_id":76561198881144114,"connected_time":1241000000000,"state":"active","ping":48},{"user_id":508,"name":"Death Bird","steam_id":76561198041329791,"connected_time":32000000000,"state":"active","ping":73},{"user_id":465,"name":"DRISZI","steam_id":76561198209217272,"connected_time":4102000000000,"state":"active","ping":52},{"user_id":485,"name":"vanilain","steam_id":76561198058617608,"connected_time":2201000000000,"state":"active","ping":87},{"user_id":509,"name":"hosewater","steam_id":76561198023383126,"connected_time":16000000000,"state":"spawning","ping":59},{"user_id":466,"name":"to be a constellation","steam_id":76561198048992536,"connected_time":4009000000000,"state":"active","ping":113},{"user_id":499,"name":"he's disabled","steam_id":76561198025368981,"connected_time":1038000000000,"state":"active","ping":75},{"user_id":500,"name":"goldhed","steam_id":76561198051751133,"connected_time":927000000000,"state":"active","ping":53},{"user_id":479,"name":"dosimeter","steam_id":76561198039608940,"connected_time":3138000000000,"state":"active","ping":72},{"user_id":501,"name":"Lord Pretty Flocko Jordye","steam_id":76561198962880749,"connected_time":912000000000,"state":"active","ping":56},{"user_id":505,"name":"victordead121","steam_id":76561199180843121,"connected_time":452000000000,"state":"active","ping":116},{"user_id":503,"name":"PopcornNinja101","steam_id":76561198330680181,"connected_time":705000000000,"state":"active","ping":53},{"user_id":481,"name":"Robogineer","steam_id":76561198026994739,"connected_time":3092000000000,"state":"active","ping":77},{"user_id":504,"name":"Fu Qian Qian","steam_id":76561199081837220,"connected_time":690000000000,"state":"active","ping":126},{"user_id":487,"name":"SadFapping","steam_id":76561198076651049,"connected_time":1996000000000,"state":"active","ping":58}]},{"server_id":406,"name":"Uncletopia | Seattle | 3 | Stopwatch Beta","name_short":"sea-3","host":"sea-1.us.uncletopia.com","port":27035,"enabled":true,"region":"us-west","cc":"us","latitude":47.608013,"longitude":-122.33517,"reserved":0,"last_update":"0001-01-01T00:00:00Z","name_a2s":"Uncletopia | Seattle | 3 | Stopwatch Beta","protocol":17,"map":"koth_lakeside_final","folder":"tf","game":"Team Fortress","app_id":440,"player_count":0,"max_players":24,"Bots":0,"server_type":"Dedicated","server_os":"Linux","password":true,"vac":true,"version":"7757534","steam_id":85568392924515217,"keywords":["cp","nocrits","nodmgspread","uncletopia"],"game_id":440,"stv_port":27036,"stv_name":"Uncletopia | Seattle | 3 | Stopwatch Beta | STV","players":null},{"server_id":17,"name":"Uncletopia | San Francisco | 1 | All Maps","name_short":"sfo-1","host":"sfo-1.us.uncletopia.com","port":27015,"enabled":true,"region":"us-west","cc":"us","latitude":37.77397,"longitude":-122.4313,"reserved":0,"last_update":"0001-01-01T00:00:00Z","name_a2s":"Uncletopia | San Francisco | 1 | All Maps","protocol":17,"map":"pl_barnblitz","folder":"tf","game":"Team Fortress","app_id":440,"player_count":14,"max_players":24,"Bots":0,"server_type":"Dedicated","server_os":"Linux","password":true,"vac":true,"version":"7757534","steam_id":85568392924469999,"keywords":["nocrits","nodmgspread","payload","uncletopia"],"game_id":440,"stv_port":27016,"stv_name":"Uncletopia | San Francisco | 1 | All Maps | STV","players":[{"user_id":207,"name":"Fargo","steam_id":76561198044703931,"connected_time":515000000000,"state":"active","ping":70},{"user_id":153,"name":"The dreaded jar","steam_id":76561199087010656,"connected_time":4504000000000,"state":"active","ping":76},{"user_id":206,"name":"Zekinler","steam_id":76561198868861099,"connected_time":557000000000,"state":"active","ping":100},{"user_id":192,"name":"BananaFana","steam_id":76561198008891875,"connected_time":2283000000000,"state":"active","ping":56},{"user_id":174,"name":"Filthy Hobo","steam_id":76561198174373015,"connected_time":3062000000000,"state":"active","ping":145},{"user_id":208,"name":"AceSea","steam_id":76561198851176490,"connected_time":488000000000,"state":"active","ping":36},{"user_id":204,"name":"Zoroaz (3 Shots and a cocktail)","steam_id":76561199245203720,"connected_time":570000000000,"state":"active","ping":91},{"user_id":209,"name":"-Enter Name Here-","steam_id":76561198040358938,"connected_time":476000000000,"state":"active","ping":107},{"user_id":183,"name":"Cute Gatito","steam_id":76561198351147780,"connected_time":2800000000000,"state":"active","ping":60},{"user_id":201,"name":"Rakk","steam_id":76561198855176174,"connected_time":1582000000000,"state":"active","ping":54},{"user_id":212,"name":"xboxman3012#SAFE TF2","steam_id":76561199348441494,"connected_time":190000000000,"state":"active","ping":241},{"user_id":211,"name":"Spare(8)Ball","steam_id":76561197982432995,"connected_time":218000000000,"state":"active","ping":49},{"user_id":149,"name":"times table","steam_id":76561198341452558,"connected_time":5254000000000,"state":"active","ping":90},{"user_id":166,"name":"The American Egele","steam_id":76561198081504766,"connected_time":3836000000000,"state":"active","ping":88}]},{"server_id":18,"name":"Uncletopia | San Francisco | 2 | All Maps","name_short":"sfo-2","host":"sfo-1.us.uncletopia.com","port":27025,"enabled":true,"region":"us-west","cc":"us","latitude":37.77397,"longitude":-122.4313,"reserved":0,"last_update":"0001-01-01T00:00:00Z","name_a2s":"Uncletopia | San Francisco | 2 | All Maps","protocol":17,"map":"pl_pier","folder":"tf","game":"Team Fortress","app_id":440,"player_count":0,"max_players":24,"Bots":0,"server_type":"Dedicated","server_os":"Linux","password":true,"vac":true,"version":"7757534","steam_id":85568392924470000,"keywords":["nocrits","nodmgspread","payload","uncletopia"],"game_id":440,"stv_port":27026,"stv_name":"Uncletopia | San Francisco | 2 | All Maps | STV","players":null},{"server_id":19,"name":"Uncletopia | San Francisco | 3 | Stopwatch Beta","name_short":"sfo-3","host":"sfo-1.us.uncletopia.com","port":27035,"enabled":true,"region":"us-west","cc":"us","latitude":37.77397,"longitude":-122.4313,"reserved":0,"last_update":"0001-01-01T00:00:00Z","name_a2s":"Uncletopia | San Francisco | 3 | Stopwatch Beta","protocol":17,"map":"koth_viaduct","folder":"tf","game":"Team Fortress","app_id":440,"player_count":0,"max_players":24,"Bots":0,"server_type":"Dedicated","server_os":"Linux","password":true,"vac":true,"version":"7757534","steam_id":85568392924742824,"keywords":["cp","nocrits","nodmgspread","uncletopia"],"game_id":440,"stv_port":27036,"stv_name":"Uncletopia | San Francisco | 3 | Stopwatch Beta | STV","players":null},{"server_id":20,"name":"Uncletopia | San Francisco | 4 | Community","name_short":"sfo-4","host":"sfo-1.us.uncletopia.com","port":27045,"enabled":true,"region":"us-west","cc":"us","latitude":37.77397,"longitude":-122.4313,"reserved":0,"last_update":"0001-01-01T00:00:00Z","name_a2s":"Uncletopia | San Francisco | 4 | Community","protocol":17,"map":"workshop/koth_slaughter_rc1.ugc1712845210","folder":"tf","game":"Team Fortress","app_id":440,"player_count":0,"max_players":24,"Bots":0,"server_type":"Dedicated","server_os":"Linux","password":true,"vac":true,"version":"7757534","steam_id":85568392924742826,"keywords":["cp","nocrits","nodmgspread","uncletopia"],"game_id":440,"stv_port":27046,"stv_name":"Uncletopia | San Francisco | 4 | Community | STV","players":null},{"server_id":141,"name":"Uncletopia | Sydney | 1 | All Maps","name_short":"syd-1","host":"syd-1.au.uncletopia.com","port":27015,"enabled":true,"region":"au","cc":"au","latitude":-33.865143,"longitude":151.2099,"reserved":0,"last_update":"0001-01-01T00:00:00Z","name_a2s":"Uncletopia | Sydney | 1 | All Maps","protocol":17,"map":"pl_swiftwater_final1","folder":"tf","game":"Team Fortress","app_id":440,"player_count":24,"max_players":24,"Bots":0,"server_type":"Dedicated","server_os":"Linux","password":true,"vac":true,"version":"7757534","steam_id":85568392924470001,"keywords":["nocrits","nodmgspread","payload","uncletopia"],"game_id":440,"stv_port":27016,"stv_name":"Uncletopia | Sydney | 1 | All Maps | STV","players":[{"user_id":228,"name":"the rot consumes","steam_id":76561199445490119,"connected_time":2759000000000,"state":"active","ping":35},{"user_id":235,"name":"Leonidas","steam_id":76561198054096076,"connected_time":2382000000000,"state":"active","ping":52},{"user_id":237,"name":"KillerBlow","steam_id":76561198930232832,"connected_time":1982000000000,"state":"active","ping":82},{"user_id":255,"name":"Livid","steam_id":76561198060024585,"connected_time":465000000000,"state":"active","ping":32},{"user_id":249,"name":"qwop champion","steam_id":76561198143395126,"connected_time":1060000000000,"state":"active","ping":56},{"user_id":219,"name":"jim :)","steam_id":76561198127508905,"connected_time":3158000000000,"state":"active","ping":37},{"user_id":238,"name":"Optometrist Prime","steam_id":76561198340730741,"connected_time":1966000000000,"state":"active","ping":58},{"user_id":220,"name":"zebulon","steam_id":76561198063481761,"connected_time":3129000000000,"state":"active","ping":44},{"user_id":247,"name":"TheSticky_Studio","steam_id":76561198428683022,"connected_time":1577000000000,"state":"active","ping":175},{"user_id":204,"name":"Raven","steam_id":76561198428025966,"connected_time":3724000000000,"state":"active","ping":64},{"user_id":248,"name":"squrrel","steam_id":76561198083429611,"connected_time":1176000000000,"state":"active","ping":58},{"user_id":207,"name":"Sy 4","steam_id":76561198879862702,"connected_time":3483000000000,"state":"active","ping":67},{"user_id":158,"name":"thrax","steam_id":76561197992385270,"connected_time":6486000000000,"state":"active","ping":53},{"user_id":253,"name":"creature","steam_id":76561198109927649,"connected_time":609000000000,"state":"active","ping":50},{"user_id":239,"name":"Piyo.","steam_id":76561197985114373,"connected_time":1964000000000,"state":"active","ping":68},{"user_id":251,"name":"dagger","steam_id":76561198068130633,"connected_time":722000000000,"state":"active","ping":44},{"user_id":194,"name":"Lord Voldemort","steam_id":76561198063059230,"connected_time":4708000000000,"state":"active","ping":65},{"user_id":152,"name":"Bobby Bigman","steam_id":76561198044679656,"connected_time":6661000000000,"state":"active","ping":58},{"user_id":224,"name":"Death By Bougar","steam_id":76561198301282416,"connected_time":3029000000000,"state":"active","ping":52},{"user_id":208,"name":"A KNIFE!","steam_id":76561198160390701,"connected_time":3483000000000,"state":"active","ping":54},{"user_id":233,"name":"Kouroboros","steam_id":76561198141283669,"connected_time":2436000000000,"state":"active","ping":84},{"user_id":252,"name":"Bin","steam_id":76561199117653318,"connected_time":638000000000,"state":"active","ping":68},{"user_id":245,"name":"Nixxez","steam_id":76561198381749452,"connected_time":1816000000000,"state":"active","ping":90},{"user_id":173,"name":"Consolidated Fart","steam_id":76561198924101909,"connected_time":5386000000000,"state":"active","ping":66}]},{"server_id":123,"name":"Uncletopia | Sydney | 2 | All Maps","name_short":"syd-2","host":"syd-1.au.uncletopia.com","port":27025,"enabled":true,"region":"au","cc":"au","latitude":-33.865143,"longitude":151.2099,"reserved":0,"last_update":"0001-01-01T00:00:00Z","name_a2s":"Uncletopia | Sydney | 2 | All Maps","protocol":17,"map":"cp_dustbowl","folder":"tf","game":"Team Fortress","app_id":440,"player_count":24,"max_players":24,"Bots":0,"server_type":"Dedicated","server_os":"Linux","password":true,"vac":true,"version":"7757534","steam_id":85568392924470002,"keywords":["cp","nocrits","nodmgspread","uncletopia"],"game_id":440,"stv_port":27026,"stv_name":"Uncletopia | Sydney | 2 | All Maps | STV","players":[{"user_id":437,"name":"The Bisoneer TF2","steam_id":76561199446773766,"connected_time":5170000000000,"state":"active","ping":93},{"user_id":510,"name":"Fuzz","steam_id":76561198063077180,"connected_time":135000000000,"state":"active","ping":52},{"user_id":507,"name":"Cv76","steam_id":76561198817942619,"connected_time":565000000000,"state":"active","ping":40},{"user_id":504,"name":"wawa car","steam_id":76561198170727659,"connected_time":774000000000,"state":"active","ping":69},{"user_id":490,"name":"Mouse Balls","steam_id":76561199037470627,"connected_time":1534000000000,"state":"active","ping":108},{"user_id":505,"name":"SaltierThanYou","steam_id":76561198444395188,"connected_time":755000000000,"state":"active","ping":81},{"user_id":508,"name":"Bigrichard","steam_id":76561198032092945,"connected_time":517000000000,"state":"active","ping":75},{"user_id":481,"name":"TheMonsterUnderUrBed","steam_id":76561198119143250,"connected_time":2376000000000,"state":"active","ping":72},{"user_id":446,"name":"Kaynis82","steam_id":76561199067369201,"connected_time":4120000000000,"state":"active","ping":79},{"user_id":449,"name":"Kremmen","steam_id":76561198051368641,"connected_time":3910000000000,"state":"active","ping":70},{"user_id":494,"name":"hazz_mcpie -BvM- (110 REAL)","steam_id":76561198092450084,"connected_time":1199000000000,"state":"active","ping":82},{"user_id":498,"name":"MikkyD","steam_id":76561198043452962,"connected_time":892000000000,"state":"active","ping":61},{"user_id":482,"name":"old chunk of coal","steam_id":76561197990537324,"connected_time":2227000000000,"state":"active","ping":105},{"user_id":463,"name":"Dragoon","steam_id":76561198039564424,"connected_time":3307000000000,"state":"active","ping":46},{"user_id":495,"name":"MrHam -BvM-","steam_id":76561198250818060,"connected_time":1185000000000,"state":"active","ping":75},{"user_id":486,"name":"osiris","steam_id":76561198172640226,"connected_time":1953000000000,"state":"active","ping":64},{"user_id":511,"name":"monkeyman536","steam_id":76561197997717737,"connected_time":62000000000,"state":"active","ping":183},{"user_id":474,"name":"pablo.rodriguez.2015","steam_id":76561198166909147,"connected_time":2633000000000,"state":"active","ping":35},{"user_id":509,"name":"Ok Mate","steam_id":76561198254922035,"connected_time":295000000000,"state":"active","ping":52},{"user_id":487,"name":"bread","steam_id":76561199405764106,"connected_time":1925000000000,"state":"active","ping":39},{"user_id":497,"name":"Lincoln2603","steam_id":76561198170236666,"connected_time":1078000000000,"state":"active","ping":37},{"user_id":488,"name":"ola","steam_id":76561197965566926,"connected_time":1922000000000,"state":"active","ping":37},{"user_id":512,"name":"Yandle","steam_id":76561198012396067,"connected_time":45000000000,"state":"active","ping":66},{"user_id":480,"name":"Arc","steam_id":76561198124440503,"connected_time":2458000000000,"state":"active","ping":59}]},{"server_id":395,"name":"Uncletopia | Sydney | 3 | All Maps","name_short":"syd-3","host":"syd-1.au.uncletopia.com","port":27035,"enabled":true,"region":"au","cc":"au","latitude":-33.865143,"longitude":151.2099,"reserved":0,"last_update":"0001-01-01T00:00:00Z","name_a2s":"Uncletopia | Sydney | 3 | All Maps","protocol":17,"map":"pl_upward","folder":"tf","game":"Team Fortress","app_id":440,"player_count":0,"max_players":24,"Bots":0,"server_type":"Dedicated","server_os":"Linux","password":true,"vac":true,"version":"7757534","steam_id":85568392925194467,"keywords":["nocrits","nodmgspread","payload","uncletopia"],"game_id":440,"stv_port":27036,"stv_name":"Uncletopia | Sydney | 3 | All Maps | STV","players":null},{"server_id":396,"name":"Uncletopia | Sydney | 4 | All Maps","name_short":"syd-4","host":"syd-1.au.uncletopia.com","port":27045,"enabled":true,"region":"au","cc":"au","latitude":-33.865143,"longitude":151.2099,"reserved":0,"last_update":"0001-01-01T00:00:00Z","name_a2s":"Uncletopia | Sydney | 4 | All Maps","protocol":17,"map":"koth_highpass","folder":"tf","game":"Team Fortress","app_id":440,"player_count":0,"max_players":24,"Bots":0,"server_type":"Dedicated","server_os":"Linux","password":true,"vac":true,"version":"7757534","steam_id":85568392925397958,"keywords":["cp","nocrits","nodmgspread","uncletopia"],"game_id":440,"stv_port":27046,"stv_name":"Uncletopia | Sydney | 4 | All Maps | STV","players":null},{"server_id":58,"name":"Uncletopia | Sydney | 5 | Stopwatch Beta","name_short":"syd-5","host":"syd-1.au.uncletopia.com","port":27055,"enabled":true,"region":"au","cc":"au","latitude":-33.865143,"longitude":151.2099,"reserved":0,"last_update":"0001-01-01T00:00:00Z","name_a2s":"Uncletopia | Sydney | 5 | Stopwatch Beta","protocol":17,"map":"pl_barnblitz","folder":"tf","game":"Team Fortress","app_id":440,"player_count":0,"max_players":24,"Bots":0,"server_type":"Dedicated","server_os":"Linux","password":true,"vac":true,"version":"7757534","steam_id":85568392925397959,"keywords":["nocrits","nodmgspread","payload","uncletopia"],"game_id":440,"stv_port":27056,"stv_name":"Uncletopia | Sydney | 5 | Stopwatch Beta | STV","players":null},{"server_id":59,"name":"Uncletopia | Sydney | 6 | Community","name_short":"syd-6","host":"syd-1.au.uncletopia.com","port":27065,"enabled":true,"region":"au","cc":"au","latitude":-33.865143,"longitude":151.2099,"reserved":0,"last_update":"0001-01-01T00:00:00Z","name_a2s":"Uncletopia | Sydney | 6 | Community","protocol":17,"map":"workshop/koth_ashville_final.ugc2130459942","folder":"tf","game":"Team Fortress","app_id":440,"player_count":0,"max_players":24,"Bots":0,"server_type":"Dedicated","server_os":"Linux","password":true,"vac":true,"version":"7757534","steam_id":85568392925397960,"keywords":["cp","nocrits","nodmgspread","uncletopia"],"game_id":440,"stv_port":27066,"stv_name":"Uncletopia | Sydney | 6 | Community | STV","players":null},{"server_id":49,"name":"Uncletopia | Warsaw | 1 | All Maps","name_short":"waw-1","host":"waw-1.pl.uncletopia.com","port":27015,"enabled":true,"region":"eu","cc":"pl","latitude":52.2297,"longitude":21.017532,"reserved":0,"last_update":"0001-01-01T00:00:00Z","name_a2s":"","protocol":0,"map":"","folder":"","game":"","app_id":0,"player_count":0,"max_players":0,"Bots":0,"server_type":"","server_os":"","password":false,"vac":false,"version":"","steam_id":0,"keywords":null,"game_id":0,"stv_port":0,"stv_name":"","players":null},{"server_id":50,"name":"Uncletopia | Warsaw | 2 | All Maps","name_short":"waw-2","host":"waw-1.pl.uncletopia.com","port":27025,"enabled":true,"region":"eu","cc":"pl","latitude":52.2297,"longitude":21.017532,"reserved":0,"last_update":"0001-01-01T00:00:00Z","name_a2s":"Uncletopia | Warsaw | 2 | All Maps","protocol":17,"map":"cp_snakewater_final1","folder":"tf","game":"Team Fortress","app_id":440,"player_count":0,"max_players":24,"Bots":0,"server_type":"Dedicated","server_os":"Linux","password":true,"vac":true,"version":"7757534","steam_id":85568392925397851,"keywords":["cp","nocrits","nodmgspread","uncletopia"],"game_id":440,"stv_port":27026,"stv_name":"Uncletopia | Warsaw | 2 | All Maps | STV","players":null},{"server_id":51,"name":"Uncletopia | Warsaw | 3 | All Maps","name_short":"waw-3","host":"waw-1.pl.uncletopia.com","port":27035,"enabled":true,"region":"eu","cc":"pl","latitude":52.2297,"longitude":21.017532,"reserved":0,"last_update":"0001-01-01T00:00:00Z","name_a2s":"Uncletopia | Warsaw | 3 | All Maps","protocol":17,"map":"koth_highpass","folder":"tf","game":"Team Fortress","app_id":440,"player_count":0,"max_players":24,"Bots":0,"server_type":"Dedicated","server_os":"Linux","password":true,"vac":true,"version":"7757534","steam_id":85568392925397852,"keywords":["cp","nocrits","nodmgspread","uncletopia"],"game_id":440,"stv_port":27036,"stv_name":"Uncletopia | Warsaw | 3 | All Maps | STV","players":null},{"server_id":52,"name":"Uncletopia | Warsaw | 4 | All Maps","name_short":"waw-4","host":"waw-1.pl.uncletopia.com","port":27045,"enabled":true,"region":"eu","cc":"pl","latitude":52.2297,"longitude":21.017532,"reserved":0,"last_update":"0001-01-01T00:00:00Z","name_a2s":"Uncletopia | Warsaw | 4 | All Maps","protocol":17,"map":"pl_borneo","folder":"tf","game":"Team Fortress","app_id":440,"player_count":0,"max_players":24,"Bots":0,"server_type":"Dedicated","server_os":"Linux","password":true,"vac":true,"version":"7757534","steam_id":85568392925397853,"keywords":["nocrits","nodmgspread","payload","uncletopia"],"game_id":440,"stv_port":27046,"stv_name":"Uncletopia | Warsaw | 4 | All Maps | STV","players":null},{"server_id":53,"name":"Uncletopia | Warsaw | 5 | Stopwatch Beta","name_short":"waw-5","host":"waw-1.pl.uncletopia.com","port":27055,"enabled":true,"region":"eu","cc":"pl","latitude":52.2297,"longitude":21.017532,"reserved":0,"last_update":"0001-01-01T00:00:00Z","name_a2s":"Uncletopia | Warsaw | 5 | Stopwatch Beta","protocol":17,"map":"workshop/pl_barnblitz_pro7.ugc582280235","folder":"tf","game":"Team Fortress","app_id":440,"player_count":0,"max_players":24,"Bots":0,"server_type":"Dedicated","server_os":"Linux","password":true,"vac":true,"version":"7757534","steam_id":85568392925397854,"keywords":["nocrits","nodmgspread","payload","uncletopia"],"game_id":440,"stv_port":27056,"stv_name":"Uncletopia | Warsaw | 5 | Stopwatch Beta | STV","players":null},{"server_id":54,"name":"Uncletopia | Warsaw | 6 | Community","name_short":"waw-6","host":"waw-1.pl.uncletopia.com","port":27065,"enabled":true,"region":"eu","cc":"pl","latitude":52.2297,"longitude":21.017532,"reserved":0,"last_update":"0001-01-01T00:00:00Z","name_a2s":"Uncletopia | Warsaw | 6 | Community","protocol":17,"map":"pl_barnblitz","folder":"tf","game":"Team Fortress","app_id":440,"player_count":0,"max_players":24,"Bots":0,"server_type":"Dedicated","server_os":"Linux","password":true,"vac":true,"version":"7757534","steam_id":85568392925397856,"keywords":["nocrits","nodmgspread","payload","uncletopia"],"game_id":440,"stv_port":27066,"stv_name":"Uncletopia | Warsaw | 6 | Community | STV","players":null}]}