{"status":true,"message":"","result":[{"server_id":9,"name":"Uncletopia | Atlanta | 1 | All Maps","name_short":"atl-1","host":"atl-1.us.uncletopia.com","port":27015,"enabled":true,"region":"us-east","cc":"us","latitude":33.753746,"longitude":-84.38633,"reserved":0,"last_update":"0001-01-01T00:00:00Z","name_a2s":"Uncletopia | Atlanta | 1 | All Maps","protocol":17,"map":"pl_pier","folder":"tf","game":"Team Fortress","app_id":440,"player_count":24,"max_players":24,"Bots":0,"server_type":"Dedicated","server_os":"Linux","password":true,"vac":true,"version":"7757534","steam_id":85568392924469982,"keywords":["nocrits","nodmgspread","payload","uncletopia"],"game_id":440,"stv_port":27016,"stv_name":"Uncletopia | Atlanta | 1 | All Maps | STV","players":[{"user_id":87,"name":"ATL1 | Lylith!!!","steam_id":76561198386687546,"connected_time":229000000000,"state":"active","ping":51},{"user_id":59,"name":"Quaker Oats","steam_id":76561197992800293,"connected_time":2089000000000,"state":"active","ping":65},{"user_id":13,"name":"Crotonga","steam_id":76561198077178900,"connected_time":5333000000000,"state":"active","ping":75},{"user_id":73,"name":"Try Gardening","steam_id":76561198120311340,"connected_time":633000000000,"state":"active","ping":53},{"user_id":65,"name":"Monster","steam_id":76561198189429665,"connected_time":1171000000000,"state":"active","ping":78},{"user_id":66,"name":"Dude bro","steam_id":76561198249916746,"connected_time":1051000000000,"state":"active","ping":59},{"user_id":86,"name":"rumes","steam_id":76561198349219467,"connected_time":279000000000,"state":"active","ping":87},{"user_id":78,"name":"Lepo","steam_id":76561198383509659,"connected_time":402000000000,"state":"active","ping":80},{"user_id":79,"name":"All Patched Up","steam_id":76561198088778979,"connected_time":370000000000,"state":"active","ping":125},{"user_id":67,"name":"ATL1 | Vee (very cool)","steam_id":76561198330432889,"connected_time":960000000000,"state":"active","ping":74},{"user_id":23,"name":"ATL1 | p4ka","steam_id":76561198315291317,"connected_time":4139000000000,"state":"active","ping":74},{"user_id":57,"name":"Mug Moment Gaming","steam_id":76561198233098136,"connected_time":2641000000000,"state":"active","ping":88},{"user_id":58,"name":"Broadsword","steam_id":76561198011160411,"connected_time":2334000000000,"state":"active","ping":61},{"user_id":90,"name":"sheep girl \u003c3","steam_id":76561198068189558,"connected_time":20000000000,"state":"active","ping":105},{"user_id":81,"name":"semaj (._. )/","steam_id":76561199072490942,"connected_time":331000000000,"state":"active","ping":73},{"user_id":28,"name":"exploding_dustrags","steam_id":76561199196042784,"connected_time":4011000000000,"state":"active","ping":82},{"user_id":77,"name":"k4chow","steam_id":76561198089389901,"connected_time":426000000000,"state":"active","ping":68},{"user_id":89,"name":"Cooki","steam_id":76561198051705314,"connected_time":72000000000,"state":"active","ping":98},{"user_id":88,"name":"lil hog","steam_id":76561199230929836,"connected_time":166000000000,"state":"active","ping":81},{"user_id":50,"name":"Obelix","steam_id":76561198274715109,"connected_time":3439000000000,"state":"active","ping":63},{"user_id":61,"name":"Mrs.Frizzle","steam_id":76561198117157085,"connected_time":1720000000000,"state":"active","ping":70},{"user_id":74,"name":"ATL1 | ma0re","steam_id":76561199231971506,"connected_time":598000000000,"state":"active","ping":60},{"user_id":83,"name":"Spiffo Raccoon (love this anima","steam_id":76561198035667824,"connected_time":324000000000,"state":"active","ping":59},{"user_id":85,"name":"Dade Murphy","steam_id":76561198245103000,"connected_time":319000000000,"state":"active","ping":69}]},{"server_id":104,"name":"Uncletopia | Atlanta | 2 | All Maps","name_short":"atl-2","host":"atl-1.us.uncletopia.com","port":27025,"enabled":true,"region":"us-east","cc":"us","latitude":33.753746,"longitude":-84.38633,"reserved":0,"last_update":"0001-01-01T00:00:00Z","name_a2s":"Uncletopia | Atlanta | 2 | All Maps","protocol":17,"map":"koth_viaduct","folder":"tf","game":"Team Fortress","app_id":440,"player_count":21,"max_players":24,"Bots":0,"server_type":"Dedicated","server_os":"Linux","password":true,"vac":true,"version":"7757534","steam_id":85568392924469983,"keywords":["cp","nocrits","nodmgspread","uncletopia"],"game_id":440,"stv_port":27026,"stv_name":"Uncletopia | Atlanta | 2 | All Maps | STV","players":[{"user_id":237,"name":"Brock O'Brian","steam_id":76561198117839474,"connected_time":238000000000,"state":"active","ping":82},{"user_id":217,"name":"superprogamerman2009","steam_id":76561199393831863,"connected_time":899000000000,"state":"active","ping":132},{"user_id":215,"name":"DOMO_MR_ROBOTO","steam_id":76561198077108345,"connected_time":946000000000,"state":"active","ping":103},{"user_id":232,"name":"Tails The Fox uwu","steam_id":76561198999384275,"connected_time":369000000000,"state":"active","ping":167},{"user_id":216,"name":"Clementine Phillips","steam_id":76561198136079056,"connected_time":943000000000,"state":"active","ping":106},{"user_id":195,"name":"Sketch gaming","steam_id":76561198863658864,"connected_time":2170000000000,"state":"active","ping":165},{"user_id":223,"name":"BasicPeaches","steam_id":76561198190890150,"connected_time":576000000000,"state":"active","ping":86},{"user_id":214,"name":"128gb sd card","steam_id":76561198043636749,"connected_time":970000000000,"state":"active","ping":104},{"user_id":238,"name":"‚úø Old Sport‚Ñ¢ ‚úø","steam_id":76561198121383743,"connected_time":176000000000,"state":"active","ping":77},{"user_id":222,"name":"A Trigger Happy Chipmunk","steam_id":76561198013608736,"connected_time":602000000000,"state":"active","ping":50},{"user_id":224,"name":"rustyorion","steam_id":76561198439186347,"connected_time":521000000000,"state":"active","ping":119},{"user_id":201,"name":"AcenSamurai","steam_id":76561199440038716,"connected_time":1619000000000,"state":"active","ping":75},{"user_id":226,"name":"Big Tiddy Serperior","steam_id":76561198114808144,"connected_time":453000000000,"state":"active","ping":110},{"user_id":227,"name":"Bumblebutt","steam_id":76561198057457396,"connected_time":438000000000,"state":"active","ping":63},{"user_id":228,"name":"üíÄKing DiamondüíÄ","steam_id":76561198012101598,"connected_time":423000000000,"state":"active","ping":123},{"user_id":239,"name":"Gino Fratelli","steam_id":76561198166409300,"connected_time":136000000000,"state":"active","ping":46},{"user_id":229,"name":"[BBW] Justario","steam_id":76561198016095410,"connected_time":423000000000,"state":"active","ping":62},{"user_id":230,"name":"Fattymcfatty","steam_id":76561198337378097,"connected_time":405000000000,"state":"active","ping":118},{"user_id":231,"name":"davi_b11","steam_id":76561199071416407,"connected_time":396000000000,"state":"active","ping":93},{"user_id":240,"name":"shadow elite","steam_id":76561198165212575,"connected_time":134000000000,"state":"active","ping":83},{"user_id":241,"name":"A Shiny Meat Bicycle","steam_id":76561198358757709,"connected_time":70000000000,"state":"active","ping":73}]},{"server_id":400,"name":"Uncletopia | Atlanta | 3 | Community","name_short":"atl-3","host":"atl-1.us.uncletopia.com","port":27035,"enabled":true,"region":"us-east","cc":"us","latitude":33.753746,"longitude":-84.38633,"reserved":0,"last_update":"0001-01-01T00:00:00Z","name_a2s":"Uncletopia | Atlanta | 3 | Community","protocol":17,"map":"workshop/pl_highwood_b13.ugc1769496557","folder":"tf","game":"Team Fortress","app_id":440,"player_count":0,"max_players":24,"Bots":0,"server_type":"Dedicated","server_os":"Linux","password":true,"vac":true,"version":"7757534","steam_id":85568392924515187,"keywords":["nocrits","nodmgspread","payload","uncletopia"],"game_id":440,"stv_port":27036,"stv_name":"Uncletopia | Atlanta | 3 | Community | STV","players":null},{"server_id":401,"name":"Uncletopia | Atlanta | 4 | No Payload","name_short":"atl-4","host":"atl-1.us.uncletopia.com","port":27045,"enabled":true,"region":"us-east","cc":"us","latitude":33.753746,"longitude":-84.38633,"reserved":0,"last_update":"0001-01-01T00:00:00Z","name_a2s":"","protocol":0,"map":"","folder":"","game":"","app_id":0,"player_count":0,"max_players":0,"Bots":0,"server_type":"","server_os":"","password":false,"vac":false,"version":"","steam_id":0,"keywords":null,"game_id":0,"stv_port":0,"stv_name":"","players":null},{"server_id":2,"name":"Uncletopia | Chicago | 1 | All Maps","name_short":"chi-1","host":"chi-1.us.uncletopia.com","port":27015,"enabled":true,"region":"us-central","cc":"us","latitude":41.881832,"longitude":-87.62318,"reserved":0,"last_update":"0001-01-01T00:00:00Z","name_a2s":"Uncletopia | Chicago | 1 | All Maps","protocol":17,"map":"ctf_2fort","folder":"tf","game":"Team Fortress","app_id":440,"player_count":24,"max_players":24,"Bots":0,"server_type":"Dedicated","server_os":"Linux","password":true,"vac":true,"version":"7757534","steam_id":85568392924469984,"keywords":["ctf","nocrits","nodmgspread","uncletopia"],"game_id":440,"stv_port":27016,"stv_name":"Uncletopia | Chicago | 1 | All Maps | STV","players":[{"user_id":430,"name":"Siri Keeton","steam_id":76561198006579827,"connected_time":176000000000,"state":"active","ping":82},{"user_id":299,"name":"Chinese \"Weather\" Balloon","steam_id":76561198031675881,"connected_time":7626000000000,"state":"active","ping":62},{"user_id":376,"name":"DocLucky","steam_id":76561199093899249,"connected_time":3494000000000,"state":"active","ping":158},{"user_id":420,"name":"quarterlome000","steam_id":76561199229700757,"connected_time":1099000000000,"state":"active","ping":81},{"user_id":374,"name":"Cousin Corn on the Cob","steam_id":76561198049837377,"connected_time":3612000000000,"state":"active","ping":47},{"user_id":402,"name":"Pow","steam_id":76561198417295769,"connected_time":2447000000000,"state":"active","ping":62},{"user_id":413,"name":"TheDapperTaco","steam_id":76561199103076602,"connected_time":2034000000000,"state":"active","ping":94},{"user_id":404,"name":"CopperBox","steam_id":76561198068217248,"connected_time":2433000000000,"state":"active","ping":90},{"user_id":410,"name":"MrMonsterMeat","steam_id":76561199107105768,"connected_time":2156000000000,"state":"active","ping":76},{"user_id":421,"name":"Bee","steam_id":76561198074681324,"connected_time":1068000000000,"state":"active","ping":61},{"user_id":431,"name":"Ramadan Steve","steam_id":76561198138568488,"connected_time":100000000000,"state":"active","ping":72},{"user_id":427,"name":"EmptyB33R","steam_id":76561198993166528,"connected_time":327000000000,"state":"active","ping":123},{"user_id":341,"name":"Oopsie Daisy ‚ùã","steam_id":76561198042144492,"connected_time":5741000000000,"state":"active","ping":72},{"user_id":429,"name":"Garfield","steam_id":76561198037803087,"connected_time":210000000000,"state":"active","ping":70},{"user_id":426,"name":"N0Ne","steam_id":76561198376822522,"connected_time":557000000000,"state":"active","ping":84},{"user_id":422,"name":"hud_saytext_time 0","steam_id":76561198010327228,"connected_time":909000000000,"state":"active","ping":167},{"user_id":415,"name":"Flat Eric","steam_id":76561198114922735,"connected_time":1833000000000,"state":"active","ping":70},{"user_id":227,"name":"Brokayo","steam_id":76561198053802723,"connected_time":13501000000000,"state":"active","ping":87},{"user_id":388,"name":"CyberZayne","steam_id":76561198002351356,"connected_time":3047000000000,"state":"active","ping":80},{"user_id":369,"name":"Goober","steam_id":76561198988863807,"connected_time":3983000000000,"state":"active","ping":73},{"user_id":428,"name":"beta central","steam_id":76561198301876831,"connected_time":310000000000,"state":"active","ping":57},{"user_id":419,"name":"Meringue","steam_id":76561198067899943,"connected_time":1171000000000,"state":"active","ping":76},{"user_id":407,"name":"tank","steam_id":76561198068027379,"connected_time":2409000000000,"state":"active","ping":172},{"user_id":412,"name":"IZISOO","steam_id":76561198970380577,"connected_time":2066000000000,"state":"active","ping":61}]},{"server_id":106,"name":"Uncletopia | Chicago | 2 | All Maps","name_short":"chi-2","host":"chi-1.us.uncletopia.com","port":27025,"enabled":true,"region":"us-central","cc":"us","latitude":41.881832,"longitude":-87.62318,"reserved":0,"last_update":"0001-01-01T00:00:00Z","name_a2s":"Uncletopia | Chicago | 2 | All Maps","protocol":17,"map":"pl_frontier_final","folder":"tf","game":"Team Fortress","app_id":440,"player_count":0,"max_players":24,"Bots":0,"server_type":"Dedicated","server_os":"Linux","password":true,"vac":true,"version":"7757534","steam_id":85568392924469985,"keywords":["nocrits","nodmgspread","payload","uncletopia"],"game_id":440,"stv_port":27026,"stv_name":"Uncletopia | Chicago | 2 | All Maps | STV","players":null},{"server_id":402,"name":"Uncletopia | Chicago | 3 | All Maps","name_short":"chi-3","host":"chi-1.us.uncletopia.com","port":27035,"enabled":true,"region":"us-central","cc":"us","latitude":41.881832,"longitude":-87.62318,"reserved":0,"last_update":"0001-01-01T00:00:00Z","name_a2s":"Uncletopia | Chicago | 3 | All Maps","protocol":17,"map":"cp_dustbowl","folder":"tf","game":"Team Fortress","app_id":440,"player_count":24,"max_players":24,"Bots":0,"server_type":"Dedicated","server_os":"Linux","password":true,"vac":true,"version":"7757534","steam_id":85568392924515191,"keywords":["cp","nocrits","nodmgspread","uncletopia"],"game_id":440,"stv_port":27036,"stv_name":"Uncletopia | Chicago | 3 | All Maps | STV","players":[{"user_id":267,"name":"jaqnalex","steam_id":76561198834835036,"connected_time":1873000000000,"state":"active","ping":61},{"user_id":277,"name":"Herr Doktor","steam_id":76561198025473302,"connected_time":529000000000,"state":"active","ping":94},{"user_id":189,"name":"WatchWill","steam_id":76561198157237945,"connected_time":7630000000000,"state":"active","ping":73},{"user_id":278,"name":"Sinjustin","steam_id":76561198275952982,"connected_time":512000000000,"state":"active","ping":111},{"user_id":221,"name":"merkmywords ttttttv","steam_id":76561198066840152,"connected_time":5340000000000,"state":"active","ping":50},{"user_id":248,"name":"[DEEP] Danmar33","steam_id":76561198056453091,"connected_time":3407000000000,"state":"active","ping":47},{"user_id":284,"name":"TÃµÃíÃ≤HÃ∂ÃêÃ™EÃ¥ÕÇÃäÕâMÃ∂ÃæÕÜ\ufffd","steam_id":76561198091875604,"connected_time":434000000000,"state":"active","ping":78},{"user_id":280,"name":"Tangerine","steam_id":76561198373668488,"connected_time":501000000000,"state":"active","ping":88},{"user_id":126,"name":"Training Arc","steam_id":76561198038832034,"connected_time":10637000000000,"state":"active","ping":101},{"user_id":287,"name":"Lord","steam_id":76561198052973565,"connected_time":101000000000,"state":"active","ping":104},{"user_id":261,"name":"I Lead MLB In \"Bats Eaten\"","steam_id":76561198034079853,"connected_time":2224000000000,"state":"active","ping":74},{"user_id":239,"name":"Loogey03","steam_id":76561198155483586,"connected_time":4091000000000,"state":"active","ping":56},{"user_id":265,"name":"ConRad","steam_id":76561198439758876,"connected_time":2059000000000,"state":"active","ping":71},{"user_id":282,"name":"Fufu","steam_id":76561198147920039,"connected_time":456000000000,"state":"active","ping":79},{"user_id":244,"name":"aiden","steam_id":76561198449527009,"connected_time":3855000000000,"state":"active","ping":69},{"user_id":271,"name":"xiii","steam_id":76561198079416036,"connected_time":1217000000000,"state":"active","ping":45},{"user_id":257,"name":"D(b) Hell","steam_id":76561198067869016,"connected_time":2710000000000,"state":"active","ping":43},{"user_id":286,"name":"Nick","steam_id":76561198101419860,"connected_time":184000000000,"state":"active","ping":49},{"user_id":251,"name":"Hawk","steam_id":76561199086130017,"connected_time":3111000000000,"state":"active","ping":64},{"user_id":250,"name":"Winkrill","steam_id":76561198108515561,"connected_time":3170000000000,"state":"active","ping":73},{"user_id":285,"name":"squeebo","steam_id":76561198061775121,"connected_time":321000000000,"state":"active","ping":116},{"user_id":276,"name":"faxxy","steam_id":76561198079621240,"connected_time":691000000000,"state":"active","ping":84},{"user_id":283,"name":"Dot.","steam_id":76561198149463984,"connected_time":455000000000,"state":"active","ping":58},{"user_id":268,"name":"BurnN8or101","steam_id":76561198132668224,"connected_time":1829000000000,"state":"active","ping":62}]},{"server_id":403,"name":"Uncletopia | Chicago | 4 | All Maps","name_short":"chi-4","host":"chi-1.us.uncletopia.com","port":27045,"enabled":true,"region":"us-central","cc":"us","latitude":41.881832,"longitude":-87.62318,"reserved":0,"last_update":"0001-01-01T00:00:00Z","name_a2s":"Uncletopia | Chicago | 4 | All Maps","protocol":17,"map":"cp_powerhouse","folder":"tf","game":"Team Fortress","app_id":440,"player_count":16,"max_players":24,"Bots":0,"server_type":"Dedicated","server_os":"Linux","password":true,"vac":true,"version":"7757534","steam_id":85568392924515193,"keywords":["cp","nocrits","nodmgspread","uncletopia"],"game_id":440,"stv_port":27046,"stv_name":"Uncletopia | Chicago | 4 | All Maps | STV","players":[{"user_id":66,"name":"Frodo T Baggins","steam_id":76561198048090297,"connected_time":4166000000000,"state":"active","ping":46},{"user_id":119,"name":"carrotcake","steam_id":76561198030997761,"connected_time":801000000000,"state":"active","ping":61},{"user_id":67,"name":"oomoo","steam_id":76561198328618417,"connected_time":4122000000000,"state":"active","ping":91},{"user_id":106,"name":"Venk","steam_id":76561198251131422,"connected_time":1271000000000,"state":"active","ping":62},{"user_id":120,"name":"DannyM","steam_id":76561198351165570,"connected_time":799000000000,"state":"active","ping":58},{"user_id":109,"name":"MR.THE TOASTER","steam_id":76561199109565739,"connected_time":1142000000000,"state":"active","ping":87},{"user_id":110,"name":"Marktwain006‚Ñ¢","steam_id":76561198086181394,"connected_time":1126000000000,"state":"active","ping":52},{"user_id":112,"name":"H.","steam_id":76561198074951179,"connected_time":1043000000000,"state":"active","ping":88},{"user_id":38,"name":"QueenPinharam","steam_id":76561199015626409,"connected_time":6803000000000,"state":"active","ping":85},{"user_id":125,"name":"CeigeBirb","steam_id":76561198068538473,"connected_time":253000000000,"state":"active","ping":74},{"user_id":121,"name":"Marie","steam_id":76561198056104899,"connected_time":688000000000,"state":"active","ping":78},{"user_id":115,"name":"Doubting Dave","steam_id":76561198066410749,"connected_time":992000000000,"state":"active","ping":72},{"user_id":89,"name":"Waffle Wannabe","steam_id":76561198064510650,"connected_time":2477000000000,"state":"active","ping":55},{"user_id":127,"name":"Fluffeline","steam_id":76561198352909489,"connected_time":56000000000,"state":"active","ping":137},{"user_id":101,"name":"Crylec","steam_id":76561198092755279,"connected_time":2015000000000,"state":"active","ping":62},{"user_id":122,"name":"mao zaddy","steam_id":76561198283687382,"connected_time":524000000000,"state":"active","ping":71}]},{"server_id":36,"name":"Uncletopia | Chicago | 5 | All Maps","name_short":"chi-5","host":"chi-2.us.uncletopia.com","port":27015,"enabled":true,"region":"us-central","cc":"us","latitude":41.881832,"longitude":-87.62318,"reserved":0,"last_update":"0001-01-01T00:00:00Z","name_a2s":"Uncletopia | Chicago | 5 | All Maps","protocol":17,"map":"pl_enclosure_final","folder":"tf","game":"Team Fortress","app_id":440,"player_count":24,"max_players":24,"Bots":0,"server_type":"Dedicated","server_os":"Linux","password":true,"vac":true,"version":"7757534","steam_id":85568392924866362,"keywords":["nocrits","nodmgspread","payload","uncletopia"],"game_id":440,"stv_port":27016,"stv_name":"Uncletopia | Chicago | 5 | All Maps | STV","players":[{"user_id":64,"name":"Doomagedden","steam_id":76561198272589475,"connected_time":2278000000000,"state":"active","ping":96},{"user_id":55,"name":"Alpharius","steam_id":76561197996284353,"connected_time":3033000000000,"state":"active","ping":121},{"user_id":79,"name":"Squirrel","steam_id":76561198213466429,"connected_time":1125000000000,"state":"active","ping":88},{"user_id":89,"name":"[LHC] Sequel","steam_id":76561199003380346,"connected_time":195000000000,"state":"active","ping":60},{"user_id":44,"name":"The Cannoneer","steam_id":76561198071368120,"connected_time":3784000000000,"state":"active","ping":73},{"user_id":45,"name":"his flatulence","steam_id":76561198799404824,"connected_time":3640000000000,"state":"active","ping":74},{"user_id":88,"name":"Pancakes","steam_id":76561198143132640,"connected_time":282000000000,"state":"active","ping":82},{"user_id":77,"name":"Red Physical","steam_id":76561198151864382,"connected_time":1389000000000,"state":"active","ping":102},{"user_id":58,"name":"Tommy Pickles (Very Cool)","steam_id":76561198391261463,"connected_time":2818000000000,"state":"active","ping":73},{"user_id":92,"name":"wolf_71","steam_id":76561198963570945,"connected_time":43000000000,"state":"active","ping":63},{"user_id":67,"name":"D-Class 1278","steam_id":76561198121316353,"connected_time":2163000000000,"state":"active","ping":82},{"user_id":73,"name":"JunJun Joestar","steam_id":76561199005167050,"connected_time":1915000000000,"state":"active","ping":118},{"user_id":80,"name":"Teutiaplus","steam_id":76561198880943359,"connected_time":1002000000000,"state":"active","ping":72},{"user_id":50,"name":"Gaming 2004","steam_id":76561198314781068,"connected_time":3476000000000,"state":"active","ping":99},{"user_id":83,"name":"Usman","steam_id":76561198430295625,"connected_time":757000000000,"state":"active","ping":50},{"user_id":93,"name":"Smoker Lung","steam_id":76561198077167395,"connected_time":0,"state":"spawning","ping":33},{"user_id":35,"name":"Ashamedassisen","steam_id":76561198065356128,"connected_time":4312000000000,"state":"active","ping":93},{"user_id":84,"name":"I.C.","steam_id":76561198049256017,"connected_time":719000000000,"state":"active","ping":77},{"user_id":71,"name":"Le0901","steam_id":76561198372891244,"connected_time":2079000000000,"state":"active","ping":56},{"user_id":87,"name":"ZeFizzyPop‚Ñ¢","steam_id":76561198258104981,"connected_time":338000000000,"state":"active","ping":58},{"user_id":57,"name":"keffers","steam_id":76561198202338796,"connected_time":2870000000000,"state":"active","ping":74},{"user_id":91,"name":"Manboy777","steam_id":76561198042201335,"connected_time":185000000000,"state":"active","ping":107},{"user_id":72,"name":"*Gage*","steam_id":76561197975233869,"connected_time":2064000000000,"state":"active","ping":93},{"user_id":37,"name":"RainbowHeavy","steam_id":76561198070800159,"connected_time":4301000000000,"state":"active","ping":101}]},{"server_id":37,"name":"Uncletopia | Chicago | 6 | All Maps","name_short":"chi-6","host":"chi-2.us.uncletopia.com","port":27025,"enabled":true,"region":"us-central","cc":"us","latitude":41.881832,"longitude":-87.62318,"reserved":0,"last_update":"0001-01-01T00:00:00Z","name_a2s":"Uncletopia | Chicago | 6 | All Maps","protocol":17,"map":"koth_highpass","folder":"tf","game":"Team Fortress","app_id":440,"player_count":2,"max_players":24,"Bots":0,"server_type":"Dedicated","server_os":"Linux","password":true,"vac":true,"version":"7757534","steam_id":85568392924866363,"keywords":["cp","nocrits","nodmgspread","uncletopia"],"game_id":440,"stv_port":27026,"stv_name":"Uncletopia | Chicago | 6 | All Maps | STV","players":[{"user_id":18,"name":"SpartanOne22","steam_id":76561199006361788,"connected_time":2309000000000,"state":"active","ping":78},{"user_id":17,"name":"jay","steam_id":76561199083202661,"connected_time":2333000000000,"state":"active","ping":59}]},{"server_id":38,"name":"Uncletopia | Chicago | 7 | Stopwatch Beta","name_short":"chi-7","host":"chi-2.us.uncletopia.com","port":27035,"enabled":true,"region":"us-central","cc":"us","latitude":41.881832,"longitude":-87.62318,"reserved":0,"last_update":"0001-01-01T00:00:00Z","name_a2s":"Uncletopia | Chicago | 7 | Stopwatch Beta","protocol":17,"map":"pl_barnblitz","folder":"tf","game":"Team Fortress","app_id":440,"player_count":0,"max_players":24,"Bots":0,"server_type":"Dedicated","server_os":"Linux","password":true,"vac":true,"version":"7757534","steam_id":85568392924866364,"keywords":["nocrits","nodmgspread","payload","uncletopia"],"game_id":440,"stv_port":27036,"stv_name":"Uncletopia | Chicago | 7 | Stopwatch Beta | STV","players":null},{"server_id":39,"name":"Uncletopia | Chicago | 8 | Community","name_short":"chi-8","host":"chi-2.us.uncletopia.com","port":27045,"enabled":true,"region":"us-central","cc":"us","latitude":41.881832,"longitude":-87.62318,"reserved":0,"last_update":"0001-01-01T00:00:00Z","name_a2s":"Uncletopia | Chicago | 8 | Community","protocol":17,"map":"workshop/cp_propaganda_b18.ugc1603743849","folder":"tf","game":"Team Fortress","app_id":440,"player_count":0,"max_players":24,"Bots":0,"server_type":"Dedicated","server_os":"Linux","password":true,"vac":true,"version":"7757534","steam_id":85568392924866365,"keywords":["cp","nocrits","nodmgspread","uncletopia"],"game_id":440,"stv_port":27046,"stv_name":"Uncletopia | Chicago | 8 | Community | STV","players":null},{"server_id":8,"name":"Uncletopia | Dallas | 1 | All Maps","name_short":"dal-1","host":"dal-1.us.uncletopia.com","port":27015,"enabled":true,"region":"us-central","cc":"us","latitude":32.779167,"longitude":-96.80889,"reserved":0,"last_update":"0001-01-01T00:00:00Z","name_a2s":"Uncletopia | Dallas | 1 | All Maps","protocol":17,"map":"koth_cascade","folder":"tf","game":"Team Fortress","app_id":440,"player_count":0,"max_players":24,"Bots":0,"server_type":"Dedicated","server_os":"Linux","password":true,"vac":true,"version":"7757534","steam_id":85568392924469986,"keywords":["cp","nocrits","nodmgspread","uncletopia"],"game_id":440,"stv_port":27016,"stv_name":"Uncletopia | Dallas | 1 | All Maps | STV","players":null},{"server_id":108,"name":"Uncletopia | Dallas | 2 | All Maps","name_short":"dal-2","host":"dal-1.us.uncletopia.com","port":27025,"enabled":true,"region":"us-central","cc":"us","latitude":32.779167,"longitude":-96.80889,"reserved":0,"last_update":"0001-01-01T00:00:00Z","name_a2s":"Uncletopia | Dallas | 2 | All Maps","protocol":17,"map":"pl_upward","folder":"tf","game":"Team Fortress","app_id":440,"player_count":24,"max_players":24,"Bots":0,"server_type":"Dedicated","server_os":"Linux","password":true,"vac":true,"version":"7757534","steam_id":85568392924469988,"keywords":["nocrits","nodmgspread","payload","uncletopia"],"game_id":440,"stv_port":27026,"stv_name":"Uncletopia | Dallas | 2 | All Maps | STV","players":[{"user_id":277,"name":"chanoc","steam_id":76561198026734746,"connected_time":5526000000000,"state":"active","ping":89},{"user_id":314,"name":"DRACO$","steam_id":76561198389198223,"connected_time":3055000000000,"state":"active","ping":87},{"user_id":339,"name":"lynt","steam_id":76561198988333976,"connected_time":495000000000,"state":"active","ping":52},{"user_id":348,"name":"Lil Big","steam_id":76561198138426317,"connected_time":312000000000,"state":"active","ping":180},{"user_id":341,"name":"MayKaye","steam_id":76561199016092265,"connected_time":467000000000,"state":"active","ping":74},{"user_id":319,"name":"Glaceon","steam_id":76561198177715869,"connected_time":2456000000000,"state":"active","ping":59},{"user_id":342,"name":"Some Octopus Wizard","steam_id":76561198005470354,"connected_time":437000000000,"state":"active","ping":71},{"user_id":307,"name":"Ellis","steam_id":76561198993634489,"connected_time":3293000000000,"state":"active","ping":75},{"user_id":337,"name":"mr unchained","steam_id":76561198043209660,"connected_time":565000000000,"state":"active","ping":87},{"user_id":331,"name":"Cofi","steam_id":76561199026721822,"connected_time":966000000000,"state":"active","ping":85},{"user_id":343,"name":"Swiss_Nostalgia","steam_id":76561199159896259,"connected_time":429000000000,"state":"active","ping":237},{"user_id":345,"name":"Cave","steam_id":76561198263551216,"connected_time":378000000000,"state":"active","ping":97},{"user_id":335,"name":"Danni Mal","steam_id":76561198383617571,"connected_time":827000000000,"state":"active","ping":87},{"user_id":241,"name":"„Äê caden / karma „Äë","steam_id":76561198072276429,"connected_time":10038000000000,"state":"active","ping":88},{"user_id":321,"name":"P. Sebs","steam_id":76561198112354627,"connected_time":2370000000000,"state":"active","ping":34},{"user_id":344,"name":"Soul_Intern","steam_id":76561198310238109,"connected_time":425000000000,"state":"active","ping":131},{"user_id":349,"name":"Herobrineclone7","steam_id":76561199193733613,"connected_time":276000000000,"state":"active","ping":104},{"user_id":317,"name":"icm2008","steam_id":76561199277408836,"connected_time":2781000000000,"state":"active","ping":87},{"user_id":276,"name":"Humon Player","steam_id":76561198013593178,"connected_time":5532000000000,"state":"active","ping":61},{"user_id":338,"name":"the smiling zombie","steam_id":76561199246231090,"connected_time":506000000000,"state":"active","ping":83},{"user_id":347,"name":"Renota","steam_id":76561198058224488,"connected_time":371000000000,"state":"active","ping":96},{"user_id":291,"name":"Bad Pyro","steam_id":76561199019647814,"connected_time":4934000000000,"state":"active","ping":46},{"user_id":313,"name":"Imagina","steam_id":76561198044300818,"connected_time":3122000000000,"state":"active","ping":66},{"user_id":124,"name":"Joe Swanson","steam_id":76561199089907740,"connected_time":23309000000000,"state":"active","ping":69}]},{"server_id":5,"name":"Uncletopia | Frankfurt | 1 | All Maps","name_short":"frk-1","host":"frk-1.de.uncletopia.com","port":27015,"enabled":true,"region":"eu","cc":"de","latitude":50.110924,"longitude":8.682127,"reserved":0,"last_update":"0001-01-01T00:00:00Z","name_a2s":"Uncletopia | Frankfurt | 1 | All Maps","protocol":17,"map":"cp_metalworks","folder":"tf","game":"Team Fortress","app_id":440,"player_count":24,"max_players":24,"Bots":0,"server_type":"Dedicated","server_os":"Linux","password":true,"vac":true,"version":"7757534","steam_id":85568392924469989,"keywords":["cp","nocrits","nodmgspread","uncletopia"],"game_id":440,"stv_port":27016,"stv_name":"Uncletopia | Frankfurt | 1 | All Maps | STV","players":[{"user_id":102,"name":"tax fraud enthusiast","steam_id":76561198115208030,"connected_time":100000000000,"state":"active","ping":55},{"user_id":88,"name":"JayFree","steam_id":76561198031367228,"connected_time":1399000000000,"state":"active","ping":68},{"user_id":33,"name":"Pilaarius","steam_id":76561198120273212,"connected_time":4866000000000,"state":"active","ping":99},{"user_id":81,"name":"Amandus","steam_id":76561198036281079,"connected_time":1681000000000,"state":"active","ping":62},{"user_id":100,"name":"LoLo","steam_id":76561199403387863,"connected_time":228000000000,"state":"active","ping":67},{"user_id":92,"name":"KillerQueen (he/they/she)","steam_id":76561199019399725,"connected_time":1091000000000,"state":"active","ping":60},{"user_id":77,"name":"Mi Manchi","steam_id":76561198171573129,"connected_time":1856000000000,"state":"active","ping":59},{"user_id":79,"name":"result","steam_id":76561198269200388,"connected_time":1810000000000,"state":"active","ping":75},{"user_id":39,"name":"xavier","steam_id":76561198076494034,"connected_time":4393000000000,"state":"active","ping":54},{"user_id":40,"name":"ScoutPilgrim","steam_id":76561198013007215,"connected_time":4374000000000,"state":"active","ping":59},{"user_id":42,"name":"Vershal Smershal","steam_id":76561198116223995,"connected_time":4308000000000,"state":"active","ping":60},{"user_id":94,"name":"troylcarter","steam_id":76561197984065094,"connected_time":927000000000,"state":"active","ping":182},{"user_id":44,"name":"MDehh","steam_id":76561198057745208,"connected_time":4234000000000,"state":"active","ping":59},{"user_id":59,"name":"Bobirulez","steam_id":76561198009125458,"connected_time":3288000000000,"state":"active","ping":73},{"user_id":61,"name":"Riel","steam_id":76561198066017633,"connected_time":3115000000000,"state":"active","ping":74},{"user_id":48,"name":"FOREST","steam_id":76561198180871554,"connected_time":3952000000000,"state":"active","ping":114},{"user_id":84,"name":"Ross from F.R.I.E.N.D.S.","steam_id":76561198008511665,"connected_time":1517000000000,"state":"active","ping":59},{"user_id":90,"name":"player","steam_id":76561198054474684,"connected_time":1251000000000,"state":"active","ping":72},{"user_id":72,"name":"KLAMA  ‚ù§","steam_id":76561198351549661,"connected_time":2755000000000,"state":"active","ping":61},{"user_id":98,"name":"Eli","steam_id":76561198378974970,"connected_time":615000000000,"state":"active","ping":80},{"user_id":53,"name":"quickfast","steam_id":76561199438900919,"connected_time":3812000000000,"state":"active","ping":55},{"user_id":97,"name":"Endi","steam_id":76561198914938199,"connected_time":759000000000,"state":"active","ping":88},{"user_id":65,"name":"Kvicha Kvaratskhelia","steam_id":76561198179339326,"connected_time":2925000000000,"state":"active","ping":75},{"user_id":101,"name":"unable :\u003e","steam_id":76561198069088785,"connected_time":108000000000,"state":"active","ping":46}]},{"server_id":110,"name":"Uncletopia | Frankfurt | 2 | All Maps","name_short":"frk-2","host":"frk-1.de.uncletopia.com","port":27025,"enabled":true,"region":"eu","cc":"de","latitude":50.110924,"longitude":8.682127,"reserved":0,"last_update":"0001-01-01T00:00:00Z","name_a2s":"Uncletopia | Frankfurt | 2 | All Maps","protocol":17,"map":"pl_pier","folder":"tf","game":"Team Fortress","app_id":440,"player_count":0,"max_players":24,"Bots":0,"server_type":"Dedicated","server_os":"Linux","password":true,"vac":true,"version":"7757534","steam_id":85568392924469990,"keywords":["nocrits","nodmgspread","payload","uncletopia"],"game_id":440,"stv_port":27026,"stv_name":"Uncletopia | Frankfurt | 2 | All Maps | STV","players":null},{"server_id":308,"name":"Uncletopia | Frankfurt | 3 | All Maps","name_short":"frk-3","host":"frk-1.de.uncletopia.com","port":27035,"enabled":true,"region":"eu","cc":"de","latitude":50.110924,"longitude":8.682127,"reserved":0,"last_update":"0001-01-01T00:00:00Z","name_a2s":"Uncletopia | Frankfurt | 3 | All Maps","protocol":17,"map":"pl_frontier_final","folder":"tf","game":"Team Fortress","app_id":440,"player_count":24,"max_players":24,"Bots":0,"server_type":"Dedicated","server_os":"Linux","password":true,"vac":true,"version":"7757534","steam_id":85568392924504274,"keywords":["nocrits","nodmgspread","payload","uncletopia"],"game_id":440,"stv_port":27036,"stv_name":"Uncletopia | Frankfurt | 3 | All Maps | STV","players":[{"user_id":607,"name":"flappi","steam_id":76561198072892783,"connected_time":206000000000,"state":"active","ping":55},{"user_id":601,"name":"Dill Killem","steam_id":76561199071571354,"connected_time":1113000000000,"state":"active","ping":69},{"user_id":597,"name":"Big Al","steam_id":76561198067692439,"connected_time":1438000000000,"state":"active","ping":134},{"user_id":604,"name":"COFFEE","steam_id":76561198869355986,"connected_time":407000000000,"state":"active","ping":61},{"user_id":592,"name":"Raymus","steam_id":76561198021330407,"connected_time":1703000000000,"state":"active","ping":46},{"user_id":588,"name":"Silent Person","steam_id":76561198107763537,"connected_time":1958000000000,"state":"active","ping":63},{"user_id":546,"name":"DraGOs512","steam_id":76561198438519964,"connected_time":4639000000000,"state":"active","ping":86},{"user_id":606,"name":"Hamtastic","steam_id":76561198879769410,"connected_time":363000000000,"state":"active","ping":71},{"user_id":605,"name":"FoOzTV","steam_id":76561197998636728,"connected_time":388000000000,"state":"active","ping":72},{"user_id":569,"name":"metodmiha","steam_id":76561199111498575,"connected_time":2521000000000,"state":"active","ping":74},{"user_id":600,"name":"PyroManc3r","steam_id":76561198221533300,"connected_time":1255000000000,"state":"active","ping":77},{"user_id":580,"name":"amazon traced package","steam_id":76561198180361759,"connected_time":2250000000000,"state":"active","ping":56},{"user_id":599,"name":"Nitrogenio","steam_id":76561198117507292,"connected_time":1320000000000,"state":"active","ping":85},{"user_id":595,"name":"donal rump","steam_id":76561198136239861,"connected_time":1647000000000,"state":"active","ping":65},{"user_id":603,"name":"REN","steam_id":76561198000596385,"connected_time":831000000000,"state":"active","ping":80},{"user_id":542,"name":"shavedmyheadchangedmyname","steam_id":76561199042470246,"connected_time":5028000000000,"state":"active","ping":53},{"user_id":528,"name":"‚òÖ","steam_id":76561198080168182,"connected_time":5766000000000,"state":"active","ping":73},{"user_id":608,"name":"fallingpencil","steam_id":76561199230233148,"connected_time":103000000000,"state":"active","ping":70},{"user_id":547,"name":"mun","steam_id":76561198256097786,"connected_time":4627000000000,"state":"active","ping":39},{"user_id":530,"name":"The Punch","steam_id":76561198212488780,"connected_time":5760000000000,"state":"active","ping":60},{"user_id":579,"name":"decriminalise goblins","steam_id":76561198048257605,"connected_time":2275000000000,"state":"active","ping":62},{"user_id":483,"name":"finbar","steam_id":76561198056812396,"connected_time":8783000000000,"state":"active","ping":82},{"user_id":538,"name":"onion knight","steam_id":76561198328543549,"connected_time":5283000000000,"state":"active","ping":83},{"user_id":502,"name":"Piox","steam_id":76561198125689157,"connected_time":7171000000000,"state":"active","ping":78}]},{"server_id":309,"name":"Uncletopia | Frankfurt | 4 | All Maps","name_short":"frk-4","host":"frk-1.de.uncletopia.com","port":27045,"enabled":true,"region":"eu","cc":"de","latitude":50.110924,"longitude":8.682127,"reserved":0,"last_update":"0001-01-01T00:00:00Z","name_a2s":"Uncletopia | Frankfurt | 4 | All Maps","protocol":17,"map":"koth_cascade","folder":"tf","game":"Team Fortress","app_id":440,"player_count":0,"max_players":24,"Bots":0,"server_type":"Dedicated","server_os":"Linux","password":true,"vac":true,"version":"7757534","steam_id":85568392924504275,"keywords":["cp","nocrits","nodmgspread","uncletopia"],"game_id":440,"stv_port":27046,"stv_name":"Uncletopia | Frankfurt | 4 | All Maps | STV","players":null},{"server_id":310,"name":"Uncletopia | Frankfurt | 5 | All Maps","name_short":"frk-5","host":"frk-1.de.uncletopia.com","port":27055,"enabled":true,"region":"eu","cc":"de","latitude":50.110924,"longitude":8.682127,"reserved":0,"last_update":"0001-01-01T00:00:00Z","name_a2s":"Uncletopia | Frankfurt | 5 | All Maps","protocol":17,"map":"pl_frontier_final","folder":"tf","game":"Team Fortress","app_id":440,"player_count":24,"max_players":24,"Bots":0,"server_type":"Dedicated","server_os":"Linux","password":true,"vac":true,"version":"7757534","steam_id":85568392924504277,"keywords":["nocrits","nodmgspread","payload","uncletopia"],"game_id":440,"stv_port":27056,"stv_name":"Uncletopia | Frankfurt | 5 | All Maps | STV","players":[{"user_id":594,"name":"Schizophrenic Tyrant","steam_id":76561199011576146,"connected_time":569000000000,"state":"active","ping":96},{"user_id":579,"name":"Walter Griffin","steam_id":76561199415989636,"connected_time":2267000000000,"state":"active","ping":107},{"user_id":581,"name":"–î–û–í–ò–¢–û–§–§","steam_id":76561198313372925,"connected_time":2025000000000,"state":"active","ping":70},{"user_id":580,"name":"Dorich","steam_id":76561198287126217,"connected_time":2241000000000,"state":"active","ping":59},{"user_id":589,"name":"‚ò≠ybercat","steam_id":76561198014070417,"connected_time":704000000000,"state":"active","ping":63},{"user_id":496,"name":"Waltcha","steam_id":76561198007691468,"connected_time":5608000000000,"state":"active","ping":61},{"user_id":582,"name":"Kestrel","steam_id":76561198144033005,"connected_time":2022000000000,"state":"active","ping":64},{"user_id":433,"name":"Senator Armstrong","steam_id":76561198984346408,"connected_time":7417000000000,"state":"active","ping":76},{"user_id":592,"name":"BoPoe","steam_id":76561198093333882,"connected_time":602000000000,"state":"active","ping":106},{"user_id":595,"name":"After8","steam_id":76561198090750865,"connected_time":565000000000,"state":"active","ping":71},{"user_id":596,"name":"TheRubberDuccy","steam_id":76561199023194086,"connected_time":543000000000,"state":"active","ping":134},{"user_id":577,"name":"limbicsystem","steam_id":76561198025612680,"connected_time":2622000000000,"state":"active","ping":70},{"user_id":597,"name":"MAKENTAKEN","steam_id":76561199127359587,"connected_time":543000000000,"state":"active","ping":91},{"user_id":578,"name":"angel","steam_id":76561198121408313,"connected_time":2512000000000,"state":"active","ping":83},{"user_id":598,"name":"tone","steam_id":76561197975301462,"connected_time":511000000000,"state":"active","ping":84},{"user_id":593,"name":"sv_opor 13123","steam_id":76561198002229612,"connected_time":582000000000,"state":"active","ping":69},{"user_id":599,"name":"true","steam_id":76561198031145243,"connected_time":487000000000,"state":"active","ping":84},{"user_id":566,"name":"ELON MUSK","steam_id":76561198132788284,"connected_time":3427000000000,"state":"active","ping":72},{"user_id":590,"name":"Deckard","steam_id":76561198004704647,"connected_time":678000000000,"state":"active","ping":75},{"user_id":591,"name":"GEP Gun","steam_id":76561197981821003,"connected_time":670000000000,"state":"active","ping":70},{"user_id":587,"name":"Combat Wombat","steam_id":76561197994720068,"connected_time":731000000000,"state":"active","ping":78},{"user_id":562,"name":"darkwater","steam_id":76561197986978738,"connected_time":3709000000000,"state":"active","ping":60},{"user_id":569,"name":"vedatbora35","steam_id":76561199242623968,"connected_time":3279000000000,"state":"active","ping":98},{"user_id":585,"name":"DeCypher [She/Her]","steam_id":76561198171992619,"connected_time":847000000000,"state":"active","ping":72}]},{"server_id":311,"name":"Uncletopia | Frankfurt | 6 | All Maps","name_short":"frk-6","host":"frk-1.de.uncletopia.com","port":27065,"enabled":true,"region":"eu","cc":"de","latitude":50.110924,"longitude":8.682127,"reserved":0,"last_update":"0001-01-01T00:00:00Z","name_a2s":"Uncletopia | Frankfurt | 6 | All Maps","protocol":17,"map":"cp_process_final","folder":"tf","game":"Team Fortress","app_id":440,"player_count":24,"max_players":24,"Bots":0,"server_type":"Dedicated","server_os":"Linux","password":true,"vac":true,"version":"7757534","steam_id":85568392924504278,"keywords":["cp","nocrits","nodmgspread","uncletopia"],"game_id":440,"stv_port":27066,"stv_name":"Uncletopia | Frankfurt | 6 | All Maps | STV","players":[{"user_id":237,"name":"Gimli","steam_id":76561198004149706,"connected_time":5102000000000,"state":"active","ping":80},{"user_id":298,"name":"–¢—Ä—É–ø –í–æ–ª–æ–¥—è","steam_id":76561198035718457,"connected_time":244000000000,"state":"active","ping":84},{"user_id":305,"name":"Udinese Dion","steam_id":76561198067931573,"connected_time":81000000000,"state":"active","ping":43},{"user_id":289,"name":"21","steam_id":76561199441196540,"connected_time":387000000000,"state":"active","ping":60},{"user_id":255,"name":"Not A Fake Uncletopia Server","steam_id":76561198152871288,"connected_time":4338000000000,"state":"active","ping":61},{"user_id":299,"name":"lowcostfish.co.uk","steam_id":76561198126022039,"connected_time":233000000000,"state":"active","ping":65},{"user_id":240,"name":"mt","steam_id":76561197961319303,"connected_time":5055000000000,"state":"active","ping":45},{"user_id":272,"name":"Caliban","steam_id":76561197999696839,"connected_time":1790000000000,"state":"active","ping":101},{"user_id":257,"name":"Space","steam_id":76561198021572167,"connected_time":4232000000000,"state":"active","ping":60},{"user_id":301,"name":"Flying skyhigh","steam_id":76561198372971096,"connected_time":219000000000,"state":"active","ping":67},{"user_id":303,"name":"X-tis","steam_id":76561198043837480,"connected_time":125000000000,"state":"active","ping":76},{"user_id":290,"name":"Dawu","steam_id":76561198060418376,"connected_time":365000000000,"state":"active","ping":77},{"user_id":292,"name":"crowo","steam_id":76561198271660240,"connected_time":331000000000,"state":"active","ping":133},{"user_id":293,"name":"meriones","steam_id":76561198034234373,"connected_time":320000000000,"state":"active","ping":55},{"user_id":295,"name":"‚ú™ m_br3","steam_id":76561198044981990,"connected_time":287000000000,"state":"active","ping":61},{"user_id":296,"name":"ev1lboyo","steam_id":76561199199499453,"connected_time":282000000000,"state":"active","ping":74},{"user_id":297,"name":"paul","steam_id":76561199313282353,"connected_time":263000000000,"state":"active","ping":90},{"user_id":273,"name":"artalexeyvorobev","steam_id":76561199230504837,"connected_time":1781000000000,"state":"active","ping":100},{"user_id":302,"name":"Iceeagle","steam_id":76561198056328858,"connected_time":210000000000,"state":"active","ping":58},{"user_id":189,"name":"Trebox78","steam_id":76561198071963357,"connected_time":8750000000000,"state":"active","ping":83},{"user_id":251,"name":"Birdseye","steam_id":76561198025852216,"connected_time":4620000000000,"state":"active","ping":60},{"user_id":304,"name":"Sagger","steam_id":76561198065915748,"connected_time":105000000000,"state":"active","ping":105},{"user_id":306,"name":"Wdfrodo","steam_id":76561198985647263,"connected_time":72000000000,"state":"active","ping":111},{"user_id":307,"name":"Bombi","steam_id":76561198280006410,"connected_time":70000000000,"state":"active","ping":65}]},{"server_id":23,"name":"Uncletopia | Frankfurt | 7 | Stopwatch Beta","name_short":"frk-7","host":"frk-1.de.uncletopia.com","port":27075,"enabled":true,"region":"eu","cc":"de","latitude":50.110924,"longitude":8.682127,"reserved":0,"last_update":"0001-01-01T00:00:00Z","name_a2s":"Uncletopia | Frankfurt | 7 | Stopwatch Beta","protocol":17,"map":"workshop/koth_ramjam_rc1.ugc459778887","folder":"tf","game":"Team Fortress","app_id":440,"player_count":0,"max_players":24,"Bots":0,"server_type":"Dedicated","server_os":"Linux","password":true,"vac":true,"version":"7757534","steam_id":85568392924742827,"keywords":["cp","nocrits","nodmgspread","uncletopia"],"game_id":440,"stv_port":27076,"stv_name":"Uncletopia | Frankfurt | 7 | Stopwatch Beta | STV","players":null},{"server_id":24,"name":"Uncletopia | Frankfurt | 8 | Community","name_short":"frk-8","host":"frk-1.de.uncletopia.com","port":27085,"enabled":true,"region":"eu","cc":"de","latitude":50.110924,"longitude":8.682127,"reserved":0,"last_update":"0001-01-01T00:00:00Z","name_a2s":"Uncletopia | Frankfurt | 8 | Community","protocol":17,"map":"workshop/koth_ashville_final.ugc2130459942","folder":"tf","game":"Team Fortress","app_id":440,"player_count":0,"max_players":24,"Bots":0,"server_type":"Dedicated","server_os":"Linux","password":true,"vac":true,"version":"7757534","steam_id":85568392924742828,"keywords":["cp","nocrits","nodmgspread","uncletopia"],"game_id":440,"stv_port":27086,"stv_name":"Uncletopia | Frankfurt | 8 | Community | STV","players":null},{"server_id":202,"name":"Uncletopia | Hong Kong | 1 | All Maps","name_short":"hgk-1","host":"hgk-1.hk.uncletopia.com","port":27015,"enabled":true,"region":"asia","cc":"hk","latitude":22.302711,"longitude":114.177216,"reserved":0,"last_update":"0001-01-01T00:00:00Z","name_a2s":"Uncletopia | Hong Kong | 1 | All Maps","protocol":17,"map":"koth_cascade","folder":"tf","game":"Team Fortress","app_id":440,"player_count":0,"max_players":24,"Bots":0,"server_type":"Dedicated","server_os":"Linux","password":true,"vac":true,"version":"7757534","steam_id":85568392924494504,"keywords":["cp","nocrits","nodmgspread","uncletopia"],"game_id":440,"stv_port":27016,"stv_name":"Uncletopia | Hong Kong | 1 | All Maps | STV","players":null},{"server_id":1,"name":"Uncletopia | Los Angeles | 1 | All Maps","name_short":"lax-1","host":"lax-1.us.uncletopia.com","port":27015,"enabled":true,"region":"us-west","cc":"us","latitude":33.94279,"longitude":-118.41004,"reserved":0,"last_update":"0001-01-01T00:00:00Z","name_a2s":"Uncletopia | Los Angeles | 1 | All Maps","protocol":17,"map":"cp_process_final","folder":"tf","game":"Team Fortress","app_id":440,"player_count":0,"max_players":24,"Bots":0,"server_type":"Dedicated","server_os":"Linux","password":true,"vac":true,"version":"7757534","steam_id":85568392924469991,"keywords":["cp","nocrits","nodmgspread","uncletopia"],"game_id":440,"stv_port":27016,"stv_name":"Uncletopia | Los Angeles | 1 | All Maps | STV","players":null},{"server_id":112,"name":"Uncletopia | Los Angeles | 2 | All Maps","name_short":"lax-2","host":"lax-1.us.uncletopia.com","port":27025,"enabled":true,"region":"us-west","cc":"us","latitude":33.94279,"longitude":-118.41004,"reserved":0,"last_update":"0001-01-01T00:00:00Z","name_a2s":"Uncletopia | Los Angeles | 2 | All Maps","protocol":17,"map":"pl_badwater","folder":"tf","game":"Team Fortress","app_id":440,"player_count":0,"max_players":24,"Bots":0,"server_type":"Dedicated","server_os":"Linux","password":true,"vac":true,"version":"7757534","steam_id":85568392924469992,"keywords":["nocrits","nodmgspread","payload","uncletopia"],"game_id":440,"stv_port":27026,"stv_name":"Uncletopia | Los Angeles | 2 | All Maps | STV","players":null},{"server_id":324,"name":"Uncletopia | Los Angeles | 3 | All Maps","name_short":"lax-3","host":"lax-1.us.uncletopia.com","port":27035,"enabled":true,"region":"us-west","cc":"us","latitude":33.94279,"longitude":-118.41004,"reserved":0,"last_update":"0001-01-01T00:00:00Z","name_a2s":"Uncletopia | Los Angeles | 3 | All Maps","protocol":17,"map":"cp_dustbowl","folder":"tf","game":"Team Fortress","app_id":440,"player_count":0,"max_players":24,"Bots":0,"server_type":"Dedicated","server_os":"Linux","password":true,"vac":true,"version":"7757534","steam_id":85568392924510198,"keywords":["cp","nocrits","nodmgspread","uncletopia"],"game_id":440,"stv_port":27036,"stv_name":"Uncletopia | Los Angeles | 3 | All Maps | STV","players":null},{"server_id":25,"name":"Uncletopia | Los Angeles | 4 | Stopwatch Beta","name_short":"lax-4","host":"lax-1.us.uncletopia.com","port":27045,"enabled":true,"region":"us-west","cc":"us","latitude":33.94279,"longitude":-118.41004,"reserved":0,"last_update":"0001-01-01T00:00:00Z","name_a2s":"Uncletopia | Los Angeles | 4 | Stopwatch Beta","protocol":17,"map":"pl_swiftwater_final1","folder":"tf","game":"Team Fortress","app_id":440,"player_count":0,"max_players":24,"Bots":0,"server_type":"Dedicated","server_os":"Linux","password":true,"vac":true,"version":"7757534","steam_id":85568392924510199,"keywords":["nocrits","nodmgspread","payload","uncletopia"],"game_id":440,"stv_port":27046,"stv_name":"Uncletopia | Los Angeles | 4 | Stopwatch Beta | STV","players":null},{"server_id":11,"name":"Uncletopia | London | 1 | All Maps","name_short":"lon-1","host":"lon-1.uk.uncletopia.com","port":27015,"enabled":true,"region":"eu","cc":"gb","latitude":51.509865,"longitude":-0.118092,"reserved":0,"last_update":"0001-01-01T00:00:00Z","name_a2s":"Uncletopia | London | 1 | All Maps","protocol":17,"map":"pl_upward","folder":"tf","game":"Team Fortress","app_id":440,"player_count":24,"max_players":24,"Bots":0,"server_type":"Dedicated","server_os":"Linux","password":true,"vac":true,"version":"7757534","steam_id":85568392924367362,"keywords":["nocrits","nodmgspread","payload","uncletopia"],"game_id":440,"stv_port":27016,"stv_name":"Uncletopia | London | 1 | All Maps | STV","players":[{"user_id":565,"name":"Spinyapickle","steam_id":76561198086653667,"connected_time":1210000000000,"state":"active","ping":51},{"user_id":566,"name":"Teleporter (jessie)","steam_id":76561198063093802,"connected_time":1202000000000,"state":"active","ping":55},{"user_id":570,"name":"GuSkand","steam_id":76561198043775605,"connected_time":1120000000000,"state":"active","ping":89},{"user_id":519,"name":"Mafew","steam_id":76561198119993886,"connected_time":4806000000000,"state":"active","ping":57},{"user_id":567,"name":"Haakon","steam_id":76561198063008231,"connected_time":1184000000000,"state":"active","ping":77},{"user_id":587,"name":"outlaw","steam_id":76561198323805289,"connected_time":401000000000,"state":"active","ping":30},{"user_id":591,"name":"Tomfool","steam_id":76561197993256481,"connected_time":48000000000,"state":"spawning","ping":92},{"user_id":568,"name":"‚ùÄ bird ‚ùÄ","steam_id":76561198057100469,"connected_time":1153000000000,"state":"active","ping":97},{"user_id":562,"name":"regimiro","steam_id":76561198120457008,"connected_time":1221000000000,"state":"active","ping":50},{"user_id":579,"name":"Sechiccino","steam_id":76561198081384765,"connected_time":969000000000,"state":"active","ping":85},{"user_id":523,"name":"Davey","steam_id":76561198256879107,"connected_time":4738000000000,"state":"active","ping":75},{"user_id":548,"name":"Mr. Roboto","steam_id":76561198031573426,"connected_time":3097000000000,"state":"active","ping":71},{"user_id":584,"name":"Aaron","steam_id":76561197990046953,"connected_time":445000000000,"state":"active","ping":67},{"user_id":586,"name":"Camo Leaf","steam_id":76561197999456575,"connected_time":410000000000,"state":"active","ping":46},{"user_id":585,"name":"Gangster spongbob","steam_id":76561199121162524,"connected_time":412000000000,"state":"active","ping":144},{"user_id":588,"name":"Butt taste tester","steam_id":76561198274105878,"connected_time":393000000000,"state":"active","ping":98},{"user_id":576,"name":"Cryshire","steam_id":76561198857908089,"connected_time":1037000000000,"state":"active","ping":146},{"user_id":552,"name":"Cosmonaut","steam_id":76561198239514504,"connected_time":3001000000000,"state":"active","ping":80},{"user_id":544,"name":"Katie","steam_id":76561198056193753,"connected_time":3309000000000,"state":"active","ping":43},{"user_id":553,"name":"Kaek","steam_id":76561197960283484,"connected_time":2999000000000,"state":"active","ping":66},{"user_id":575,"name":"At High RPM","steam_id":76561198008698069,"connected_time":1059000000000,"state":"active","ping":125},{"user_id":561,"name":"LOBZIK","steam_id":76561198114830120,"connected_time":1260000000000,"state":"active","ping":78},{"user_id":589,"name":"JOHN GAMING (depressed)","steam_id":76561199085822219,"connected_time":346000000000,"state":"active","ping":90},{"user_id":578,"name":"The Jizzler","steam_id":76561198076878653,"connected_time":1025000000000,"state":"active","ping":48}]},{"server_id":114,"name":"Uncletopia | London | 2 | All Maps","name_short":"lon-2","host":"lon-1.uk.uncletopia.com","port":27025,"enabled":true,"region":"eu","cc":"gb","latitude":51.509865,"longitude":-0.118092,"reserved":0,"last_update":"0001-01-01T00:00:00Z","name_a2s":"Uncletopia | London | 2 | All Maps","protocol":17,"map":"cp_mercenarypark","folder":"tf","game":"Team Fortress","app_id":440,"player_count":24,"max_players":24,"Bots":0,"server_type":"Dedicated","server_os":"Linux","password":true,"vac":true,"version":"7757534","steam_id":85568392924470941,"keywords":["cp","nocrits","nodmgspread","uncletopia"],"game_id":440,"stv_port":27026,"stv_name":"Uncletopia | London | 2 | All Maps | STV","players":[{"user_id":341,"name":"Koi-Koi","steam_id":76561198045527771,"connected_time":2565000000000,"state":"active","ping":52},{"user_id":342,"name":"ldshwt","steam_id":76561198090364357,"connected_time":2486000000000,"state":"active","ping":60},{"user_id":362,"name":"GogsCrunchyNuts","steam_id":76561198150599213,"connected_time":922000000000,"state":"active","ping":99},{"user_id":318,"name":"Asfreild","steam_id":76561198055901120,"connected_time":4562000000000,"state":"active","ping":70},{"user_id":364,"name":"leonardini.w","steam_id":76561199097963071,"connected_time":773000000000,"state":"active","ping":90},{"user_id":344,"name":"Yuzu","steam_id":76561198121694613,"connected_time":2457000000000,"state":"active","ping":49},{"user_id":371,"name":"Son Goku","steam_id":76561199383437138,"connected_time":588000000000,"state":"active","ping":133},{"user_id":376,"name":"Dark elixir addict","steam_id":76561198304053926,"connected_time":168000000000,"state":"active","ping":99},{"user_id":333,"name":"bANji","steam_id":76561198108898161,"connected_time":3667000000000,"state":"active","ping":51},{"user_id":365,"name":"Just a player","steam_id":76561198823394056,"connected_time":733000000000,"state":"active","ping":73},{"user_id":340,"name":"Dwevy","steam_id":76561198090379437,"connected_time":2727000000000,"state":"active","ping":58},{"user_id":361,"name":"[TSG] Turner's Chocolate Milk","steam_id":76561198058963288,"connected_time":959000000000,"state":"active","ping":116},{"user_id":245,"name":"Anonymous47007","steam_id":76561199005211417,"connected_time":7758000000000,"state":"active","ping":74},{"user_id":375,"name":"Theon","steam_id":76561198877245605,"connected_time":408000000000,"state":"active","ping":103},{"user_id":367,"name":"Rooce","steam_id":76561199061011421,"connected_time":685000000000,"state":"active","ping":81},{"user_id":347,"name":"M4R1O","steam_id":76561198050528464,"connected_time":2439000000000,"state":"active","ping":61},{"user_id":359,"name":"Flint","steam_id":76561197995920776,"connected_time":1282000000000,"state":"active","ping":50},{"user_id":368,"name":"big hoops","steam_id":76561198004703799,"connected_time":674000000000,"state":"active","ping":52},{"user_id":373,"name":"JohnTraveltime","steam_id":76561199244281754,"connected_time":470000000000,"state":"active","ping":78},{"user_id":339,"name":"Tort","steam_id":76561198329646769,"connected_time":3118000000000,"state":"active","ping":54},{"user_id":276,"name":"Edison Trent","steam_id":76561198067133145,"connected_time":6770000000000,"state":"active","ping":67},{"user_id":370,"name":"zinzyk","steam_id":76561198128011822,"connected_time":655000000000,"state":"active","ping":70},{"user_id":374,"name":"bkktrans","steam_id":76561198264393359,"connected_time":439000000000,"state":"active","ping":36},{"user_id":337,"name":"floppy-adde","steam_id":76561199258890641,"connected_time":3264000000000,"state":"active","ping":73}]},{"server_id":320,"name":"Uncletopia | London | 3 | All Maps","name_short":"lon-3","host":"lon-1.uk.uncletopia.com","port":27035,"enabled":true,"region":"eu","cc":"gb","latitude":51.509865,"longitude":-0.118092,"reserved":0,"last_update":"0001-01-01T00:00:00Z","name_a2s":"Uncletopia | London | 3 | All Maps","protocol":17,"map":"pl_swiftwater_final1","folder":"tf","game":"Team Fortress","app_id":440,"player_count":20,"max_players":24,"Bots":0,"server_type":"Dedicated","server_os":"Linux","password":true,"vac":true,"version":"7757534","steam_id":85568392924510192,"keywords":["nocrits","nodmgspread","payload","uncletopia"],"game_id":440,"stv_port":27036,"stv_name":"Uncletopia | London | 3 | All Maps | STV","players":[{"user_id":476,"name":"markkulul","steam_id":76561198120166752,"connected_time":1480000000000,"state":"active","ping":84},{"user_id":498,"name":"Borat","steam_id":76561198122226417,"connected_time":9000000000,"state":"spawning","ping":32},{"user_id":477,"name":"IONYCH","steam_id":76561198378350040,"connected_time":1478000000000,"state":"active","ping":90},{"user_id":451,"name":"Artha","steam_id":76561198198453253,"connected_time":2704000000000,"state":"active","ping":89},{"user_id":478,"name":"Pineyüíô","steam_id":76561198050910939,"connected_time":1445000000000,"state":"active","ping":53},{"user_id":479,"name":"akakez","steam_id":76561198095432821,"connected_time":1422000000000,"state":"active","ping":118},{"user_id":480,"name":"Washburne","steam_id":76561198032810579,"connected_time":1422000000000,"state":"active","ping":54},{"user_id":497,"name":"‚ú™ Danny","steam_id":76561198104483241,"connected_time":130000000000,"state":"active","ping":53},{"user_id":495,"name":"Chambersite","steam_id":76561198197022399,"connected_time":540000000000,"state":"active","ping":79},{"user_id":475,"name":"not∆íreshprince","steam_id":76561198012239150,"connected_time":1686000000000,"state":"active","ping":79},{"user_id":468,"name":"cursedbygod‚ô°","steam_id":76561198318291047,"connected_time":1893000000000,"state":"active","ping":115},{"user_id":406,"name":"SKFBoge","steam_id":76561198269038278,"connected_time":5218000000000,"state":"active","ping":81},{"user_id":489,"name":"yuta","steam_id":76561198077922992,"connected_time":937000000000,"state":"active","ping":35},{"user_id":471,"name":"Shaiva","steam_id":76561198034677706,"connected_time":1773000000000,"state":"active","ping":85},{"user_id":493,"name":"I Forgot My Knife At Home","steam_id":76561199056341799,"connected_time":667000000000,"state":"active","ping":76},{"user_id":491,"name":"Seilfemit","steam_id":76561198175556403,"connected_time":808000000000,"state":"active","ping":71},{"user_id":431,"name":"powej","steam_id":76561198056381418,"connected_time":4187000000000,"state":"active","ping":73},{"user_id":438,"name":"BenteBent","steam_id":76561198297920637,"connected_time":3190000000000,"state":"active","ping":39},{"user_id":402,"name":"giclure :;","steam_id":76561197986362828,"connected_time":5345000000000,"state":"active","ping":54},{"user_id":486,"name":"Axord","steam_id":76561199289652176,"connected_time":1298000000000,"state":"active","ping":52}]},{"server_id":321,"name":"Uncletopia | London | 4 | All Maps","name_short":"lon-4","host":"lon-1.uk.uncletopia.com","port":27045,"enabled":true,"region":"eu","cc":"gb","latitude":51.509865,"longitude":-0.118092,"reserved":0,"last_update":"0001-01-01T00:00:00Z","name_a2s":"Uncletopia | London | 4 | All Maps","protocol":17,"map":"koth_viaduct","folder":"tf","game":"Team Fortress","app_id":440,"player_count":2,"max_players":24,"Bots":0,"server_type":"Dedicated","server_os":"Linux","password":true,"vac":true,"version":"7757534","steam_id":85568392924510193,"keywords":["cp","nocrits","nodmgspread","uncletopia"],"game_id":440,"stv_port":27046,"stv_name":"Uncletopia | London | 4 | All Maps | STV","players":[{"user_id":21,"name":"Pauler le one","steam_id":76561198398152855,"connected_time":333000000000,"state":"active","ping":88},{"user_id":22,"name":"kinimon","steam_id":76561198178453270,"connected_time":53000000000,"state":"active","ping":75}]},{"server_id":21,"name":"Uncletopia | London | 5 | All Maps","name_short":"lon-5","host":"lon-1.uk.uncletopia.com","port":27055,"enabled":true,"region":"eu","cc":"gb","latitude":51.509865,"longitude":-0.118092,"reserved":0,"last_update":"0001-01-01T00:00:00Z","name_a2s":"Uncletopia | London | 5 | All Maps","protocol":17,"map":"pl_badwater","folder":"tf","game":"Team Fortress","app_id":440,"player_count":24,"max_players":24,"Bots":0,"server_type":"Dedicated","server_os":"Linux","password":true,"vac":true,"version":"7757534","steam_id":85568392924742829,"keywords":["nocrits","nodmgspread","payload","uncletopia"],"game_id":440,"stv_port":27056,"stv_name":"Uncletopia | London | 5 | All Maps | STV","players":[{"user_id":134,"name":"SynthBox3","steam_id":76561199094075745,"connected_time":200000000000,"state":"active","ping":109},{"user_id":132,"name":"Gearless","steam_id":76561198362367074,"connected_time":269000000000,"state":"active","ping":88},{"user_id":128,"name":"Varsity Athlete","steam_id":76561198012296395,"connected_time":790000000000,"state":"active","ping":51},{"user_id":53,"name":"a freakin' knight","steam_id":76561198371341044,"connected_time":5920000000000,"state":"active","ping":179},{"user_id":110,"name":"ThatGamingKiwi","steam_id":76561199170522237,"connected_time":1593000000000,"state":"active","ping":144},{"user_id":101,"name":"kiki","steam_id":76561198838277022,"connected_time":3234000000000,"state":"active","ping":73},{"user_id":125,"name":"Nox Equites","steam_id":76561198115438449,"connected_time":945000000000,"state":"active","ping":99},{"user_id":111,"name":"Toast Nook","steam_id":76561199093949301,"connected_time":1589000000000,"state":"active","ping":83},{"user_id":115,"name":"avenje","steam_id":76561198155824845,"connected_time":1537000000000,"state":"active","ping":51},{"user_id":129,"name":"kojitori","steam_id":76561198838072150,"connected_time":755000000000,"state":"active","ping":47},{"user_id":116,"name":"AYE","steam_id":76561198181368101,"connected_time":1526000000000,"state":"active","ping":59},{"user_id":105,"name":"Pyrolander","steam_id":76561198050785450,"connected_time":2174000000000,"state":"active","ping":59},{"user_id":104,"name":"The Lone Wanderer","steam_id":76561199041127565,"connected_time":2250000000000,"state":"active","ping":33},{"user_id":57,"name":"nyanezt","steam_id":76561198253734265,"connected_time":5498000000000,"state":"active","ping":100},{"user_id":106,"name":"stonebum","steam_id":76561198057004606,"connected_time":2157000000000,"state":"active","ping":55},{"user_id":124,"name":"a dollop of bird","steam_id":76561198089003514,"connected_time":1222000000000,"state":"active","ping":45},{"user_id":103,"name":"sBLOCKER  85","steam_id":76561198939078994,"connected_time":3055000000000,"state":"active","ping":175},{"user_id":136,"name":"kotamine","steam_id":76561198068907991,"connected_time":71000000000,"state":"active","ping":76},{"user_id":135,"name":"syms","steam_id":76561198066679812,"connected_time":79000000000,"state":"active","ping":80},{"user_id":126,"name":"Flash","steam_id":76561198067379855,"connected_time":927000000000,"state":"active","ping":48},{"user_id":133,"name":"Regan","steam_id":76561198100631086,"connected_time":252000000000,"state":"active","ping":95},{"user_id":95,"name":"‚û§ A H S O K A ‚û§","steam_id":76561198162074008,"connected_time":3424000000000,"state":"active","ping":46},{"user_id":97,"name":"Shepherd","steam_id":76561198367245948,"connected_time":3394000000000,"state":"active","ping":47},{"user_id":99,"name":"Cobalt","steam_id":76561198326024250,"connected_time":3362000000000,"state":"active","ping":32}]},{"server_id":22,"name":"Uncletopia | London | 6 | All Maps","name_short":"lon-6","host":"lon-1.uk.uncletopia.com","port":27065,"enabled":true,"region":"eu","cc":"gb","latitude":51.509865,"longitude":-0.118092,"reserved":0,"last_update":"0001-01-01T00:00:00Z","name_a2s":"Uncletopia | London | 6 | All Maps","protocol":17,"map":"cp_dustbowl","folder":"tf","game":"Team Fortress","app_id":440,"player_count":1,"max_players":24,"Bots":0,"server_type":"Dedicated","server_os":"Linux","password":true,"vac":true,"version":"7757534","steam_id":85568392924742830,"keywords":["cp","nocrits","nodmgspread","uncletopia"],"game_id":440,"stv_port":27066,"stv_name":"Uncletopia | London | 6 | All Maps | STV","players":[{"user_id":10,"name":"the babadook","steam_id":76561198040168682,"connected_time":0,"state":"spawning","ping":71}]},{"server_id":40,"name":"Uncletopia | London | 7 | No Payload","name_short":"lon-7","host":"lon-1.uk.uncletopia.com","port":27075,"enabled":true,"region":"eu","cc":"gb","latitude":51.509865,"longitude":-0.118092,"reserved":0,"last_update":"0001-01-01T00:00:00Z","name_a2s":"Uncletopia | London | 7 | No Payload","protocol":17,"map":"koth_king","folder":"tf","game":"Team Fortress","app_id":440,"player_count":0,"max_players":24,"Bots":0,"server_type":"Dedicated","server_os":"Linux","password":true,"vac":true,"version":"7757534","steam_id":85568392924964314,"keywords":["cp","nocrits","nodmgspread","uncletopia"],"game_id":440,"stv_port":27076,"stv_name":"Uncletopia | London | 7 | No Payload | STV","players":null},{"server_id":41,"name":"Uncletopia | London | 8 | Community","name_short":"lon-8","host":"lon-1.uk.uncletopia.com","port":27085,"enabled":true,"region":"eu","cc":"gb","latitude":51.509865,"longitude":-0.118092,"reserved":0,"last_update":"0001-01-01T00:00:00Z","name_a2s":"Uncletopia | London | 8 | Community","protocol":17,"map":"workshop/cp_logjam_rc12.ugc454812035","folder":"tf","game":"Team Fortress","app_id":440,"player_count":24,"max_players":24,"Bots":0,"server_type":"Dedicated","server_os":"Linux","password":true,"vac":true,"version":"7757534","steam_id":85568392924964315,"keywords":["cp","nocrits","nodmgspread","uncletopia"],"game_id":440,"stv_port":27086,"stv_name":"Uncletopia | London | 8 | Community | STV","players":[{"user_id":278,"name":"YinYang Ivy","steam_id":76561198319862585,"connected_time":2400000000000,"state":"active","ping":79},{"user_id":290,"name":"gio","steam_id":76561198219185620,"connected_time":1371000000000,"state":"active","ping":86},{"user_id":292,"name":"Spootnak","steam_id":76561198049052518,"connected_time":1096000000000,"state":"active","ping":51},{"user_id":286,"name":"Piquesque","steam_id":76561198286763046,"connected_time":1584000000000,"state":"active","ping":102},{"user_id":252,"name":"„É†GeRmAn |√óUA√ó„É†","steam_id":76561199044754898,"connected_time":4212000000000,"state":"active","ping":75},{"user_id":280,"name":"AwterSix","steam_id":76561198042561678,"connected_time":2275000000000,"state":"active","ping":60},{"user_id":277,"name":"PallysCafe","steam_id":76561198386097229,"connected_time":2411000000000,"state":"active","ping":60},{"user_id":275,"name":"lynceus","steam_id":76561198131209426,"connected_time":2666000000000,"state":"active","ping":54},{"user_id":281,"name":"upisfree","steam_id":76561198064037857,"connected_time":2140000000000,"state":"active","ping":119},{"user_id":293,"name":"kallerannar","steam_id":76561199095701143,"connected_time":1036000000000,"state":"active","ping":85},{"user_id":228,"name":"Fat Pigeon","steam_id":76561198817940142,"connected_time":6275000000000,"state":"active","ping":45},{"user_id":304,"name":"Frank","steam_id":76561198086672774,"connected_time":577000000000,"state":"active","ping":52},{"user_id":295,"name":"mud","steam_id":76561198141497461,"connected_time":851000000000,"state":"active","ping":74},{"user_id":298,"name":"‚òûLaZe‚òú","steam_id":76561198202191400,"connected_time":768000000000,"state":"active","ping":51},{"user_id":299,"name":"Spliffendor","steam_id":76561198144020209,"connected_time":713000000000,"state":"active","ping":53},{"user_id":300,"name":"Big Al","steam_id":76561198079585198,"connected_time":684000000000,"state":"active","ping":55},{"user_id":301,"name":"fish","steam_id":76561198205475839,"connected_time":651000000000,"state":"active","ping":97},{"user_id":309,"name":"rabbitface26","steam_id":76561198327540113,"connected_time":121000000000,"state":"active","ping":39},{"user_id":303,"name":"a sticky situation","steam_id":76561198011692496,"connected_time":595000000000,"state":"active","ping":70},{"user_id":305,"name":"Ivan the Terrible","steam_id":76561198139595241,"connected_time":508000000000,"state":"active","ping":83},{"user_id":220,"name":"Aregularhuman","steam_id":76561198343319848,"connected_time":7091000000000,"state":"active","ping":47},{"user_id":306,"name":"tanyathsus","steam_id":76561198089522447,"connected_time":501000000000,"state":"active","ping":62},{"user_id":307,"name":"gabagool","steam_id":76561198307111838,"connected_time":490000000000,"state":"active","ping":43},{"user_id":308,"name":"„ÄÇ„ÄÇ„ÄÇ","steam_id":76561198101624996,"connected_time":481000000000,"state":"active","ping":95}]},{"server_id":300,"name":"Uncletopia | Montr√©al | 1 | All Maps","name_short":"mtl-1","host":"mtl-1.ca.uncletopia.com","port":27015,"enabled":true,"region":"us-east","cc":"ca","latitude":45.50889,"longitude":-73.56167,"reserved":0,"last_update":"0001-01-01T00:00:00Z","name_a2s":"Uncletopia | Montr√©al | 1 | All Maps","protocol":17,"map":"koth_viaduct","folder":"tf","game":"Team Fortress","app_id":440,"player_count":0,"max_players":24,"Bots":0,"server_type":"Dedicated","server_os":"Linux","password":true,"vac":true,"version":"7757534","steam_id":85568392924500087,"keywords":["cp","nocrits","nodmgspread","uncletopia"],"game_id":440,"stv_port":27016,"stv_name":"Uncletopia | Montr√©al | 1 | All Maps | STV","players":null},{"server_id":301,"name":"Uncletopia | Montr√©al | 2 | All Maps","name_short":"mtl-2","host":"mtl-1.ca.uncletopia.com","port":27025,"enabled":true,"region":"us-east","cc":"ca","latitude":45.50889,"longitude":-73.56167,"reserved":0,"last_update":"0001-01-01T00:00:00Z","name_a2s":"Uncletopia | Montr√©al | 2 | All Maps","protocol":17,"map":"pl_snowycoast","folder":"tf","game":"Team Fortress","app_id":440,"player_count":0,"max_players":24,"Bots":0,"server_type":"Dedicated","server_os":"Linux","password":true,"vac":true,"version":"7757534","steam_id":85568392924500088,"keywords":["nocrits","nodmgspread","payload","uncletopia"],"game_id":440,"stv_port":27026,"stv_name":"Uncletopia | Montr√©al | 2 | All Maps | STV","players":null},{"server_id":302,"name":"Uncletopia | Montr√©al | 3 | All Maps","name_short":"mtl-3","host":"mtl-1.ca.uncletopia.com","port":27035,"enabled":true,"region":"us-east","cc":"ca","latitude":45.50889,"longitude":-73.56167,"reserved":0,"last_update":"0001-01-01T00:00:00Z","name_a2s":"Uncletopia | Montr√©al | 3 | All Maps","protocol":17,"map":"pl_swiftwater_final1","folder":"tf","game":"Team Fortress","app_id":440,"player_count":0,"max_players":24,"Bots":0,"server_type":"Dedicated","server_os":"Linux","password":true,"vac":true,"version":"7757534","steam_id":85568392924500089,"keywords":["nocrits","nodmgspread","payload","uncletopia"],"game_id":440,"stv_port":27036,"stv_name":"Uncletopia | Montr√©al | 3 | All Maps | STV","players":null},{"server_id":303,"name":"Uncletopia | Montr√©al | 4 | No Payload","name_short":"mtl-4","host":"mtl-1.ca.uncletopia.com","port":27045,"enabled":true,"region":"us-east","cc":"ca","latitude":45.50889,"longitude":-73.56167,"reserved":0,"last_update":"0001-01-01T00:00:00Z","name_a2s":"Uncletopia | Montr√©al | 4 | No Payload","protocol":17,"map":"cp_gravelpit","folder":"tf","game":"Team Fortress","app_id":440,"player_count":0,"max_players":24,"Bots":0,"server_type":"Dedicated","server_os":"Linux","password":true,"vac":true,"version":"7757534","steam_id":85568392924500090,"keywords":["cp","nocrits","nodmgspread","uncletopia"],"game_id":440,"stv_port":27046,"stv_name":"Uncletopia | Montr√©al | 4 | No Payload | STV","players":null},{"server_id":13,"name":"Uncletopia | New York City | 1 | All Maps","name_short":"nyc-1","host":"nyc-1.us.uncletopia.com","port":27015,"enabled":true,"region":"us-east","cc":"us","latitude":40.73061,"longitude":-73.93524,"reserved":0,"last_update":"0001-01-01T00:00:00Z","name_a2s":"Uncletopia | New York City | 1 | All Maps","protocol":17,"map":"pl_badwater","folder":"tf","game":"Team Fortress","app_id":440,"player_count":24,"max_players":24,"Bots":0,"server_type":"Dedicated","server_os":"Linux","password":true,"vac":true,"version":"7757534","steam_id":85568392924469993,"keywords":["nocrits","nodmgspread","payload","uncletopia"],"game_id":440,"stv_port":27016,"stv_name":"Uncletopia | New York City | 1 | All Maps | STV","players":[{"user_id":65,"name":"Buddy Platts","steam_id":76561198072075420,"connected_time":1071000000000,"state":"active","ping":52},{"user_id":71,"name":"cortar","steam_id":76561199077636183,"connected_time":900000000000,"state":"active","ping":67},{"user_id":51,"name":"Frimpimy","steam_id":76561198142605675,"connected_time":1289000000000,"state":"active","ping":73},{"user_id":74,"name":"SolmonFish","steam_id":76561198942169006,"connected_time":184000000000,"state":"active","ping":58},{"user_id":75,"name":"soyboi","steam_id":76561198025466913,"connected_time":74000000000,"state":"active","ping":101},{"user_id":44,"name":"Crackbean","steam_id":76561199115082856,"connected_time":1651000000000,"state":"active","ping":130},{"user_id":46,"name":"soy consumer","steam_id":76561198047168548,"connected_time":1489000000000,"state":"active","ping":109},{"user_id":47,"name":"liquor snurf","steam_id":76561198317152827,"connected_time":1442000000000,"state":"active","ping":61},{"user_id":48,"name":"i am heavy weapons guy","steam_id":76561198311704368,"connected_time":1406000000000,"state":"active","ping":62},{"user_id":49,"name":"potty trained","steam_id":76561198141557766,"connected_time":1348000000000,"state":"active","ping":80},{"user_id":50,"name":"Spookskeppnook","steam_id":76561199216336545,"connected_time":1313000000000,"state":"active","ping":81},{"user_id":52,"name":"catrinaisahuman","steam_id":76561198281355729,"connected_time":1288000000000,"state":"active","ping":83},{"user_id":36,"name":"Mr. Call You Back","steam_id":76561198025172811,"connected_time":2829000000000,"state":"active","ping":42},{"user_id":53,"name":"funny","steam_id":76561198157559535,"connected_time":1218000000000,"state":"active","ping":141},{"user_id":72,"name":"mingus dingus the powerful fetu","steam_id":76561198115189870,"connected_time":688000000000,"state":"active","ping":80},{"user_id":55,"name":"Chicken #420DONGSQUAD","steam_id":76561198047863656,"connected_time":1172000000000,"state":"active","ping":44},{"user_id":57,"name":"Bolarroza","steam_id":76561198806968845,"connected_time":1132000000000,"state":"active","ping":39},{"user_id":58,"name":"Sentry Gun (Maple!)","steam_id":76561199315167502,"connected_time":1127000000000,"state":"active","ping":62},{"user_id":59,"name":"ivyXXcision","steam_id":76561198031474906,"connected_time":1126000000000,"state":"active","ping":45},{"user_id":60,"name":"Clyde","steam_id":76561198158206236,"connected_time":1124000000000,"state":"active","ping":120},{"user_id":61,"name":"Zenabie","steam_id":76561198088372680,"connected_time":1119000000000,"state":"active","ping":83},{"user_id":62,"name":"enward","steam_id":76561198190323610,"connected_time":1116000000000,"state":"active","ping":79},{"user_id":73,"name":"jumpman","steam_id":76561198046796883,"connected_time":535000000000,"state":"active","ping":61},{"user_id":64,"name":"Two-Teste Tommy","steam_id":76561198064308936,"connected_time":1112000000000,"state":"active","ping":61}]},{"server_id":14,"name":"Uncletopia | New York City | 2 | All Maps","name_short":"nyc-2","host":"nyc-1.us.uncletopia.com","port":27025,"enabled":true,"region":"us-east","cc":"us","latitude":40.73061,"longitude":-73.93524,"reserved":0,"last_update":"0001-01-01T00:00:00Z","name_a2s":"Uncletopia | New York City | 2 | All Maps","protocol":17,"map":"pl_frontier_final","folder":"tf","game":"Team Fortress","app_id":440,"player_count":21,"max_players":24,"Bots":0,"server_type":"Dedicated","server_os":"Linux","password":true,"vac":true,"version":"7757534","steam_id":85568392924469994,"keywords":["nocrits","nodmgspread","payload","uncletopia"],"game_id":440,"stv_port":27026,"stv_name":"Uncletopia | New York City | 2 | All Maps | STV","players":[{"user_id":320,"name":"Party Fit","steam_id":76561199437896078,"connected_time":385000000000,"state":"active","ping":97},{"user_id":311,"name":"Blitzy","steam_id":76561198149472890,"connected_time":643000000000,"state":"active","ping":93},{"user_id":299,"name":"Sir Quacksalot","steam_id":76561198048942777,"connected_time":1935000000000,"state":"active","ping":87},{"user_id":291,"name":"Free Roamer","steam_id":76561198088658023,"connected_time":2165000000000,"state":"active","ping":60},{"user_id":310,"name":"teddyswk","steam_id":76561198404939571,"connected_time":654000000000,"state":"active","ping":148},{"user_id":326,"name":"mothsprings","steam_id":76561198928604937,"connected_time":32000000000,"state":"active","ping":62},{"user_id":274,"name":"Mr Deedeedoo","steam_id":76561198180314223,"connected_time":2810000000000,"state":"active","ping":74},{"user_id":317,"name":"BrickSturdy53","steam_id":76561198169930529,"connected_time":545000000000,"state":"active","ping":99},{"user_id":307,"name":"Toiletpaop","steam_id":76561198985520642,"connected_time":724000000000,"state":"active","ping":70},{"user_id":312,"name":"CrystalClear","steam_id":76561198344276579,"connected_time":640000000000,"state":"active","ping":128},{"user_id":258,"name":"Bozanimal","steam_id":76561198044096897,"connected_time":4049000000000,"state":"active","ping":42},{"user_id":297,"name":"OctillionaireSigmaMale","steam_id":76561198816005207,"connected_time":2021000000000,"state":"active","ping":57},{"user_id":323,"name":"Raptortastic","steam_id":76561198105613110,"connected_time":226000000000,"state":"active","ping":73},{"user_id":318,"name":"heck","steam_id":76561198067898014,"connected_time":519000000000,"state":"active","ping":30},{"user_id":313,"name":"Aurora","steam_id":76561198104795375,"connected_time":638000000000,"state":"active","ping":58},{"user_id":324,"name":"xGRIMx","steam_id":76561198195091799,"connected_time":214000000000,"state":"active","ping":70},{"user_id":292,"name":"Braamklauw","steam_id":76561198283287697,"connected_time":2151000000000,"state":"active","ping":147},{"user_id":322,"name":"roller","steam_id":76561198091233439,"connected_time":378000000000,"state":"active","ping":66},{"user_id":325,"name":"sauce","steam_id":76561198068430673,"connected_time":145000000000,"state":"active","ping":62},{"user_id":314,"name":"Post","steam_id":76561199029567289,"connected_time":620000000000,"state":"active","ping":131},{"user_id":315,"name":"YoYoshi","steam_id":76561198217770251,"connected_time":601000000000,"state":"active","ping":73}]},{"server_id":15,"name":"Uncletopia | New York City | 3 | Stopwatch Beta","name_short":"nyc-3","host":"nyc-1.us.uncletopia.com","port":27035,"enabled":true,"region":"us-east","cc":"us","latitude":40.73061,"longitude":-73.93524,"reserved":0,"last_update":"0001-01-01T00:00:00Z","name_a2s":"Uncletopia | New York City | 3 | Stopwatch Beta","protocol":17,"map":"koth_lakeside_final","folder":"tf","game":"Team Fortress","app_id":440,"player_count":0,"max_players":24,"Bots":0,"server_type":"Dedicated","server_os":"Linux","password":true,"vac":true,"version":"7757534","steam_id":85568392924742820,"keywords":["cp","nocrits","nodmgspread","uncletopia"],"game_id":440,"stv_port":27036,"stv_name":"Uncletopia | New York City | 3 | Stopwatch Beta | STV","players":null},{"server_id":16,"name":"Uncletopia | New York City | 4 | Community","name_short":"nyc-4","host":"nyc-1.us.uncletopia.com","port":27045,"enabled":true,"region":"us-east","cc":"us","latitude":40.73061,"longitude":-73.93524,"reserved":0,"last_update":"0001-01-01T00:00:00Z","name_a2s":"Uncletopia | New York City | 4 | Community","protocol":17,"map":"pl_swiftwater_final1","folder":"tf","game":"Team Fortress","app_id":440,"player_count":0,"max_players":24,"Bots":0,"server_type":"Dedicated","server_os":"Linux","password":true,"vac":true,"version":"7757534","steam_id":85568392924742821,"keywords":["nocrits","nodmgspread","payload","uncletopia"],"game_id":440,"stv_port":27046,"stv_name":"Uncletopia | New York City | 4 | Community | STV","players":null},{"server_id":142,"name":"Uncletopia | S√£o Paulo | 1 | All Maps","name_short":"sao-1","host":"sao-1.br.uncletopia.com","port":27015,"enabled":true,"region":"sa","cc":"br","latitude":-23.533773,"longitude":-46.62529,"reserved":0,"last_update":"0001-01-01T00:00:00Z","name_a2s":"Uncletopia | S√£o Paulo | 1 | All Maps","protocol":17,"map":"koth_lakeside_final","folder":"tf","game":"Team Fortress","app_id":440,"player_count":0,"max_players":24,"Bots":0,"server_type":"Dedicated","server_os":"Linux","password":true,"vac":true,"version":"7757534","steam_id":85568392924469996,"keywords":["cp","nocrits","nodmgspread","uncletopia"],"game_id":440,"stv_port":27016,"stv_name":"Uncletopia | S√£o Paulo | 1 | All Maps | STV","players":null},{"server_id":143,"name":"Uncletopia | S√£o Paulo | 2 | All Maps","name_short":"sao-2","host":"sao-2.br.uncletopia.com","port":27015,"enabled":true,"region":"sa","cc":"br","latitude":-23.533773,"longitude":-46.62529,"reserved":0,"last_update":"0001-01-01T00:00:00Z","name_a2s":"Uncletopia | S√£o Paulo | 2 | All Maps","protocol":17,"map":"koth_cascade","folder":"tf","game":"Team Fortress","app_id":440,"player_count":1,"max_players":24,"Bots":0,"server_type":"Dedicated","server_os":"Linux","password":true,"vac":true,"version":"7757534","steam_id":85568392924485349,"keywords":["cp","nocrits","nodmgspread","uncletopia"],"game_id":440,"stv_port":27016,"stv_name":"Uncletopia | S√£o Paulo | 2 | All Maps | STV","players":[{"user_id":12,"name":"kate ‚ùÄ","steam_id":76561198805567120,"connected_time":14000000000,"state":"spawning","ping":42}]},{"server_id":7,"name":"Uncletopia | Seattle | 1 | All Maps","name_short":"sea-1","host":"sea-1.us.uncletopia.com","port":27015,"enabled":true,"region":"us-west","cc":"us","latitude":47.608013,"longitude":-122.33517,"reserved":0,"last_update":"0001-01-01T00:00:00Z","name_a2s":"Uncletopia | Seattle | 1 | All Maps","protocol":17,"map":"pl_badwater","folder":"tf","game":"Team Fortress","app_id":440,"player_count":24,"max_players":24,"Bots":0,"server_type":"Dedicated","server_os":"Linux","password":true,"vac":true,"version":"7757534","steam_id":85568392924469997,"keywords":["nocrits","nodmgspread","payload","uncletopia"],"game_id":440,"stv_port":27016,"stv_name":"Uncletopia | Seattle | 1 | All Maps | STV","players":[{"user_id":258,"name":"Lochness_monster","steam_id":76561198417831973,"connected_time":2225000000000,"state":"active","ping":61},{"user_id":223,"name":"Tom","steam_id":76561198070630154,"connected_time":5470000000000,"state":"active","ping":75},{"user_id":274,"name":"Sir Galahad","steam_id":76561198195999859,"connected_time":1512000000000,"state":"active","ping":53},{"user_id":259,"name":"Smiles","steam_id":76561198107197973,"connected_time":2211000000000,"state":"active","ping":66},{"user_id":288,"name":"mega","steam_id":76561198089520959,"connected_time":219000000000,"state":"active","ping":91},{"user_id":280,"name":"goongremlin","steam_id":76561198278196215,"connected_time":1160000000000,"state":"active","ping":73},{"user_id":261,"name":"ROGUE-PLANET","steam_id":76561198116023052,"connected_time":2168000000000,"state":"active","ping":72},{"user_id":277,"name":"ËàπÂ∞æ","steam_id":76561198128764422,"connected_time":1457000000000,"state":"active","ping":41},{"user_id":254,"name":"1dk","steam_id":76561198135104742,"connected_time":2498000000000,"state":"active","ping":47},{"user_id":272,"name":"Nolan","steam_id":76561198169648081,"connected_time":1631000000000,"state":"active","ping":99},{"user_id":250,"name":"lili","steam_id":76561199391478575,"connected_time":3033000000000,"state":"active","ping":82},{"user_id":235,"name":"shy guy","steam_id":76561198151246059,"connected_time":4227000000000,"state":"active","ping":76},{"user_id":276,"name":"bear1boss fan","steam_id":76561198047850813,"connected_time":1465000000000,"state":"active","ping":51},{"user_id":285,"name":"Drew","steam_id":76561198058893405,"connected_time":584000000000,"state":"active","ping":108},{"user_id":286,"name":"JayJayMed320 (She/Her)","steam_id":76561198286568264,"connected_time":576000000000,"state":"active","ping":48},{"user_id":256,"name":"a chicken","steam_id":76561198313121580,"connected_time":2302000000000,"state":"active","ping":98},{"user_id":268,"name":"wolfadexi","steam_id":76561199064667462,"connected_time":1773000000000,"state":"active","ping":62},{"user_id":267,"name":"T . T","steam_id":76561198041907345,"connected_time":1788000000000,"state":"active","ping":101},{"user_id":287,"name":"Phlogging Solly","steam_id":76561198020580071,"connected_time":293000000000,"state":"active","ping":87},{"user_id":284,"name":"oil","steam_id":76561198099980149,"connected_time":689000000000,"state":"active","ping":89},{"user_id":257,"name":"Atlas Fugged :DD","steam_id":76561198018753989,"connected_time":2260000000000,"state":"active","ping":88},{"user_id":264,"name":"Hot Pink Frying Pan","steam_id":76561198360845628,"connected_time":2073000000000,"state":"active","ping":46},{"user_id":289,"name":"Drakoflames","steam_id":76561198273804614,"connected_time":218000000000,"state":"active","ping":140},{"user_id":240,"name":"elevatorboi","steam_id":76561198373691695,"connected_time":3872000000000,"state":"active","ping":120}]},{"server_id":119,"name":"Uncletopia | Seattle | 2 | All Maps","name_short":"sea-2","host":"sea-1.us.uncletopia.com","port":27025,"enabled":true,"region":"us-west","cc":"us","latitude":47.608013,"longitude":-122.33517,"reserved":0,"last_update":"0001-01-01T00:00:00Z","name_a2s":"Uncletopia | Seattle | 2 | All Maps","protocol":17,"map":"pl_enclosure_final","folder":"tf","game":"Team Fortress","app_id":440,"player_count":2,"max_players":24,"Bots":0,"server_type":"Dedicated","server_os":"Linux","password":true,"vac":true,"version":"7757534","steam_id":85568392924469998,"keywords":["nocrits","nodmgspread","payload","uncletopia"],"game_id":440,"stv_port":27026,"stv_name":"Uncletopia | Seattle | 2 | All Maps | STV","players":[{"user_id":11,"name":"me","steam_id":76561198861711988,"connected_time":765000000000,"state":"active","ping":172},{"user_id":12,"name":"Grammaring","steam_id":76561198867366139,"connected_time":660000000000,"state":"active","ping":75}]},{"server_id":406,"name":"Uncletopia | Seattle | 3 | Stopwatch Beta","name_short":"sea-3","host":"sea-1.us.uncletopia.com","port":27035,"enabled":true,"region":"us-west","cc":"us","latitude":47.608013,"longitude":-122.33517,"reserved":0,"last_update":"0001-01-01T00:00:00Z","name_a2s":"Uncletopia | Seattle | 3 | Stopwatch Beta","protocol":17,"map":"cp_dustbowl","folder":"tf","game":"Team Fortress","app_id":440,"player_count":0,"max_players":24,"Bots":0,"server_type":"Dedicated","server_os":"Linux","password":true,"vac":true,"version":"7757534","steam_id":85568392924515217,"keywords":["cp","nocrits","nodmgspread","uncletopia"],"game_id":440,"stv_port":27036,"stv_name":"Uncletopia | Seattle | 3 | Stopwatch Beta | STV","players":null},{"server_id":17,"name":"Uncletopia | San Francisco | 1 | All Maps","name_short":"sfo-1","host":"sfo-1.us.uncletopia.com","port":27015,"enabled":true,"region":"us-west","cc":"us","latitude":37.77397,"longitude":-122.4313,"reserved":0,"last_update":"0001-01-01T00:00:00Z","name_a2s":"Uncletopia | San Francisco | 1 | All Maps","protocol":17,"map":"cp_process_final","folder":"tf","game":"Team Fortress","app_id":440,"player_count":0,"max_players":24,"Bots":0,"server_type":"Dedicated","server_os":"Linux","password":true,"vac":true,"version":"7757534","steam_id":85568392924469999,"keywords":["cp","nocrits","nodmgspread","uncletopia"],"game_id":440,"stv_port":27016,"stv_name":"Uncletopia | San Francisco | 1 | All Maps | STV","players":null},{"server_id":18,"name":"Uncletopia | San Francisco | 2 | All Maps","name_short":"sfo-2","host":"sfo-1.us.uncletopia.com","port":27025,"enabled":true,"region":"us-west","cc":"us","latitude":37.77397,"longitude":-122.4313,"reserved":0,"last_update":"0001-01-01T00:00:00Z","name_a2s":"Uncletopia | San Francisco | 2 | All Maps","protocol":17,"map":"koth_highpass","folder":"tf","game":"Team Fortress","app_id":440,"player_count":0,"max_players":24,"Bots":0,"server_type":"Dedicated","server_os":"Linux","password":true,"vac":true,"version":"7757534","steam_id":85568392924470000,"keywords":["cp","nocrits","nodmgspread","uncletopia"],"game_id":440,"stv_port":27026,"stv_name":"Uncletopia | San Francisco | 2 | All Maps | STV","players":null},{"server_id":19,"name":"Uncletopia | San Francisco | 3 | Stopwatch Beta","name_short":"sfo-3","host":"sfo-1.us.uncletopia.com","port":27035,"enabled":true,"region":"us-west","cc":"us","latitude":37.77397,"longitude":-122.4313,"reserved":0,"last_update":"0001-01-01T00:00:00Z","name_a2s":"Uncletopia | San Francisco | 3 | Stopwatch Beta","protocol":17,"map":"koth_lakeside_final","folder":"tf","game":"Team Fortress","app_id":440,"player_count":0,"max_players":24,"Bots":0,"server_type":"Dedicated","server_os":"Linux","password":true,"vac":true,"version":"7757534","steam_id":85568392924742824,"keywords":["cp","nocrits","nodmgspread","uncletopia"],"game_id":440,"stv_port":27036,"stv_name":"Uncletopia | San Francisco | 3 | Stopwatch Beta | STV","players":null},{"server_id":20,"name":"Uncletopia | San Francisco | 4 | Community","name_short":"sfo-4","host":"sfo-1.us.uncletopia.com","port":27045,"enabled":true,"region":"us-west","cc":"us","latitude":37.77397,"longitude":-122.4313,"reserved":0,"last_update":"0001-01-01T00:00:00Z","name_a2s":"Uncletopia | San Francisco | 4 | Community","protocol":17,"map":"cp_altitude","folder":"tf","game":"Team Fortress","app_id":440,"player_count":1,"max_players":24,"Bots":0,"server_type":"Dedicated","server_os":"Linux","password":true,"vac":true,"version":"7757534","steam_id":85568392924742826,"keywords":["cp","nocrits","nodmgspread","uncletopia"],"game_id":440,"stv_port":27046,"stv_name":"Uncletopia | San Francisco | 4 | Community | STV","players":[{"user_id":4,"name":"ThomasR","steam_id":76561199014725814,"connected_time":14000000000,"state":"active","ping":194}]},{"server_id":141,"name":"Uncletopia | Sydney | 1 | All Maps","name_short":"syd-1","host":"syd-1.au.uncletopia.com","port":27015,"enabled":true,"region":"au","cc":"au","latitude":-33.865143,"longitude":151.2099,"reserved":0,"last_update":"0001-01-01T00:00:00Z","name_a2s":"Uncletopia | Sydney | 1 | All Maps","protocol":17,"map":"koth_highpass","folder":"tf","game":"Team Fortress","app_id":440,"player_count":0,"max_players":24,"Bots":0,"server_type":"Dedicated","server_os":"Linux","password":true,"vac":true,"version":"7757534","steam_id":85568392924470001,"keywords":["cp","nocrits","nodmgspread","uncletopia"],"game_id":440,"stv_port":27016,"stv_name":"Uncletopia | Sydney | 1 | All Maps | STV","players":null},{"server_id":123,"name":"Uncletopia | Sydney | 2 | All Maps","name_short":"syd-2","host":"syd-1.au.uncletopia.com","port":27025,"enabled":true,"region":"au","cc":"au","latitude":-33.865143,"longitude":151.2099,"reserved":0,"last_update":"0001-01-01T00:00:00Z","name_a2s":"Uncletopia | Sydney | 2 | All Maps","protocol":17,"map":"cp_process_final","folder":"tf","game":"Team Fortress","app_id":440,"player_count":0,"max_players":24,"Bots":0,"server_type":"Dedicated","server_os":"Linux","password":true,"vac":true,"version":"7757534","steam_id":85568392924470002,"keywords":["cp","nocrits","nodmgspread","uncletopia"],"game_id":440,"stv_port":27026,"stv_name":"Uncletopia | Sydney | 2 | All Maps | STV","players":null},{"server_id":395,"name":"Uncletopia | Sydney | 3 | All Maps","name_short":"syd-3","host":"syd-1.au.uncletopia.com","port":27035,"enabled":true,"region":"au","cc":"au","latitude":-33.865143,"longitude":151.2099,"reserved":0,"last_update":"0001-01-01T00:00:00Z","name_a2s":"Uncletopia | Sydney | 3 | All Maps","protocol":17,"map":"pl_swiftwater_final1","folder":"tf","game":"Team Fortress","app_id":440,"player_count":0,"max_players":24,"Bots":0,"server_type":"Dedicated","server_os":"Linux","password":true,"vac":true,"version":"7757534","steam_id":85568392925194467,"keywords":["nocrits","nodmgspread","payload","uncletopia"],"game_id":440,"stv_port":27036,"stv_name":"Uncletopia | Sydney | 3 | All Maps | STV","players":null},{"server_id":396,"name":"Uncletopia | Sydney | 4 | All Maps","name_short":"syd-4","host":"syd-1.au.uncletopia.com","port":27045,"enabled":true,"region":"au","cc":"au","latitude":-33.865143,"longitude":151.2099,"reserved":0,"last_update":"0001-01-01T00:00:00Z","name_a2s":"Uncletopia | Sydney | 4 | All Maps","protocol":17,"map":"koth_highpass","folder":"tf","game":"Team Fortress","app_id":440,"player_count":0,"max_players":24,"Bots":0,"server_type":"Dedicated","server_os":"Linux","password":true,"vac":true,"version":"7757534","steam_id":85568392925397958,"keywords":["cp","nocrits","nodmgspread","uncletopia"],"game_id":440,"stv_port":27046,"stv_name":"Uncletopia | Sydney | 4 | All Maps | STV","players":null},{"server_id":58,"name":"Uncletopia | Sydney | 5 | Stopwatch Beta","name_short":"syd-5","host":"syd-1.au.uncletopia.com","port":27055,"enabled":true,"region":"au","cc":"au","latitude":-33.865143,"longitude":151.2099,"reserved":0,"last_update":"0001-01-01T00:00:00Z","name_a2s":"Uncletopia | Sydney | 5 | Stopwatch Beta","protocol":17,"map":"koth_cascade","folder":"tf","game":"Team Fortress","app_id":440,"player_count":0,"max_players":24,"Bots":0,"server_type":"Dedicated","server_os":"Linux","password":true,"vac":true,"version":"7757534","steam_id":85568392925397959,"keywords":["cp","nocrits","nodmgspread","uncletopia"],"game_id":440,"stv_port":27056,"stv_name":"Uncletopia | Sydney | 5 | Stopwatch Beta | STV","players":null},{"server_id":59,"name":"Uncletopia | Sydney | 6 | Community","name_short":"syd-6","host":"syd-1.au.uncletopia.com","port":27065,"enabled":true,"region":"au","cc":"au","latitude":-33.865143,"longitude":151.2099,"reserved":0,"last_update":"0001-01-01T00:00:00Z","name_a2s":"Uncletopia | Sydney | 6 | Community","protocol":17,"map":"workshop/cp_villa_b19.ugc2113052569","folder":"tf","game":"Team Fortress","app_id":440,"player_count":0,"max_players":24,"Bots":0,"server_type":"Dedicated","server_os":"Linux","password":true,"vac":true,"version":"7757534","steam_id":85568392925397960,"keywords":["cp","nocrits","nodmgspread","uncletopia"],"game_id":440,"stv_port":27066,"stv_name":"Uncletopia | Sydney | 6 | Community | STV","players":null},{"server_id":49,"name":"Uncletopia | Warsaw | 1 | All Maps","name_short":"waw-1","host":"waw-1.pl.uncletopia.com","port":27015,"enabled":true,"region":"eu","cc":"pl","latitude":52.2297,"longitude":21.017532,"reserved":0,"last_update":"0001-01-01T00:00:00Z","name_a2s":"","protocol":0,"map":"","folder":"","game":"","app_id":0,"player_count":0,"max_players":0,"Bots":0,"server_type":"","server_os":"","password":false,"vac":false,"version":"","steam_id":0,"keywords":null,"game_id":0,"stv_port":0,"stv_name":"","players":null},{"server_id":50,"name":"Uncletopia | Warsaw | 2 | All Maps","name_short":"waw-2","host":"waw-1.pl.uncletopia.com","port":27025,"enabled":true,"region":"eu","cc":"pl","latitude":52.2297,"longitude":21.017532,"reserved":0,"last_update":"0001-01-01T00:00:00Z","name_a2s":"Uncletopia | Warsaw | 2 | All Maps","protocol":17,"map":"koth_viaduct","folder":"tf","game":"Team Fortress","app_id":440,"player_count":0,"max_players":24,"Bots":0,"server_type":"Dedicated","server_os":"Linux","password":true,"vac":true,"version":"7757534","steam_id":85568392925397851,"keywords":["cp","nocrits","nodmgspread","uncletopia"],"game_id":440,"stv_port":27026,"stv_name":"Uncletopia | Warsaw | 2 | All Maps | STV","players":null},{"server_id":51,"name":"Uncletopia | Warsaw | 3 | All Maps","name_short":"waw-3","host":"waw-1.pl.uncletopia.com","port":27035,"enabled":true,"region":"eu","cc":"pl","latitude":52.2297,"longitude":21.017532,"reserved":0,"last_update":"0001-01-01T00:00:00Z","name_a2s":"Uncletopia | Warsaw | 3 | All Maps","protocol":17,"map":"pl_badwater","folder":"tf","game":"Team Fortress","app_id":440,"player_count":0,"max_players":24,"Bots":0,"server_type":"Dedicated","server_os":"Linux","password":true,"vac":true,"version":"7757534","steam_id":85568392925397852,"keywords":["nocrits","nodmgspread","payload","uncletopia"],"game_id":440,"stv_port":27036,"stv_name":"Uncletopia | Warsaw | 3 | All Maps | STV","players":null},{"server_id":52,"name":"Uncletopia | Warsaw | 4 | All Maps","name_short":"waw-4","host":"waw-1.pl.uncletopia.com","port":27045,"enabled":true,"region":"eu","cc":"pl","latitude":52.2297,"longitude":21.017532,"reserved":0,"last_update":"0001-01-01T00:00:00Z","name_a2s":"Uncletopia | Warsaw | 4 | All Maps","protocol":17,"map":"koth_lakeside_final","folder":"tf","game":"Team Fortress","app_id":440,"player_count":0,"max_players":24,"Bots":0,"server_type":"Dedicated","server_os":"Linux","password":true,"vac":true,"version":"7757534","steam_id":85568392925397853,"keywords":["cp","nocrits","nodmgspread","uncletopia"],"game_id":440,"stv_port":27046,"stv_name":"Uncletopia | Warsaw | 4 | All Maps | STV","players":null},{"server_id":53,"name":"Uncletopia | Warsaw | 5 | Stopwatch Beta","name_short":"waw-5","host":"waw-1.pl.uncletopia.com","port":27055,"enabled":true,"region":"eu","cc":"pl","latitude":52.2297,"longitude":21.017532,"reserved":0,"last_update":"0001-01-01T00:00:00Z","name_a2s":"Uncletopia | Warsaw | 5 | Stopwatch Beta","protocol":17,"map":"pl_borneo","folder":"tf","game":"Team Fortress","app_id":440,"player_count":0,"max_players":24,"Bots":0,"server_type":"Dedicated","server_os":"Linux","password":true,"vac":true,"version":"7757534","steam_id":85568392925397854,"keywords":["nocrits","nodmgspread","payload","uncletopia"],"game_id":440,"stv_port":27056,"stv_name":"Uncletopia | Warsaw | 5 | Stopwatch Beta | STV","players":null},{"server_id":54,"name":"Uncletopia | Warsaw | 6 | Community","name_short":"waw-6","host":"waw-1.pl.uncletopia.com","port":27065,"enabled":true,"region":"eu","cc":"pl","latitude":52.2297,"longitude":21.017532,"reserved":0,"last_update":"0001-01-01T00:00:00Z","name_a2s":"Uncletopia | Warsaw | 6 | Community","protocol":17,"map":"koth_lakeside_final","folder":"tf","game":"Team Fortress","app_id":440,"player_count":0,"max_players":24,"Bots":0,"server_type":"Dedicated","server_os":"Linux","password":true,"vac":true,"version":"7757534","steam_id":85568392925397856,"keywords":["cp","nocrits","nodmgspread","uncletopia"],"game_id":440,"stv_port":27066,"stv_name":"Uncletopia | Warsaw | 6 | Community | STV","players":null}]}