{"status":true,"message":"","result":[{"server_id":9,"name":"Uncletopia | Atlanta | 1 | All Maps","name_short":"atl-1","host":"atl-1.us.uncletopia.com","port":27015,"enabled":true,"region":"us-east","cc":"us","latitude":33.753746,"longitude":-84.38633,"reserved":0,"last_update":"0001-01-01T00:00:00Z","name_a2s":"Uncletopia | Atlanta | 1 | All Maps","protocol":17,"map":"pl_barnblitz","folder":"tf","game":"Team Fortress","app_id":440,"player_count":21,"max_players":24,"Bots":0,"server_type":"Dedicated","server_os":"Linux","password":true,"vac":true,"version":"7932396","steam_id":85568392924469982,"keywords":["nocrits","nodmgspread","payload","uncletopia"],"game_id":440,"stv_port":27016,"stv_name":"Uncletopia | Atlanta | 1 | All Maps | STV","players":[{"user_id":418,"name":"Mox Nix","steam_id":76561198978778718,"connected_time":26000000000,"state":"active","ping":173},{"user_id":400,"name":"GibbusGod","steam_id":76561199232436690,"connected_time":205000000000,"state":"active","ping":103},{"user_id":414,"name":"Drinker of Water","steam_id":76561198284647525,"connected_time":70000000000,"state":"active","ping":89},{"user_id":310,"name":"bdefg","steam_id":76561199422915609,"connected_time":1577000000000,"state":"active","ping":115},{"user_id":392,"name":"ntjohn","steam_id":76561198043367011,"connected_time":295000000000,"state":"active","ping":99},{"user_id":323,"name":"Denzel McFlurry","steam_id":76561199231296521,"connected_time":1347000000000,"state":"active","ping":93},{"user_id":416,"name":"bagsy","steam_id":76561198088778979,"connected_time":33000000000,"state":"spawning","ping":191},{"user_id":390,"name":"Cassius Money","steam_id":76561197979696414,"connected_time":335000000000,"state":"active","ping":91},{"user_id":391,"name":"dailyspesh","steam_id":76561197988072369,"connected_time":320000000000,"state":"active","ping":124},{"user_id":409,"name":"Professor K","steam_id":76561198255775561,"connected_time":112000000000,"state":"active","ping":154},{"user_id":373,"name":"V. G. Sunderland","steam_id":76561198161839980,"connected_time":547000000000,"state":"active","ping":87},{"user_id":361,"name":"Plains Phoenix","steam_id":76561198817161299,"connected_time":824000000000,"state":"active","ping":104},{"user_id":405,"name":"Morgster","steam_id":76561198131697761,"connected_time":178000000000,"state":"active","ping":92},{"user_id":374,"name":"WWWWWWWWWWWWWWWWWWWWWW","steam_id":76561199480625347,"connected_time":539000000000,"state":"active","ping":94},{"user_id":332,"name":"FOrce of nature","steam_id":76561198390522839,"connected_time":1259000000000,"state":"active","ping":129},{"user_id":419,"name":"Papillon","steam_id":76561198049725849,"connected_time":15000000000,"state":"spawning","ping":129},{"user_id":397,"name":"it's peanut time","steam_id":76561198236028020,"connected_time":256000000000,"state":"active","ping":112},{"user_id":377,"name":"iclark5","steam_id":76561199256588354,"connected_time":519000000000,"state":"active","ping":130},{"user_id":412,"name":"dont suck me i uber","steam_id":76561198281968441,"connected_time":83000000000,"state":"active","ping":150},{"user_id":229,"name":"Iron_Dave_Qc","steam_id":76561198159325213,"connected_time":2738000000000,"state":"active","ping":123},{"user_id":413,"name":"nim chimps","steam_id":76561198012093637,"connected_time":82000000000,"state":"active","ping":115}]},{"server_id":104,"name":"Uncletopia | Atlanta | 2 | All Maps","name_short":"atl-2","host":"atl-1.us.uncletopia.com","port":27025,"enabled":true,"region":"us-east","cc":"us","latitude":33.753746,"longitude":-84.38633,"reserved":0,"last_update":"0001-01-01T00:00:00Z","name_a2s":"Uncletopia | Atlanta | 2 | All Maps","protocol":17,"map":"cp_sunshine","folder":"tf","game":"Team Fortress","app_id":440,"player_count":2,"max_players":24,"Bots":0,"server_type":"Dedicated","server_os":"Linux","password":true,"vac":true,"version":"7932396","steam_id":85568392924469983,"keywords":["cp","nocrits","nodmgspread","uncletopia"],"game_id":440,"stv_port":27026,"stv_name":"Uncletopia | Atlanta | 2 | All Maps | STV","players":[{"user_id":908,"name":"GameSquid111","steam_id":76561198330135450,"connected_time":226000000000,"state":"active","ping":80},{"user_id":909,"name":"FinnGator","steam_id":76561198241766488,"connected_time":226000000000,"state":"active","ping":72}]},{"server_id":400,"name":"Uncletopia | Atlanta | 3 | Community","name_short":"atl-3","host":"atl-1.us.uncletopia.com","port":27035,"enabled":true,"region":"us-east","cc":"us","latitude":33.753746,"longitude":-84.38633,"reserved":0,"last_update":"0001-01-01T00:00:00Z","name_a2s":"Uncletopia | Atlanta | 3 | Community","protocol":17,"map":"workshop/koth_trenchfoot_b1a.ugc731436616","folder":"tf","game":"Team Fortress","app_id":440,"player_count":0,"max_players":24,"Bots":0,"server_type":"Dedicated","server_os":"Linux","password":true,"vac":true,"version":"7932396","steam_id":85568392924515187,"keywords":["cp","nocrits","nodmgspread","uncletopia"],"game_id":440,"stv_port":27036,"stv_name":"Uncletopia | Atlanta | 3 | Community | STV","players":null},{"server_id":401,"name":"Uncletopia | Atlanta | 4 | No Payload","name_short":"atl-4","host":"atl-1.us.uncletopia.com","port":27045,"enabled":true,"region":"us-east","cc":"us","latitude":33.753746,"longitude":-84.38633,"reserved":0,"last_update":"0001-01-01T00:00:00Z","name_a2s":"","protocol":0,"map":"","folder":"","game":"","app_id":0,"player_count":0,"max_players":0,"Bots":0,"server_type":"","server_os":"","password":false,"vac":false,"version":"","steam_id":0,"keywords":null,"game_id":0,"stv_port":0,"stv_name":"","players":null},{"server_id":2,"name":"Uncletopia | Chicago | 1 | All Maps","name_short":"chi-1","host":"chi-1.us.uncletopia.com","port":27015,"enabled":true,"region":"us-central","cc":"us","latitude":41.881832,"longitude":-87.62318,"reserved":0,"last_update":"0001-01-01T00:00:00Z","name_a2s":"Uncletopia | Chicago | 1 | All Maps","protocol":17,"map":"pl_swiftwater_final1","folder":"tf","game":"Team Fortress","app_id":440,"player_count":24,"max_players":24,"Bots":0,"server_type":"Dedicated","server_os":"Linux","password":true,"vac":true,"version":"7932396","steam_id":85568392924469984,"keywords":["nocrits","nodmgspread","payload","uncletopia"],"game_id":440,"stv_port":27016,"stv_name":"Uncletopia | Chicago | 1 | All Maps | STV","players":[{"user_id":756,"name":"Gnarly Shark Bite","steam_id":76561198004058342,"connected_time":1334000000000,"state":"active","ping":69},{"user_id":747,"name":"serendipity","steam_id":76561198095087127,"connected_time":2741000000000,"state":"active","ping":61},{"user_id":740,"name":"Robo Boss","steam_id":76561199067098696,"connected_time":2786000000000,"state":"active","ping":86},{"user_id":741,"name":"delight","steam_id":76561197980280272,"connected_time":2781000000000,"state":"active","ping":98},{"user_id":760,"name":"Drooop","steam_id":76561198856700517,"connected_time":1230000000000,"state":"active","ping":74},{"user_id":768,"name":"mac_cheese","steam_id":76561198071334162,"connected_time":292000000000,"state":"active","ping":93},{"user_id":704,"name":"Celestial Bodies","steam_id":76561198212572955,"connected_time":6389000000000,"state":"active","ping":76},{"user_id":746,"name":"Lost","steam_id":76561198093713427,"connected_time":2761000000000,"state":"active","ping":61},{"user_id":761,"name":"heademptyengineer.JIFF","steam_id":76561198045181760,"connected_time":1226000000000,"state":"active","ping":62},{"user_id":706,"name":"DinkleBerg","steam_id":76561198891626233,"connected_time":5906000000000,"state":"active","ping":61},{"user_id":751,"name":"kite","steam_id":76561198346516392,"connected_time":2314000000000,"state":"active","ping":72},{"user_id":736,"name":"Margo_Rae","steam_id":76561198035046430,"connected_time":2800000000000,"state":"active","ping":84},{"user_id":752,"name":"Doctor Emerald(real)","steam_id":76561199123003872,"connected_time":1492000000000,"state":"active","ping":98},{"user_id":723,"name":"Chin, Bruce Lee's Relative","steam_id":76561198240105522,"connected_time":4319000000000,"state":"active","ping":87},{"user_id":763,"name":"StonedGiant","steam_id":76561197984386932,"connected_time":655000000000,"state":"active","ping":61},{"user_id":717,"name":"The Noob Sire","steam_id":76561198119219754,"connected_time":4998000000000,"state":"active","ping":88},{"user_id":754,"name":"pepsibobby","steam_id":76561198853864511,"connected_time":1367000000000,"state":"active","ping":80},{"user_id":709,"name":"LeadHickory","steam_id":76561198219756521,"connected_time":5284000000000,"state":"active","ping":78},{"user_id":727,"name":"Wizard Raccoon","steam_id":76561198072562591,"connected_time":4011000000000,"state":"active","ping":82},{"user_id":728,"name":"L + Ratio","steam_id":76561198263786953,"connected_time":4010000000000,"state":"active","ping":80},{"user_id":762,"name":"Snoball","steam_id":76561198205838372,"connected_time":682000000000,"state":"active","ping":64},{"user_id":764,"name":"Retro Phoenix","steam_id":76561198077176271,"connected_time":445000000000,"state":"active","ping":67},{"user_id":721,"name":"chamber valorant","steam_id":76561198341537452,"connected_time":4833000000000,"state":"active","ping":77},{"user_id":767,"name":"floofy","steam_id":76561198389769098,"connected_time":410000000000,"state":"active","ping":81}]},{"server_id":106,"name":"Uncletopia | Chicago | 2 | All Maps","name_short":"chi-2","host":"chi-1.us.uncletopia.com","port":27025,"enabled":true,"region":"us-central","cc":"us","latitude":41.881832,"longitude":-87.62318,"reserved":0,"last_update":"0001-01-01T00:00:00Z","name_a2s":"Uncletopia | Chicago | 2 | All Maps","protocol":17,"map":"ctf_sawmill","folder":"tf","game":"Team Fortress","app_id":440,"player_count":24,"max_players":24,"Bots":0,"server_type":"Dedicated","server_os":"Linux","password":true,"vac":true,"version":"7932396","steam_id":85568392924469985,"keywords":["ctf","nocrits","nodmgspread","uncletopia"],"game_id":440,"stv_port":27026,"stv_name":"Uncletopia | Chicago | 2 | All Maps | STV","players":[{"user_id":759,"name":"dumb idiot","steam_id":76561199185213820,"connected_time":427000000000,"state":"active","ping":57},{"user_id":755,"name":"Zombiehunter11","steam_id":76561198237517830,"connected_time":1197000000000,"state":"active","ping":77},{"user_id":700,"name":"gps","steam_id":76561198067492304,"connected_time":4520000000000,"state":"active","ping":79},{"user_id":717,"name":"xX_HimboSwallower_Xx","steam_id":76561198016029965,"connected_time":3664000000000,"state":"active","ping":67},{"user_id":754,"name":"Kratospie","steam_id":76561198019597037,"connected_time":1293000000000,"state":"active","ping":66},{"user_id":734,"name":"Glass Joe","steam_id":76561198317365741,"connected_time":2869000000000,"state":"active","ping":61},{"user_id":701,"name":"Viennetta","steam_id":76561198044088335,"connected_time":4514000000000,"state":"active","ping":55},{"user_id":711,"name":"LegendaryMister151","steam_id":76561198064890524,"connected_time":4071000000000,"state":"active","ping":85},{"user_id":618,"name":"igotmail","steam_id":76561198070631899,"connected_time":10158000000000,"state":"active","ping":70},{"user_id":761,"name":"wiiblob","steam_id":76561198109106242,"connected_time":265000000000,"state":"active","ping":139},{"user_id":740,"name":"Rafl","steam_id":76561198055222756,"connected_time":2132000000000,"state":"active","ping":67},{"user_id":735,"name":"Protato","steam_id":76561198061182563,"connected_time":2809000000000,"state":"active","ping":69},{"user_id":741,"name":"Cyber Cylon","steam_id":76561198048972781,"connected_time":2084000000000,"state":"active","ping":65},{"user_id":742,"name":"ray (the based god)","steam_id":76561198311984941,"connected_time":1855000000000,"state":"active","ping":59},{"user_id":646,"name":"Unholy","steam_id":76561198058312481,"connected_time":8994000000000,"state":"active","ping":80},{"user_id":709,"name":"Wallem","steam_id":76561198052361822,"connected_time":4208000000000,"state":"active","ping":76},{"user_id":753,"name":"Mailman","steam_id":76561198090675970,"connected_time":1315000000000,"state":"active","ping":48},{"user_id":763,"name":"Bali","steam_id":76561198038693845,"connected_time":113000000000,"state":"active","ping":84},{"user_id":715,"name":"Mister Rattlebones","steam_id":76561198065560157,"connected_time":3724000000000,"state":"active","ping":53},{"user_id":708,"name":"Bolty","steam_id":76561198084199165,"connected_time":4394000000000,"state":"active","ping":74},{"user_id":622,"name":"bluebird","steam_id":76561198065219155,"connected_time":10086000000000,"state":"active","ping":44},{"user_id":727,"name":"Maybe","steam_id":76561198268304564,"connected_time":3487000000000,"state":"active","ping":74},{"user_id":762,"name":"Motor Mongol","steam_id":76561198067436825,"connected_time":202000000000,"state":"active","ping":85},{"user_id":751,"name":"C4K3","steam_id":76561197996963285,"connected_time":1445000000000,"state":"active","ping":85}]},{"server_id":402,"name":"Uncletopia | Chicago | 3 | All Maps","name_short":"chi-3","host":"chi-1.us.uncletopia.com","port":27035,"enabled":true,"region":"us-central","cc":"us","latitude":41.881832,"longitude":-87.62318,"reserved":0,"last_update":"0001-01-01T00:00:00Z","name_a2s":"Uncletopia | Chicago | 3 | All Maps","protocol":17,"map":"pl_frontier_final","folder":"tf","game":"Team Fortress","app_id":440,"player_count":24,"max_players":24,"Bots":0,"server_type":"Dedicated","server_os":"Linux","password":true,"vac":true,"version":"7932396","steam_id":85568392924515191,"keywords":["nocrits","nodmgspread","payload","uncletopia"],"game_id":440,"stv_port":27036,"stv_name":"Uncletopia | Chicago | 3 | All Maps | STV","players":[{"user_id":327,"name":"JDM Street Cred","steam_id":76561198033035560,"connected_time":196000000000,"state":"active","ping":59},{"user_id":251,"name":"DoubleX2000","steam_id":76561198164134387,"connected_time":6533000000000,"state":"active","ping":113},{"user_id":335,"name":"what","steam_id":76561198082336619,"connected_time":86000000000,"state":"active","ping":81},{"user_id":326,"name":"Ringo x Seiran","steam_id":76561198357437908,"connected_time":202000000000,"state":"active","ping":70},{"user_id":312,"name":"gaming gerald","steam_id":76561198011707083,"connected_time":2737000000000,"state":"active","ping":56},{"user_id":295,"name":"reis","steam_id":76561199232952016,"connected_time":3142000000000,"state":"active","ping":179},{"user_id":323,"name":"big ralph","steam_id":76561198063370996,"connected_time":838000000000,"state":"active","ping":46},{"user_id":320,"name":"eat Pant","steam_id":76561197974965536,"connected_time":1385000000000,"state":"active","ping":62},{"user_id":331,"name":"Jo","steam_id":76561198060447015,"connected_time":165000000000,"state":"active","ping":76},{"user_id":240,"name":"Digitic","steam_id":76561198080295536,"connected_time":7148000000000,"state":"active","ping":78},{"user_id":321,"name":"Starfruit66","steam_id":76561198069917277,"connected_time":1026000000000,"state":"active","ping":103},{"user_id":330,"name":"Homunculus Gambino","steam_id":76561198158433378,"connected_time":172000000000,"state":"active","ping":67},{"user_id":332,"name":"Sup m8","steam_id":76561198081659121,"connected_time":141000000000,"state":"active","ping":61},{"user_id":333,"name":"hill of the king","steam_id":76561198099491925,"connected_time":128000000000,"state":"active","ping":76},{"user_id":304,"name":"stick","steam_id":76561198049489094,"connected_time":2964000000000,"state":"active","ping":58},{"user_id":307,"name":"timstertimster","steam_id":76561197990202844,"connected_time":2912000000000,"state":"active","ping":81},{"user_id":334,"name":"Tick","steam_id":76561198184161214,"connected_time":120000000000,"state":"active","ping":38},{"user_id":289,"name":"HappyOtterMan","steam_id":76561199051276989,"connected_time":4127000000000,"state":"active","ping":73},{"user_id":286,"name":"vv","steam_id":76561198134813102,"connected_time":4250000000000,"state":"active","ping":56},{"user_id":313,"name":"Doubting Dave","steam_id":76561198066410749,"connected_time":2377000000000,"state":"active","ping":76},{"user_id":319,"name":"JACOB","steam_id":76561198211874895,"connected_time":1400000000000,"state":"active","ping":79},{"user_id":324,"name":"lpk","steam_id":76561198025478698,"connected_time":587000000000,"state":"active","ping":45},{"user_id":325,"name":"freyja","steam_id":76561198249206656,"connected_time":481000000000,"state":"active","ping":74},{"user_id":278,"name":"18th century farmer","steam_id":76561199196014252,"connected_time":5339000000000,"state":"active","ping":108}]},{"server_id":403,"name":"Uncletopia | Chicago | 4 | All Maps","name_short":"chi-4","host":"chi-1.us.uncletopia.com","port":27045,"enabled":true,"region":"us-central","cc":"us","latitude":41.881832,"longitude":-87.62318,"reserved":0,"last_update":"0001-01-01T00:00:00Z","name_a2s":"Uncletopia | Chicago | 4 | All Maps","protocol":17,"map":"cp_dustbowl","folder":"tf","game":"Team Fortress","app_id":440,"player_count":23,"max_players":24,"Bots":0,"server_type":"Dedicated","server_os":"Linux","password":true,"vac":true,"version":"7932396","steam_id":85568392924515193,"keywords":["cp","nocrits","nodmgspread","uncletopia"],"game_id":440,"stv_port":27046,"stv_name":"Uncletopia | Chicago | 4 | All Maps | STV","players":[{"user_id":367,"name":"Kidjays","steam_id":76561198124941901,"connected_time":1141000000000,"state":"active","ping":95},{"user_id":356,"name":"Wiscipline","steam_id":76561198019206178,"connected_time":2123000000000,"state":"active","ping":77},{"user_id":368,"name":"Human Topicality Violation","steam_id":76561197991710942,"connected_time":1120000000000,"state":"active","ping":69},{"user_id":330,"name":"hej","steam_id":76561197996366940,"connected_time":3161000000000,"state":"active","ping":60},{"user_id":374,"name":"Mehman","steam_id":76561199020244051,"connected_time":307000000000,"state":"active","ping":98},{"user_id":379,"name":"anonpain","steam_id":76561198081317092,"connected_time":220000000000,"state":"active","ping":58},{"user_id":375,"name":"duck, duck, LOVE","steam_id":76561198010706701,"connected_time":288000000000,"state":"active","ping":74},{"user_id":376,"name":"gorf?","steam_id":76561198142286417,"connected_time":287000000000,"state":"active","ping":59},{"user_id":365,"name":"pinglefingle","steam_id":76561198216580197,"connected_time":1250000000000,"state":"active","ping":86},{"user_id":344,"name":"Tenna","steam_id":76561198052020077,"connected_time":2343000000000,"state":"active","ping":90},{"user_id":371,"name":"You","steam_id":76561198154209806,"connected_time":992000000000,"state":"active","ping":60},{"user_id":377,"name":"malarkeyman","steam_id":76561198844473584,"connected_time":279000000000,"state":"active","ping":64},{"user_id":383,"name":"Elm","steam_id":76561198127972568,"connected_time":81000000000,"state":"active","ping":71},{"user_id":360,"name":"Dr. Dick","steam_id":76561198138011922,"connected_time":1705000000000,"state":"active","ping":70},{"user_id":306,"name":"Waddlehi","steam_id":76561198072553840,"connected_time":4594000000000,"state":"active","ping":63},{"user_id":362,"name":"Swash","steam_id":76561197969421355,"connected_time":1618000000000,"state":"active","ping":50},{"user_id":380,"name":"donk","steam_id":76561198097138000,"connected_time":213000000000,"state":"active","ping":61},{"user_id":354,"name":"Breach","steam_id":76561198045060392,"connected_time":2154000000000,"state":"active","ping":45},{"user_id":382,"name":"sartre","steam_id":76561198885376777,"connected_time":139000000000,"state":"active","ping":65},{"user_id":346,"name":"conner","steam_id":76561198052911241,"connected_time":2331000000000,"state":"active","ping":75},{"user_id":329,"name":"MedRed™ #IATAH","steam_id":76561198002962970,"connected_time":3282000000000,"state":"active","ping":92},{"user_id":363,"name":"raya","steam_id":76561198051504581,"connected_time":1589000000000,"state":"active","ping":68},{"user_id":366,"name":"Lia_Rein","steam_id":76561198151569597,"connected_time":1223000000000,"state":"active","ping":157}]},{"server_id":36,"name":"Uncletopia | Chicago | 5 | All Maps","name_short":"chi-5","host":"chi-2.us.uncletopia.com","port":27015,"enabled":true,"region":"us-central","cc":"us","latitude":41.881832,"longitude":-87.62318,"reserved":0,"last_update":"0001-01-01T00:00:00Z","name_a2s":"Uncletopia | Chicago | 5 | All Maps","protocol":17,"map":"cp_dustbowl","folder":"tf","game":"Team Fortress","app_id":440,"player_count":24,"max_players":24,"Bots":0,"server_type":"Dedicated","server_os":"Linux","password":true,"vac":true,"version":"7932396","steam_id":85568392924866362,"keywords":["cp","nocrits","nodmgspread","uncletopia"],"game_id":440,"stv_port":27016,"stv_name":"Uncletopia | Chicago | 5 | All Maps | STV","players":[{"user_id":373,"name":"com lag","steam_id":76561198019019392,"connected_time":1436000000000,"state":"active","ping":45},{"user_id":348,"name":"gmele1","steam_id":76561199219013004,"connected_time":2608000000000,"state":"active","ping":76},{"user_id":379,"name":"Milkmur","steam_id":76561198210043821,"connected_time":196000000000,"state":"active","ping":71},{"user_id":282,"name":"Liebesträume","steam_id":76561198038862034,"connected_time":8116000000000,"state":"active","ping":95},{"user_id":383,"name":"NUt","steam_id":76561198031007966,"connected_time":151000000000,"state":"active","ping":75},{"user_id":136,"name":"b3afy","steam_id":76561198084208649,"connected_time":19410000000000,"state":"active","ping":92},{"user_id":371,"name":"-","steam_id":76561198057717934,"connected_time":1451000000000,"state":"active","ping":60},{"user_id":341,"name":"the scrungly","steam_id":76561198275728291,"connected_time":3178000000000,"state":"active","ping":51},{"user_id":351,"name":"Sponge","steam_id":76561198099024378,"connected_time":2484000000000,"state":"active","ping":69},{"user_id":346,"name":"Luther_51","steam_id":76561198042994473,"connected_time":2667000000000,"state":"active","ping":85},{"user_id":372,"name":"Cherry Coke","steam_id":76561198178233006,"connected_time":1451000000000,"state":"active","ping":44},{"user_id":381,"name":"saggysage","steam_id":76561198249808678,"connected_time":181000000000,"state":"active","ping":94},{"user_id":330,"name":"eish","steam_id":76561198089463603,"connected_time":3269000000000,"state":"active","ping":131},{"user_id":384,"name":"LProduct","steam_id":76561199442139670,"connected_time":95000000000,"state":"active","ping":151},{"user_id":337,"name":"Farm3rJh0nson","steam_id":76561199166153873,"connected_time":3234000000000,"state":"active","ping":81},{"user_id":349,"name":"steakfarmasian","steam_id":76561198212754036,"connected_time":2588000000000,"state":"active","ping":52},{"user_id":385,"name":"jimmyfnaf172198yay","steam_id":76561198311446636,"connected_time":74000000000,"state":"active","ping":60},{"user_id":378,"name":"Smeller","steam_id":76561198041767882,"connected_time":1030000000000,"state":"active","ping":56},{"user_id":353,"name":"I have no idea what I am doing?","steam_id":76561198093152207,"connected_time":2389000000000,"state":"active","ping":73},{"user_id":375,"name":"Java_Siege_","steam_id":76561199090000728,"connected_time":1427000000000,"state":"active","ping":80},{"user_id":386,"name":"Satchamo","steam_id":76561198012968239,"connected_time":67000000000,"state":"active","ping":75},{"user_id":387,"name":"Joe Family guy","steam_id":76561198065327106,"connected_time":46000000000,"state":"active","ping":84},{"user_id":388,"name":"MortusMelee","steam_id":76561198038434895,"connected_time":34000000000,"state":"active","ping":92},{"user_id":382,"name":"Skendiesel","steam_id":76561198015497676,"connected_time":178000000000,"state":"active","ping":50}]},{"server_id":37,"name":"Uncletopia | Chicago | 6 | All Maps","name_short":"chi-6","host":"chi-2.us.uncletopia.com","port":27025,"enabled":true,"region":"us-central","cc":"us","latitude":41.881832,"longitude":-87.62318,"reserved":0,"last_update":"0001-01-01T00:00:00Z","name_a2s":"Uncletopia | Chicago | 6 | All Maps","protocol":17,"map":"pl_swiftwater_final1","folder":"tf","game":"Team Fortress","app_id":440,"player_count":23,"max_players":24,"Bots":0,"server_type":"Dedicated","server_os":"Linux","password":true,"vac":true,"version":"7932396","steam_id":85568392924866363,"keywords":["nocrits","nodmgspread","payload","uncletopia"],"game_id":440,"stv_port":27026,"stv_name":"Uncletopia | Chicago | 6 | All Maps | STV","players":[{"user_id":471,"name":"sankara","steam_id":76561198013806060,"connected_time":1008000000000,"state":"active","ping":60},{"user_id":459,"name":"fire_ev","steam_id":76561198070022462,"connected_time":2705000000000,"state":"active","ping":69},{"user_id":442,"name":"Snoopy","steam_id":76561198273735974,"connected_time":3943000000000,"state":"active","ping":109},{"user_id":476,"name":"log","steam_id":76561198977633937,"connected_time":58000000000,"state":"active","ping":59},{"user_id":473,"name":"meo ♥","steam_id":76561197992719272,"connected_time":597000000000,"state":"active","ping":53},{"user_id":445,"name":"SuperNovaFox","steam_id":76561198052172564,"connected_time":3915000000000,"state":"active","ping":69},{"user_id":467,"name":"pregame looser","steam_id":76561198075216115,"connected_time":1259000000000,"state":"active","ping":135},{"user_id":464,"name":"ATL1 | SparkStorm","steam_id":76561198095817025,"connected_time":1968000000000,"state":"active","ping":49},{"user_id":472,"name":"IMM0RTAL","steam_id":76561198013747901,"connected_time":817000000000,"state":"active","ping":74},{"user_id":449,"name":"John16Mark","steam_id":76561198119445407,"connected_time":3789000000000,"state":"active","ping":89},{"user_id":462,"name":"swan","steam_id":76561198012569200,"connected_time":2414000000000,"state":"active","ping":75},{"user_id":450,"name":"RedSock","steam_id":76561198161243404,"connected_time":3763000000000,"state":"active","ping":41},{"user_id":451,"name":"eveie0mlets","steam_id":76561198259172011,"connected_time":3744000000000,"state":"active","ping":80},{"user_id":452,"name":"Melody","steam_id":76561198407789232,"connected_time":3712000000000,"state":"active","ping":117},{"user_id":470,"name":"I \u003c3 MEN","steam_id":76561198346244125,"connected_time":1214000000000,"state":"active","ping":110},{"user_id":386,"name":"daemon","steam_id":76561198001541433,"connected_time":7873000000000,"state":"active","ping":59},{"user_id":478,"name":"Double Dip","steam_id":76561198067483536,"connected_time":4000000000,"state":"spawning","ping":44},{"user_id":455,"name":"Sky!","steam_id":76561198141953747,"connected_time":3695000000000,"state":"active","ping":63},{"user_id":433,"name":"Stranger in a Strange Land","steam_id":76561198049843671,"connected_time":4760000000000,"state":"active","ping":71},{"user_id":469,"name":"soof","steam_id":76561198043762955,"connected_time":1254000000000,"state":"active","ping":67},{"user_id":461,"name":"ShadozoneX","steam_id":76561198255452404,"connected_time":2646000000000,"state":"active","ping":74},{"user_id":475,"name":"Strangelove","steam_id":76561198353773611,"connected_time":525000000000,"state":"active","ping":86},{"user_id":394,"name":"notdoxed","steam_id":76561197992591404,"connected_time":6978000000000,"state":"active","ping":57}]},{"server_id":38,"name":"Uncletopia | Chicago | 7 | Stopwatch Beta","name_short":"chi-7","host":"chi-2.us.uncletopia.com","port":27035,"enabled":true,"region":"us-central","cc":"us","latitude":41.881832,"longitude":-87.62318,"reserved":0,"last_update":"0001-01-01T00:00:00Z","name_a2s":"Uncletopia | Chicago | 7 | Stopwatch Beta","protocol":17,"map":"pl_borneo","folder":"tf","game":"Team Fortress","app_id":440,"player_count":0,"max_players":24,"Bots":0,"server_type":"Dedicated","server_os":"Linux","password":true,"vac":true,"version":"7932396","steam_id":85568392924866364,"keywords":["nocrits","nodmgspread","payload","uncletopia"],"game_id":440,"stv_port":27036,"stv_name":"Uncletopia | Chicago | 7 | Stopwatch Beta | STV","players":null},{"server_id":39,"name":"Uncletopia | Chicago | 8 | Community","name_short":"chi-8","host":"chi-2.us.uncletopia.com","port":27045,"enabled":true,"region":"us-central","cc":"us","latitude":41.881832,"longitude":-87.62318,"reserved":0,"last_update":"0001-01-01T00:00:00Z","name_a2s":"Uncletopia | Chicago | 8 | Community","protocol":17,"map":"workshop/pl_shoreleave_rc2.ugc1238849347","folder":"tf","game":"Team Fortress","app_id":440,"player_count":24,"max_players":24,"Bots":0,"server_type":"Dedicated","server_os":"Linux","password":true,"vac":true,"version":"7932396","steam_id":85568392924866365,"keywords":["nocrits","nodmgspread","payload","uncletopia"],"game_id":440,"stv_port":27046,"stv_name":"Uncletopia | Chicago | 8 | Community | STV","players":[{"user_id":513,"name":"xLeoparrd","steam_id":76561198940657194,"connected_time":759000000000,"state":"active","ping":76},{"user_id":499,"name":"Alan","steam_id":76561198977083959,"connected_time":1872000000000,"state":"active","ping":104},{"user_id":512,"name":"kazoo2","steam_id":76561198260473504,"connected_time":840000000000,"state":"active","ping":84},{"user_id":514,"name":"Kalmaro","steam_id":76561198097425350,"connected_time":752000000000,"state":"active","ping":53},{"user_id":478,"name":"CharredSoup","steam_id":76561199184482525,"connected_time":2682000000000,"state":"active","ping":98},{"user_id":491,"name":"Kuwait Grips","steam_id":76561198292689973,"connected_time":2369000000000,"state":"active","ping":52},{"user_id":500,"name":"Wandows95","steam_id":76561198029042032,"connected_time":1766000000000,"state":"active","ping":113},{"user_id":515,"name":"TechnoBear2099","steam_id":76561198238863596,"connected_time":707000000000,"state":"active","ping":74},{"user_id":481,"name":"DJ Chalice","steam_id":76561197974872458,"connected_time":2562000000000,"state":"active","ping":73},{"user_id":516,"name":"to sem ideia #savetf2","steam_id":76561199052177486,"connected_time":696000000000,"state":"active","ping":265},{"user_id":479,"name":"NeonBean","steam_id":76561198088335827,"connected_time":2680000000000,"state":"active","ping":94},{"user_id":510,"name":"Vari[X]x","steam_id":76561197960474838,"connected_time":984000000000,"state":"active","ping":79},{"user_id":482,"name":"GRONT","steam_id":76561198040464533,"connected_time":2562000000000,"state":"active","ping":82},{"user_id":436,"name":"Seakeal","steam_id":76561198069388472,"connected_time":4342000000000,"state":"active","ping":58},{"user_id":485,"name":"dohnuts","steam_id":76561198025965230,"connected_time":2485000000000,"state":"active","ping":84},{"user_id":437,"name":"Spyfall","steam_id":76561198081729993,"connected_time":4331000000000,"state":"active","ping":85},{"user_id":486,"name":"VertexVortex","steam_id":76561198093646990,"connected_time":2439000000000,"state":"active","ping":109},{"user_id":505,"name":"Aeris","steam_id":76561198287271028,"connected_time":1389000000000,"state":"active","ping":63},{"user_id":517,"name":"HaveADay","steam_id":76561198001086219,"connected_time":678000000000,"state":"active","ping":78},{"user_id":511,"name":"yaldabaoth","steam_id":76561198084606869,"connected_time":884000000000,"state":"active","ping":48},{"user_id":503,"name":"Heathcliff","steam_id":76561198044288534,"connected_time":1535000000000,"state":"active","ping":96},{"user_id":504,"name":"root","steam_id":76561198001727518,"connected_time":1477000000000,"state":"active","ping":79},{"user_id":498,"name":"Shinies","steam_id":76561198169459631,"connected_time":1990000000000,"state":"active","ping":71},{"user_id":507,"name":"Aeonspassed","steam_id":76561198014016451,"connected_time":1223000000000,"state":"active","ping":60}]},{"server_id":8,"name":"Uncletopia | Dallas | 1 | All Maps","name_short":"dal-1","host":"dal-1.us.uncletopia.com","port":27015,"enabled":true,"region":"us-central","cc":"us","latitude":32.779167,"longitude":-96.80889,"reserved":0,"last_update":"0001-01-01T00:00:00Z","name_a2s":"Uncletopia | Dallas | 1 | All Maps","protocol":17,"map":"cp_steel","folder":"tf","game":"Team Fortress","app_id":440,"player_count":24,"max_players":24,"Bots":0,"server_type":"Dedicated","server_os":"Linux","password":true,"vac":true,"version":"7932396","steam_id":85568392924469986,"keywords":["cp","nocrits","nodmgspread","uncletopia"],"game_id":440,"stv_port":27016,"stv_name":"Uncletopia | Dallas | 1 | All Maps | STV","players":[{"user_id":340,"name":"Greg Boberton 2012","steam_id":76561198983566026,"connected_time":2628000000000,"state":"active","ping":89},{"user_id":365,"name":"Tritium","steam_id":76561198043305626,"connected_time":866000000000,"state":"active","ping":96},{"user_id":302,"name":"Insizhen","steam_id":76561198051352605,"connected_time":5369000000000,"state":"active","ping":58},{"user_id":368,"name":"MagicalBoyChan","steam_id":76561198024776873,"connected_time":501000000000,"state":"active","ping":158},{"user_id":353,"name":"Cutcleaner","steam_id":76561199000925667,"connected_time":1510000000000,"state":"active","ping":94},{"user_id":272,"name":"Pinetree w/ apples.","steam_id":76561198105411709,"connected_time":8641000000000,"state":"active","ping":110},{"user_id":322,"name":"Bogey","steam_id":76561198096227944,"connected_time":4988000000000,"state":"active","ping":45},{"user_id":357,"name":"David De Bergerac","steam_id":76561198010306294,"connected_time":1403000000000,"state":"active","ping":91},{"user_id":347,"name":"D. Elkan","steam_id":76561198036948733,"connected_time":2344000000000,"state":"active","ping":94},{"user_id":351,"name":"Maid Knight","steam_id":76561198214370515,"connected_time":1671000000000,"state":"active","ping":98},{"user_id":321,"name":"Bocchers From Bocchi The Rock","steam_id":76561198986388085,"connected_time":4997000000000,"state":"active","ping":109},{"user_id":359,"name":"Flint","steam_id":76561198148412420,"connected_time":1364000000000,"state":"active","ping":76},{"user_id":308,"name":"Xiii","steam_id":76561198342531692,"connected_time":5252000000000,"state":"active","ping":71},{"user_id":369,"name":"bred","steam_id":76561198408673781,"connected_time":496000000000,"state":"active","ping":60},{"user_id":360,"name":"get with it","steam_id":76561198286627157,"connected_time":1344000000000,"state":"active","ping":81},{"user_id":366,"name":"pogo","steam_id":76561198161403931,"connected_time":844000000000,"state":"active","ping":31},{"user_id":328,"name":"Mindstrain","steam_id":76561199274044215,"connected_time":4107000000000,"state":"active","ping":82},{"user_id":370,"name":"Rudy","steam_id":76561198013456828,"connected_time":380000000000,"state":"active","ping":83},{"user_id":316,"name":"peebs","steam_id":76561198261319753,"connected_time":5102000000000,"state":"active","ping":56},{"user_id":287,"name":"♦","steam_id":76561198114471719,"connected_time":7167000000000,"state":"active","ping":74},{"user_id":367,"name":"Sheev Palpatine","steam_id":76561198252332430,"connected_time":806000000000,"state":"active","ping":107},{"user_id":282,"name":"MILF-Hunting Wizard","steam_id":76561198113748347,"connected_time":7605000000000,"state":"active","ping":73},{"user_id":362,"name":"spaceboots","steam_id":76561197977322319,"connected_time":1200000000000,"state":"active","ping":61},{"user_id":348,"name":"Evangelion","steam_id":76561198059690074,"connected_time":2041000000000,"state":"active","ping":56}]},{"server_id":108,"name":"Uncletopia | Dallas | 2 | All Maps","name_short":"dal-2","host":"dal-1.us.uncletopia.com","port":27025,"enabled":true,"region":"us-central","cc":"us","latitude":32.779167,"longitude":-96.80889,"reserved":0,"last_update":"0001-01-01T00:00:00Z","name_a2s":"Uncletopia | Dallas | 2 | All Maps","protocol":17,"map":"ctf_turbine","folder":"tf","game":"Team Fortress","app_id":440,"player_count":24,"max_players":24,"Bots":0,"server_type":"Dedicated","server_os":"Linux","password":true,"vac":true,"version":"7932396","steam_id":85568392924469988,"keywords":["ctf","nocrits","nodmgspread","uncletopia"],"game_id":440,"stv_port":27026,"stv_name":"Uncletopia | Dallas | 2 | All Maps | STV","players":[{"user_id":195,"name":"Redguardowen","steam_id":76561198176957862,"connected_time":1012000000000,"state":"active","ping":57},{"user_id":212,"name":"Jimbo99","steam_id":76561198225114256,"connected_time":273000000000,"state":"active","ping":46},{"user_id":199,"name":"aisu","steam_id":76561198043768507,"connected_time":661000000000,"state":"active","ping":79},{"user_id":188,"name":"Agent Bowtie","steam_id":76561198175839279,"connected_time":1931000000000,"state":"active","ping":57},{"user_id":175,"name":"Tommy Provolone","steam_id":76561198170062377,"connected_time":3066000000000,"state":"active","ping":68},{"user_id":201,"name":"HanakoToast","steam_id":76561198045233131,"connected_time":615000000000,"state":"active","ping":81},{"user_id":114,"name":"Bullwinkle J. Moose","steam_id":76561198075977196,"connected_time":8082000000000,"state":"active","ping":56},{"user_id":180,"name":"shelf","steam_id":76561198260021696,"connected_time":2789000000000,"state":"active","ping":103},{"user_id":206,"name":"Darakrish","steam_id":76561198133126686,"connected_time":449000000000,"state":"active","ping":86},{"user_id":205,"name":"Pie™","steam_id":76561198158312625,"connected_time":461000000000,"state":"active","ping":120},{"user_id":204,"name":"Deaddropping","steam_id":76561198043711366,"connected_time":554000000000,"state":"active","ping":75},{"user_id":214,"name":"Sky","steam_id":76561198097549374,"connected_time":71000000000,"state":"active","ping":100},{"user_id":213,"name":"artichoke","steam_id":76561198980994364,"connected_time":268000000000,"state":"active","ping":104},{"user_id":193,"name":"jandajanda","steam_id":76561198235722476,"connected_time":1204000000000,"state":"active","ping":75},{"user_id":185,"name":"[FOFS]billyburl","steam_id":76561198079535159,"connected_time":2102000000000,"state":"active","ping":80},{"user_id":198,"name":"mcjabba","steam_id":76561198019267806,"connected_time":879000000000,"state":"active","ping":159},{"user_id":183,"name":"GoiDimLi","steam_id":76561198053286433,"connected_time":2618000000000,"state":"active","ping":150},{"user_id":209,"name":"Jux","steam_id":76561198119502356,"connected_time":406000000000,"state":"active","ping":107},{"user_id":197,"name":"MeMyBongusAndTheGreatOutdoors","steam_id":76561198097708978,"connected_time":979000000000,"state":"active","ping":46},{"user_id":210,"name":"Kid B8","steam_id":76561198086764710,"connected_time":371000000000,"state":"active","ping":76},{"user_id":169,"name":"Sableye","steam_id":76561198061247147,"connected_time":3719000000000,"state":"active","ping":71},{"user_id":215,"name":"Rowdyshark101","steam_id":76561199019123695,"connected_time":32000000000,"state":"active","ping":65},{"user_id":88,"name":"nori_420","steam_id":76561199117134203,"connected_time":10254000000000,"state":"active","ping":85},{"user_id":192,"name":"Bean Marrow","steam_id":76561198116650223,"connected_time":1453000000000,"state":"active","ping":69}]},{"server_id":5,"name":"Uncletopia | Frankfurt | 1 | All Maps","name_short":"frk-1","host":"frk-1.de.uncletopia.com","port":27015,"enabled":true,"region":"eu","cc":"de","latitude":50.110924,"longitude":8.682127,"reserved":0,"last_update":"0001-01-01T00:00:00Z","name_a2s":"Uncletopia | Frankfurt | 1 | All Maps","protocol":17,"map":"koth_highpass","folder":"tf","game":"Team Fortress","app_id":440,"player_count":0,"max_players":24,"Bots":0,"server_type":"Dedicated","server_os":"Linux","password":true,"vac":true,"version":"7932396","steam_id":85568392924469989,"keywords":["cp","nocrits","nodmgspread","uncletopia"],"game_id":440,"stv_port":27016,"stv_name":"Uncletopia | Frankfurt | 1 | All Maps | STV","players":null},{"server_id":110,"name":"Uncletopia | Frankfurt | 2 | All Maps","name_short":"frk-2","host":"frk-1.de.uncletopia.com","port":27025,"enabled":true,"region":"eu","cc":"de","latitude":50.110924,"longitude":8.682127,"reserved":0,"last_update":"0001-01-01T00:00:00Z","name_a2s":"Uncletopia | Frankfurt | 2 | All Maps","protocol":17,"map":"pl_pier","folder":"tf","game":"Team Fortress","app_id":440,"player_count":0,"max_players":24,"Bots":0,"server_type":"Dedicated","server_os":"Linux","password":true,"vac":true,"version":"7932396","steam_id":85568392924469990,"keywords":["nocrits","nodmgspread","payload","uncletopia"],"game_id":440,"stv_port":27026,"stv_name":"Uncletopia | Frankfurt | 2 | All Maps | STV","players":null},{"server_id":308,"name":"Uncletopia | Frankfurt | 3 | All Maps","name_short":"frk-3","host":"frk-1.de.uncletopia.com","port":27035,"enabled":true,"region":"eu","cc":"de","latitude":50.110924,"longitude":8.682127,"reserved":0,"last_update":"0001-01-01T00:00:00Z","name_a2s":"Uncletopia | Frankfurt | 3 | All Maps","protocol":17,"map":"koth_cascade","folder":"tf","game":"Team Fortress","app_id":440,"player_count":0,"max_players":24,"Bots":0,"server_type":"Dedicated","server_os":"Linux","password":true,"vac":true,"version":"7932396","steam_id":85568392924504274,"keywords":["cp","nocrits","nodmgspread","uncletopia"],"game_id":440,"stv_port":27036,"stv_name":"Uncletopia | Frankfurt | 3 | All Maps | STV","players":null},{"server_id":309,"name":"Uncletopia | Frankfurt | 4 | All Maps","name_short":"frk-4","host":"frk-1.de.uncletopia.com","port":27045,"enabled":true,"region":"eu","cc":"de","latitude":50.110924,"longitude":8.682127,"reserved":0,"last_update":"0001-01-01T00:00:00Z","name_a2s":"Uncletopia | Frankfurt | 4 | All Maps","protocol":17,"map":"pl_snowycoast","folder":"tf","game":"Team Fortress","app_id":440,"player_count":0,"max_players":24,"Bots":0,"server_type":"Dedicated","server_os":"Linux","password":true,"vac":true,"version":"7932396","steam_id":85568392924504275,"keywords":["nocrits","nodmgspread","payload","uncletopia"],"game_id":440,"stv_port":27046,"stv_name":"Uncletopia | Frankfurt | 4 | All Maps | STV","players":null},{"server_id":310,"name":"Uncletopia | Frankfurt | 5 | All Maps","name_short":"frk-5","host":"frk-1.de.uncletopia.com","port":27055,"enabled":true,"region":"eu","cc":"de","latitude":50.110924,"longitude":8.682127,"reserved":0,"last_update":"0001-01-01T00:00:00Z","name_a2s":"Uncletopia | Frankfurt | 5 | All Maps","protocol":17,"map":"koth_highpass","folder":"tf","game":"Team Fortress","app_id":440,"player_count":0,"max_players":24,"Bots":0,"server_type":"Dedicated","server_os":"Linux","password":true,"vac":true,"version":"7932396","steam_id":85568392924504277,"keywords":["cp","nocrits","nodmgspread","uncletopia"],"game_id":440,"stv_port":27056,"stv_name":"Uncletopia | Frankfurt | 5 | All Maps | STV","players":null},{"server_id":311,"name":"Uncletopia | Frankfurt | 6 | All Maps","name_short":"frk-6","host":"frk-1.de.uncletopia.com","port":27065,"enabled":true,"region":"eu","cc":"de","latitude":50.110924,"longitude":8.682127,"reserved":0,"last_update":"0001-01-01T00:00:00Z","name_a2s":"Uncletopia | Frankfurt | 6 | All Maps","protocol":17,"map":"koth_highpass","folder":"tf","game":"Team Fortress","app_id":440,"player_count":0,"max_players":24,"Bots":0,"server_type":"Dedicated","server_os":"Linux","password":true,"vac":true,"version":"7932396","steam_id":85568392924504278,"keywords":["cp","nocrits","nodmgspread","uncletopia"],"game_id":440,"stv_port":27066,"stv_name":"Uncletopia | Frankfurt | 6 | All Maps | STV","players":null},{"server_id":23,"name":"Uncletopia | Frankfurt | 7 | Stopwatch Beta","name_short":"frk-7","host":"frk-1.de.uncletopia.com","port":27075,"enabled":true,"region":"eu","cc":"de","latitude":50.110924,"longitude":8.682127,"reserved":0,"last_update":"0001-01-01T00:00:00Z","name_a2s":"Uncletopia | Frankfurt | 7 | Stopwatch Beta","protocol":17,"map":"pl_snowycoast","folder":"tf","game":"Team Fortress","app_id":440,"player_count":0,"max_players":24,"Bots":0,"server_type":"Dedicated","server_os":"Linux","password":true,"vac":true,"version":"7932396","steam_id":85568392924742827,"keywords":["nocrits","nodmgspread","payload","uncletopia"],"game_id":440,"stv_port":27076,"stv_name":"Uncletopia | Frankfurt | 7 | Stopwatch Beta | STV","players":null},{"server_id":24,"name":"Uncletopia | Frankfurt | 8 | Community","name_short":"frk-8","host":"frk-1.de.uncletopia.com","port":27085,"enabled":true,"region":"eu","cc":"de","latitude":50.110924,"longitude":8.682127,"reserved":0,"last_update":"0001-01-01T00:00:00Z","name_a2s":"Uncletopia | Frankfurt | 8 | Community","protocol":17,"map":"workshop/koth_ashville_final.ugc2130459942","folder":"tf","game":"Team Fortress","app_id":440,"player_count":0,"max_players":24,"Bots":0,"server_type":"Dedicated","server_os":"Linux","password":true,"vac":true,"version":"7932396","steam_id":85568392924742828,"keywords":["cp","nocrits","nodmgspread","uncletopia"],"game_id":440,"stv_port":27086,"stv_name":"Uncletopia | Frankfurt | 8 | Community | STV","players":null},{"server_id":202,"name":"Uncletopia | Hong Kong | 1 | All Maps","name_short":"hgk-1","host":"hgk-1.hk.uncletopia.com","port":27015,"enabled":true,"region":"asia","cc":"hk","latitude":22.302711,"longitude":114.177216,"reserved":0,"last_update":"0001-01-01T00:00:00Z","name_a2s":"Uncletopia | Hong Kong | 1 | All Maps","protocol":17,"map":"koth_cascade","folder":"tf","game":"Team Fortress","app_id":440,"player_count":1,"max_players":24,"Bots":0,"server_type":"Dedicated","server_os":"Linux","password":true,"vac":true,"version":"7932396","steam_id":85568392924494504,"keywords":["cp","nocrits","nodmgspread","uncletopia"],"game_id":440,"stv_port":27016,"stv_name":"Uncletopia | Hong Kong | 1 | All Maps | STV","players":[{"user_id":11,"name":"MS PowerPoint","steam_id":76561198369523192,"connected_time":110000000000,"state":"active","ping":68}]},{"server_id":1,"name":"Uncletopia | Los Angeles | 1 | All Maps","name_short":"lax-1","host":"lax-1.us.uncletopia.com","port":27015,"enabled":true,"region":"us-west","cc":"us","latitude":33.94279,"longitude":-118.41004,"reserved":0,"last_update":"0001-01-01T00:00:00Z","name_a2s":"Uncletopia | Los Angeles | 1 | All Maps","protocol":17,"map":"cp_steel","folder":"tf","game":"Team Fortress","app_id":440,"player_count":24,"max_players":24,"Bots":0,"server_type":"Dedicated","server_os":"Linux","password":true,"vac":true,"version":"7932396","steam_id":85568392924469991,"keywords":["cp","nocrits","nodmgspread","uncletopia"],"game_id":440,"stv_port":27016,"stv_name":"Uncletopia | Los Angeles | 1 | All Maps | STV","players":[{"user_id":168,"name":"you little stinky fart","steam_id":76561199053410152,"connected_time":680000000000,"state":"active","ping":67},{"user_id":184,"name":"Lord Boaretheus","steam_id":76561198963410515,"connected_time":262000000000,"state":"active","ping":114},{"user_id":146,"name":"Pixeled","steam_id":76561198088917077,"connected_time":1982000000000,"state":"active","ping":112},{"user_id":186,"name":"garbo","steam_id":76561198149280150,"connected_time":246000000000,"state":"active","ping":48},{"user_id":77,"name":"Moonlily","steam_id":76561198852670061,"connected_time":8102000000000,"state":"active","ping":97},{"user_id":117,"name":"Fishandfish","steam_id":76561198298483804,"connected_time":4144000000000,"state":"active","ping":72},{"user_id":180,"name":"WhosTopsy","steam_id":76561199095588866,"connected_time":330000000000,"state":"active","ping":62},{"user_id":172,"name":"Rose","steam_id":76561198955581861,"connected_time":548000000000,"state":"active","ping":50},{"user_id":192,"name":"Lucide","steam_id":76561197998530400,"connected_time":184000000000,"state":"active","ping":64},{"user_id":147,"name":"Blue","steam_id":76561199093604072,"connected_time":1978000000000,"state":"active","ping":105},{"user_id":181,"name":"throat_man","steam_id":76561199321657653,"connected_time":285000000000,"state":"active","ping":55},{"user_id":193,"name":"George Lopez","steam_id":76561198276416876,"connected_time":134000000000,"state":"active","ping":51},{"user_id":178,"name":"Jayden","steam_id":76561198121014332,"connected_time":384000000000,"state":"active","ping":118},{"user_id":170,"name":"SanitysEdge","steam_id":76561198130732813,"connected_time":649000000000,"state":"active","ping":49},{"user_id":176,"name":"Sidehustle","steam_id":76561198131018689,"connected_time":422000000000,"state":"active","ping":58},{"user_id":183,"name":"thisisSteve","steam_id":76561198420882318,"connected_time":280000000000,"state":"active","ping":58},{"user_id":154,"name":"kr1tsurf3r","steam_id":76561198076402476,"connected_time":1742000000000,"state":"active","ping":64},{"user_id":190,"name":"Ralph Kramden (Slim Charles)","steam_id":76561197981687895,"connected_time":196000000000,"state":"active","ping":62},{"user_id":135,"name":"Mr. Carfox","steam_id":76561198041664428,"connected_time":3210000000000,"state":"active","ping":60},{"user_id":187,"name":"jdazed","steam_id":76561198128334738,"connected_time":230000000000,"state":"active","ping":59},{"user_id":169,"name":"wugmup","steam_id":76561199096287734,"connected_time":677000000000,"state":"active","ping":71},{"user_id":188,"name":"MALWARE9000","steam_id":76561198065238093,"connected_time":230000000000,"state":"active","ping":99},{"user_id":189,"name":"Fostrel","steam_id":76561198152160601,"connected_time":224000000000,"state":"active","ping":112},{"user_id":191,"name":"Nooblord","steam_id":76561199105123730,"connected_time":188000000000,"state":"active","ping":87}]},{"server_id":112,"name":"Uncletopia | Los Angeles | 2 | All Maps","name_short":"lax-2","host":"lax-1.us.uncletopia.com","port":27025,"enabled":true,"region":"us-west","cc":"us","latitude":33.94279,"longitude":-118.41004,"reserved":0,"last_update":"0001-01-01T00:00:00Z","name_a2s":"Uncletopia | Los Angeles | 2 | All Maps","protocol":17,"map":"pl_frontier_final","folder":"tf","game":"Team Fortress","app_id":440,"player_count":24,"max_players":24,"Bots":0,"server_type":"Dedicated","server_os":"Linux","password":true,"vac":true,"version":"7932396","steam_id":85568392924469992,"keywords":["nocrits","nodmgspread","payload","uncletopia"],"game_id":440,"stv_port":27026,"stv_name":"Uncletopia | Los Angeles | 2 | All Maps | STV","players":[{"user_id":333,"name":"McDonald","steam_id":76561199028533497,"connected_time":194000000000,"state":"active","ping":49},{"user_id":334,"name":"BILL KAZMAIER'S FOREARMS","steam_id":76561197994418884,"connected_time":192000000000,"state":"active","ping":105},{"user_id":284,"name":"HeathGeath","steam_id":76561198127484580,"connected_time":2616000000000,"state":"active","ping":45},{"user_id":328,"name":"Vladimir Chirgin","steam_id":76561198170035235,"connected_time":249000000000,"state":"active","ping":84},{"user_id":327,"name":"Blind Ghost","steam_id":76561198060980791,"connected_time":260000000000,"state":"active","ping":116},{"user_id":329,"name":"golia","steam_id":76561198000264266,"connected_time":233000000000,"state":"active","ping":66},{"user_id":318,"name":"kingcab","steam_id":76561197998531589,"connected_time":711000000000,"state":"active","ping":87},{"user_id":319,"name":"Blitzy","steam_id":76561198149472890,"connected_time":692000000000,"state":"active","ping":92},{"user_id":286,"name":"cass","steam_id":76561198074502046,"connected_time":2493000000000,"state":"active","ping":130},{"user_id":287,"name":"123","steam_id":76561198106308056,"connected_time":2464000000000,"state":"active","ping":178},{"user_id":308,"name":"Mico (Mico)","steam_id":76561198125462953,"connected_time":1934000000000,"state":"active","ping":66},{"user_id":264,"name":"breakfast","steam_id":76561198043712978,"connected_time":4049000000000,"state":"active","ping":63},{"user_id":214,"name":"TORN RETINAS","steam_id":76561198033822457,"connected_time":8042000000000,"state":"active","ping":98},{"user_id":330,"name":"Seanvich","steam_id":76561198065805500,"connected_time":229000000000,"state":"active","ping":97},{"user_id":325,"name":"Bonk Co.","steam_id":76561198009355408,"connected_time":480000000000,"state":"active","ping":64},{"user_id":322,"name":"framp down","steam_id":76561198006316527,"connected_time":670000000000,"state":"active","ping":62},{"user_id":297,"name":"scamchez","steam_id":76561198447562701,"connected_time":2116000000000,"state":"active","ping":71},{"user_id":315,"name":"Lex","steam_id":76561198069948353,"connected_time":1065000000000,"state":"active","ping":96},{"user_id":331,"name":"Sh3ba Spaniel","steam_id":76561198047412394,"connected_time":224000000000,"state":"active","ping":112},{"user_id":290,"name":"Un_Zipped","steam_id":76561197990111649,"connected_time":2362000000000,"state":"active","ping":107},{"user_id":332,"name":"Dylan Pulido","steam_id":76561198272681544,"connected_time":213000000000,"state":"active","ping":60},{"user_id":324,"name":"RectalExam","steam_id":76561197970502312,"connected_time":627000000000,"state":"active","ping":100},{"user_id":312,"name":"Marz","steam_id":76561198799364911,"connected_time":1433000000000,"state":"active","ping":60},{"user_id":281,"name":"[Champ] Marssygurl","steam_id":76561198014928241,"connected_time":2917000000000,"state":"active","ping":125}]},{"server_id":324,"name":"Uncletopia | Los Angeles | 3 | All Maps","name_short":"lax-3","host":"lax-1.us.uncletopia.com","port":27035,"enabled":true,"region":"us-west","cc":"us","latitude":33.94279,"longitude":-118.41004,"reserved":0,"last_update":"0001-01-01T00:00:00Z","name_a2s":"Uncletopia | Los Angeles | 3 | All Maps","protocol":17,"map":"pl_barnblitz","folder":"tf","game":"Team Fortress","app_id":440,"player_count":24,"max_players":24,"Bots":0,"server_type":"Dedicated","server_os":"Linux","password":true,"vac":true,"version":"7932396","steam_id":85568392924510198,"keywords":["nocrits","nodmgspread","payload","uncletopia"],"game_id":440,"stv_port":27036,"stv_name":"Uncletopia | Los Angeles | 3 | All Maps | STV","players":[{"user_id":311,"name":"Alice in Rubberland","steam_id":76561198087328346,"connected_time":267000000000,"state":"active","ping":104},{"user_id":302,"name":"Space360","steam_id":76561198106743284,"connected_time":1089000000000,"state":"active","ping":77},{"user_id":260,"name":"the observer","steam_id":76561198966609490,"connected_time":3618000000000,"state":"active","ping":80},{"user_id":312,"name":"Loashes","steam_id":76561198119608299,"connected_time":65000000000,"state":"active","ping":92},{"user_id":197,"name":"riSygneD","steam_id":76561198331618687,"connected_time":7281000000000,"state":"active","ping":38},{"user_id":307,"name":"Maxx","steam_id":76561199112037223,"connected_time":468000000000,"state":"active","ping":92},{"user_id":272,"name":"DiscoTraveler","steam_id":76561199240168088,"connected_time":3425000000000,"state":"active","ping":101},{"user_id":297,"name":"papi Chulo","steam_id":76561198126274984,"connected_time":1387000000000,"state":"active","ping":82},{"user_id":308,"name":"unfathomable heights of bliss","steam_id":76561198048925904,"connected_time":444000000000,"state":"active","ping":60},{"user_id":298,"name":"OmniMoto","steam_id":76561198091298557,"connected_time":1304000000000,"state":"active","ping":75},{"user_id":289,"name":"Excrement","steam_id":76561198167740127,"connected_time":2380000000000,"state":"active","ping":72},{"user_id":303,"name":"Scrux","steam_id":76561198129763115,"connected_time":857000000000,"state":"active","ping":55},{"user_id":304,"name":"SNλRTLE","steam_id":76561198321853655,"connected_time":676000000000,"state":"active","ping":91},{"user_id":258,"name":"Hindmost","steam_id":76561199081837220,"connected_time":3801000000000,"state":"active","ping":98},{"user_id":309,"name":"Sábado Gigante","steam_id":76561197994685971,"connected_time":376000000000,"state":"active","ping":57},{"user_id":217,"name":"Plague Doctor Moose","steam_id":76561199027129554,"connected_time":6327000000000,"state":"active","ping":122},{"user_id":278,"name":"Stapler","steam_id":76561198099295077,"connected_time":3209000000000,"state":"active","ping":54},{"user_id":276,"name":"Ice cream sandwich","steam_id":76561198172748357,"connected_time":3328000000000,"state":"active","ping":55},{"user_id":279,"name":"LunarDark","steam_id":76561199225446889,"connected_time":3189000000000,"state":"active","ping":94},{"user_id":310,"name":"...","steam_id":76561198121508845,"connected_time":366000000000,"state":"active","ping":67},{"user_id":291,"name":"Schnitz","steam_id":76561198265484253,"connected_time":2290000000000,"state":"active","ping":54},{"user_id":274,"name":"mer5277","steam_id":76561198192171041,"connected_time":3388000000000,"state":"active","ping":150},{"user_id":255,"name":"Silvermace","steam_id":76561198090696843,"connected_time":4113000000000,"state":"active","ping":45},{"user_id":295,"name":"PageBoiSkull","steam_id":76561198237353578,"connected_time":1810000000000,"state":"active","ping":69}]},{"server_id":25,"name":"Uncletopia | Los Angeles | 4 | Stopwatch Beta","name_short":"lax-4","host":"lax-1.us.uncletopia.com","port":27045,"enabled":true,"region":"us-west","cc":"us","latitude":33.94279,"longitude":-118.41004,"reserved":0,"last_update":"0001-01-01T00:00:00Z","name_a2s":"Uncletopia | Los Angeles | 4 | Stopwatch Beta","protocol":17,"map":"workshop/koth_product_final.ugc454272353","folder":"tf","game":"Team Fortress","app_id":440,"player_count":9,"max_players":24,"Bots":0,"server_type":"Dedicated","server_os":"Linux","password":true,"vac":true,"version":"7932396","steam_id":85568392924510199,"keywords":["cp","nocrits","nodmgspread","uncletopia"],"game_id":440,"stv_port":27046,"stv_name":"Uncletopia | Los Angeles | 4 | Stopwatch Beta | STV","players":[{"user_id":14,"name":"JC The Dumb","steam_id":76561199186185567,"connected_time":2099000000000,"state":"active","ping":71},{"user_id":15,"name":"HawkBlaze","steam_id":76561199000152914,"connected_time":2039000000000,"state":"active","ping":60},{"user_id":16,"name":"Kewlbeyblader","steam_id":76561199102005597,"connected_time":1896000000000,"state":"active","ping":90},{"user_id":17,"name":"forntight gaming cool","steam_id":76561198823845027,"connected_time":1885000000000,"state":"active","ping":91},{"user_id":18,"name":"Cynicalrage #TF2center","steam_id":76561198085805532,"connected_time":1869000000000,"state":"active","ping":89},{"user_id":19,"name":"Oatmeal","steam_id":76561199378924674,"connected_time":1834000000000,"state":"active","ping":133},{"user_id":26,"name":"Evaporated_373k","steam_id":76561199435266743,"connected_time":177000000000,"state":"active","ping":96},{"user_id":22,"name":"NewGuy","steam_id":76561198968058652,"connected_time":933000000000,"state":"active","ping":70},{"user_id":27,"name":"Capybara Enjoyer","steam_id":76561199147114434,"connected_time":94000000000,"state":"active","ping":119}]},{"server_id":11,"name":"Uncletopia | London | 1 | All Maps","name_short":"lon-1","host":"lon-1.uk.uncletopia.com","port":27015,"enabled":true,"region":"eu","cc":"gb","latitude":51.509865,"longitude":-0.118092,"reserved":0,"last_update":"0001-01-01T00:00:00Z","name_a2s":"Uncletopia | London | 1 | All Maps","protocol":17,"map":"pl_frontier_final","folder":"tf","game":"Team Fortress","app_id":440,"player_count":0,"max_players":24,"Bots":0,"server_type":"Dedicated","server_os":"Linux","password":true,"vac":true,"version":"7932396","steam_id":85568392924367362,"keywords":["nocrits","nodmgspread","payload","uncletopia"],"game_id":440,"stv_port":27016,"stv_name":"Uncletopia | London | 1 | All Maps | STV","players":null},{"server_id":114,"name":"Uncletopia | London | 2 | All Maps","name_short":"lon-2","host":"lon-1.uk.uncletopia.com","port":27025,"enabled":true,"region":"eu","cc":"gb","latitude":51.509865,"longitude":-0.118092,"reserved":0,"last_update":"0001-01-01T00:00:00Z","name_a2s":"Uncletopia | London | 2 | All Maps","protocol":17,"map":"pl_barnblitz","folder":"tf","game":"Team Fortress","app_id":440,"player_count":24,"max_players":24,"Bots":0,"server_type":"Dedicated","server_os":"Linux","password":true,"vac":true,"version":"7932396","steam_id":85568392924470941,"keywords":["nocrits","nodmgspread","payload","uncletopia"],"game_id":440,"stv_port":27026,"stv_name":"Uncletopia | London | 2 | All Maps | STV","players":[{"user_id":645,"name":"panakid","steam_id":76561198364121077,"connected_time":755000000000,"state":"active","ping":97},{"user_id":623,"name":"paradigmatic shift","steam_id":76561197988802856,"connected_time":2312000000000,"state":"active","ping":60},{"user_id":624,"name":"Burbie","steam_id":76561198046069449,"connected_time":2310000000000,"state":"active","ping":45},{"user_id":646,"name":"BarbÀtrou","steam_id":76561199439141531,"connected_time":582000000000,"state":"active","ping":46},{"user_id":579,"name":"DataParty","steam_id":76561198037161826,"connected_time":6263000000000,"state":"active","ping":45},{"user_id":634,"name":"t0ast","steam_id":76561198141722573,"connected_time":1695000000000,"state":"active","ping":31},{"user_id":567,"name":"プロパパンダ","steam_id":76561199196528528,"connected_time":7265000000000,"state":"active","ping":32},{"user_id":627,"name":"in the house like carpet","steam_id":76561199480942903,"connected_time":2109000000000,"state":"active","ping":72},{"user_id":648,"name":"wet sock","steam_id":76561198199117446,"connected_time":491000000000,"state":"active","ping":50},{"user_id":639,"name":"Everness","steam_id":76561197994803883,"connected_time":1502000000000,"state":"active","ping":86},{"user_id":617,"name":"vadr","steam_id":76561198334528186,"connected_time":2628000000000,"state":"active","ping":42},{"user_id":625,"name":"TheEventGuy","steam_id":76561197972797744,"connected_time":2297000000000,"state":"active","ping":72},{"user_id":626,"name":"aolkdi","steam_id":76561198025479415,"connected_time":2194000000000,"state":"active","ping":137},{"user_id":642,"name":"Skyfox","steam_id":76561198036647535,"connected_time":868000000000,"state":"active","ping":60},{"user_id":616,"name":"Sheep","steam_id":76561198047895760,"connected_time":3119000000000,"state":"active","ping":58},{"user_id":649,"name":"JC","steam_id":76561197993533707,"connected_time":486000000000,"state":"active","ping":58},{"user_id":650,"name":"Proud Jojo Fan #TF2SP","steam_id":76561198847327216,"connected_time":457000000000,"state":"active","ping":69},{"user_id":651,"name":"Salesman Doren","steam_id":76561198076098142,"connected_time":383000000000,"state":"active","ping":40},{"user_id":652,"name":"Dr. Lambda","steam_id":76561198952939545,"connected_time":352000000000,"state":"active","ping":121},{"user_id":653,"name":"Gimmick","steam_id":76561197979603871,"connected_time":266000000000,"state":"active","ping":60},{"user_id":581,"name":"Glitch","steam_id":76561198081895538,"connected_time":6072000000000,"state":"active","ping":60},{"user_id":654,"name":"Mittep","steam_id":76561198082888891,"connected_time":219000000000,"state":"active","ping":39},{"user_id":655,"name":"Chillyroom","steam_id":76561198861912968,"connected_time":189000000000,"state":"active","ping":142},{"user_id":631,"name":"etc","steam_id":76561197998394797,"connected_time":2049000000000,"state":"active","ping":52}]},{"server_id":320,"name":"Uncletopia | London | 3 | All Maps","name_short":"lon-3","host":"lon-1.uk.uncletopia.com","port":27035,"enabled":true,"region":"eu","cc":"gb","latitude":51.509865,"longitude":-0.118092,"reserved":0,"last_update":"0001-01-01T00:00:00Z","name_a2s":"Uncletopia | London | 3 | All Maps","protocol":17,"map":"koth_cascade","folder":"tf","game":"Team Fortress","app_id":440,"player_count":3,"max_players":24,"Bots":0,"server_type":"Dedicated","server_os":"Linux","password":true,"vac":true,"version":"7932396","steam_id":85568392924510192,"keywords":["cp","nocrits","nodmgspread","uncletopia"],"game_id":440,"stv_port":27036,"stv_name":"Uncletopia | London | 3 | All Maps | STV","players":[{"user_id":1018,"name":"SirDapperBirb","steam_id":76561198978305181,"connected_time":1019000000000,"state":"active","ping":123},{"user_id":1020,"name":"Foreskin Washing Advisory Board","steam_id":76561198051685232,"connected_time":36000000000,"state":"active","ping":44},{"user_id":1016,"name":"Dr.Doc","steam_id":76561198981911429,"connected_time":1301000000000,"state":"active","ping":160}]},{"server_id":321,"name":"Uncletopia | London | 4 | All Maps","name_short":"lon-4","host":"lon-1.uk.uncletopia.com","port":27045,"enabled":true,"region":"eu","cc":"gb","latitude":51.509865,"longitude":-0.118092,"reserved":0,"last_update":"0001-01-01T00:00:00Z","name_a2s":"Uncletopia | London | 4 | All Maps","protocol":17,"map":"pl_barnblitz","folder":"tf","game":"Team Fortress","app_id":440,"player_count":0,"max_players":24,"Bots":0,"server_type":"Dedicated","server_os":"Linux","password":true,"vac":true,"version":"7932396","steam_id":85568392924510193,"keywords":["nocrits","nodmgspread","payload","uncletopia"],"game_id":440,"stv_port":27046,"stv_name":"Uncletopia | London | 4 | All Maps | STV","players":null},{"server_id":21,"name":"Uncletopia | London | 5 | All Maps","name_short":"lon-5","host":"lon-1.uk.uncletopia.com","port":27055,"enabled":true,"region":"eu","cc":"gb","latitude":51.509865,"longitude":-0.118092,"reserved":0,"last_update":"0001-01-01T00:00:00Z","name_a2s":"Uncletopia | London | 5 | All Maps","protocol":17,"map":"pl_badwater","folder":"tf","game":"Team Fortress","app_id":440,"player_count":0,"max_players":24,"Bots":0,"server_type":"Dedicated","server_os":"Linux","password":true,"vac":true,"version":"7932396","steam_id":85568392924742829,"keywords":["nocrits","nodmgspread","payload","uncletopia"],"game_id":440,"stv_port":27056,"stv_name":"Uncletopia | London | 5 | All Maps | STV","players":null},{"server_id":22,"name":"Uncletopia | London | 6 | All Maps","name_short":"lon-6","host":"lon-1.uk.uncletopia.com","port":27065,"enabled":true,"region":"eu","cc":"gb","latitude":51.509865,"longitude":-0.118092,"reserved":0,"last_update":"0001-01-01T00:00:00Z","name_a2s":"Uncletopia | London | 6 | All Maps","protocol":17,"map":"pl_upward","folder":"tf","game":"Team Fortress","app_id":440,"player_count":0,"max_players":24,"Bots":0,"server_type":"Dedicated","server_os":"Linux","password":true,"vac":true,"version":"7932396","steam_id":85568392924742830,"keywords":["nocrits","nodmgspread","payload","uncletopia"],"game_id":440,"stv_port":27066,"stv_name":"Uncletopia | London | 6 | All Maps | STV","players":null},{"server_id":40,"name":"Uncletopia | London | 7 | No Payload","name_short":"lon-7","host":"lon-1.uk.uncletopia.com","port":27075,"enabled":true,"region":"eu","cc":"gb","latitude":51.509865,"longitude":-0.118092,"reserved":0,"last_update":"0001-01-01T00:00:00Z","name_a2s":"Uncletopia | London | 7 | No Payload","protocol":17,"map":"koth_lazarus","folder":"tf","game":"Team Fortress","app_id":440,"player_count":0,"max_players":24,"Bots":0,"server_type":"Dedicated","server_os":"Linux","password":true,"vac":true,"version":"7932396","steam_id":85568392924964314,"keywords":["cp","nocrits","nodmgspread","uncletopia"],"game_id":440,"stv_port":27076,"stv_name":"Uncletopia | London | 7 | No Payload | STV","players":null},{"server_id":41,"name":"Uncletopia | London | 8 | Community","name_short":"lon-8","host":"lon-1.uk.uncletopia.com","port":27085,"enabled":true,"region":"eu","cc":"gb","latitude":51.509865,"longitude":-0.118092,"reserved":0,"last_update":"0001-01-01T00:00:00Z","name_a2s":"Uncletopia | London | 8 | Community","protocol":17,"map":"workshop/koth_trenchfoot_b1a.ugc731436616","folder":"tf","game":"Team Fortress","app_id":440,"player_count":0,"max_players":24,"Bots":0,"server_type":"Dedicated","server_os":"Linux","password":true,"vac":true,"version":"7932396","steam_id":85568392924964315,"keywords":["cp","nocrits","nodmgspread","uncletopia"],"game_id":440,"stv_port":27086,"stv_name":"Uncletopia | London | 8 | Community | STV","players":null},{"server_id":300,"name":"Uncletopia | Montréal | 1 | All Maps","name_short":"mtl-1","host":"mtl-1.ca.uncletopia.com","port":27015,"enabled":true,"region":"us-east","cc":"ca","latitude":45.50889,"longitude":-73.56167,"reserved":0,"last_update":"0001-01-01T00:00:00Z","name_a2s":"Uncletopia | Montréal | 1 | All Maps","protocol":17,"map":"pl_frontier_final","folder":"tf","game":"Team Fortress","app_id":440,"player_count":0,"max_players":24,"Bots":0,"server_type":"Dedicated","server_os":"Linux","password":true,"vac":true,"version":"7932396","steam_id":85568392924500087,"keywords":["nocrits","nodmgspread","payload","uncletopia"],"game_id":440,"stv_port":27016,"stv_name":"Uncletopia | Montréal | 1 | All Maps | STV","players":null},{"server_id":301,"name":"Uncletopia | Montréal | 2 | All Maps","name_short":"mtl-2","host":"mtl-1.ca.uncletopia.com","port":27025,"enabled":true,"region":"us-east","cc":"ca","latitude":45.50889,"longitude":-73.56167,"reserved":0,"last_update":"0001-01-01T00:00:00Z","name_a2s":"Uncletopia | Montréal | 2 | All Maps","protocol":17,"map":"koth_lakeside_final","folder":"tf","game":"Team Fortress","app_id":440,"player_count":0,"max_players":24,"Bots":0,"server_type":"Dedicated","server_os":"Linux","password":true,"vac":true,"version":"7932396","steam_id":85568392924500088,"keywords":["cp","nocrits","nodmgspread","uncletopia"],"game_id":440,"stv_port":27026,"stv_name":"Uncletopia | Montréal | 2 | All Maps | STV","players":null},{"server_id":302,"name":"Uncletopia | Montréal | 3 | All Maps","name_short":"mtl-3","host":"mtl-1.ca.uncletopia.com","port":27035,"enabled":true,"region":"us-east","cc":"ca","latitude":45.50889,"longitude":-73.56167,"reserved":0,"last_update":"0001-01-01T00:00:00Z","name_a2s":"Uncletopia | Montréal | 3 | All Maps","protocol":17,"map":"koth_cascade","folder":"tf","game":"Team Fortress","app_id":440,"player_count":0,"max_players":24,"Bots":0,"server_type":"Dedicated","server_os":"Linux","password":true,"vac":true,"version":"7932396","steam_id":85568392924500089,"keywords":["cp","nocrits","nodmgspread","uncletopia"],"game_id":440,"stv_port":27036,"stv_name":"Uncletopia | Montréal | 3 | All Maps | STV","players":null},{"server_id":303,"name":"Uncletopia | Montréal | 4 | No Payload","name_short":"mtl-4","host":"mtl-1.ca.uncletopia.com","port":27045,"enabled":true,"region":"us-east","cc":"ca","latitude":45.50889,"longitude":-73.56167,"reserved":0,"last_update":"0001-01-01T00:00:00Z","name_a2s":"Uncletopia | Montréal | 4 | No Payload","protocol":17,"map":"koth_king","folder":"tf","game":"Team Fortress","app_id":440,"player_count":0,"max_players":24,"Bots":0,"server_type":"Dedicated","server_os":"Linux","password":true,"vac":true,"version":"7932396","steam_id":85568392924500090,"keywords":["cp","nocrits","nodmgspread","uncletopia"],"game_id":440,"stv_port":27046,"stv_name":"Uncletopia | Montréal | 4 | No Payload | STV","players":null},{"server_id":13,"name":"Uncletopia | New York City | 1 | All Maps","name_short":"nyc-1","host":"nyc-1.us.uncletopia.com","port":27015,"enabled":true,"region":"us-east","cc":"us","latitude":40.73061,"longitude":-73.93524,"reserved":0,"last_update":"0001-01-01T00:00:00Z","name_a2s":"Uncletopia | New York City | 1 | All Maps","protocol":17,"map":"pl_enclosure_final","folder":"tf","game":"Team Fortress","app_id":440,"player_count":24,"max_players":24,"Bots":0,"server_type":"Dedicated","server_os":"Linux","password":true,"vac":true,"version":"7932396","steam_id":85568392924469993,"keywords":["nocrits","nodmgspread","payload","uncletopia"],"game_id":440,"stv_port":27016,"stv_name":"Uncletopia | New York City | 1 | All Maps | STV","players":[{"user_id":428,"name":"Just washed","steam_id":76561199030160932,"connected_time":924000000000,"state":"active","ping":82},{"user_id":430,"name":"Only One Jhakobi","steam_id":76561197993641141,"connected_time":748000000000,"state":"active","ping":73},{"user_id":410,"name":"sometimesshow","steam_id":76561198999843667,"connected_time":3090000000000,"state":"active","ping":76},{"user_id":427,"name":"rice","steam_id":76561199218614311,"connected_time":1072000000000,"state":"active","ping":121},{"user_id":421,"name":"Chirp","steam_id":76561198240780230,"connected_time":1509000000000,"state":"active","ping":105},{"user_id":381,"name":"yes daddy","steam_id":76561198166100997,"connected_time":5732000000000,"state":"active","ping":69},{"user_id":392,"name":"American Dad","steam_id":76561198059711448,"connected_time":4291000000000,"state":"active","ping":78},{"user_id":440,"name":"LiftN","steam_id":76561198167974713,"connected_time":299000000000,"state":"active","ping":69},{"user_id":397,"name":"Wique","steam_id":76561198071217597,"connected_time":3723000000000,"state":"active","ping":79},{"user_id":409,"name":"Mason","steam_id":76561198067984258,"connected_time":3261000000000,"state":"active","ping":76},{"user_id":431,"name":"The Hoagie Hero","steam_id":76561198057569298,"connected_time":725000000000,"state":"active","ping":83},{"user_id":432,"name":"badasscoolboy57","steam_id":76561198795412055,"connected_time":690000000000,"state":"active","ping":59},{"user_id":406,"name":"demoknight tf2","steam_id":76561198070393998,"connected_time":3366000000000,"state":"active","ping":65},{"user_id":437,"name":"Our Lord and Saver","steam_id":76561198279373892,"connected_time":485000000000,"state":"active","ping":119},{"user_id":438,"name":"Sir Thomas","steam_id":76561198055056903,"connected_time":477000000000,"state":"active","ping":69},{"user_id":386,"name":"Periculosum PhD in Funny","steam_id":76561198123370914,"connected_time":4868000000000,"state":"active","ping":92},{"user_id":415,"name":"noided","steam_id":76561198353924837,"connected_time":2546000000000,"state":"active","ping":78},{"user_id":442,"name":"sam","steam_id":76561198088504281,"connected_time":256000000000,"state":"active","ping":56},{"user_id":439,"name":"winrarFanatic","steam_id":76561198026538317,"connected_time":346000000000,"state":"active","ping":84},{"user_id":443,"name":"Bard","steam_id":76561198088940932,"connected_time":246000000000,"state":"active","ping":90},{"user_id":408,"name":"bortion bortion bortion bortion","steam_id":76561198044034546,"connected_time":3266000000000,"state":"active","ping":67},{"user_id":404,"name":"Bee_Pirate","steam_id":76561199000599111,"connected_time":3487000000000,"state":"active","ping":72},{"user_id":405,"name":"Gason Homoa","steam_id":76561199000180522,"connected_time":3485000000000,"state":"active","ping":81},{"user_id":367,"name":"Samrizo el Chorizo","steam_id":76561198009838162,"connected_time":6513000000000,"state":"active","ping":55}]},{"server_id":14,"name":"Uncletopia | New York City | 2 | All Maps","name_short":"nyc-2","host":"nyc-1.us.uncletopia.com","port":27025,"enabled":true,"region":"us-east","cc":"us","latitude":40.73061,"longitude":-73.93524,"reserved":0,"last_update":"0001-01-01T00:00:00Z","name_a2s":"Uncletopia | New York City | 2 | All Maps","protocol":17,"map":"pl_upward","folder":"tf","game":"Team Fortress","app_id":440,"player_count":24,"max_players":24,"Bots":0,"server_type":"Dedicated","server_os":"Linux","password":true,"vac":true,"version":"7932396","steam_id":85568392924469994,"keywords":["nocrits","nodmgspread","payload","uncletopia"],"game_id":440,"stv_port":27026,"stv_name":"Uncletopia | New York City | 2 | All Maps | STV","players":[{"user_id":303,"name":"Bee","steam_id":76561198074681324,"connected_time":3042000000000,"state":"active","ping":38},{"user_id":283,"name":"Heropon","steam_id":76561198105224481,"connected_time":6096000000000,"state":"active","ping":66},{"user_id":204,"name":"Digresser","steam_id":76561198016426367,"connected_time":11521000000000,"state":"active","ping":32},{"user_id":278,"name":"Thurricane","steam_id":76561198410724666,"connected_time":6340000000000,"state":"active","ping":47},{"user_id":353,"name":"Codo Sapien","steam_id":76561198014206810,"connected_time":458000000000,"state":"active","ping":47},{"user_id":306,"name":"IMPACT CPU","steam_id":76561198001344879,"connected_time":3030000000000,"state":"active","ping":61},{"user_id":337,"name":"Wiener Hole Paper Cut","steam_id":76561198000808203,"connected_time":1116000000000,"state":"active","ping":56},{"user_id":331,"name":"Nevil","steam_id":76561198067925462,"connected_time":2245000000000,"state":"active","ping":71},{"user_id":339,"name":"Lexabyte","steam_id":76561198065032237,"connected_time":1089000000000,"state":"active","ping":63},{"user_id":340,"name":"Smooth - Santana ft. Rob Thomas","steam_id":76561198145283389,"connected_time":1078000000000,"state":"active","ping":55},{"user_id":356,"name":"The Roys are Back in Town","steam_id":76561198078565975,"connected_time":106000000000,"state":"active","ping":58},{"user_id":342,"name":"No_Dictators","steam_id":76561199065777321,"connected_time":1062000000000,"state":"active","ping":95},{"user_id":354,"name":"Pixellate","steam_id":76561198085555090,"connected_time":454000000000,"state":"active","ping":88},{"user_id":357,"name":"extra purple","steam_id":76561198044344111,"connected_time":56000000000,"state":"active","ping":175},{"user_id":351,"name":"burt","steam_id":76561198137548311,"connected_time":570000000000,"state":"active","ping":72},{"user_id":344,"name":"Idiot Princess","steam_id":76561198048205270,"connected_time":1040000000000,"state":"active","ping":69},{"user_id":334,"name":"Matchstick","steam_id":76561198399856863,"connected_time":1156000000000,"state":"active","ping":89},{"user_id":345,"name":"Norman","steam_id":76561198154715990,"connected_time":1035000000000,"state":"active","ping":109},{"user_id":346,"name":"SirDigbyChickenCaesar","steam_id":76561197998612788,"connected_time":1025000000000,"state":"active","ping":66},{"user_id":355,"name":"nullptr","steam_id":76561198111790388,"connected_time":350000000000,"state":"active","ping":99},{"user_id":347,"name":"Jazz2T","steam_id":76561198154418867,"connected_time":974000000000,"state":"active","ping":105},{"user_id":335,"name":"AverageGloop","steam_id":76561198243395378,"connected_time":1154000000000,"state":"active","ping":45},{"user_id":348,"name":"neet","steam_id":76561197968115168,"connected_time":974000000000,"state":"active","ping":50}]},{"server_id":15,"name":"Uncletopia | New York City | 3 | Stopwatch Beta","name_short":"nyc-3","host":"nyc-1.us.uncletopia.com","port":27035,"enabled":true,"region":"us-east","cc":"us","latitude":40.73061,"longitude":-73.93524,"reserved":0,"last_update":"0001-01-01T00:00:00Z","name_a2s":"Uncletopia | New York City | 3 | Stopwatch Beta","protocol":17,"map":"workshop/koth_clearcut_b15.ugc2107050255","folder":"tf","game":"Team Fortress","app_id":440,"player_count":0,"max_players":24,"Bots":0,"server_type":"Dedicated","server_os":"Linux","password":true,"vac":true,"version":"7932396","steam_id":85568392924742820,"keywords":["cp","nocrits","nodmgspread","uncletopia"],"game_id":440,"stv_port":27036,"stv_name":"Uncletopia | New York City | 3 | Stopwatch Beta | STV","players":null},{"server_id":16,"name":"Uncletopia | New York City | 4 | Community","name_short":"nyc-4","host":"nyc-1.us.uncletopia.com","port":27045,"enabled":true,"region":"us-east","cc":"us","latitude":40.73061,"longitude":-73.93524,"reserved":0,"last_update":"0001-01-01T00:00:00Z","name_a2s":"Uncletopia | New York City | 4 | Community","protocol":17,"map":"workshop/cp_kalinka_rc6a.ugc1272700588","folder":"tf","game":"Team Fortress","app_id":440,"player_count":24,"max_players":24,"Bots":0,"server_type":"Dedicated","server_os":"Linux","password":true,"vac":true,"version":"7932396","steam_id":85568392924742821,"keywords":["cp","nocrits","nodmgspread","uncletopia"],"game_id":440,"stv_port":27046,"stv_name":"Uncletopia | New York City | 4 | Community | STV","players":[{"user_id":373,"name":"b4rry","steam_id":76561198365887154,"connected_time":3805000000000,"state":"active","ping":51},{"user_id":432,"name":"Medication Woman","steam_id":76561198348965524,"connected_time":544000000000,"state":"active","ping":63},{"user_id":430,"name":"Zeeze","steam_id":76561197998153057,"connected_time":634000000000,"state":"active","ping":45},{"user_id":420,"name":"EmeraldYeti","steam_id":76561198318703857,"connected_time":1242000000000,"state":"active","ping":63},{"user_id":431,"name":"Sir Grey The Ranger","steam_id":76561198096235582,"connected_time":578000000000,"state":"active","ping":60},{"user_id":437,"name":"Jason","steam_id":76561198074589397,"connected_time":325000000000,"state":"active","ping":45},{"user_id":417,"name":"IanFishooks","steam_id":76561199403427527,"connected_time":1310000000000,"state":"active","ping":70},{"user_id":397,"name":"helen keller","steam_id":76561197979870540,"connected_time":2571000000000,"state":"active","ping":60},{"user_id":418,"name":"Mathispell","steam_id":76561198066256066,"connected_time":1293000000000,"state":"active","ping":66},{"user_id":429,"name":"monkeycake","steam_id":76561198272061915,"connected_time":938000000000,"state":"active","ping":66},{"user_id":379,"name":"Warpy","steam_id":76561198055852599,"connected_time":3403000000000,"state":"active","ping":68},{"user_id":436,"name":"MajorPancake","steam_id":76561198068713831,"connected_time":333000000000,"state":"active","ping":57},{"user_id":423,"name":"Punkin","steam_id":76561198334301755,"connected_time":1183000000000,"state":"active","ping":57},{"user_id":424,"name":"leonardo doujinshi","steam_id":76561198025810326,"connected_time":1167000000000,"state":"active","ping":74},{"user_id":402,"name":"the x in a mobile game ad","steam_id":76561198835517383,"connected_time":2120000000000,"state":"active","ping":115},{"user_id":398,"name":"(Past Tense)","steam_id":76561197996279335,"connected_time":2552000000000,"state":"active","ping":58},{"user_id":440,"name":"GandalfTheGrey6","steam_id":76561199116701903,"connected_time":6000000000,"state":"spawning","ping":104},{"user_id":382,"name":"Butters495","steam_id":76561197998689042,"connected_time":3370000000000,"state":"active","ping":70},{"user_id":425,"name":"Etienne 115","steam_id":76561198351660265,"connected_time":1153000000000,"state":"active","ping":64},{"user_id":438,"name":"Horsecat","steam_id":76561198061653283,"connected_time":131000000000,"state":"active","ping":150},{"user_id":386,"name":"irritable vowel syndrome","steam_id":76561198117033273,"connected_time":3056000000000,"state":"active","ping":135},{"user_id":428,"name":"Zephiel Castelianos","steam_id":76561198092435137,"connected_time":1106000000000,"state":"active","ping":72},{"user_id":403,"name":"WATHUH","steam_id":76561198885727186,"connected_time":2111000000000,"state":"active","ping":83},{"user_id":404,"name":"Snowy 79","steam_id":76561198944639546,"connected_time":2110000000000,"state":"active","ping":76}]},{"server_id":142,"name":"Uncletopia | São Paulo | 1 | All Maps","name_short":"sao-1","host":"sao-1.br.uncletopia.com","port":27015,"enabled":true,"region":"sa","cc":"br","latitude":-23.533773,"longitude":-46.62529,"reserved":0,"last_update":"0001-01-01T00:00:00Z","name_a2s":"Uncletopia | São Paulo | 1 | All Maps","protocol":17,"map":"koth_cascade","folder":"tf","game":"Team Fortress","app_id":440,"player_count":0,"max_players":24,"Bots":0,"server_type":"Dedicated","server_os":"Linux","password":true,"vac":true,"version":"7932396","steam_id":85568392924469996,"keywords":["cp","nocrits","nodmgspread","uncletopia"],"game_id":440,"stv_port":27016,"stv_name":"Uncletopia | São Paulo | 1 | All Maps | STV","players":null},{"server_id":143,"name":"Uncletopia | São Paulo | 2 | All Maps","name_short":"sao-2","host":"sao-2.br.uncletopia.com","port":27015,"enabled":true,"region":"sa","cc":"br","latitude":-23.533773,"longitude":-46.62529,"reserved":0,"last_update":"0001-01-01T00:00:00Z","name_a2s":"Uncletopia | São Paulo | 2 | All Maps","protocol":17,"map":"pl_borneo","folder":"tf","game":"Team Fortress","app_id":440,"player_count":16,"max_players":24,"Bots":0,"server_type":"Dedicated","server_os":"Linux","password":true,"vac":true,"version":"7932396","steam_id":85568392924485349,"keywords":["nocrits","nodmgspread","payload","uncletopia"],"game_id":440,"stv_port":27016,"stv_name":"Uncletopia | São Paulo | 2 | All Maps | STV","players":[{"user_id":139,"name":"Chicho","steam_id":76561198121888064,"connected_time":58000000000,"state":"active","ping":85},{"user_id":107,"name":"TUTUI30","steam_id":76561198403285854,"connected_time":2295000000000,"state":"active","ping":40},{"user_id":119,"name":"dkor","steam_id":76561198886101531,"connected_time":1378000000000,"state":"active","ping":105},{"user_id":95,"name":"Oversized Spoon Gaming","steam_id":76561198097996432,"connected_time":3074000000000,"state":"active","ping":29},{"user_id":140,"name":"Piazinho","steam_id":76561198054820896,"connected_time":44000000000,"state":"active","ping":45},{"user_id":93,"name":"Sandviche™,O Sanduíche Sovi\ufffd","steam_id":76561198042404296,"connected_time":3335000000000,"state":"active","ping":60},{"user_id":135,"name":"guarda-chuva","steam_id":76561198078694330,"connected_time":403000000000,"state":"active","ping":59},{"user_id":136,"name":"Nick","steam_id":76561198049600266,"connected_time":270000000000,"state":"active","ping":69},{"user_id":109,"name":"Alice Heartshine","steam_id":76561198308562212,"connected_time":2214000000000,"state":"active","ping":88},{"user_id":110,"name":"Edge","steam_id":76561198850405241,"connected_time":2113000000000,"state":"active","ping":52},{"user_id":88,"name":"Fedetour","steam_id":76561199023325743,"connected_time":3685000000000,"state":"active","ping":92},{"user_id":101,"name":"melão.dota gaaaaa","steam_id":76561198138018476,"connected_time":2806000000000,"state":"active","ping":44},{"user_id":103,"name":"Blue9Fairy","steam_id":76561198039942928,"connected_time":2722000000000,"state":"active","ping":54},{"user_id":105,"name":"Gustavocoste","steam_id":76561198233692404,"connected_time":2564000000000,"state":"active","ping":40},{"user_id":134,"name":"Zaparol","steam_id":76561198971733797,"connected_time":696000000000,"state":"active","ping":66},{"user_id":133,"name":"iko","steam_id":76561198965538287,"connected_time":744000000000,"state":"active","ping":49}]},{"server_id":7,"name":"Uncletopia | Seattle | 1 | All Maps","name_short":"sea-1","host":"sea-1.us.uncletopia.com","port":27015,"enabled":true,"region":"us-west","cc":"us","latitude":47.608013,"longitude":-122.33517,"reserved":0,"last_update":"0001-01-01T00:00:00Z","name_a2s":"Uncletopia | Seattle | 1 | All Maps","protocol":17,"map":"pl_upward","folder":"tf","game":"Team Fortress","app_id":440,"player_count":24,"max_players":24,"Bots":0,"server_type":"Dedicated","server_os":"Linux","password":true,"vac":true,"version":"7932396","steam_id":85568392924469997,"keywords":["nocrits","nodmgspread","payload","uncletopia"],"game_id":440,"stv_port":27016,"stv_name":"Uncletopia | Seattle | 1 | All Maps | STV","players":[{"user_id":254,"name":"InterplanetaryGentlemann","steam_id":76561198146559390,"connected_time":5521000000000,"state":"active","ping":45},{"user_id":252,"name":"Officer Earl","steam_id":76561199019675078,"connected_time":5540000000000,"state":"active","ping":101},{"user_id":293,"name":"brhm","steam_id":76561198199604767,"connected_time":3056000000000,"state":"active","ping":50},{"user_id":363,"name":"Can of Oranges","steam_id":76561199121813529,"connected_time":666000000000,"state":"active","ping":53},{"user_id":302,"name":"Stupid Monkey =3","steam_id":76561198024580166,"connected_time":2147000000000,"state":"active","ping":46},{"user_id":274,"name":"♥ Milo Stefferson ♥ (Soupca","steam_id":76561198056269538,"connected_time":4021000000000,"state":"active","ping":57},{"user_id":367,"name":"4 life","steam_id":76561198175961598,"connected_time":256000000000,"state":"active","ping":89},{"user_id":291,"name":"Alphaarmy01","steam_id":76561198818913025,"connected_time":3158000000000,"state":"active","ping":121},{"user_id":366,"name":"Haydob13","steam_id":76561198110378191,"connected_time":486000000000,"state":"active","ping":52},{"user_id":275,"name":"Zee✞","steam_id":76561198274550638,"connected_time":3920000000000,"state":"active","ping":104},{"user_id":292,"name":"sierra","steam_id":76561197969873415,"connected_time":3111000000000,"state":"active","ping":148},{"user_id":212,"name":"lker","steam_id":76561197976975075,"connected_time":9090000000000,"state":"active","ping":105},{"user_id":364,"name":"trans ally danny  brown","steam_id":76561198239598834,"connected_time":580000000000,"state":"active","ping":134},{"user_id":365,"name":"Bendidy","steam_id":76561198041964300,"connected_time":527000000000,"state":"active","ping":74},{"user_id":359,"name":"i.love.ants.321","steam_id":76561198169755734,"connected_time":854000000000,"state":"active","ping":64},{"user_id":326,"name":"Squiliam","steam_id":76561198025278006,"connected_time":1611000000000,"state":"active","ping":111},{"user_id":368,"name":"narc","steam_id":76561197966003311,"connected_time":123000000000,"state":"active","ping":103},{"user_id":285,"name":"Yack Skag","steam_id":76561198068251493,"connected_time":3698000000000,"state":"active","ping":69},{"user_id":332,"name":"Clinically Insane","steam_id":76561199050055632,"connected_time":1487000000000,"state":"active","ping":69},{"user_id":191,"name":"selvhat","steam_id":76561198114225509,"connected_time":10930000000000,"state":"active","ping":75},{"user_id":343,"name":"whittecar","steam_id":76561198169715643,"connected_time":1178000000000,"state":"active","ping":42},{"user_id":334,"name":"Limp Pumpo Discography Fan Club","steam_id":76561198145748479,"connected_time":1448000000000,"state":"active","ping":58},{"user_id":295,"name":"Nobelium Uranium","steam_id":76561198286956154,"connected_time":2951000000000,"state":"active","ping":53},{"user_id":346,"name":"jimmy","steam_id":76561198411061839,"connected_time":1064000000000,"state":"active","ping":47}]},{"server_id":119,"name":"Uncletopia | Seattle | 2 | All Maps","name_short":"sea-2","host":"sea-1.us.uncletopia.com","port":27025,"enabled":true,"region":"us-west","cc":"us","latitude":47.608013,"longitude":-122.33517,"reserved":0,"last_update":"0001-01-01T00:00:00Z","name_a2s":"Uncletopia | Seattle | 2 | All Maps","protocol":17,"map":"cp_sunshine","folder":"tf","game":"Team Fortress","app_id":440,"player_count":24,"max_players":24,"Bots":0,"server_type":"Dedicated","server_os":"Linux","password":true,"vac":true,"version":"7932396","steam_id":85568392924469998,"keywords":["cp","nocrits","nodmgspread","uncletopia"],"game_id":440,"stv_port":27026,"stv_name":"Uncletopia | Seattle | 2 | All Maps | STV","players":[{"user_id":716,"name":"HideOnTate","steam_id":76561198209880837,"connected_time":1666000000000,"state":"active","ping":45},{"user_id":718,"name":"Grandpa 1MinecraftEmpire","steam_id":76561198069046338,"connected_time":1469000000000,"state":"active","ping":104},{"user_id":719,"name":"pigfarmer.gov","steam_id":76561199071167548,"connected_time":1250000000000,"state":"active","ping":114},{"user_id":720,"name":"Grognak","steam_id":76561198044710527,"connected_time":1241000000000,"state":"active","ping":53},{"user_id":674,"name":"DIGGY","steam_id":76561198991238982,"connected_time":4403000000000,"state":"active","ping":57},{"user_id":705,"name":"sadlaxx","steam_id":76561198061354919,"connected_time":2886000000000,"state":"active","ping":101},{"user_id":702,"name":"d'oh i missed","steam_id":76561198145320480,"connected_time":3152000000000,"state":"active","ping":139},{"user_id":744,"name":"ejschild745","steam_id":76561199013388867,"connected_time":403000000000,"state":"active","ping":72},{"user_id":745,"name":"hatsune miku","steam_id":76561199445009981,"connected_time":210000000000,"state":"active","ping":53},{"user_id":687,"name":"a cat plushie","steam_id":76561198080046542,"connected_time":3936000000000,"state":"active","ping":47},{"user_id":712,"name":"dweamy","steam_id":76561198119181880,"connected_time":2043000000000,"state":"active","ping":74},{"user_id":676,"name":"dab","steam_id":76561197997990613,"connected_time":4367000000000,"state":"active","ping":73},{"user_id":746,"name":"Sax","steam_id":76561198055425123,"connected_time":184000000000,"state":"active","ping":56},{"user_id":704,"name":"Agent Mania","steam_id":76561198029741272,"connected_time":2968000000000,"state":"active","ping":78},{"user_id":717,"name":"Luna","steam_id":76561198082944789,"connected_time":1582000000000,"state":"active","ping":83},{"user_id":625,"name":"a single goal","steam_id":76561198042913843,"connected_time":7907000000000,"state":"active","ping":60},{"user_id":743,"name":"ceres","steam_id":76561198291976960,"connected_time":814000000000,"state":"active","ping":75},{"user_id":713,"name":"greens beans","steam_id":76561198153611491,"connected_time":2007000000000,"state":"active","ping":44},{"user_id":747,"name":"SonRayne","steam_id":76561198297307212,"connected_time":178000000000,"state":"active","ping":123},{"user_id":714,"name":"Ockulus","steam_id":76561199069638460,"connected_time":1789000000000,"state":"active","ping":77},{"user_id":723,"name":"genaro salazar","steam_id":76561198085451776,"connected_time":1215000000000,"state":"active","ping":60},{"user_id":707,"name":"viciousbeatmaker","steam_id":76561198086876652,"connected_time":2867000000000,"state":"active","ping":78},{"user_id":700,"name":"Avery the Silly Trans girl","steam_id":76561199035402139,"connected_time":3186000000000,"state":"active","ping":48},{"user_id":709,"name":"beam man","steam_id":76561198060567341,"connected_time":2753000000000,"state":"active","ping":108}]},{"server_id":406,"name":"Uncletopia | Seattle | 3 | Stopwatch Beta","name_short":"sea-3","host":"sea-1.us.uncletopia.com","port":27035,"enabled":true,"region":"us-west","cc":"us","latitude":47.608013,"longitude":-122.33517,"reserved":0,"last_update":"0001-01-01T00:00:00Z","name_a2s":"Uncletopia | Seattle | 3 | Stopwatch Beta","protocol":17,"map":"workshop/koth_bagel_rc6.ugc2514036946","folder":"tf","game":"Team Fortress","app_id":440,"player_count":0,"max_players":24,"Bots":0,"server_type":"Dedicated","server_os":"Linux","password":true,"vac":true,"version":"7932396","steam_id":85568392924515217,"keywords":["cp","nocrits","nodmgspread","uncletopia"],"game_id":440,"stv_port":27036,"stv_name":"Uncletopia | Seattle | 3 | Stopwatch Beta | STV","players":null},{"server_id":17,"name":"Uncletopia | San Francisco | 1 | All Maps","name_short":"sfo-1","host":"sfo-1.us.uncletopia.com","port":27015,"enabled":true,"region":"us-west","cc":"us","latitude":37.77397,"longitude":-122.4313,"reserved":0,"last_update":"0001-01-01T00:00:00Z","name_a2s":"Uncletopia | San Francisco | 1 | All Maps","protocol":17,"map":"pl_barnblitz","folder":"tf","game":"Team Fortress","app_id":440,"player_count":24,"max_players":24,"Bots":0,"server_type":"Dedicated","server_os":"Linux","password":true,"vac":true,"version":"7932396","steam_id":85568392924469999,"keywords":["nocrits","nodmgspread","payload","uncletopia"],"game_id":440,"stv_port":27016,"stv_name":"Uncletopia | San Francisco | 1 | All Maps | STV","players":[{"user_id":129,"name":"tf2pyro","steam_id":76561198388184353,"connected_time":1717000000000,"state":"active","ping":84},{"user_id":135,"name":"ThePhoenixFamiliar","steam_id":76561198066416772,"connected_time":1216000000000,"state":"active","ping":100},{"user_id":163,"name":"bobbymcbobington","steam_id":76561199089411172,"connected_time":388000000000,"state":"active","ping":163},{"user_id":132,"name":"LevelZ3R0","steam_id":76561199239710681,"connected_time":1651000000000,"state":"active","ping":146},{"user_id":156,"name":"Envoy","steam_id":76561198170253694,"connected_time":725000000000,"state":"active","ping":82},{"user_id":149,"name":"Cheifer","steam_id":76561198372699269,"connected_time":892000000000,"state":"active","ping":76},{"user_id":160,"name":"FUNNY JOKE(pls laugh)","steam_id":76561199070877046,"connected_time":544000000000,"state":"active","ping":54},{"user_id":157,"name":"Uncle Dad","steam_id":76561198058073652,"connected_time":702000000000,"state":"active","ping":82},{"user_id":161,"name":"honku honku","steam_id":76561198325760629,"connected_time":474000000000,"state":"active","ping":101},{"user_id":141,"name":"Buswolley","steam_id":76561197995205571,"connected_time":1001000000000,"state":"active","ping":45},{"user_id":165,"name":"The Grim Heaper","steam_id":76561197987759101,"connected_time":294000000000,"state":"active","ping":84},{"user_id":143,"name":"PJROCK101","steam_id":76561198070616561,"connected_time":966000000000,"state":"active","ping":83},{"user_id":145,"name":"whigmalwhim","steam_id":76561198338741303,"connected_time":924000000000,"state":"active","ping":139},{"user_id":168,"name":"❄ ǝlddɐǝuᴉd ❄","steam_id":76561198041108726,"connected_time":58000000000,"state":"active","ping":61},{"user_id":147,"name":"fierbolt","steam_id":76561198081948338,"connected_time":918000000000,"state":"active","ping":56},{"user_id":148,"name":"EL-1-XR","steam_id":76561198123214359,"connected_time":915000000000,"state":"active","ping":48},{"user_id":150,"name":"Aureum Custos","steam_id":76561198062627582,"connected_time":816000000000,"state":"active","ping":80},{"user_id":151,"name":"baguette","steam_id":76561199097689778,"connected_time":815000000000,"state":"active","ping":99},{"user_id":152,"name":"Peppino Spaghetti","steam_id":76561199260650075,"connected_time":814000000000,"state":"active","ping":90},{"user_id":153,"name":"nburns","steam_id":76561199227334296,"connected_time":791000000000,"state":"active","ping":85},{"user_id":166,"name":"UwUTechTwash","steam_id":76561198178088831,"connected_time":286000000000,"state":"active","ping":88},{"user_id":155,"name":"[ G R * T T Y ]","steam_id":76561198048986218,"connected_time":756000000000,"state":"active","ping":69},{"user_id":158,"name":"Carl10O1","steam_id":76561198000040485,"connected_time":701000000000,"state":"active","ping":109},{"user_id":159,"name":"CommanderZander","steam_id":76561199012057660,"connected_time":697000000000,"state":"active","ping":77}]},{"server_id":18,"name":"Uncletopia | San Francisco | 2 | All Maps","name_short":"sfo-2","host":"sfo-1.us.uncletopia.com","port":27025,"enabled":true,"region":"us-west","cc":"us","latitude":37.77397,"longitude":-122.4313,"reserved":0,"last_update":"0001-01-01T00:00:00Z","name_a2s":"Uncletopia | San Francisco | 2 | All Maps","protocol":17,"map":"pl_frontier_final","folder":"tf","game":"Team Fortress","app_id":440,"player_count":24,"max_players":24,"Bots":0,"server_type":"Dedicated","server_os":"Linux","password":true,"vac":true,"version":"7932396","steam_id":85568392924470000,"keywords":["nocrits","nodmgspread","payload","uncletopia"],"game_id":440,"stv_port":27026,"stv_name":"Uncletopia | San Francisco | 2 | All Maps | STV","players":[{"user_id":173,"name":"uhoh","steam_id":76561198136967934,"connected_time":1084000000000,"state":"active","ping":70},{"user_id":142,"name":"slightly faster heavy","steam_id":76561199077027954,"connected_time":2765000000000,"state":"active","ping":66},{"user_id":181,"name":"The Roof Guy","steam_id":76561198963469265,"connected_time":381000000000,"state":"active","ping":65},{"user_id":182,"name":"Norriss","steam_id":76561198920296293,"connected_time":357000000000,"state":"active","ping":54},{"user_id":110,"name":"AT✪MIC","steam_id":76561198100385184,"connected_time":3514000000000,"state":"active","ping":59},{"user_id":69,"name":"Pablo Sr.","steam_id":76561199139116062,"connected_time":4445000000000,"state":"active","ping":81},{"user_id":183,"name":"TheLlamaKang","steam_id":76561198125828837,"connected_time":349000000000,"state":"active","ping":120},{"user_id":87,"name":"Squisheey","steam_id":76561198414840326,"connected_time":3938000000000,"state":"active","ping":67},{"user_id":171,"name":"Curtisssalem","steam_id":76561199033918651,"connected_time":1284000000000,"state":"active","ping":123},{"user_id":178,"name":"Kazel","steam_id":76561197989757682,"connected_time":882000000000,"state":"active","ping":112},{"user_id":168,"name":"Feel the bern","steam_id":76561198078824519,"connected_time":1474000000000,"state":"active","ping":53},{"user_id":162,"name":"Mr. DeLarge","steam_id":76561198336820066,"connected_time":1841000000000,"state":"active","ping":80},{"user_id":174,"name":"Scuff1e","steam_id":76561198272995728,"connected_time":1084000000000,"state":"active","ping":90},{"user_id":184,"name":"Lord Scrubling","steam_id":76561198263744445,"connected_time":347000000000,"state":"active","ping":82},{"user_id":37,"name":"naturia","steam_id":76561198092317849,"connected_time":5473000000000,"state":"active","ping":48},{"user_id":43,"name":"Ansuz();","steam_id":76561198260732135,"connected_time":5327000000000,"state":"active","ping":83},{"user_id":41,"name":"-_-","steam_id":76561198048754646,"connected_time":5449000000000,"state":"active","ping":56},{"user_id":185,"name":"Fatal Top Deficiency","steam_id":76561198141738612,"connected_time":259000000000,"state":"active","ping":126},{"user_id":177,"name":"pikminmaster128","steam_id":76561198958620086,"connected_time":930000000000,"state":"active","ping":95},{"user_id":153,"name":"lili","steam_id":76561199391478575,"connected_time":2254000000000,"state":"active","ping":83},{"user_id":138,"name":"Contender","steam_id":76561198074607715,"connected_time":2802000000000,"state":"active","ping":136},{"user_id":49,"name":"Idiot","steam_id":76561198973316284,"connected_time":5186000000000,"state":"active","ping":100},{"user_id":166,"name":"Sea raider","steam_id":76561198123982355,"connected_time":1524000000000,"state":"active","ping":90},{"user_id":58,"name":"BurningKev","steam_id":76561198057688837,"connected_time":4883000000000,"state":"active","ping":75}]},{"server_id":19,"name":"Uncletopia | San Francisco | 3 | Stopwatch Beta","name_short":"sfo-3","host":"sfo-1.us.uncletopia.com","port":27035,"enabled":true,"region":"us-west","cc":"us","latitude":37.77397,"longitude":-122.4313,"reserved":0,"last_update":"0001-01-01T00:00:00Z","name_a2s":"Uncletopia | San Francisco | 3 | Stopwatch Beta","protocol":17,"map":"workshop/pl_vigil_rc9.ugc1266210012","folder":"tf","game":"Team Fortress","app_id":440,"player_count":0,"max_players":24,"Bots":0,"server_type":"Dedicated","server_os":"Linux","password":true,"vac":true,"version":"7932396","steam_id":85568392924742824,"keywords":["nocrits","nodmgspread","payload","uncletopia"],"game_id":440,"stv_port":27036,"stv_name":"Uncletopia | San Francisco | 3 | Stopwatch Beta | STV","players":null},{"server_id":20,"name":"Uncletopia | San Francisco | 4 | Community","name_short":"sfo-4","host":"sfo-1.us.uncletopia.com","port":27045,"enabled":true,"region":"us-west","cc":"us","latitude":37.77397,"longitude":-122.4313,"reserved":0,"last_update":"0001-01-01T00:00:00Z","name_a2s":"Uncletopia | San Francisco | 4 | Community","protocol":17,"map":"workshop/cp_croissant_final.ugc458840209","folder":"tf","game":"Team Fortress","app_id":440,"player_count":0,"max_players":24,"Bots":0,"server_type":"Dedicated","server_os":"Linux","password":true,"vac":true,"version":"7932396","steam_id":85568392924742826,"keywords":["cp","nocrits","nodmgspread","uncletopia"],"game_id":440,"stv_port":27046,"stv_name":"Uncletopia | San Francisco | 4 | Community | STV","players":null},{"server_id":141,"name":"Uncletopia | Sydney | 1 | All Maps","name_short":"syd-1","host":"syd-1.au.uncletopia.com","port":27015,"enabled":true,"region":"au","cc":"au","latitude":-33.865143,"longitude":151.2099,"reserved":0,"last_update":"0001-01-01T00:00:00Z","name_a2s":"Uncletopia | Sydney | 1 | All Maps","protocol":17,"map":"koth_highpass","folder":"tf","game":"Team Fortress","app_id":440,"player_count":0,"max_players":24,"Bots":0,"server_type":"Dedicated","server_os":"Linux","password":true,"vac":true,"version":"7932396","steam_id":85568392924470001,"keywords":["cp","nocrits","nodmgspread","uncletopia"],"game_id":440,"stv_port":27016,"stv_name":"Uncletopia | Sydney | 1 | All Maps | STV","players":null},{"server_id":123,"name":"Uncletopia | Sydney | 2 | All Maps","name_short":"syd-2","host":"syd-1.au.uncletopia.com","port":27025,"enabled":true,"region":"au","cc":"au","latitude":-33.865143,"longitude":151.2099,"reserved":0,"last_update":"0001-01-01T00:00:00Z","name_a2s":"Uncletopia | Sydney | 2 | All Maps","protocol":17,"map":"pl_upward","folder":"tf","game":"Team Fortress","app_id":440,"player_count":17,"max_players":24,"Bots":0,"server_type":"Dedicated","server_os":"Linux","password":true,"vac":true,"version":"7932396","steam_id":85568392924470002,"keywords":["nocrits","nodmgspread","payload","uncletopia"],"game_id":440,"stv_port":27026,"stv_name":"Uncletopia | Sydney | 2 | All Maps | STV","players":[{"user_id":234,"name":"Hawk","steam_id":76561198135164277,"connected_time":220000000000,"state":"active","ping":47},{"user_id":235,"name":"sentri","steam_id":76561199268541007,"connected_time":215000000000,"state":"active","ping":55},{"user_id":236,"name":"wom","steam_id":76561199375834537,"connected_time":185000000000,"state":"active","ping":131},{"user_id":222,"name":"CouldBeKarlos","steam_id":76561198956180767,"connected_time":1072000000000,"state":"active","ping":51},{"user_id":142,"name":"SUSHIMAN","steam_id":76561199089989428,"connected_time":6584000000000,"state":"active","ping":93},{"user_id":217,"name":"cocaine bear","steam_id":76561198129112901,"connected_time":1760000000000,"state":"active","ping":60},{"user_id":209,"name":"MindlessTie","steam_id":76561198107844324,"connected_time":2276000000000,"state":"active","ping":70},{"user_id":153,"name":"jim :)","steam_id":76561198127508905,"connected_time":5717000000000,"state":"active","ping":39},{"user_id":231,"name":"itsnothenry","steam_id":76561197966455767,"connected_time":453000000000,"state":"active","ping":52},{"user_id":158,"name":"bub","steam_id":76561198446126519,"connected_time":5384000000000,"state":"active","ping":45},{"user_id":193,"name":"Storms","steam_id":76561199058704739,"connected_time":3170000000000,"state":"active","ping":87},{"user_id":130,"name":"Empolé","steam_id":76561198363939040,"connected_time":7469000000000,"state":"active","ping":72},{"user_id":233,"name":"mwahlib","steam_id":76561198044007267,"connected_time":347000000000,"state":"active","ping":39},{"user_id":225,"name":"mada","steam_id":76561199436707447,"connected_time":870000000000,"state":"active","ping":45},{"user_id":71,"name":"Marzell","steam_id":76561198151276153,"connected_time":10946000000000,"state":"active","ping":91},{"user_id":229,"name":"lemur","steam_id":76561198278239170,"connected_time":609000000000,"state":"active","ping":89},{"user_id":213,"name":"b4sedhk","steam_id":76561198831069486,"connected_time":1966000000000,"state":"active","ping":58}]},{"server_id":395,"name":"Uncletopia | Sydney | 3 | All Maps","name_short":"syd-3","host":"syd-1.au.uncletopia.com","port":27035,"enabled":true,"region":"au","cc":"au","latitude":-33.865143,"longitude":151.2099,"reserved":0,"last_update":"0001-01-01T00:00:00Z","name_a2s":"Uncletopia | Sydney | 3 | All Maps","protocol":17,"map":"pl_barnblitz","folder":"tf","game":"Team Fortress","app_id":440,"player_count":0,"max_players":24,"Bots":0,"server_type":"Dedicated","server_os":"Linux","password":true,"vac":true,"version":"7932396","steam_id":85568392925194467,"keywords":["nocrits","nodmgspread","payload","uncletopia"],"game_id":440,"stv_port":27036,"stv_name":"Uncletopia | Sydney | 3 | All Maps | STV","players":null},{"server_id":396,"name":"Uncletopia | Sydney | 4 | All Maps","name_short":"syd-4","host":"syd-1.au.uncletopia.com","port":27045,"enabled":true,"region":"au","cc":"au","latitude":-33.865143,"longitude":151.2099,"reserved":0,"last_update":"0001-01-01T00:00:00Z","name_a2s":"Uncletopia | Sydney | 4 | All Maps","protocol":17,"map":"pl_pier","folder":"tf","game":"Team Fortress","app_id":440,"player_count":0,"max_players":24,"Bots":0,"server_type":"Dedicated","server_os":"Linux","password":true,"vac":true,"version":"7932396","steam_id":85568392925397958,"keywords":["nocrits","nodmgspread","payload","uncletopia"],"game_id":440,"stv_port":27046,"stv_name":"Uncletopia | Sydney | 4 | All Maps | STV","players":null},{"server_id":58,"name":"Uncletopia | Sydney | 5 | Stopwatch Beta","name_short":"syd-5","host":"syd-1.au.uncletopia.com","port":27055,"enabled":true,"region":"au","cc":"au","latitude":-33.865143,"longitude":151.2099,"reserved":0,"last_update":"0001-01-01T00:00:00Z","name_a2s":"Uncletopia | Sydney | 5 | Stopwatch Beta","protocol":17,"map":"pl_borneo","folder":"tf","game":"Team Fortress","app_id":440,"player_count":0,"max_players":24,"Bots":0,"server_type":"Dedicated","server_os":"Linux","password":true,"vac":true,"version":"7932396","steam_id":85568392925397959,"keywords":["nocrits","nodmgspread","payload","uncletopia"],"game_id":440,"stv_port":27056,"stv_name":"Uncletopia | Sydney | 5 | Stopwatch Beta | STV","players":null},{"server_id":59,"name":"Uncletopia | Sydney | 6 | Community","name_short":"syd-6","host":"syd-1.au.uncletopia.com","port":27065,"enabled":true,"region":"au","cc":"au","latitude":-33.865143,"longitude":151.2099,"reserved":0,"last_update":"0001-01-01T00:00:00Z","name_a2s":"Uncletopia | Sydney | 6 | Community","protocol":17,"map":"workshop/cp_snowbase_b18.ugc2081770490","folder":"tf","game":"Team Fortress","app_id":440,"player_count":0,"max_players":24,"Bots":0,"server_type":"Dedicated","server_os":"Linux","password":true,"vac":true,"version":"7932396","steam_id":85568392925397960,"keywords":["cp","nocrits","nodmgspread","uncletopia"],"game_id":440,"stv_port":27066,"stv_name":"Uncletopia | Sydney | 6 | Community | STV","players":null},{"server_id":49,"name":"Uncletopia | Warsaw | 1 | All Maps","name_short":"waw-1","host":"waw-1.pl.uncletopia.com","port":27015,"enabled":true,"region":"eu","cc":"pl","latitude":52.2297,"longitude":21.017532,"reserved":0,"last_update":"0001-01-01T00:00:00Z","name_a2s":"","protocol":0,"map":"","folder":"","game":"","app_id":0,"player_count":0,"max_players":0,"Bots":0,"server_type":"","server_os":"","password":false,"vac":false,"version":"","steam_id":0,"keywords":null,"game_id":0,"stv_port":0,"stv_name":"","players":null},{"server_id":50,"name":"Uncletopia | Warsaw | 2 | All Maps","name_short":"waw-2","host":"waw-1.pl.uncletopia.com","port":27025,"enabled":true,"region":"eu","cc":"pl","latitude":52.2297,"longitude":21.017532,"reserved":0,"last_update":"0001-01-01T00:00:00Z","name_a2s":"Uncletopia | Warsaw | 2 | All Maps","protocol":17,"map":"koth_highpass","folder":"tf","game":"Team Fortress","app_id":440,"player_count":0,"max_players":24,"Bots":0,"server_type":"Dedicated","server_os":"Linux","password":true,"vac":true,"version":"7932396","steam_id":85568392925397851,"keywords":["cp","nocrits","nodmgspread","uncletopia"],"game_id":440,"stv_port":27026,"stv_name":"Uncletopia | Warsaw | 2 | All Maps | STV","players":null},{"server_id":51,"name":"Uncletopia | Warsaw | 3 | All Maps","name_short":"waw-3","host":"waw-1.pl.uncletopia.com","port":27035,"enabled":true,"region":"eu","cc":"pl","latitude":52.2297,"longitude":21.017532,"reserved":0,"last_update":"0001-01-01T00:00:00Z","name_a2s":"Uncletopia | Warsaw | 3 | All Maps","protocol":17,"map":"pl_pier","folder":"tf","game":"Team Fortress","app_id":440,"player_count":0,"max_players":24,"Bots":0,"server_type":"Dedicated","server_os":"Linux","password":true,"vac":true,"version":"7932396","steam_id":85568392925397852,"keywords":["nocrits","nodmgspread","payload","uncletopia"],"game_id":440,"stv_port":27036,"stv_name":"Uncletopia | Warsaw | 3 | All Maps | STV","players":null},{"server_id":52,"name":"Uncletopia | Warsaw | 4 | All Maps","name_short":"waw-4","host":"waw-1.pl.uncletopia.com","port":27045,"enabled":true,"region":"eu","cc":"pl","latitude":52.2297,"longitude":21.017532,"reserved":0,"last_update":"0001-01-01T00:00:00Z","name_a2s":"Uncletopia | Warsaw | 4 | All Maps","protocol":17,"map":"pl_frontier_final","folder":"tf","game":"Team Fortress","app_id":440,"player_count":0,"max_players":24,"Bots":0,"server_type":"Dedicated","server_os":"Linux","password":true,"vac":true,"version":"7932396","steam_id":85568392925397853,"keywords":["nocrits","nodmgspread","payload","uncletopia"],"game_id":440,"stv_port":27046,"stv_name":"Uncletopia | Warsaw | 4 | All Maps | STV","players":null},{"server_id":53,"name":"Uncletopia | Warsaw | 5 | Stopwatch Beta","name_short":"waw-5","host":"waw-1.pl.uncletopia.com","port":27055,"enabled":true,"region":"eu","cc":"pl","latitude":52.2297,"longitude":21.017532,"reserved":0,"last_update":"0001-01-01T00:00:00Z","name_a2s":"Uncletopia | Warsaw | 5 | Stopwatch Beta","protocol":17,"map":"pl_upward","folder":"tf","game":"Team Fortress","app_id":440,"player_count":0,"max_players":24,"Bots":0,"server_type":"Dedicated","server_os":"Linux","password":true,"vac":true,"version":"7932396","steam_id":85568392925397854,"keywords":["nocrits","nodmgspread","payload","uncletopia"],"game_id":440,"stv_port":27056,"stv_name":"Uncletopia | Warsaw | 5 | Stopwatch Beta | STV","players":null},{"server_id":54,"name":"Uncletopia | Warsaw | 6 | Community","name_short":"waw-6","host":"waw-1.pl.uncletopia.com","port":27065,"enabled":true,"region":"eu","cc":"pl","latitude":52.2297,"longitude":21.017532,"reserved":0,"last_update":"0001-01-01T00:00:00Z","name_a2s":"Uncletopia | Warsaw | 6 | Community","protocol":17,"map":"workshop/cp_bruhstbowl_b6.ugc2878604990","folder":"tf","game":"Team Fortress","app_id":440,"player_count":0,"max_players":24,"Bots":0,"server_type":"Dedicated","server_os":"Linux","password":true,"vac":true,"version":"7932396","steam_id":85568392925397856,"keywords":["cp","nocrits","nodmgspread","uncletopia"],"game_id":440,"stv_port":27066,"stv_name":"Uncletopia | Warsaw | 6 | Community | STV","players":null}]}