{"status":true,"message":"","result":[{"server_id":9,"name":"Uncletopia | Atlanta | 1 | All Maps","name_short":"atl-1","host":"atl-1.us.uncletopia.com","port":27015,"enabled":true,"region":"us-east","cc":"us","latitude":33.753746,"longitude":-84.38633,"reserved":0,"last_update":"0001-01-01T00:00:00Z","name_a2s":"Uncletopia | Atlanta | 1 | All Maps","protocol":17,"map":"pl_upward","folder":"tf","game":"Team Fortress","app_id":440,"player_count":24,"max_players":24,"Bots":0,"server_type":"Dedicated","server_os":"Linux","password":true,"vac":true,"version":"7961495","steam_id":85568392924469982,"keywords":["nocrits","nodmgspread","payload","uncletopia"],"game_id":440,"stv_port":27016,"stv_name":"Uncletopia | Atlanta | 1 | All Maps | STV","players":null},{"server_id":104,"name":"Uncletopia | Atlanta | 2 | All Maps","name_short":"atl-2","host":"atl-1.us.uncletopia.com","port":27025,"enabled":true,"region":"us-east","cc":"us","latitude":33.753746,"longitude":-84.38633,"reserved":0,"last_update":"0001-01-01T00:00:00Z","name_a2s":"Uncletopia | Atlanta | 2 | All Maps","protocol":17,"map":"koth_cascade","folder":"tf","game":"Team Fortress","app_id":440,"player_count":0,"max_players":24,"Bots":0,"server_type":"Dedicated","server_os":"Linux","password":true,"vac":true,"version":"7961495","steam_id":85568392924469983,"keywords":["cp","nocrits","nodmgspread","uncletopia"],"game_id":440,"stv_port":27026,"stv_name":"Uncletopia | Atlanta | 2 | All Maps | STV","players":null},{"server_id":400,"name":"Uncletopia | Atlanta | 3 | Stopwatch","name_short":"atl-3","host":"atl-1.us.uncletopia.com","port":27035,"enabled":true,"region":"us-east","cc":"us","latitude":33.753746,"longitude":-84.38633,"reserved":0,"last_update":"0001-01-01T00:00:00Z","name_a2s":"Uncletopia | Atlanta | 3 | Stopwatch","protocol":17,"map":"pl_upward","folder":"tf","game":"Team Fortress","app_id":440,"player_count":0,"max_players":24,"Bots":0,"server_type":"Dedicated","server_os":"Linux","password":true,"vac":true,"version":"7961495","steam_id":85568392924515187,"keywords":["nocrits","nodmgspread","payload","uncletopia"],"game_id":440,"stv_port":27036,"stv_name":"Uncletopia | Atlanta | 3 | Stopwatch | STV","players":null},{"server_id":401,"name":"Uncletopia | Atlanta | 4 | Community","name_short":"atl-4","host":"atl-1.us.uncletopia.com","port":27045,"enabled":true,"region":"us-east","cc":"us","latitude":33.753746,"longitude":-84.38633,"reserved":0,"last_update":"0001-01-01T00:00:00Z","name_a2s":"Uncletopia | Atlanta | 4 | Community","protocol":17,"map":"koth_ashville_final","folder":"tf","game":"Team Fortress","app_id":440,"player_count":1,"max_players":24,"Bots":0,"server_type":"Dedicated","server_os":"Linux","password":true,"vac":true,"version":"7961495","steam_id":85568392924515188,"keywords":["cp","nocrits","nodmgspread","uncletopia"],"game_id":440,"stv_port":27046,"stv_name":"Uncletopia | Atlanta | 4 | Community | STV","players":null},{"server_id":2,"name":"Uncletopia | Chicago | 1 | All Maps","name_short":"chi-1","host":"chi-1.us.uncletopia.com","port":27015,"enabled":true,"region":"us-central","cc":"us","latitude":41.881832,"longitude":-87.62318,"reserved":0,"last_update":"0001-01-01T00:00:00Z","name_a2s":"Uncletopia | Chicago | 1 | All Maps","protocol":17,"map":"pl_frontier_final","folder":"tf","game":"Team Fortress","app_id":440,"player_count":24,"max_players":24,"Bots":0,"server_type":"Dedicated","server_os":"Linux","password":true,"vac":true,"version":"7961495","steam_id":85568392924469984,"keywords":["nocrits","nodmgspread","payload","uncletopia"],"game_id":440,"stv_port":27016,"stv_name":"Uncletopia | Chicago | 1 | All Maps | STV","players":[{"user_id":279,"name":"women in suits #transrights","steam_id":76561198103901723,"connected_time":6553000000000,"state":"active","ping":75},{"user_id":354,"name":"vv","steam_id":76561198134813102,"connected_time":994000000000,"state":"active","ping":54},{"user_id":342,"name":"Bussy Bandit","steam_id":76561198034028769,"connected_time":1834000000000,"state":"active","ping":64},{"user_id":364,"name":"steakfarmasian","steam_id":76561198212754036,"connected_time":382000000000,"state":"active","ping":54},{"user_id":320,"name":"Blithen","steam_id":76561197989955619,"connected_time":3934000000000,"state":"active","ping":116},{"user_id":338,"name":"Ras","steam_id":76561198123546775,"connected_time":1855000000000,"state":"active","ping":89},{"user_id":290,"name":"cotton candy ghooost","steam_id":76561198058998371,"connected_time":5686000000000,"state":"active","ping":64},{"user_id":328,"name":"Slip","steam_id":76561199057232579,"connected_time":3425000000000,"state":"active","ping":51},{"user_id":352,"name":"None of that $9.99 bullshit","steam_id":76561198116169903,"connected_time":1397000000000,"state":"active","ping":44},{"user_id":357,"name":"‚ô•Gothie‚ô•","steam_id":76561198166814648,"connected_time":790000000000,"state":"active","ping":121},{"user_id":356,"name":"‚ù§Womp‚ù§(Road To 2 Mil Heals)","steam_id":76561198167488304,"connected_time":826000000000,"state":"active","ping":50},{"user_id":353,"name":"mr poop","steam_id":76561199195196632,"connected_time":1393000000000,"state":"active","ping":71},{"user_id":325,"name":"veryscaryreaper","steam_id":76561198380018244,"connected_time":3881000000000,"state":"active","ping":76},{"user_id":359,"name":"Yam Jazzy Jim","steam_id":76561198000788950,"connected_time":728000000000,"state":"active","ping":70},{"user_id":361,"name":"amberenix","steam_id":76561198805110908,"connected_time":691000000000,"state":"active","ping":75},{"user_id":313,"name":"4Lukaska","steam_id":76561198083515060,"connected_time":4430000000000,"state":"active","ping":55},{"user_id":355,"name":"Comradical","steam_id":76561197990808285,"connected_time":828000000000,"state":"active","ping":72},{"user_id":294,"name":"fish ‚óè","steam_id":76561198999217575,"connected_time":5560000000000,"state":"active","ping":71},{"user_id":358,"name":"BRUH NATOR","steam_id":76561199094694437,"connected_time":771000000000,"state":"active","ping":87},{"user_id":304,"name":"ìÜèCayenne Pepper ìÜè","steam_id":76561198124881810,"connected_time":5345000000000,"state":"active","ping":119},{"user_id":365,"name":"Ruusty","steam_id":76561198327249755,"connected_time":278000000000,"state":"active","ping":74},{"user_id":363,"name":"Nut Commander","steam_id":76561198065989058,"connected_time":547000000000,"state":"active","ping":62},{"user_id":251,"name":"finger","steam_id":76561198068558572,"connected_time":7981000000000,"state":"active","ping":92},{"user_id":335,"name":"Hylic","steam_id":76561199051314589,"connected_time":2865000000000,"state":"active","ping":80}]},{"server_id":106,"name":"Uncletopia | Chicago | 2 | All Maps","name_short":"chi-2","host":"chi-1.us.uncletopia.com","port":27025,"enabled":true,"region":"us-central","cc":"us","latitude":41.881832,"longitude":-87.62318,"reserved":0,"last_update":"0001-01-01T00:00:00Z","name_a2s":"Uncletopia | Chicago | 2 | All Maps","protocol":17,"map":"koth_badlands","folder":"tf","game":"Team Fortress","app_id":440,"player_count":24,"max_players":24,"Bots":0,"server_type":"Dedicated","server_os":"Linux","password":true,"vac":true,"version":"7961495","steam_id":85568392924469985,"keywords":["cp","nocrits","nodmgspread","uncletopia"],"game_id":440,"stv_port":27026,"stv_name":"Uncletopia | Chicago | 2 | All Maps | STV","players":[{"user_id":216,"name":"SandwitchSenpai","steam_id":76561198203609264,"connected_time":148000000000,"state":"active","ping":61},{"user_id":165,"name":"that shit for the birds","steam_id":76561198142756572,"connected_time":3449000000000,"state":"active","ping":60},{"user_id":211,"name":"Dakota Sutcliffe","steam_id":76561198170660959,"connected_time":1010000000000,"state":"active","ping":71},{"user_id":187,"name":"Kazul","steam_id":76561198014925555,"connected_time":2362000000000,"state":"active","ping":58},{"user_id":207,"name":"Meathouse","steam_id":76561198169966346,"connected_time":1231000000000,"state":"active","ping":78},{"user_id":168,"name":"mOoOoOoO","steam_id":76561198145615363,"connected_time":2908000000000,"state":"active","ping":75},{"user_id":159,"name":"FIJI","steam_id":76561198126087725,"connected_time":4020000000000,"state":"active","ping":73},{"user_id":162,"name":"Disco Fever","steam_id":76561198069532215,"connected_time":3656000000000,"state":"active","ping":75},{"user_id":196,"name":"Krouton","steam_id":76561198037514022,"connected_time":1386000000000,"state":"active","ping":60},{"user_id":203,"name":"Genne","steam_id":76561198153434791,"connected_time":1336000000000,"state":"active","ping":70},{"user_id":200,"name":"ZombieMan101","steam_id":76561198846999186,"connected_time":1349000000000,"state":"active","ping":140},{"user_id":166,"name":"GreySweaterCat","steam_id":76561198351860293,"connected_time":3395000000000,"state":"active","ping":90},{"user_id":185,"name":"dahperson","steam_id":76561198067207467,"connected_time":2412000000000,"state":"active","ping":59},{"user_id":210,"name":"steve","steam_id":76561198075510786,"connected_time":1043000000000,"state":"active","ping":68},{"user_id":213,"name":"cbv dasfgfcdesrye","steam_id":76561198304661367,"connected_time":777000000000,"state":"active","ping":76},{"user_id":173,"name":"Fred II (2011)","steam_id":76561199240694966,"connected_time":2817000000000,"state":"active","ping":62},{"user_id":204,"name":"Cherry Bomb!","steam_id":76561198017947020,"connected_time":1329000000000,"state":"active","ping":69},{"user_id":194,"name":"Sensei Wu From Ninjago","steam_id":76561198424670596,"connected_time":1567000000000,"state":"active","ping":79},{"user_id":201,"name":"Quartzalcoatl","steam_id":76561198044944584,"connected_time":1344000000000,"state":"active","ping":84},{"user_id":214,"name":"PixelGoat","steam_id":76561198122292109,"connected_time":689000000000,"state":"active","ping":154},{"user_id":206,"name":"Hertz","steam_id":76561198310927351,"connected_time":1291000000000,"state":"active","ping":146},{"user_id":148,"name":"King","steam_id":76561198039763676,"connected_time":4070000000000,"state":"active","ping":67},{"user_id":212,"name":"Neon","steam_id":76561198089067907,"connected_time":973000000000,"state":"active","ping":72},{"user_id":179,"name":"cheeserific","steam_id":76561198087598341,"connected_time":2669000000000,"state":"active","ping":85}]},{"server_id":402,"name":"Uncletopia | Chicago | 3 | All Maps","name_short":"chi-3","host":"chi-1.us.uncletopia.com","port":27035,"enabled":true,"region":"us-central","cc":"us","latitude":41.881832,"longitude":-87.62318,"reserved":0,"last_update":"0001-01-01T00:00:00Z","name_a2s":"Uncletopia | Chicago | 3 | All Maps","protocol":17,"map":"cp_well","folder":"tf","game":"Team Fortress","app_id":440,"player_count":24,"max_players":24,"Bots":0,"server_type":"Dedicated","server_os":"Linux","password":true,"vac":true,"version":"7961495","steam_id":85568392924515191,"keywords":["cp","nocrits","nodmgspread","uncletopia"],"game_id":440,"stv_port":27036,"stv_name":"Uncletopia | Chicago | 3 | All Maps | STV","players":[{"user_id":89,"name":"Zeek","steam_id":76561197987204351,"connected_time":2654000000000,"state":"active","ping":59},{"user_id":103,"name":"rice","steam_id":76561198119326733,"connected_time":1112000000000,"state":"active","ping":86},{"user_id":93,"name":"Ockulus","steam_id":76561199069638460,"connected_time":2317000000000,"state":"active","ping":102},{"user_id":102,"name":"Unfuefueunfuefuefueonokotakiosa","steam_id":76561198101366032,"connected_time":1131000000000,"state":"active","ping":91},{"user_id":111,"name":"Portal2Player","steam_id":76561198062870114,"connected_time":823000000000,"state":"active","ping":89},{"user_id":114,"name":"justpixels","steam_id":76561198143717568,"connected_time":267000000000,"state":"active","ping":202},{"user_id":104,"name":"Crabby Patty","steam_id":76561198071150936,"connected_time":1071000000000,"state":"active","ping":85},{"user_id":98,"name":"WingsTV","steam_id":76561198068008551,"connected_time":1666000000000,"state":"active","ping":81},{"user_id":115,"name":"Triwq","steam_id":76561198054810406,"connected_time":261000000000,"state":"active","ping":60},{"user_id":18,"name":"J The Jounin","steam_id":76561198034583622,"connected_time":7019000000000,"state":"active","ping":77},{"user_id":61,"name":"alset333","steam_id":76561198405345260,"connected_time":4654000000000,"state":"active","ping":60},{"user_id":105,"name":"TheLuzinator","steam_id":76561198377144604,"connected_time":1070000000000,"state":"active","ping":77},{"user_id":87,"name":"U œâ U","steam_id":76561198118802562,"connected_time":2678000000000,"state":"active","ping":114},{"user_id":92,"name":"Fatass Hennessy Sargent","steam_id":76561198363267009,"connected_time":2505000000000,"state":"active","ping":65},{"user_id":116,"name":"wish you were here","steam_id":76561198282764599,"connected_time":241000000000,"state":"active","ping":45},{"user_id":106,"name":"Mr. Mane T.S.H.A.","steam_id":76561198056728986,"connected_time":1016000000000,"state":"active","ping":64},{"user_id":107,"name":"Plimki","steam_id":76561199019877748,"connected_time":935000000000,"state":"active","ping":82},{"user_id":88,"name":"Blade Racer","steam_id":76561198155896703,"connected_time":2677000000000,"state":"active","ping":75},{"user_id":72,"name":"Primal","steam_id":76561197983118203,"connected_time":4016000000000,"state":"active","ping":74},{"user_id":112,"name":"Fobby #Savetf2","steam_id":76561198047681469,"connected_time":786000000000,"state":"active","ping":87},{"user_id":75,"name":"Casual Costanza","steam_id":76561198024409325,"connected_time":3966000000000,"state":"active","ping":64},{"user_id":109,"name":"fishy","steam_id":76561198018622305,"connected_time":924000000000,"state":"active","ping":68},{"user_id":113,"name":"Freyja","steam_id":76561198207412177,"connected_time":782000000000,"state":"active","ping":73},{"user_id":69,"name":"Mythic","steam_id":76561198028616665,"connected_time":4602000000000,"state":"active","ping":62}]},{"server_id":403,"name":"Uncletopia | Chicago | 4 | All Maps","name_short":"chi-4","host":"chi-1.us.uncletopia.com","port":27045,"enabled":true,"region":"us-central","cc":"us","latitude":41.881832,"longitude":-87.62318,"reserved":0,"last_update":"0001-01-01T00:00:00Z","name_a2s":"Uncletopia | Chicago | 4 | All Maps","protocol":17,"map":"koth_cascade","folder":"tf","game":"Team Fortress","app_id":440,"player_count":11,"max_players":24,"Bots":0,"server_type":"Dedicated","server_os":"Linux","password":true,"vac":true,"version":"7961495","steam_id":85568392924515193,"keywords":["cp","nocrits","nodmgspread","uncletopia"],"game_id":440,"stv_port":27046,"stv_name":"Uncletopia | Chicago | 4 | All Maps | STV","players":[{"user_id":6,"name":"Darth Duud","steam_id":76561198799198857,"connected_time":1271000000000,"state":"active","ping":73},{"user_id":13,"name":"Krustytoepaste","steam_id":76561198320265524,"connected_time":619000000000,"state":"active","ping":98},{"user_id":8,"name":"SithLord777","steam_id":76561199498930845,"connected_time":1116000000000,"state":"active","ping":66},{"user_id":14,"name":"Scientific Triumph","steam_id":76561198815127418,"connected_time":362000000000,"state":"active","ping":170},{"user_id":11,"name":"gabrieleckmeyer","steam_id":76561199498742780,"connected_time":1024000000000,"state":"active","ping":65},{"user_id":12,"name":"-The Death Cat-","steam_id":76561198110719840,"connected_time":979000000000,"state":"active","ping":72},{"user_id":15,"name":"Vip3r","steam_id":76561199077814151,"connected_time":214000000000,"state":"active","ping":159},{"user_id":16,"name":"shitass (Reaping and Sowing)","steam_id":76561198210572481,"connected_time":110000000000,"state":"active","ping":75},{"user_id":17,"name":"soarinlauren","steam_id":76561199482944619,"connected_time":90000000000,"state":"active","ping":92},{"user_id":18,"name":"Weerk","steam_id":76561199209543551,"connected_time":25000000000,"state":"spawning","ping":108},{"user_id":19,"name":"Ringo x Seiran","steam_id":76561198357437908,"connected_time":24000000000,"state":"active","ping":66}]},{"server_id":36,"name":"Uncletopia | Chicago | 5 | All Maps","name_short":"chi-5","host":"chi-2.us.uncletopia.com","port":27015,"enabled":true,"region":"us-central","cc":"us","latitude":41.881832,"longitude":-87.62318,"reserved":0,"last_update":"0001-01-01T00:00:00Z","name_a2s":"Uncletopia | Chicago | 5 | All Maps","protocol":17,"map":"koth_viaduct","folder":"tf","game":"Team Fortress","app_id":440,"player_count":1,"max_players":24,"Bots":0,"server_type":"Dedicated","server_os":"Linux","password":true,"vac":true,"version":"7961495","steam_id":85568392924866362,"keywords":["cp","nocrits","nodmgspread","uncletopia"],"game_id":440,"stv_port":27016,"stv_name":"Uncletopia | Chicago | 5 | All Maps | STV","players":[{"user_id":7,"name":"[FT]Sponge","steam_id":76561197982284219,"connected_time":7000000000,"state":"spawning","ping":156}]},{"server_id":37,"name":"Uncletopia | Chicago | 6 | All Maps","name_short":"chi-6","host":"chi-2.us.uncletopia.com","port":27025,"enabled":true,"region":"us-central","cc":"us","latitude":41.881832,"longitude":-87.62318,"reserved":0,"last_update":"0001-01-01T00:00:00Z","name_a2s":"Uncletopia | Chicago | 6 | All Maps","protocol":17,"map":"cp_powerhouse","folder":"tf","game":"Team Fortress","app_id":440,"player_count":23,"max_players":24,"Bots":0,"server_type":"Dedicated","server_os":"Linux","password":true,"vac":true,"version":"7961495","steam_id":85568392924866363,"keywords":["cp","nocrits","nodmgspread","uncletopia"],"game_id":440,"stv_port":27026,"stv_name":"Uncletopia | Chicago | 6 | All Maps | STV","players":[{"user_id":283,"name":"The jesus guy (FRNK)","steam_id":76561198237997622,"connected_time":653000000000,"state":"active","ping":168},{"user_id":257,"name":"misterspud","steam_id":76561198195306218,"connected_time":2541000000000,"state":"active","ping":49},{"user_id":277,"name":"DerpyNate","steam_id":76561198100249037,"connected_time":1159000000000,"state":"active","ping":42},{"user_id":255,"name":"LeRoy42","steam_id":76561198035591428,"connected_time":2661000000000,"state":"active","ping":81},{"user_id":271,"name":"Hazeyboi","steam_id":76561198130687838,"connected_time":1912000000000,"state":"active","ping":45},{"user_id":259,"name":"Gram Tokers Count Doinkula","steam_id":76561198112811565,"connected_time":2497000000000,"state":"active","ping":71},{"user_id":265,"name":"super clickteam fusion","steam_id":76561198275101482,"connected_time":2240000000000,"state":"active","ping":135},{"user_id":223,"name":"CreateADebate","steam_id":76561198115760035,"connected_time":5012000000000,"state":"active","ping":62},{"user_id":256,"name":"neet","steam_id":76561197968115168,"connected_time":2658000000000,"state":"active","ping":59},{"user_id":242,"name":"Domswish","steam_id":76561198331444240,"connected_time":3559000000000,"state":"active","ping":74},{"user_id":266,"name":"JoeFalco","steam_id":76561198064005012,"connected_time":2237000000000,"state":"active","ping":85},{"user_id":261,"name":"Dilly D","steam_id":76561198156643697,"connected_time":2463000000000,"state":"active","ping":70},{"user_id":274,"name":"Retro Phoenix","steam_id":76561198077176271,"connected_time":1483000000000,"state":"active","ping":61},{"user_id":275,"name":"Wubs","steam_id":76561198100722286,"connected_time":1424000000000,"state":"active","ping":50},{"user_id":276,"name":"NUt","steam_id":76561198031007966,"connected_time":1172000000000,"state":"active","ping":60},{"user_id":285,"name":"YOU WHAT?!","steam_id":76561198418679471,"connected_time":556000000000,"state":"active","ping":60},{"user_id":284,"name":"dansal","steam_id":76561197997042510,"connected_time":652000000000,"state":"active","ping":83},{"user_id":278,"name":"TheSquirrelofHuscurl","steam_id":76561198073379623,"connected_time":1136000000000,"state":"active","ping":93},{"user_id":280,"name":"Mister Mystical Perfection","steam_id":76561198036444997,"connected_time":917000000000,"state":"active","ping":91},{"user_id":253,"name":"rune simpa","steam_id":76561198046174848,"connected_time":2928000000000,"state":"active","ping":82},{"user_id":272,"name":"Matthew 10:39","steam_id":76561198121933439,"connected_time":1886000000000,"state":"active","ping":75},{"user_id":281,"name":"Paul","steam_id":76561197996285195,"connected_time":914000000000,"state":"active","ping":99},{"user_id":252,"name":"Broadsword #LGM","steam_id":76561198011160411,"connected_time":2977000000000,"state":"active","ping":91}]},{"server_id":38,"name":"Uncletopia | Chicago | 7 | Stopwatch","name_short":"chi-7","host":"chi-2.us.uncletopia.com","port":27035,"enabled":true,"region":"us-central","cc":"us","latitude":41.881832,"longitude":-87.62318,"reserved":0,"last_update":"0001-01-01T00:00:00Z","name_a2s":"Uncletopia | Chicago | 7 | Stopwatch","protocol":17,"map":"pl_badwater","folder":"tf","game":"Team Fortress","app_id":440,"player_count":0,"max_players":24,"Bots":0,"server_type":"Dedicated","server_os":"Linux","password":true,"vac":true,"version":"7961495","steam_id":85568392924866364,"keywords":["nocrits","nodmgspread","payload","uncletopia"],"game_id":440,"stv_port":27036,"stv_name":"Uncletopia | Chicago | 7 | Stopwatch | STV","players":null},{"server_id":39,"name":"Uncletopia | Chicago | 8 | Community","name_short":"chi-8","host":"chi-2.us.uncletopia.com","port":27045,"enabled":true,"region":"us-central","cc":"us","latitude":41.881832,"longitude":-87.62318,"reserved":0,"last_update":"0001-01-01T00:00:00Z","name_a2s":"Uncletopia | Chicago | 8 | Community","protocol":17,"map":"pl_pier","folder":"tf","game":"Team Fortress","app_id":440,"player_count":0,"max_players":24,"Bots":0,"server_type":"Dedicated","server_os":"Linux","password":true,"vac":true,"version":"7961495","steam_id":85568392924866365,"keywords":["nocrits","nodmgspread","payload","uncletopia"],"game_id":440,"stv_port":27046,"stv_name":"Uncletopia | Chicago | 8 | Community | STV","players":null},{"server_id":8,"name":"Uncletopia | Dallas | 1 | All Maps","name_short":"dal-1","host":"dal-1.us.uncletopia.com","port":27015,"enabled":true,"region":"us-central","cc":"us","latitude":32.779167,"longitude":-96.80889,"reserved":0,"last_update":"0001-01-01T00:00:00Z","name_a2s":"Uncletopia | Dallas | 1 | All Maps","protocol":17,"map":"pl_frontier_final","folder":"tf","game":"Team Fortress","app_id":440,"player_count":24,"max_players":24,"Bots":0,"server_type":"Dedicated","server_os":"Linux","password":true,"vac":true,"version":"7961495","steam_id":85568392924469986,"keywords":["nocrits","nodmgspread","payload","uncletopia"],"game_id":440,"stv_port":27016,"stv_name":"Uncletopia | Dallas | 1 | All Maps | STV","players":[{"user_id":118,"name":"Don't Fuckle with Shuckle","steam_id":76561199020102367,"connected_time":1606000000000,"state":"active","ping":99},{"user_id":84,"name":"StudioMania (#SAVETF2)","steam_id":76561198211315795,"connected_time":5797000000000,"state":"active","ping":72},{"user_id":131,"name":"TOKENLIZARD","steam_id":76561198218765205,"connected_time":213000000000,"state":"active","ping":64},{"user_id":95,"name":"Thequirka","steam_id":76561198968058652,"connected_time":3745000000000,"state":"active","ping":103},{"user_id":105,"name":"Mellou","steam_id":76561198212048740,"connected_time":2646000000000,"state":"active","ping":47},{"user_id":53,"name":"Luffliet.","steam_id":76561198186593707,"connected_time":7279000000000,"state":"active","ping":56},{"user_id":132,"name":"mkl","steam_id":76561197986401685,"connected_time":148000000000,"state":"active","ping":57},{"user_id":129,"name":"Penguinammo","steam_id":76561198165774711,"connected_time":475000000000,"state":"active","ping":70},{"user_id":114,"name":"Fraglin","steam_id":76561198124964000,"connected_time":2060000000000,"state":"active","ping":103},{"user_id":127,"name":"hb","steam_id":76561198185980055,"connected_time":667000000000,"state":"active","ping":72},{"user_id":62,"name":"plink","steam_id":76561198057829889,"connected_time":6549000000000,"state":"active","ping":54},{"user_id":124,"name":"Shadoe","steam_id":76561198218577281,"connected_time":1378000000000,"state":"active","ping":77},{"user_id":107,"name":"Snow Squid","steam_id":76561198201565674,"connected_time":2626000000000,"state":"active","ping":135},{"user_id":116,"name":"Dan","steam_id":76561199236719411,"connected_time":1649000000000,"state":"active","ping":86},{"user_id":126,"name":"floppy muppet","steam_id":76561198003076261,"connected_time":699000000000,"state":"active","ping":89},{"user_id":120,"name":"penzfan","steam_id":76561198230422640,"connected_time":1576000000000,"state":"active","ping":69},{"user_id":99,"name":"Sergi338","steam_id":76561198201866231,"connected_time":3539000000000,"state":"active","ping":107},{"user_id":112,"name":"coolbust carti","steam_id":76561198065384345,"connected_time":2181000000000,"state":"active","ping":90},{"user_id":102,"name":"TTV/ChadMorningWood","steam_id":76561198139832291,"connected_time":3269000000000,"state":"active","ping":78},{"user_id":42,"name":"HOODOO_LOVER_2007","steam_id":76561199087691214,"connected_time":8145000000000,"state":"active","ping":99},{"user_id":128,"name":"seeyouauntie","steam_id":76561198045852999,"connected_time":520000000000,"state":"active","ping":96},{"user_id":101,"name":"pig","steam_id":76561198246492934,"connected_time":3462000000000,"state":"active","ping":77},{"user_id":45,"name":"SmileOneTwoThree","steam_id":76561198045624336,"connected_time":8096000000000,"state":"active","ping":74},{"user_id":90,"name":"Drained","steam_id":76561198081974528,"connected_time":4659000000000,"state":"active","ping":70}]},{"server_id":108,"name":"Uncletopia | Dallas | 2 | All Maps","name_short":"dal-2","host":"dal-1.us.uncletopia.com","port":27025,"enabled":true,"region":"us-central","cc":"us","latitude":32.779167,"longitude":-96.80889,"reserved":0,"last_update":"0001-01-01T00:00:00Z","name_a2s":"Uncletopia | Dallas | 2 | All Maps","protocol":17,"map":"cp_dustbowl","folder":"tf","game":"Team Fortress","app_id":440,"player_count":19,"max_players":24,"Bots":0,"server_type":"Dedicated","server_os":"Linux","password":true,"vac":true,"version":"7961495","steam_id":85568392924469988,"keywords":["cp","nocrits","nodmgspread","uncletopia"],"game_id":440,"stv_port":27026,"stv_name":"Uncletopia | Dallas | 2 | All Maps | STV","players":[{"user_id":24,"name":"Boot Mcstink","steam_id":76561199226873917,"connected_time":4333000000000,"state":"active","ping":110},{"user_id":86,"name":"Oh, Y'know :)","steam_id":76561198084110985,"connected_time":191000000000,"state":"active","ping":56},{"user_id":27,"name":"SCRAPTRAP1001","steam_id":76561199417627762,"connected_time":4263000000000,"state":"active","ping":59},{"user_id":28,"name":"Jarryl97","steam_id":76561198055451373,"connected_time":4232000000000,"state":"active","ping":57},{"user_id":87,"name":"squid game","steam_id":76561199248960166,"connected_time":190000000000,"state":"active","ping":86},{"user_id":20,"name":"NormanVillage","steam_id":76561198330337371,"connected_time":4502000000000,"state":"active","ping":110},{"user_id":21,"name":"Anon","steam_id":76561198109740776,"connected_time":4496000000000,"state":"active","ping":85},{"user_id":48,"name":"Sinta","steam_id":76561198098398841,"connected_time":3353000000000,"state":"active","ping":75},{"user_id":75,"name":"Op banana","steam_id":76561198303231451,"connected_time":1654000000000,"state":"active","ping":46},{"user_id":35,"name":"CJAIME01345","steam_id":76561199091599141,"connected_time":3957000000000,"state":"active","ping":151},{"user_id":83,"name":"Bronze Age Furvert","steam_id":76561198859118263,"connected_time":1243000000000,"state":"active","ping":87},{"user_id":67,"name":"PizzaFratello","steam_id":76561199059951970,"connected_time":1820000000000,"state":"active","ping":63},{"user_id":71,"name":"Rat Bastard","steam_id":76561198153443658,"connected_time":1695000000000,"state":"active","ping":89},{"user_id":84,"name":"Rafl","steam_id":76561198055222756,"connected_time":826000000000,"state":"active","ping":45},{"user_id":51,"name":"ShapedSilver","steam_id":76561199073305310,"connected_time":3280000000000,"state":"active","ping":54},{"user_id":43,"name":"B.Luga‚Ñ¢","steam_id":76561198046473460,"connected_time":3771000000000,"state":"active","ping":59},{"user_id":74,"name":"The Great Eagle Scourge of 1822","steam_id":76561198325086209,"connected_time":1666000000000,"state":"active","ping":95},{"user_id":80,"name":"Sean","steam_id":76561199367470003,"connected_time":1457000000000,"state":"active","ping":102},{"user_id":69,"name":"Wey","steam_id":76561198089235065,"connected_time":1771000000000,"state":"active","ping":83}]},{"server_id":404,"name":"Uncletopia | Dallas | 3 | All Maps","name_short":"dal-3","host":"dal-1.us.uncletopia.com","port":27035,"enabled":true,"region":"us-central","cc":"us","latitude":32.779167,"longitude":-96.80889,"reserved":0,"last_update":"0001-01-01T00:00:00Z","name_a2s":"Uncletopia | Dallas | 3 | All Maps","protocol":17,"map":"pl_borneo","folder":"tf","game":"Team Fortress","app_id":440,"player_count":3,"max_players":24,"Bots":0,"server_type":"Dedicated","server_os":"Linux","password":true,"vac":true,"version":"7961495","steam_id":85568392924515219,"keywords":["nocrits","nodmgspread","payload","uncletopia"],"game_id":440,"stv_port":27036,"stv_name":"Uncletopia | Dallas | 3 | All Maps | STV","players":[{"user_id":4,"name":"Artincendies","steam_id":76561198242373456,"connected_time":682000000000,"state":"active","ping":63},{"user_id":5,"name":"adam0o0","steam_id":76561198052250279,"connected_time":641000000000,"state":"active","ping":70},{"user_id":6,"name":"SleepySinny","steam_id":76561198210764240,"connected_time":551000000000,"state":"active","ping":66}]},{"server_id":405,"name":"Uncletopia | Dallas | 4 | Community","name_short":"dal-4","host":"dal-1.us.uncletopia.com","port":27045,"enabled":true,"region":"us-central","cc":"us","latitude":32.779167,"longitude":-96.80889,"reserved":0,"last_update":"0001-01-01T00:00:00Z","name_a2s":"Uncletopia | Dallas | 4 | Community","protocol":17,"map":"workshop/cp_villa_b19.ugc2113052569","folder":"tf","game":"Team Fortress","app_id":440,"player_count":0,"max_players":24,"Bots":0,"server_type":"Dedicated","server_os":"Linux","password":true,"vac":true,"version":"7961495","steam_id":85568392924515220,"keywords":["cp","nocrits","nodmgspread","uncletopia"],"game_id":440,"stv_port":27046,"stv_name":"Uncletopia | Dallas | 4 | Community | STV","players":null},{"server_id":5,"name":"Uncletopia | Frankfurt | 1 | All Maps","name_short":"frk-1","host":"frk-1.de.uncletopia.com","port":27015,"enabled":true,"region":"eu","cc":"de","latitude":50.110924,"longitude":8.682127,"reserved":0,"last_update":"0001-01-01T00:00:00Z","name_a2s":"Uncletopia | Frankfurt | 1 | All Maps","protocol":17,"map":"pl_upward","folder":"tf","game":"Team Fortress","app_id":440,"player_count":24,"max_players":24,"Bots":0,"server_type":"Dedicated","server_os":"Linux","password":true,"vac":true,"version":"7961495","steam_id":85568392924469989,"keywords":["nocrits","nodmgspread","payload","uncletopia"],"game_id":440,"stv_port":27016,"stv_name":"Uncletopia | Frankfurt | 1 | All Maps | STV","players":[{"user_id":430,"name":"James Deer","steam_id":76561198140014793,"connected_time":1269000000000,"state":"active","ping":53},{"user_id":423,"name":"Jack.Orlando","steam_id":76561198802400236,"connected_time":1471000000000,"state":"active","ping":70},{"user_id":458,"name":"Toasty5050","steam_id":76561198073540881,"connected_time":206000000000,"state":"active","ping":43},{"user_id":431,"name":"fuyunoLuna","steam_id":76561198108237246,"connected_time":1252000000000,"state":"active","ping":55},{"user_id":432,"name":"Aiiden360","steam_id":76561198153073387,"connected_time":1246000000000,"state":"active","ping":87},{"user_id":456,"name":"Repa24","steam_id":76561198033016390,"connected_time":224000000000,"state":"active","ping":74},{"user_id":455,"name":"Cosmetic brain","steam_id":76561198055936410,"connected_time":379000000000,"state":"active","ping":90},{"user_id":453,"name":"snert","steam_id":76561198451550309,"connected_time":708000000000,"state":"active","ping":47},{"user_id":435,"name":"Rimx","steam_id":76561198053034840,"connected_time":1096000000000,"state":"active","ping":92},{"user_id":436,"name":"pizzaboob (im funny)","steam_id":76561198097507847,"connected_time":982000000000,"state":"active","ping":69},{"user_id":437,"name":"dzgnated","steam_id":76561198026927089,"connected_time":979000000000,"state":"active","ping":103},{"user_id":438,"name":"Lazor","steam_id":76561198310376869,"connected_time":963000000000,"state":"active","ping":126},{"user_id":439,"name":"tallen","steam_id":76561198061708595,"connected_time":949000000000,"state":"active","ping":80},{"user_id":457,"name":"Cheshireycat (sladak sam)","steam_id":76561198067204908,"connected_time":212000000000,"state":"active","ping":74},{"user_id":448,"name":"Hamburger side effect","steam_id":76561198265451304,"connected_time":778000000000,"state":"active","ping":75},{"user_id":442,"name":"Peter Pammpim","steam_id":76561199103785290,"connected_time":929000000000,"state":"active","ping":82},{"user_id":443,"name":"Piox","steam_id":76561198125689157,"connected_time":923000000000,"state":"active","ping":64},{"user_id":445,"name":"least weird romanian","steam_id":76561198170609049,"connected_time":852000000000,"state":"active","ping":79},{"user_id":446,"name":"A.D.H.|Artem","steam_id":76561198041801369,"connected_time":808000000000,"state":"active","ping":82},{"user_id":447,"name":"shr1mple","steam_id":76561198173537027,"connected_time":806000000000,"state":"active","ping":44},{"user_id":450,"name":"nomadic","steam_id":76561198095178091,"connected_time":754000000000,"state":"active","ping":63},{"user_id":451,"name":"Firevell","steam_id":76561198154813359,"connected_time":734000000000,"state":"active","ping":67},{"user_id":452,"name":"Strix","steam_id":76561198015322735,"connected_time":722000000000,"state":"active","ping":75},{"user_id":454,"name":"I'm past the point of insanity","steam_id":76561198800954471,"connected_time":674000000000,"state":"active","ping":72}]},{"server_id":110,"name":"Uncletopia | Frankfurt | 2 | All Maps","name_short":"frk-2","host":"frk-1.de.uncletopia.com","port":27025,"enabled":true,"region":"eu","cc":"de","latitude":50.110924,"longitude":8.682127,"reserved":0,"last_update":"0001-01-01T00:00:00Z","name_a2s":"Uncletopia | Frankfurt | 2 | All Maps","protocol":17,"map":"ctf_doublecross","folder":"tf","game":"Team Fortress","app_id":440,"player_count":24,"max_players":24,"Bots":0,"server_type":"Dedicated","server_os":"Linux","password":true,"vac":true,"version":"7961495","steam_id":85568392924469990,"keywords":["ctf","nocrits","nodmgspread","uncletopia"],"game_id":440,"stv_port":27026,"stv_name":"Uncletopia | Frankfurt | 2 | All Maps | STV","players":[{"user_id":193,"name":"lulu","steam_id":76561199147764133,"connected_time":6170000000000,"state":"active","ping":68},{"user_id":201,"name":"Hexakosioihexekontahexaphobia","steam_id":76561198070805240,"connected_time":4964000000000,"state":"active","ping":97},{"user_id":269,"name":"Samuel L. Jackson","steam_id":76561198130427881,"connected_time":124000000000,"state":"active","ping":149},{"user_id":264,"name":"Prismatic","steam_id":76561198424708922,"connected_time":600000000000,"state":"active","ping":75},{"user_id":258,"name":"After8","steam_id":76561198090750865,"connected_time":1283000000000,"state":"active","ping":74},{"user_id":270,"name":"‚ô†Anti_BOI‚ô†","steam_id":76561198274593231,"connected_time":109000000000,"state":"active","ping":58},{"user_id":263,"name":"Onbeheerde_Jongeheer","steam_id":76561198051685232,"connected_time":672000000000,"state":"active","ping":44},{"user_id":273,"name":"Dark","steam_id":76561199162752036,"connected_time":53000000000,"state":"spawning","ping":60},{"user_id":161,"name":"cat","steam_id":76561198837071509,"connected_time":8283000000000,"state":"active","ping":76},{"user_id":241,"name":"Dot","steam_id":76561198047299145,"connected_time":2147000000000,"state":"active","ping":75},{"user_id":244,"name":"skippy","steam_id":76561198171958773,"connected_time":1625000000000,"state":"active","ping":68},{"user_id":271,"name":"Veraeraeraeraera","steam_id":76561198255984731,"connected_time":103000000000,"state":"active","ping":65},{"user_id":257,"name":"Nozzo","steam_id":76561198012367783,"connected_time":1334000000000,"state":"active","ping":73},{"user_id":259,"name":"17BritishPie","steam_id":76561198140034382,"connected_time":1273000000000,"state":"active","ping":60},{"user_id":268,"name":"lobzade","steam_id":76561198195685370,"connected_time":347000000000,"state":"active","ping":45},{"user_id":265,"name":"‚ÜØ","steam_id":76561198055389492,"connected_time":576000000000,"state":"active","ping":53},{"user_id":261,"name":"Erection Man","steam_id":76561198021714542,"connected_time":733000000000,"state":"active","ping":57},{"user_id":240,"name":"Daruun","steam_id":76561198019068781,"connected_time":2262000000000,"state":"active","ping":70},{"user_id":272,"name":"G-Smokesz Gaming","steam_id":76561198278095231,"connected_time":102000000000,"state":"active","ping":74},{"user_id":274,"name":"Amon Gus","steam_id":76561199094540960,"connected_time":52000000000,"state":"active","ping":63},{"user_id":276,"name":"Anorexic Gamer","steam_id":76561199033746817,"connected_time":20000000000,"state":"active","ping":161},{"user_id":163,"name":"Ixsus\u003c3","steam_id":76561198094756869,"connected_time":8251000000000,"state":"active","ping":59},{"user_id":260,"name":"Pdf.File","steam_id":76561199090299959,"connected_time":737000000000,"state":"active","ping":45},{"user_id":237,"name":"ouchie wouchies","steam_id":76561198105443986,"connected_time":2867000000000,"state":"active","ping":77}]},{"server_id":308,"name":"Uncletopia | Frankfurt | 3 | All Maps","name_short":"frk-3","host":"frk-1.de.uncletopia.com","port":27035,"enabled":true,"region":"eu","cc":"de","latitude":50.110924,"longitude":8.682127,"reserved":0,"last_update":"0001-01-01T00:00:00Z","name_a2s":"Uncletopia | Frankfurt | 3 | All Maps","protocol":17,"map":"pl_pier","folder":"tf","game":"Team Fortress","app_id":440,"player_count":24,"max_players":24,"Bots":0,"server_type":"Dedicated","server_os":"Linux","password":true,"vac":true,"version":"7961495","steam_id":85568392924504274,"keywords":["nocrits","nodmgspread","payload","uncletopia"],"game_id":440,"stv_port":27036,"stv_name":"Uncletopia | Frankfurt | 3 | All Maps | STV","players":[{"user_id":121,"name":"Dr Ultraman","steam_id":76561198060787567,"connected_time":175000000000,"state":"active","ping":79},{"user_id":122,"name":"‚ôÇ Dungeon Master ‚ôÇ","steam_id":76561198106441033,"connected_time":172000000000,"state":"active","ping":97},{"user_id":117,"name":"Zbubu","steam_id":76561198259805733,"connected_time":431000000000,"state":"active","ping":68},{"user_id":120,"name":"your_local_penguin","steam_id":76561199224954346,"connected_time":291000000000,"state":"active","ping":91},{"user_id":31,"name":"randem_","steam_id":76561198338793755,"connected_time":6422000000000,"state":"active","ping":53},{"user_id":118,"name":"TOP G","steam_id":76561198138928548,"connected_time":421000000000,"state":"active","ping":56},{"user_id":53,"name":"Blackgdkcb","steam_id":76561199027950389,"connected_time":5522000000000,"state":"active","ping":55},{"user_id":92,"name":"Strangerdanger","steam_id":76561198206728500,"connected_time":2358000000000,"state":"active","ping":71},{"user_id":108,"name":"55555","steam_id":76561199060683386,"connected_time":718000000000,"state":"active","ping":60},{"user_id":98,"name":"√ÉNVS DR√ÉNVS","steam_id":76561198138733015,"connected_time":1287000000000,"state":"active","ping":106},{"user_id":114,"name":"Mr.Socky","steam_id":76561198116629437,"connected_time":501000000000,"state":"active","ping":56},{"user_id":123,"name":"NothingMan","steam_id":76561198051284446,"connected_time":172000000000,"state":"active","ping":54},{"user_id":54,"name":"Heavy TF2 in irl?!","steam_id":76561198082502910,"connected_time":5363000000000,"state":"active","ping":52},{"user_id":91,"name":"Redmailbox","steam_id":76561198042930322,"connected_time":2362000000000,"state":"active","ping":60},{"user_id":41,"name":"WrytXander","steam_id":76561198067856323,"connected_time":6035000000000,"state":"active","ping":74},{"user_id":42,"name":"HawkBear","steam_id":76561198046062963,"connected_time":6023000000000,"state":"active","ping":152},{"user_id":106,"name":"Alekk","steam_id":76561198093533143,"connected_time":765000000000,"state":"active","ping":64},{"user_id":119,"name":"midlpsyzl47","steam_id":76561199475972637,"connected_time":341000000000,"state":"active","ping":84},{"user_id":79,"name":"chillrend_morphs_high_lod6","steam_id":76561198452963141,"connected_time":3380000000000,"state":"active","ping":76},{"user_id":110,"name":"EagleDeath","steam_id":76561198282441198,"connected_time":561000000000,"state":"active","ping":76},{"user_id":112,"name":"bart","steam_id":76561198025395216,"connected_time":535000000000,"state":"active","ping":69},{"user_id":96,"name":"madrassen","steam_id":76561198279855271,"connected_time":1303000000000,"state":"active","ping":79},{"user_id":124,"name":"asko","steam_id":76561198081966620,"connected_time":167000000000,"state":"active","ping":75},{"user_id":116,"name":"ratot","steam_id":76561198063132645,"connected_time":441000000000,"state":"active","ping":60}]},{"server_id":309,"name":"Uncletopia | Frankfurt | 4 | All Maps","name_short":"frk-4","host":"frk-1.de.uncletopia.com","port":27045,"enabled":true,"region":"eu","cc":"de","latitude":50.110924,"longitude":8.682127,"reserved":0,"last_update":"0001-01-01T00:00:00Z","name_a2s":"Uncletopia | Frankfurt | 4 | All Maps","protocol":17,"map":"koth_cascade","folder":"tf","game":"Team Fortress","app_id":440,"player_count":1,"max_players":24,"Bots":0,"server_type":"Dedicated","server_os":"Linux","password":true,"vac":true,"version":"7961495","steam_id":85568392924504275,"keywords":["cp","nocrits","nodmgspread","uncletopia"],"game_id":440,"stv_port":27046,"stv_name":"Uncletopia | Frankfurt | 4 | All Maps | STV","players":[{"user_id":18,"name":"Sheen (Khang)","steam_id":76561198371062974,"connected_time":139000000000,"state":"active","ping":75}]},{"server_id":310,"name":"Uncletopia | Frankfurt | 5 | All Maps","name_short":"frk-5","host":"frk-1.de.uncletopia.com","port":27055,"enabled":true,"region":"eu","cc":"de","latitude":50.110924,"longitude":8.682127,"reserved":0,"last_update":"0001-01-01T00:00:00Z","name_a2s":"Uncletopia | Frankfurt | 5 | All Maps","protocol":17,"map":"pl_frontier_final","folder":"tf","game":"Team Fortress","app_id":440,"player_count":24,"max_players":24,"Bots":0,"server_type":"Dedicated","server_os":"Linux","password":true,"vac":true,"version":"7961495","steam_id":85568392924504277,"keywords":["nocrits","nodmgspread","payload","uncletopia"],"game_id":440,"stv_port":27056,"stv_name":"Uncletopia | Frankfurt | 5 | All Maps | STV","players":[{"user_id":258,"name":"confusion","steam_id":76561199199499453,"connected_time":1621000000000,"state":"active","ping":83},{"user_id":226,"name":"Bill_nye_epic","steam_id":76561199216249214,"connected_time":4617000000000,"state":"active","ping":130},{"user_id":215,"name":"Vischan but worse","steam_id":76561199371650805,"connected_time":5717000000000,"state":"active","ping":99},{"user_id":270,"name":"shmax","steam_id":76561198889012709,"connected_time":398000000000,"state":"active","ping":81},{"user_id":227,"name":"Saame","steam_id":76561198215525976,"connected_time":4420000000000,"state":"active","ping":79},{"user_id":252,"name":"[BLANK] Dude","steam_id":76561198024574260,"connected_time":1881000000000,"state":"active","ping":63},{"user_id":255,"name":"wouris","steam_id":76561198876188003,"connected_time":1679000000000,"state":"active","ping":59},{"user_id":275,"name":"im wearing gunnars","steam_id":76561198045413005,"connected_time":55000000000,"state":"active","ping":48},{"user_id":170,"name":"Scandinavian sleeping and livin","steam_id":76561198241982958,"connected_time":8686000000000,"state":"active","ping":89},{"user_id":269,"name":"M4 SOPMOD II Enjoyer","steam_id":76561198155176802,"connected_time":454000000000,"state":"active","ping":141},{"user_id":225,"name":"Fat Pigeobn","steam_id":76561198817940142,"connected_time":5192000000000,"state":"active","ping":48},{"user_id":244,"name":"Vampaier2","steam_id":76561198391013060,"connected_time":2350000000000,"state":"active","ping":98},{"user_id":272,"name":"Mircoxi","steam_id":76561199407632710,"connected_time":343000000000,"state":"active","ping":70},{"user_id":267,"name":"Carry Krypl","steam_id":76561198136938121,"connected_time":679000000000,"state":"active","ping":60},{"user_id":274,"name":"Watermelon","steam_id":76561198078349914,"connected_time":185000000000,"state":"active","ping":63},{"user_id":261,"name":"Cosmo","steam_id":76561198078378048,"connected_time":1600000000000,"state":"active","ping":60},{"user_id":144,"name":"TheMerchant","steam_id":76561198133664392,"connected_time":9509000000000,"state":"active","ping":55},{"user_id":240,"name":"Xtis","steam_id":76561198043837480,"connected_time":2553000000000,"state":"active","ping":63},{"user_id":260,"name":"Strawberry","steam_id":76561198052255586,"connected_time":1617000000000,"state":"active","ping":59},{"user_id":266,"name":"snacks","steam_id":76561198184674173,"connected_time":791000000000,"state":"active","ping":92},{"user_id":273,"name":"IS3BITEL","steam_id":76561199178060325,"connected_time":340000000000,"state":"active","ping":72},{"user_id":262,"name":"energiske erik","steam_id":76561198044616068,"connected_time":1581000000000,"state":"active","ping":107},{"user_id":213,"name":"Dark Souls Reference","steam_id":76561198094102747,"connected_time":5994000000000,"state":"active","ping":73},{"user_id":233,"name":"JohnTraveltime","steam_id":76561199244281754,"connected_time":4299000000000,"state":"active","ping":57}]},{"server_id":311,"name":"Uncletopia | Frankfurt | 6 | All Maps","name_short":"frk-6","host":"frk-1.de.uncletopia.com","port":27065,"enabled":true,"region":"eu","cc":"de","latitude":50.110924,"longitude":8.682127,"reserved":0,"last_update":"0001-01-01T00:00:00Z","name_a2s":"Uncletopia | Frankfurt | 6 | All Maps","protocol":17,"map":"pl_barnblitz","folder":"tf","game":"Team Fortress","app_id":440,"player_count":24,"max_players":24,"Bots":0,"server_type":"Dedicated","server_os":"Linux","password":true,"vac":true,"version":"7961495","steam_id":85568392924504278,"keywords":["nocrits","nodmgspread","payload","uncletopia"],"game_id":440,"stv_port":27066,"stv_name":"Uncletopia | Frankfurt | 6 | All Maps | STV","players":[{"user_id":170,"name":"pajasafr","steam_id":76561198114268509,"connected_time":391000000000,"state":"active","ping":57},{"user_id":169,"name":"obi","steam_id":76561198040154461,"connected_time":918000000000,"state":"active","ping":56},{"user_id":179,"name":"Mega Man Legends 3","steam_id":76561198014110199,"connected_time":78000000000,"state":"active","ping":59},{"user_id":158,"name":"Mr. Mundy","steam_id":76561198132008918,"connected_time":1980000000000,"state":"active","ping":67},{"user_id":173,"name":"crazygamer8996","steam_id":76561198166065637,"connected_time":328000000000,"state":"active","ping":76},{"user_id":156,"name":"d u k k i","steam_id":76561198071807437,"connected_time":2068000000000,"state":"active","ping":79},{"user_id":175,"name":"chair 2.0","steam_id":76561199233470150,"connected_time":264000000000,"state":"active","ping":42},{"user_id":177,"name":"Gryoss","steam_id":76561197999837111,"connected_time":157000000000,"state":"active","ping":110},{"user_id":168,"name":"DwarfInYou","steam_id":76561198966341795,"connected_time":1019000000000,"state":"active","ping":55},{"user_id":178,"name":"Zm4j","steam_id":76561198259465946,"connected_time":141000000000,"state":"active","ping":97},{"user_id":108,"name":"Hexagon","steam_id":76561198151205758,"connected_time":5161000000000,"state":"active","ping":50},{"user_id":130,"name":"Accident","steam_id":76561198115160396,"connected_time":3916000000000,"state":"active","ping":70},{"user_id":61,"name":"Marabosha","steam_id":76561198137599173,"connected_time":7405000000000,"state":"active","ping":108},{"user_id":171,"name":"berserk from guts","steam_id":76561198089585790,"connected_time":365000000000,"state":"active","ping":57},{"user_id":117,"name":"Gator","steam_id":76561198065624683,"connected_time":4377000000000,"state":"active","ping":92},{"user_id":180,"name":"Qdarks","steam_id":76561198013391340,"connected_time":75000000000,"state":"active","ping":142},{"user_id":172,"name":"cuddles","steam_id":76561198805181599,"connected_time":361000000000,"state":"active","ping":70},{"user_id":162,"name":"Noob_with_source","steam_id":76561198870362103,"connected_time":1551000000000,"state":"active","ping":61},{"user_id":176,"name":"Kosmos Kitty","steam_id":76561198034865891,"connected_time":204000000000,"state":"active","ping":56},{"user_id":154,"name":"The Daniella","steam_id":76561198023075547,"connected_time":2288000000000,"state":"active","ping":61},{"user_id":148,"name":"Birch","steam_id":76561197998712822,"connected_time":2334000000000,"state":"active","ping":49},{"user_id":165,"name":"Rock..","steam_id":76561198004641963,"connected_time":1379000000000,"state":"active","ping":82},{"user_id":140,"name":"twitch.tv/vision515","steam_id":76561198065293729,"connected_time":3372000000000,"state":"active","ping":175}]},{"server_id":23,"name":"Uncletopia | Frankfurt | 7 | Stopwatch","name_short":"frk-7","host":"frk-1.de.uncletopia.com","port":27075,"enabled":true,"region":"eu","cc":"de","latitude":50.110924,"longitude":8.682127,"reserved":0,"last_update":"0001-01-01T00:00:00Z","name_a2s":"Uncletopia | Frankfurt | 7 | Stopwatch","protocol":17,"map":"workshop/koth_bagel_rc6.ugc2514036946","folder":"tf","game":"Team Fortress","app_id":440,"player_count":0,"max_players":24,"Bots":0,"server_type":"Dedicated","server_os":"Linux","password":true,"vac":true,"version":"7961495","steam_id":85568392924742827,"keywords":["cp","nocrits","nodmgspread","uncletopia"],"game_id":440,"stv_port":27076,"stv_name":"Uncletopia | Frankfurt | 7 | Stopwatch | STV","players":null},{"server_id":24,"name":"Uncletopia | Frankfurt | 8 | Community","name_short":"frk-8","host":"frk-1.de.uncletopia.com","port":27085,"enabled":true,"region":"eu","cc":"de","latitude":50.110924,"longitude":8.682127,"reserved":0,"last_update":"0001-01-01T00:00:00Z","name_a2s":"Uncletopia | Frankfurt | 8 | Community","protocol":17,"map":"workshop/koth_kemptown_rc1.ugc767410655","folder":"tf","game":"Team Fortress","app_id":440,"player_count":0,"max_players":24,"Bots":0,"server_type":"Dedicated","server_os":"Linux","password":true,"vac":true,"version":"7961495","steam_id":85568392924742828,"keywords":["cp","nocrits","nodmgspread","uncletopia"],"game_id":440,"stv_port":27086,"stv_name":"Uncletopia | Frankfurt | 8 | Community | STV","players":null},{"server_id":202,"name":"Uncletopia | Hong Kong | 1 | All Maps","name_short":"hgk-1","host":"hgk-1.hk.uncletopia.com","port":27015,"enabled":true,"region":"asia","cc":"hk","latitude":22.302711,"longitude":114.177216,"reserved":0,"last_update":"0001-01-01T00:00:00Z","name_a2s":"Uncletopia | Hong Kong | 1 | All Maps","protocol":17,"map":"koth_viaduct","folder":"tf","game":"Team Fortress","app_id":440,"player_count":0,"max_players":24,"Bots":0,"server_type":"Dedicated","server_os":"Linux","password":true,"vac":true,"version":"7961495","steam_id":85568392924494504,"keywords":["cp","nocrits","nodmgspread","uncletopia"],"game_id":440,"stv_port":27016,"stv_name":"Uncletopia | Hong Kong | 1 | All Maps | STV","players":null},{"server_id":1,"name":"Uncletopia | Los Angeles | 1 | All Maps","name_short":"lax-1","host":"lax-1.us.uncletopia.com","port":27015,"enabled":true,"region":"us-west","cc":"us","latitude":33.94279,"longitude":-118.41004,"reserved":0,"last_update":"0001-01-01T00:00:00Z","name_a2s":"Uncletopia | Los Angeles | 1 | All Maps","protocol":17,"map":"pl_snowycoast","folder":"tf","game":"Team Fortress","app_id":440,"player_count":0,"max_players":24,"Bots":0,"server_type":"Dedicated","server_os":"Linux","password":true,"vac":true,"version":"7961495","steam_id":85568392924469991,"keywords":["nocrits","nodmgspread","payload","uncletopia"],"game_id":440,"stv_port":27016,"stv_name":"Uncletopia | Los Angeles | 1 | All Maps | STV","players":null},{"server_id":112,"name":"Uncletopia | Los Angeles | 2 | All Maps","name_short":"lax-2","host":"lax-1.us.uncletopia.com","port":27025,"enabled":true,"region":"us-west","cc":"us","latitude":33.94279,"longitude":-118.41004,"reserved":0,"last_update":"0001-01-01T00:00:00Z","name_a2s":"Uncletopia | Los Angeles | 2 | All Maps","protocol":17,"map":"koth_lakeside_final","folder":"tf","game":"Team Fortress","app_id":440,"player_count":0,"max_players":24,"Bots":0,"server_type":"Dedicated","server_os":"Linux","password":true,"vac":true,"version":"7961495","steam_id":85568392924469992,"keywords":["cp","nocrits","nodmgspread","uncletopia"],"game_id":440,"stv_port":27026,"stv_name":"Uncletopia | Los Angeles | 2 | All Maps | STV","players":null},{"server_id":324,"name":"Uncletopia | Los Angeles | 3 | All Maps","name_short":"lax-3","host":"lax-1.us.uncletopia.com","port":27035,"enabled":true,"region":"us-west","cc":"us","latitude":33.94279,"longitude":-118.41004,"reserved":0,"last_update":"0001-01-01T00:00:00Z","name_a2s":"Uncletopia | Los Angeles | 3 | All Maps","protocol":17,"map":"pl_frontier_final","folder":"tf","game":"Team Fortress","app_id":440,"player_count":0,"max_players":24,"Bots":0,"server_type":"Dedicated","server_os":"Linux","password":true,"vac":true,"version":"7961495","steam_id":85568392924510198,"keywords":["nocrits","nodmgspread","payload","uncletopia"],"game_id":440,"stv_port":27036,"stv_name":"Uncletopia | Los Angeles | 3 | All Maps | STV","players":null},{"server_id":25,"name":"Uncletopia | Los Angeles | 4 | Stopwatch","name_short":"lax-4","host":"lax-1.us.uncletopia.com","port":27045,"enabled":true,"region":"us-west","cc":"us","latitude":33.94279,"longitude":-118.41004,"reserved":0,"last_update":"0001-01-01T00:00:00Z","name_a2s":"Uncletopia | Los Angeles | 4 | Stopwatch","protocol":17,"map":"cp_snakewater_final1","folder":"tf","game":"Team Fortress","app_id":440,"player_count":0,"max_players":24,"Bots":0,"server_type":"Dedicated","server_os":"Linux","password":true,"vac":true,"version":"7961495","steam_id":85568392924510199,"keywords":["cp","nocrits","nodmgspread","uncletopia"],"game_id":440,"stv_port":27046,"stv_name":"Uncletopia | Los Angeles | 4 | Stopwatch | STV","players":null},{"server_id":11,"name":"Uncletopia | London | 1 | All Maps","name_short":"lon-1","host":"lon-1.uk.uncletopia.com","port":27015,"enabled":true,"region":"eu","cc":"gb","latitude":51.509865,"longitude":-0.118092,"reserved":0,"last_update":"0001-01-01T00:00:00Z","name_a2s":"Uncletopia | London | 1 | All Maps","protocol":17,"map":"pl_badwater","folder":"tf","game":"Team Fortress","app_id":440,"player_count":24,"max_players":24,"Bots":0,"server_type":"Dedicated","server_os":"Linux","password":true,"vac":true,"version":"7961495","steam_id":85568392924367362,"keywords":["nocrits","nodmgspread","payload","uncletopia"],"game_id":440,"stv_port":27016,"stv_name":"Uncletopia | London | 1 | All Maps | STV","players":[{"user_id":504,"name":"Plep","steam_id":76561198840259819,"connected_time":3574000000000,"state":"active","ping":60},{"user_id":525,"name":"azzy","steam_id":76561198061293740,"connected_time":2301000000000,"state":"active","ping":75},{"user_id":539,"name":"SpacePig","steam_id":76561198044662873,"connected_time":1012000000000,"state":"active","ping":97},{"user_id":546,"name":"KnugenIV","steam_id":76561198127091993,"connected_time":240000000000,"state":"active","ping":60},{"user_id":439,"name":"bark (analogy)","steam_id":76561198010662796,"connected_time":7718000000000,"state":"active","ping":44},{"user_id":548,"name":"Baba Sraka","steam_id":76561198128292318,"connected_time":72000000000,"state":"active","ping":185},{"user_id":540,"name":"Noam","steam_id":76561198279133820,"connected_time":745000000000,"state":"active","ping":90},{"user_id":549,"name":"keleos82","steam_id":76561198123916013,"connected_time":39000000000,"state":"spawning","ping":52},{"user_id":517,"name":"Bob Sacamano","steam_id":76561198085610701,"connected_time":2542000000000,"state":"active","ping":94},{"user_id":523,"name":"who is spikey mike?","steam_id":76561199169534004,"connected_time":2492000000000,"state":"active","ping":43},{"user_id":498,"name":"map","steam_id":76561198370196400,"connected_time":3841000000000,"state":"active","ping":88},{"user_id":536,"name":"trite","steam_id":76561197983765323,"connected_time":1277000000000,"state":"active","ping":52},{"user_id":390,"name":"shooer!","steam_id":76561198110531281,"connected_time":11068000000000,"state":"active","ping":72},{"user_id":531,"name":"yup that extream78711","steam_id":76561198106049954,"connected_time":2083000000000,"state":"active","ping":80},{"user_id":524,"name":"gamerkiddo","steam_id":76561198047380360,"connected_time":2488000000000,"state":"active","ping":48},{"user_id":495,"name":"Sherlock Bond","steam_id":76561198042045955,"connected_time":4157000000000,"state":"active","ping":54},{"user_id":481,"name":"maciejkrzysteczko","steam_id":76561199140822962,"connected_time":5016000000000,"state":"active","ping":85},{"user_id":535,"name":"breakfast burrito","steam_id":76561198148606969,"connected_time":1572000000000,"state":"active","ping":85},{"user_id":528,"name":"Princess Peach","steam_id":76561198260272240,"connected_time":2178000000000,"state":"active","ping":57},{"user_id":542,"name":"max.b1110","steam_id":76561199454065196,"connected_time":509000000000,"state":"active","ping":57},{"user_id":469,"name":"woof (anagram)","steam_id":76561198046873337,"connected_time":5819000000000,"state":"active","ping":57},{"user_id":545,"name":"Maya","steam_id":76561198128616615,"connected_time":248000000000,"state":"active","ping":75},{"user_id":541,"name":"Rumf","steam_id":76561197993957541,"connected_time":665000000000,"state":"active","ping":52},{"user_id":544,"name":"Purps","steam_id":76561198053886680,"connected_time":439000000000,"state":"active","ping":38}]},{"server_id":114,"name":"Uncletopia | London | 2 | All Maps","name_short":"lon-2","host":"lon-1.uk.uncletopia.com","port":27025,"enabled":true,"region":"eu","cc":"gb","latitude":51.509865,"longitude":-0.118092,"reserved":0,"last_update":"0001-01-01T00:00:00Z","name_a2s":"Uncletopia | London | 2 | All Maps","protocol":17,"map":"pl_upward","folder":"tf","game":"Team Fortress","app_id":440,"player_count":24,"max_players":24,"Bots":0,"server_type":"Dedicated","server_os":"Linux","password":true,"vac":true,"version":"7961495","steam_id":85568392924470941,"keywords":["nocrits","nodmgspread","payload","uncletopia"],"game_id":440,"stv_port":27026,"stv_name":"Uncletopia | London | 2 | All Maps | STV","players":[{"user_id":696,"name":"N . E . „äâ . N","steam_id":76561198074131777,"connected_time":89000000000,"state":"active","ping":61},{"user_id":678,"name":"OrangeBanana","steam_id":76561199230233875,"connected_time":1609000000000,"state":"active","ping":58},{"user_id":690,"name":"Niccole","steam_id":76561198126998695,"connected_time":651000000000,"state":"active","ping":155},{"user_id":667,"name":"Detonator20bomb","steam_id":76561199121742336,"connected_time":2095000000000,"state":"active","ping":57},{"user_id":671,"name":"RLCrazyCat3","steam_id":76561197983757878,"connected_time":1912000000000,"state":"active","ping":67},{"user_id":695,"name":"Fatmagic Mukbang ASMR","steam_id":76561198063492110,"connected_time":479000000000,"state":"active","ping":85},{"user_id":689,"name":"piper","steam_id":76561198112687349,"connected_time":669000000000,"state":"active","ping":47},{"user_id":675,"name":"c1v","steam_id":76561199085624224,"connected_time":1708000000000,"state":"active","ping":62},{"user_id":691,"name":"Nuuskis","steam_id":76561198084042012,"connected_time":646000000000,"state":"active","ping":91},{"user_id":673,"name":"finbar","steam_id":76561198056812396,"connected_time":1880000000000,"state":"active","ping":74},{"user_id":660,"name":"Klaus","steam_id":76561198150394201,"connected_time":2841000000000,"state":"active","ping":88},{"user_id":692,"name":"Squidiot","steam_id":76561198042754907,"connected_time":615000000000,"state":"active","ping":71},{"user_id":687,"name":"Mastenbier","steam_id":76561199067658590,"connected_time":787000000000,"state":"active","ping":129},{"user_id":638,"name":"Weegee","steam_id":76561198150308523,"connected_time":4516000000000,"state":"active","ping":49},{"user_id":646,"name":"beer","steam_id":76561197986614194,"connected_time":3132000000000,"state":"active","ping":86},{"user_id":665,"name":"Flight of the Blonde Giraffes","steam_id":76561198451585571,"connected_time":2197000000000,"state":"active","ping":76},{"user_id":639,"name":"melon man","steam_id":76561198834046987,"connected_time":4497000000000,"state":"active","ping":106},{"user_id":663,"name":"Cosmic Gamer","steam_id":76561198027357981,"connected_time":2480000000000,"state":"active","ping":102},{"user_id":684,"name":"Proud Jojo Fan #TF2SP","steam_id":76561198847327216,"connected_time":942000000000,"state":"active","ping":71},{"user_id":693,"name":"Sandvich","steam_id":76561199079493666,"connected_time":584000000000,"state":"active","ping":93},{"user_id":664,"name":"whatsapp man","steam_id":76561198802028634,"connected_time":2370000000000,"state":"active","ping":54},{"user_id":669,"name":"LemonLeCitron","steam_id":76561198215545267,"connected_time":1958000000000,"state":"active","ping":88},{"user_id":685,"name":"MangoL","steam_id":76561199169391713,"connected_time":934000000000,"state":"active","ping":91},{"user_id":681,"name":"Sippie","steam_id":76561198130393388,"connected_time":1169000000000,"state":"active","ping":62}]},{"server_id":320,"name":"Uncletopia | London | 3 | All Maps","name_short":"lon-3","host":"lon-1.uk.uncletopia.com","port":27035,"enabled":true,"region":"eu","cc":"gb","latitude":51.509865,"longitude":-0.118092,"reserved":0,"last_update":"0001-01-01T00:00:00Z","name_a2s":"Uncletopia | London | 3 | All Maps","protocol":17,"map":"pl_badwater","folder":"tf","game":"Team Fortress","app_id":440,"player_count":13,"max_players":24,"Bots":0,"server_type":"Dedicated","server_os":"Linux","password":true,"vac":true,"version":"7961495","steam_id":85568392924510192,"keywords":["nocrits","nodmgspread","payload","uncletopia"],"game_id":440,"stv_port":27036,"stv_name":"Uncletopia | London | 3 | All Maps | STV","players":[{"user_id":474,"name":"ILoveMyMom420Blaze","steam_id":76561198981016492,"connected_time":299000000000,"state":"active","ping":61},{"user_id":475,"name":"123","steam_id":76561198084517952,"connected_time":221000000000,"state":"active","ping":69},{"user_id":476,"name":"GMsU | Smiley","steam_id":76561198121494414,"connected_time":196000000000,"state":"active","ping":90},{"user_id":477,"name":"Aristotle Voulton","steam_id":76561198100174923,"connected_time":187000000000,"state":"active","ping":75},{"user_id":480,"name":"General Dummkopfs","steam_id":76561198071315425,"connected_time":161000000000,"state":"active","ping":69},{"user_id":481,"name":"Circlefly_","steam_id":76561198138960827,"connected_time":159000000000,"state":"active","ping":60},{"user_id":483,"name":"no pain--\u003eno pain train","steam_id":76561198237752098,"connected_time":97000000000,"state":"active","ping":90},{"user_id":332,"name":"yuno appreciator","steam_id":76561198083286511,"connected_time":8763000000000,"state":"active","ping":33},{"user_id":382,"name":"INFINITE WISDOM","steam_id":76561198329621152,"connected_time":5699000000000,"state":"active","ping":59},{"user_id":469,"name":"ElElliot","steam_id":76561198842278840,"connected_time":1036000000000,"state":"active","ping":114},{"user_id":484,"name":"snowii","steam_id":76561198836246326,"connected_time":32000000000,"state":"active","ping":89},{"user_id":485,"name":"deflox","steam_id":76561198087450635,"connected_time":8000000000,"state":"spawning","ping":86},{"user_id":442,"name":"Mr_Draegoth","steam_id":76561198045226420,"connected_time":2135000000000,"state":"active","ping":40}]},{"server_id":321,"name":"Uncletopia | London | 4 | All Maps","name_short":"lon-4","host":"lon-1.uk.uncletopia.com","port":27045,"enabled":true,"region":"eu","cc":"gb","latitude":51.509865,"longitude":-0.118092,"reserved":0,"last_update":"0001-01-01T00:00:00Z","name_a2s":"Uncletopia | London | 4 | All Maps","protocol":17,"map":"cp_sunshine","folder":"tf","game":"Team Fortress","app_id":440,"player_count":24,"max_players":24,"Bots":0,"server_type":"Dedicated","server_os":"Linux","password":true,"vac":true,"version":"7961495","steam_id":85568392924510193,"keywords":["cp","nocrits","nodmgspread","uncletopia"],"game_id":440,"stv_port":27046,"stv_name":"Uncletopia | London | 4 | All Maps | STV","players":[{"user_id":371,"name":"Worm","steam_id":76561198296497176,"connected_time":3650000000000,"state":"active","ping":58},{"user_id":398,"name":"Rodak","steam_id":76561199135986344,"connected_time":2753000000000,"state":"active","ping":76},{"user_id":413,"name":"oskaroku00","steam_id":76561199025360128,"connected_time":1013000000000,"state":"active","ping":68},{"user_id":407,"name":"outlaw","steam_id":76561198323805289,"connected_time":2239000000000,"state":"active","ping":31},{"user_id":384,"name":"bluecheesemints","steam_id":76561199490357988,"connected_time":3257000000000,"state":"active","ping":61},{"user_id":432,"name":"I have no duck and I must quack","steam_id":76561198061920656,"connected_time":406000000000,"state":"active","ping":76},{"user_id":424,"name":"—è —Å–ª—É—à–∞—é –∑–µ–º—Ñ–∏—Ä—É","steam_id":76561198324357479,"connected_time":706000000000,"state":"active","ping":80},{"user_id":416,"name":"Mr_Pulse_","steam_id":76561198095001602,"connected_time":905000000000,"state":"active","ping":102},{"user_id":293,"name":"Pan Piotr","steam_id":76561198140016126,"connected_time":8671000000000,"state":"active","ping":82},{"user_id":429,"name":"Udinese Dion","steam_id":76561198067931573,"connected_time":467000000000,"state":"active","ping":56},{"user_id":434,"name":"Bobirulez","steam_id":76561198009125458,"connected_time":77000000000,"state":"active","ping":75},{"user_id":419,"name":"Umbro","steam_id":76561198087930438,"connected_time":802000000000,"state":"active","ping":75},{"user_id":391,"name":"cister0","steam_id":76561198130195469,"connected_time":2905000000000,"state":"active","ping":83},{"user_id":401,"name":"BeautifulDeer","steam_id":76561198119588300,"connected_time":2714000000000,"state":"active","ping":159},{"user_id":430,"name":"Coconuttii","steam_id":76561198006974800,"connected_time":426000000000,"state":"active","ping":52},{"user_id":422,"name":"kunykunyk","steam_id":76561198839391482,"connected_time":778000000000,"state":"active","ping":89},{"user_id":403,"name":"trashedribs","steam_id":76561198354735240,"connected_time":2568000000000,"state":"active","ping":127},{"user_id":406,"name":"ED","steam_id":76561198441715445,"connected_time":2261000000000,"state":"active","ping":128},{"user_id":431,"name":"Zor","steam_id":76561198009851383,"connected_time":416000000000,"state":"active","ping":70},{"user_id":410,"name":"‚Çîkacper2010s‚Çî","steam_id":76561199074731477,"connected_time":1957000000000,"state":"active","ping":110},{"user_id":433,"name":"Pip","steam_id":76561198049587565,"connected_time":359000000000,"state":"active","ping":55},{"user_id":426,"name":"SuperKaratePunch","steam_id":76561199055996844,"connected_time":557000000000,"state":"active","ping":123},{"user_id":325,"name":"PÃ∂lÃ∏aÃ¥yÃ∂tÃ∑hÃ∑iÃ∂nÃ∏gÃ¥","steam_id":76561198994236187,"connected_time":5347000000000,"state":"active","ping":101},{"user_id":428,"name":"harper","steam_id":76561198188642265,"connected_time":491000000000,"state":"active","ping":55}]},{"server_id":21,"name":"Uncletopia | London | 5 | All Maps","name_short":"lon-5","host":"lon-1.uk.uncletopia.com","port":27055,"enabled":true,"region":"eu","cc":"gb","latitude":51.509865,"longitude":-0.118092,"reserved":0,"last_update":"0001-01-01T00:00:00Z","name_a2s":"Uncletopia | London | 5 | All Maps","protocol":17,"map":"cp_altitude","folder":"tf","game":"Team Fortress","app_id":440,"player_count":24,"max_players":24,"Bots":0,"server_type":"Dedicated","server_os":"Linux","password":true,"vac":true,"version":"7961495","steam_id":85568392924742829,"keywords":["cp","nocrits","nodmgspread","uncletopia"],"game_id":440,"stv_port":27056,"stv_name":"Uncletopia | London | 5 | All Maps | STV","players":[{"user_id":243,"name":"morbius (a lenda da marvel)","steam_id":76561198156198125,"connected_time":5119000000000,"state":"active","ping":84},{"user_id":316,"name":"LE$KA","steam_id":76561198211434744,"connected_time":1004000000000,"state":"active","ping":84},{"user_id":286,"name":"jon","steam_id":76561198031544468,"connected_time":2999000000000,"state":"active","ping":80},{"user_id":294,"name":"kissakala","steam_id":76561198007180495,"connected_time":2677000000000,"state":"active","ping":80},{"user_id":324,"name":"MargoulGetron","steam_id":76561198020551698,"connected_time":640000000000,"state":"active","ping":56},{"user_id":317,"name":"fairyboy","steam_id":76561198042359587,"connected_time":920000000000,"state":"active","ping":45},{"user_id":320,"name":"dingdongbingbong","steam_id":76561198106311865,"connected_time":707000000000,"state":"active","ping":149},{"user_id":329,"name":"Osqq :s","steam_id":76561198075465106,"connected_time":204000000000,"state":"active","ping":73},{"user_id":318,"name":"Parmenides","steam_id":76561198079849761,"connected_time":734000000000,"state":"active","ping":47},{"user_id":282,"name":"U ALREADY KNOW","steam_id":76561198204858259,"connected_time":3782000000000,"state":"active","ping":95},{"user_id":330,"name":"369","steam_id":76561198149967445,"connected_time":149000000000,"state":"active","ping":33},{"user_id":325,"name":"bladerunner | Trade.tf","steam_id":76561198272175230,"connected_time":552000000000,"state":"active","ping":55},{"user_id":289,"name":"Houlles","steam_id":76561198095277383,"connected_time":2960000000000,"state":"active","ping":46},{"user_id":304,"name":"ScampSixteen","steam_id":76561198021771000,"connected_time":2112000000000,"state":"active","ping":49},{"user_id":252,"name":"neJ","steam_id":76561198003397488,"connected_time":4646000000000,"state":"active","ping":80},{"user_id":331,"name":"Eyy_Cucasi","steam_id":76561198271767632,"connected_time":143000000000,"state":"active","ping":100},{"user_id":332,"name":"Critical Hit","steam_id":76561198028524029,"connected_time":118000000000,"state":"active","ping":74},{"user_id":295,"name":"Gosh Incarnate","steam_id":76561198025218699,"connected_time":2653000000000,"state":"active","ping":73},{"user_id":323,"name":"Purple Soup :D","steam_id":76561198985100366,"connected_time":675000000000,"state":"active","ping":96},{"user_id":333,"name":"powej","steam_id":76561198056381418,"connected_time":0,"state":"spawning","ping":11},{"user_id":328,"name":"Thundercracker__","steam_id":76561199163505476,"connected_time":374000000000,"state":"active","ping":49},{"user_id":307,"name":"busgrabb","steam_id":76561198055768465,"connected_time":1872000000000,"state":"active","ping":76},{"user_id":310,"name":"Keho","steam_id":76561198087962709,"connected_time":1811000000000,"state":"active","ping":80},{"user_id":258,"name":"Meff","steam_id":76561197970610839,"connected_time":4544000000000,"state":"active","ping":64}]},{"server_id":22,"name":"Uncletopia | London | 6 | All Maps","name_short":"lon-6","host":"lon-1.uk.uncletopia.com","port":27065,"enabled":true,"region":"eu","cc":"gb","latitude":51.509865,"longitude":-0.118092,"reserved":0,"last_update":"0001-01-01T00:00:00Z","name_a2s":"Uncletopia | London | 6 | All Maps","protocol":17,"map":"pl_hoodoo_final","folder":"tf","game":"Team Fortress","app_id":440,"player_count":24,"max_players":24,"Bots":0,"server_type":"Dedicated","server_os":"Linux","password":true,"vac":true,"version":"7961495","steam_id":85568392924742830,"keywords":["nocrits","nodmgspread","payload","uncletopia"],"game_id":440,"stv_port":27066,"stv_name":"Uncletopia | London | 6 | All Maps | STV","players":[{"user_id":146,"name":"hamilton","steam_id":76561198034096096,"connected_time":5040000000000,"state":"active","ping":129},{"user_id":85,"name":"lion king 5 the reckoning","steam_id":76561198041040598,"connected_time":9356000000000,"state":"active","ping":98},{"user_id":216,"name":"I I","steam_id":76561199101935057,"connected_time":472000000000,"state":"active","ping":100},{"user_id":173,"name":"‚ò≠TheDevilsEye‚ò≠","steam_id":76561198017379398,"connected_time":2875000000000,"state":"active","ping":80},{"user_id":190,"name":"Jaggy Snake","steam_id":76561197972779231,"connected_time":1946000000000,"state":"active","ping":46},{"user_id":210,"name":"Aaronbill3","steam_id":76561198014056212,"connected_time":963000000000,"state":"active","ping":71},{"user_id":200,"name":"the_white_hatter","steam_id":76561198421813037,"connected_time":1335000000000,"state":"active","ping":43},{"user_id":179,"name":"BritishBeef","steam_id":76561197971054321,"connected_time":2795000000000,"state":"active","ping":56},{"user_id":214,"name":"elmstJP ‚Ç™ F4.exe","steam_id":76561197997909480,"connected_time":749000000000,"state":"active","ping":79},{"user_id":203,"name":"F4.exe","steam_id":76561198278822807,"connected_time":1173000000000,"state":"active","ping":73},{"user_id":204,"name":"Bobo","steam_id":76561198052308399,"connected_time":1123000000000,"state":"active","ping":69},{"user_id":217,"name":"f0x","steam_id":76561198072921704,"connected_time":147000000000,"state":"active","ping":55},{"user_id":186,"name":"Walle","steam_id":76561197995148937,"connected_time":2424000000000,"state":"active","ping":76},{"user_id":197,"name":"toomas2018(real)(official)","steam_id":76561199105796083,"connected_time":1587000000000,"state":"active","ping":73},{"user_id":196,"name":"Mr Kawaii-Desu","steam_id":76561198122236176,"connected_time":1657000000000,"state":"active","ping":50},{"user_id":199,"name":"RudiPrico4","steam_id":76561199014381495,"connected_time":1450000000000,"state":"active","ping":60},{"user_id":163,"name":"MilkAndBiscuits","steam_id":76561198022924626,"connected_time":3696000000000,"state":"active","ping":88},{"user_id":215,"name":"[no@im]","steam_id":76561197960474413,"connected_time":544000000000,"state":"active","ping":78},{"user_id":144,"name":"ThatJoJoGuy","steam_id":76561199208152141,"connected_time":5246000000000,"state":"active","ping":54},{"user_id":209,"name":"Wintermelon202","steam_id":76561198043496920,"connected_time":974000000000,"state":"active","ping":56},{"user_id":213,"name":"FrostyBob","steam_id":76561197997161148,"connected_time":802000000000,"state":"active","ping":60},{"user_id":164,"name":"daan0590","steam_id":76561198835887234,"connected_time":3396000000000,"state":"active","ping":46},{"user_id":207,"name":"The Forgotten one","steam_id":76561198091553935,"connected_time":1044000000000,"state":"active","ping":124},{"user_id":149,"name":"Duktigafred","steam_id":76561199211222396,"connected_time":4792000000000,"state":"active","ping":70}]},{"server_id":40,"name":"Uncletopia | London | 7 | Stopwatch","name_short":"lon-7","host":"lon-1.uk.uncletopia.com","port":27075,"enabled":true,"region":"eu","cc":"gb","latitude":51.509865,"longitude":-0.118092,"reserved":0,"last_update":"0001-01-01T00:00:00Z","name_a2s":"Uncletopia | London | 7 | Stopwatch","protocol":17,"map":"pl_upward","folder":"tf","game":"Team Fortress","app_id":440,"player_count":0,"max_players":24,"Bots":0,"server_type":"Dedicated","server_os":"Linux","password":true,"vac":true,"version":"7961495","steam_id":85568392924964314,"keywords":["nocrits","nodmgspread","payload","uncletopia"],"game_id":440,"stv_port":27076,"stv_name":"Uncletopia | London | 7 | Stopwatch | STV","players":null},{"server_id":41,"name":"Uncletopia | London | 8 | Community","name_short":"lon-8","host":"lon-1.uk.uncletopia.com","port":27085,"enabled":true,"region":"eu","cc":"gb","latitude":51.509865,"longitude":-0.118092,"reserved":0,"last_update":"0001-01-01T00:00:00Z","name_a2s":"Uncletopia | London | 8 | Community","protocol":17,"map":"workshop/koth_trenchfoot_b1a.ugc731436616","folder":"tf","game":"Team Fortress","app_id":440,"player_count":0,"max_players":24,"Bots":0,"server_type":"Dedicated","server_os":"Linux","password":true,"vac":true,"version":"7961495","steam_id":85568392924964315,"keywords":["cp","nocrits","nodmgspread","uncletopia"],"game_id":440,"stv_port":27086,"stv_name":"Uncletopia | London | 8 | Community | STV","players":null},{"server_id":300,"name":"Uncletopia | Montr√©al | 1 | One Thousand Uncles","name_short":"mtl-1","host":"mtl-1.ca.uncletopia.com","port":27015,"enabled":true,"region":"us-east","cc":"ca","latitude":45.50889,"longitude":-73.56167,"reserved":0,"last_update":"0001-01-01T00:00:00Z","name_a2s":"","protocol":0,"map":"","folder":"","game":"","app_id":0,"player_count":3,"max_players":0,"Bots":0,"server_type":"","server_os":"","password":false,"vac":false,"version":"","steam_id":0,"keywords":null,"game_id":0,"stv_port":0,"stv_name":"","players":[{"user_id":97,"name":"BIGGEST MAC","steam_id":76561198847517098,"connected_time":1808000000000,"state":"active","ping":71},{"user_id":114,"name":"RATMATIONS","steam_id":76561199490509775,"connected_time":162000000000,"state":"active","ping":122},{"user_id":115,"name":"Vincent Van Bro","steam_id":76561197966919802,"connected_time":29000000000,"state":"active","ping":106}]},{"server_id":301,"name":"Uncletopia | Montr√©al | 2 | One Thousand Uncles","name_short":"mtl-2","host":"mtl-1.ca.uncletopia.com","port":27025,"enabled":true,"region":"us-east","cc":"ca","latitude":45.50889,"longitude":-73.56167,"reserved":0,"last_update":"0001-01-01T00:00:00Z","name_a2s":"","protocol":0,"map":"","folder":"","game":"","app_id":0,"player_count":0,"max_players":0,"Bots":0,"server_type":"","server_os":"","password":false,"vac":false,"version":"","steam_id":0,"keywords":null,"game_id":0,"stv_port":0,"stv_name":"","players":null},{"server_id":302,"name":"Uncletopia | Montr√©al | 3 | One Thousand Uncles","name_short":"mtl-3","host":"mtl-1.ca.uncletopia.com","port":27035,"enabled":true,"region":"us-east","cc":"ca","latitude":45.50889,"longitude":-73.56167,"reserved":0,"last_update":"0001-01-01T00:00:00Z","name_a2s":"","protocol":0,"map":"","folder":"","game":"","app_id":0,"player_count":1,"max_players":0,"Bots":0,"server_type":"","server_os":"","password":false,"vac":false,"version":"","steam_id":0,"keywords":null,"game_id":0,"stv_port":0,"stv_name":"","players":[{"user_id":95,"name":"BinaryBitGamer[They/Them]","steam_id":76561198140761006,"connected_time":272000000000,"state":"active","ping":60}]},{"server_id":13,"name":"Uncletopia | New York City | 1 | All Maps","name_short":"nyc-1","host":"nyc-1.us.uncletopia.com","port":27015,"enabled":true,"region":"us-east","cc":"us","latitude":40.73061,"longitude":-73.93524,"reserved":0,"last_update":"0001-01-01T00:00:00Z","name_a2s":"Uncletopia | New York City | 1 | All Maps","protocol":17,"map":"koth_viaduct","folder":"tf","game":"Team Fortress","app_id":440,"player_count":24,"max_players":24,"Bots":0,"server_type":"Dedicated","server_os":"Linux","password":true,"vac":true,"version":"7961495","steam_id":85568392924469993,"keywords":["cp","nocrits","nodmgspread","uncletopia"],"game_id":440,"stv_port":27016,"stv_name":"Uncletopia | New York City | 1 | All Maps | STV","players":[{"user_id":8,"name":"SpaceSanctum","steam_id":76561198805242305,"connected_time":2483000000000,"state":"active","ping":44},{"user_id":9,"name":"Noahthecrazy1","steam_id":76561199152995909,"connected_time":1795000000000,"state":"active","ping":71},{"user_id":38,"name":"Cyberpunk McDonald's Play Place","steam_id":76561198063512035,"connected_time":500000000000,"state":"active","ping":59},{"user_id":31,"name":"Û†Å≥ ‚Åßfortnite56k","steam_id":76561198404564240,"connected_time":939000000000,"state":"active","ping":42},{"user_id":12,"name":"t.tv/Mikeymare_","steam_id":76561198977264806,"connected_time":1655000000000,"state":"active","ping":74},{"user_id":15,"name":"Try Gardening","steam_id":76561198120311340,"connected_time":1498000000000,"state":"active","ping":64},{"user_id":32,"name":"Fuller340","steam_id":76561198291641805,"connected_time":788000000000,"state":"active","ping":69},{"user_id":44,"name":"skid","steam_id":76561198057536994,"connected_time":373000000000,"state":"active","ping":63},{"user_id":30,"name":"sansa musa","steam_id":76561198163723555,"connected_time":970000000000,"state":"active","ping":45},{"user_id":40,"name":"nothere","steam_id":76561198341624641,"connected_time":465000000000,"state":"active","ping":71},{"user_id":19,"name":"Taco","steam_id":76561198185185694,"connected_time":1423000000000,"state":"active","ping":107},{"user_id":33,"name":"Ginger Jesus","steam_id":76561198052386458,"connected_time":749000000000,"state":"active","ping":43},{"user_id":49,"name":"Eiss","steam_id":76561198343183806,"connected_time":186000000000,"state":"active","ping":60},{"user_id":35,"name":"Menachem","steam_id":76561198041226420,"connected_time":577000000000,"state":"active","ping":68},{"user_id":36,"name":"MrEdman4","steam_id":76561198062233923,"connected_time":571000000000,"state":"active","ping":49},{"user_id":27,"name":"xochiquetzal","steam_id":76561199064278937,"connected_time":1112000000000,"state":"active","ping":76},{"user_id":37,"name":"Potato Masher","steam_id":76561198056712845,"connected_time":510000000000,"state":"active","ping":67},{"user_id":39,"name":"Mr. Dr. PhD Expert","steam_id":76561198151253061,"connected_time":498000000000,"state":"active","ping":83},{"user_id":41,"name":"kimchy101","steam_id":76561198202721584,"connected_time":444000000000,"state":"active","ping":76},{"user_id":43,"name":"plsplsplslol","steam_id":76561198868084626,"connected_time":403000000000,"state":"active","ping":130},{"user_id":51,"name":"DaveAtDublin","steam_id":76561198162386715,"connected_time":9000000000,"state":"spawning","ping":46},{"user_id":46,"name":"Swifgz","steam_id":76561198162875756,"connected_time":275000000000,"state":"active","ping":47},{"user_id":47,"name":"-W3E- grim10465","steam_id":76561198045698581,"connected_time":254000000000,"state":"active","ping":36},{"user_id":50,"name":"tenir","steam_id":76561198350747953,"connected_time":161000000000,"state":"active","ping":45}]},{"server_id":14,"name":"Uncletopia | New York City | 2 | All Maps","name_short":"nyc-2","host":"nyc-1.us.uncletopia.com","port":27025,"enabled":true,"region":"us-east","cc":"us","latitude":40.73061,"longitude":-73.93524,"reserved":0,"last_update":"0001-01-01T00:00:00Z","name_a2s":"Uncletopia | New York City | 2 | All Maps","protocol":17,"map":"koth_lakeside_final","folder":"tf","game":"Team Fortress","app_id":440,"player_count":0,"max_players":24,"Bots":0,"server_type":"Dedicated","server_os":"Linux","password":true,"vac":true,"version":"7961495","steam_id":85568392924469994,"keywords":["cp","nocrits","nodmgspread","uncletopia"],"game_id":440,"stv_port":27026,"stv_name":"Uncletopia | New York City | 2 | All Maps | STV","players":null},{"server_id":15,"name":"Uncletopia | New York City | 3 | Stopwatch","name_short":"nyc-3","host":"nyc-1.us.uncletopia.com","port":27035,"enabled":true,"region":"us-east","cc":"us","latitude":40.73061,"longitude":-73.93524,"reserved":0,"last_update":"0001-01-01T00:00:00Z","name_a2s":"Uncletopia | New York City | 3 | Stopwatch","protocol":17,"map":"pl_snowycoast","folder":"tf","game":"Team Fortress","app_id":440,"player_count":0,"max_players":24,"Bots":0,"server_type":"Dedicated","server_os":"Linux","password":true,"vac":true,"version":"7961495","steam_id":85568392924742820,"keywords":["nocrits","nodmgspread","payload","uncletopia"],"game_id":440,"stv_port":27036,"stv_name":"Uncletopia | New York City | 3 | Stopwatch | STV","players":null},{"server_id":16,"name":"Uncletopia | New York City | 4 | Community","name_short":"nyc-4","host":"nyc-1.us.uncletopia.com","port":27045,"enabled":true,"region":"us-east","cc":"us","latitude":40.73061,"longitude":-73.93524,"reserved":0,"last_update":"0001-01-01T00:00:00Z","name_a2s":"Uncletopia | New York City | 4 | Community","protocol":17,"map":"cp_altitude","folder":"tf","game":"Team Fortress","app_id":440,"player_count":0,"max_players":24,"Bots":0,"server_type":"Dedicated","server_os":"Linux","password":true,"vac":true,"version":"7961495","steam_id":85568392924742821,"keywords":["cp","nocrits","nodmgspread","uncletopia"],"game_id":440,"stv_port":27046,"stv_name":"Uncletopia | New York City | 4 | Community | STV","players":null},{"server_id":142,"name":"Uncletopia | S√£o Paulo | 1 | All Maps","name_short":"sao-1","host":"sao-1.br.uncletopia.com","port":27015,"enabled":true,"region":"sa","cc":"br","latitude":-23.533773,"longitude":-46.62529,"reserved":0,"last_update":"0001-01-01T00:00:00Z","name_a2s":"Uncletopia | S√£o Paulo | 1 | All Maps","protocol":17,"map":"cp_mountainlab","folder":"tf","game":"Team Fortress","app_id":440,"player_count":0,"max_players":24,"Bots":0,"server_type":"Dedicated","server_os":"Linux","password":true,"vac":true,"version":"7961495","steam_id":85568392924469996,"keywords":["cp","nocrits","nodmgspread","uncletopia"],"game_id":440,"stv_port":27016,"stv_name":"Uncletopia | S√£o Paulo | 1 | All Maps | STV","players":null},{"server_id":143,"name":"Uncletopia | S√£o Paulo | 2 | Community","name_short":"sao-2","host":"sao-2.br.uncletopia.com","port":27015,"enabled":true,"region":"sa","cc":"br","latitude":-23.533773,"longitude":-46.62529,"reserved":0,"last_update":"0001-01-01T00:00:00Z","name_a2s":"Uncletopia | S√£o Paulo | 2 | Community","protocol":17,"map":"pl_badwater","folder":"tf","game":"Team Fortress","app_id":440,"player_count":0,"max_players":24,"Bots":0,"server_type":"Dedicated","server_os":"Linux","password":true,"vac":true,"version":"7961495","steam_id":85568392924485349,"keywords":["nocrits","nodmgspread","payload","uncletopia"],"game_id":440,"stv_port":27016,"stv_name":"Uncletopia | S√£o Paulo | 2 | Community | STV","players":null},{"server_id":7,"name":"Uncletopia | Seattle | 1 | All Maps","name_short":"sea-1","host":"sea-1.us.uncletopia.com","port":27015,"enabled":true,"region":"us-west","cc":"us","latitude":47.608013,"longitude":-122.33517,"reserved":0,"last_update":"0001-01-01T00:00:00Z","name_a2s":"Uncletopia | Seattle | 1 | All Maps","protocol":17,"map":"pl_borneo","folder":"tf","game":"Team Fortress","app_id":440,"player_count":24,"max_players":24,"Bots":0,"server_type":"Dedicated","server_os":"Linux","password":true,"vac":true,"version":"7961495","steam_id":85568392924469997,"keywords":["nocrits","nodmgspread","payload","uncletopia"],"game_id":440,"stv_port":27016,"stv_name":"Uncletopia | Seattle | 1 | All Maps | STV","players":[{"user_id":185,"name":"soltuno","steam_id":76561198074430565,"connected_time":1664000000000,"state":"active","ping":81},{"user_id":194,"name":"Toaster (Hamilton Beach)","steam_id":76561198039891934,"connected_time":770000000000,"state":"active","ping":60},{"user_id":121,"name":"pyrotechnic","steam_id":76561198043558709,"connected_time":5861000000000,"state":"active","ping":58},{"user_id":150,"name":"Satori Komeiji","steam_id":76561198158211423,"connected_time":4756000000000,"state":"active","ping":63},{"user_id":166,"name":"‚ú´P‚àÄnck‚àà‚ú´","steam_id":76561198050163618,"connected_time":2513000000000,"state":"active","ping":75},{"user_id":167,"name":"Imitation Caucasian","steam_id":76561198320536166,"connected_time":2511000000000,"state":"active","ping":78},{"user_id":126,"name":"hatsune miku","steam_id":76561199445009981,"connected_time":5778000000000,"state":"active","ping":42},{"user_id":188,"name":"Shark Sandwich","steam_id":76561198025007938,"connected_time":1202000000000,"state":"active","ping":44},{"user_id":198,"name":"thai tea","steam_id":76561198308290211,"connected_time":372000000000,"state":"active","ping":80},{"user_id":173,"name":"toes","steam_id":76561198221151676,"connected_time":2230000000000,"state":"active","ping":57},{"user_id":179,"name":"yolginmo","steam_id":76561198157985901,"connected_time":2097000000000,"state":"active","ping":49},{"user_id":112,"name":"River Rat","steam_id":76561198116383976,"connected_time":7266000000000,"state":"active","ping":57},{"user_id":156,"name":"jerbus","steam_id":76561198147006723,"connected_time":4207000000000,"state":"active","ping":73},{"user_id":175,"name":"PopcornBucketGames","steam_id":76561199089562026,"connected_time":2227000000000,"state":"active","ping":37},{"user_id":190,"name":"Sploonbabagoosecooties","steam_id":76561198139972201,"connected_time":1195000000000,"state":"active","ping":61},{"user_id":199,"name":"sleepy","steam_id":76561198288663776,"connected_time":371000000000,"state":"active","ping":62},{"user_id":203,"name":"P.C. Baby","steam_id":76561198067011379,"connected_time":317000000000,"state":"active","ping":58},{"user_id":182,"name":"banana","steam_id":76561198306393090,"connected_time":1805000000000,"state":"active","ping":90},{"user_id":195,"name":"SwearWord","steam_id":76561199131184237,"connected_time":633000000000,"state":"active","ping":61},{"user_id":204,"name":"Dog","steam_id":76561198041841128,"connected_time":166000000000,"state":"active","ping":75},{"user_id":192,"name":"ShackerJack","steam_id":76561198118017448,"connected_time":1156000000000,"state":"active","ping":59},{"user_id":193,"name":"Daz","steam_id":76561198041431938,"connected_time":1154000000000,"state":"active","ping":51},{"user_id":158,"name":"shampoo","steam_id":76561198353456379,"connected_time":4182000000000,"state":"active","ping":70},{"user_id":197,"name":"Jodi","steam_id":76561198131833567,"connected_time":566000000000,"state":"active","ping":69}]},{"server_id":119,"name":"Uncletopia | Seattle | 2 | All Maps","name_short":"sea-2","host":"sea-1.us.uncletopia.com","port":27025,"enabled":true,"region":"us-west","cc":"us","latitude":47.608013,"longitude":-122.33517,"reserved":0,"last_update":"0001-01-01T00:00:00Z","name_a2s":"Uncletopia | Seattle | 2 | All Maps","protocol":17,"map":"koth_cascade","folder":"tf","game":"Team Fortress","app_id":440,"player_count":0,"max_players":24,"Bots":0,"server_type":"Dedicated","server_os":"Linux","password":true,"vac":true,"version":"7961495","steam_id":85568392924469998,"keywords":["cp","nocrits","nodmgspread","uncletopia"],"game_id":440,"stv_port":27026,"stv_name":"Uncletopia | Seattle | 2 | All Maps | STV","players":null},{"server_id":406,"name":"Uncletopia | Seattle | 3 | Stopwatch","name_short":"sea-3","host":"sea-1.us.uncletopia.com","port":27035,"enabled":true,"region":"us-west","cc":"us","latitude":47.608013,"longitude":-122.33517,"reserved":0,"last_update":"0001-01-01T00:00:00Z","name_a2s":"Uncletopia | Seattle | 3 | Stopwatch","protocol":17,"map":"cp_snakewater_final1","folder":"tf","game":"Team Fortress","app_id":440,"player_count":0,"max_players":24,"Bots":0,"server_type":"Dedicated","server_os":"Linux","password":true,"vac":true,"version":"7961495","steam_id":85568392924515217,"keywords":["cp","nocrits","nodmgspread","uncletopia"],"game_id":440,"stv_port":27036,"stv_name":"Uncletopia | Seattle | 3 | Stopwatch | STV","players":null},{"server_id":17,"name":"Uncletopia | San Francisco | 1 | All Maps","name_short":"sfo-1","host":"sfo-1.us.uncletopia.com","port":27015,"enabled":true,"region":"us-west","cc":"us","latitude":37.77397,"longitude":-122.4313,"reserved":0,"last_update":"0001-01-01T00:00:00Z","name_a2s":"Uncletopia | San Francisco | 1 | All Maps","protocol":17,"map":"koth_cascade","folder":"tf","game":"Team Fortress","app_id":440,"player_count":0,"max_players":24,"Bots":0,"server_type":"Dedicated","server_os":"Linux","password":true,"vac":true,"version":"7961495","steam_id":85568392924469999,"keywords":["cp","nocrits","nodmgspread","uncletopia"],"game_id":440,"stv_port":27016,"stv_name":"Uncletopia | San Francisco | 1 | All Maps | STV","players":null},{"server_id":18,"name":"Uncletopia | San Francisco | 2 | All Maps","name_short":"sfo-2","host":"sfo-1.us.uncletopia.com","port":27025,"enabled":true,"region":"us-west","cc":"us","latitude":37.77397,"longitude":-122.4313,"reserved":0,"last_update":"0001-01-01T00:00:00Z","name_a2s":"Uncletopia | San Francisco | 2 | All Maps","protocol":17,"map":"pl_frontier_final","folder":"tf","game":"Team Fortress","app_id":440,"player_count":0,"max_players":24,"Bots":0,"server_type":"Dedicated","server_os":"Linux","password":true,"vac":true,"version":"7961495","steam_id":85568392924470000,"keywords":["nocrits","nodmgspread","payload","uncletopia"],"game_id":440,"stv_port":27026,"stv_name":"Uncletopia | San Francisco | 2 | All Maps | STV","players":null},{"server_id":19,"name":"Uncletopia | San Francisco | 3 | Stopwatch","name_short":"sfo-3","host":"sfo-1.us.uncletopia.com","port":27035,"enabled":true,"region":"us-west","cc":"us","latitude":37.77397,"longitude":-122.4313,"reserved":0,"last_update":"0001-01-01T00:00:00Z","name_a2s":"Uncletopia | San Francisco | 3 | Stopwatch","protocol":17,"map":"pl_pier","folder":"tf","game":"Team Fortress","app_id":440,"player_count":0,"max_players":24,"Bots":0,"server_type":"Dedicated","server_os":"Linux","password":true,"vac":true,"version":"7961495","steam_id":85568392924742824,"keywords":["nocrits","nodmgspread","payload","uncletopia"],"game_id":440,"stv_port":27036,"stv_name":"Uncletopia | San Francisco | 3 | Stopwatch | STV","players":null},{"server_id":20,"name":"Uncletopia | San Francisco | 4 | Community","name_short":"sfo-4","host":"sfo-1.us.uncletopia.com","port":27045,"enabled":true,"region":"us-west","cc":"us","latitude":37.77397,"longitude":-122.4313,"reserved":0,"last_update":"0001-01-01T00:00:00Z","name_a2s":"Uncletopia | San Francisco | 4 | Community","protocol":17,"map":"pl_pier","folder":"tf","game":"Team Fortress","app_id":440,"player_count":0,"max_players":24,"Bots":0,"server_type":"Dedicated","server_os":"Linux","password":true,"vac":true,"version":"7961495","steam_id":85568392924742826,"keywords":["nocrits","nodmgspread","payload","uncletopia"],"game_id":440,"stv_port":27046,"stv_name":"Uncletopia | San Francisco | 4 | Community | STV","players":null},{"server_id":141,"name":"Uncletopia | Sydney | 1 | All Maps","name_short":"syd-1","host":"syd-1.au.uncletopia.com","port":27015,"enabled":true,"region":"au","cc":"au","latitude":-33.865143,"longitude":151.2099,"reserved":0,"last_update":"0001-01-01T00:00:00Z","name_a2s":"Uncletopia | Sydney | 1 | All Maps","protocol":17,"map":"koth_highpass","folder":"tf","game":"Team Fortress","app_id":440,"player_count":0,"max_players":24,"Bots":0,"server_type":"Dedicated","server_os":"Linux","password":true,"vac":true,"version":"7961495","steam_id":85568392924470001,"keywords":["cp","nocrits","nodmgspread","uncletopia"],"game_id":440,"stv_port":27016,"stv_name":"Uncletopia | Sydney | 1 | All Maps | STV","players":null},{"server_id":123,"name":"Uncletopia | Sydney | 2 | All Maps","name_short":"syd-2","host":"syd-1.au.uncletopia.com","port":27025,"enabled":true,"region":"au","cc":"au","latitude":-33.865143,"longitude":151.2099,"reserved":0,"last_update":"0001-01-01T00:00:00Z","name_a2s":"Uncletopia | Sydney | 2 | All Maps","protocol":17,"map":"koth_cascade","folder":"tf","game":"Team Fortress","app_id":440,"player_count":0,"max_players":24,"Bots":0,"server_type":"Dedicated","server_os":"Linux","password":true,"vac":true,"version":"7961495","steam_id":85568392924470002,"keywords":["cp","nocrits","nodmgspread","uncletopia"],"game_id":440,"stv_port":27026,"stv_name":"Uncletopia | Sydney | 2 | All Maps | STV","players":null},{"server_id":395,"name":"Uncletopia | Sydney | 3 | All Maps","name_short":"syd-3","host":"syd-1.au.uncletopia.com","port":27035,"enabled":true,"region":"au","cc":"au","latitude":-33.865143,"longitude":151.2099,"reserved":0,"last_update":"0001-01-01T00:00:00Z","name_a2s":"Uncletopia | Sydney | 3 | All Maps","protocol":17,"map":"koth_lakeside_final","folder":"tf","game":"Team Fortress","app_id":440,"player_count":2,"max_players":24,"Bots":0,"server_type":"Dedicated","server_os":"Linux","password":true,"vac":true,"version":"7961495","steam_id":85568392925194467,"keywords":["cp","nocrits","nodmgspread","uncletopia"],"game_id":440,"stv_port":27036,"stv_name":"Uncletopia | Sydney | 3 | All Maps | STV","players":[{"user_id":16,"name":"NotKomori","steam_id":76561198845165975,"connected_time":817000000000,"state":"active","ping":306},{"user_id":17,"name":"TheInfiniteK","steam_id":76561198353173330,"connected_time":807000000000,"state":"active","ping":78}]},{"server_id":396,"name":"Uncletopia | Sydney | 4 | All Maps","name_short":"syd-4","host":"syd-1.au.uncletopia.com","port":27045,"enabled":true,"region":"au","cc":"au","latitude":-33.865143,"longitude":151.2099,"reserved":0,"last_update":"0001-01-01T00:00:00Z","name_a2s":"Uncletopia | Sydney | 4 | All Maps","protocol":17,"map":"pl_badwater","folder":"tf","game":"Team Fortress","app_id":440,"player_count":0,"max_players":24,"Bots":0,"server_type":"Dedicated","server_os":"Linux","password":true,"vac":true,"version":"7961495","steam_id":85568392925397958,"keywords":["nocrits","nodmgspread","payload","uncletopia"],"game_id":440,"stv_port":27046,"stv_name":"Uncletopia | Sydney | 4 | All Maps | STV","players":null},{"server_id":58,"name":"Uncletopia | Sydney | 5 | Stopwatch","name_short":"syd-5","host":"syd-1.au.uncletopia.com","port":27055,"enabled":true,"region":"au","cc":"au","latitude":-33.865143,"longitude":151.2099,"reserved":0,"last_update":"0001-01-01T00:00:00Z","name_a2s":"Uncletopia | Sydney | 5 | Stopwatch","protocol":17,"map":"koth_highpass","folder":"tf","game":"Team Fortress","app_id":440,"player_count":0,"max_players":24,"Bots":0,"server_type":"Dedicated","server_os":"Linux","password":true,"vac":true,"version":"7961495","steam_id":85568392925397959,"keywords":["cp","nocrits","nodmgspread","uncletopia"],"game_id":440,"stv_port":27056,"stv_name":"Uncletopia | Sydney | 5 | Stopwatch | STV","players":null},{"server_id":59,"name":"Uncletopia | Sydney | 6 | Community","name_short":"syd-6","host":"syd-1.au.uncletopia.com","port":27065,"enabled":true,"region":"au","cc":"au","latitude":-33.865143,"longitude":151.2099,"reserved":0,"last_update":"0001-01-01T00:00:00Z","name_a2s":"Uncletopia | Sydney | 6 | Community","protocol":17,"map":"workshop/cp_propaganda_b18.ugc1603743849","folder":"tf","game":"Team Fortress","app_id":440,"player_count":0,"max_players":24,"Bots":0,"server_type":"Dedicated","server_os":"Linux","password":true,"vac":true,"version":"7961495","steam_id":85568392925397960,"keywords":["cp","nocrits","nodmgspread","uncletopia"],"game_id":440,"stv_port":27066,"stv_name":"Uncletopia | Sydney | 6 | Community | STV","players":null},{"server_id":49,"name":"Uncletopia | Warsaw | 1 | One Thousand Uncles","name_short":"waw-1","host":"waw-1.pl.uncletopia.com","port":27015,"enabled":true,"region":"eu","cc":"pl","latitude":52.2297,"longitude":21.017532,"reserved":0,"last_update":"0001-01-01T00:00:00Z","name_a2s":"Uncletopia | Warsaw | 1 | One Thousand Uncles","protocol":17,"map":"pl_thundermountain","folder":"tf","game":"Team Fortress","app_id":440,"player_count":30,"max_players":32,"Bots":16,"server_type":"Dedicated","server_os":"Linux","password":true,"vac":true,"version":"7961495","steam_id":85568392925397850,"keywords":["alltalk","bots","danepve","increased_maxplayers","nocrits","norespawntime","payload","uncletopia"],"game_id":440,"stv_port":0,"stv_name":"","players":[{"user_id":294,"name":"Roadkill","steam_id":76561198267445999,"connected_time":431000000000,"state":"active","ping":103},{"user_id":279,"name":"LUKE [PL]","steam_id":76561198307059549,"connected_time":1094000000000,"state":"active","ping":55},{"user_id":281,"name":"Loo32","steam_id":76561199094568704,"connected_time":862000000000,"state":"active","ping":65},{"user_id":288,"name":"paguro","steam_id":76561198119560871,"connected_time":680000000000,"state":"active","ping":99},{"user_id":256,"name":"B52 stealth bomber","steam_id":76561198878274997,"connected_time":2008000000000,"state":"active","ping":63},{"user_id":186,"name":"badi1220","steam_id":76561198060438270,"connected_time":9145000000000,"state":"active","ping":80},{"user_id":258,"name":"The","steam_id":76561198359311605,"connected_time":1830000000000,"state":"active","ping":45},{"user_id":295,"name":"Ziemniaczki z koperkiem","steam_id":76561198829123464,"connected_time":397000000000,"state":"active","ping":41},{"user_id":296,"name":"Jokudami","steam_id":76561198346604154,"connected_time":50000000000,"state":"active","ping":60},{"user_id":211,"name":"Max Andrew","steam_id":76561198158955194,"connected_time":4517000000000,"state":"active","ping":78},{"user_id":199,"name":"The one True Mads","steam_id":76561197999204692,"connected_time":6317000000000,"state":"active","ping":69},{"user_id":223,"name":"Postyro-man","steam_id":76561198048832733,"connected_time":3181000000000,"state":"active","ping":38},{"user_id":253,"name":"adv6","steam_id":76561198029789989,"connected_time":2338000000000,"state":"active","ping":73},{"user_id":246,"name":"Dzan50","steam_id":76561198059758591,"connected_time":2643000000000,"state":"active","ping":75}]},{"server_id":50,"name":"Uncletopia | Warsaw | 2 | One Thousand Uncles","name_short":"waw-2","host":"waw-1.pl.uncletopia.com","port":27025,"enabled":true,"region":"eu","cc":"pl","latitude":52.2297,"longitude":21.017532,"reserved":0,"last_update":"0001-01-01T00:00:00Z","name_a2s":"Uncletopia | Warsaw | 2 | One Thousand Uncles","protocol":17,"map":"pl_goldrush","folder":"tf","game":"Team Fortress","app_id":440,"player_count":24,"max_players":32,"Bots":16,"server_type":"Dedicated","server_os":"Linux","password":true,"vac":true,"version":"7961495","steam_id":85568392925397851,"keywords":["alltalk","bots","danepve","increased_maxplayers","nocrits","norespawntime","payload","uncletopia"],"game_id":440,"stv_port":0,"stv_name":"","players":[{"user_id":2,"name":"sphere","steam_id":76561197971059842,"connected_time":851000000000,"state":"active","ping":67},{"user_id":27,"name":"Kewlan","steam_id":76561198042775020,"connected_time":587000000000,"state":"active","ping":91},{"user_id":4,"name":"pyro gaming","steam_id":76561198087970118,"connected_time":840000000000,"state":"active","ping":47},{"user_id":12,"name":"Doctor Medic","steam_id":76561198100957443,"connected_time":838000000000,"state":"active","ping":75},{"user_id":23,"name":"meriones","steam_id":76561198034234373,"connected_time":803000000000,"state":"active","ping":65},{"user_id":24,"name":"Boomer Shooter Consoomer","steam_id":76561198079752648,"connected_time":772000000000,"state":"active","ping":75},{"user_id":28,"name":"carrefour gaming","steam_id":76561199123924976,"connected_time":518000000000,"state":"active","ping":93},{"user_id":29,"name":"Eujekas","steam_id":76561198010527145,"connected_time":360000000000,"state":"active","ping":112}]},{"server_id":51,"name":"Uncletopia | Warsaw | 3 | All Maps","name_short":"waw-3","host":"waw-1.pl.uncletopia.com","port":27035,"enabled":true,"region":"eu","cc":"pl","latitude":52.2297,"longitude":21.017532,"reserved":0,"last_update":"0001-01-01T00:00:00Z","name_a2s":"Uncletopia | Warsaw | 3 | All Maps","protocol":17,"map":"cp_gravelpit","folder":"tf","game":"Team Fortress","app_id":440,"player_count":20,"max_players":24,"Bots":0,"server_type":"Dedicated","server_os":"Linux","password":true,"vac":true,"version":"7961495","steam_id":85568392925397852,"keywords":["cp","nocrits","nodmgspread","uncletopia"],"game_id":440,"stv_port":27036,"stv_name":"Uncletopia | Warsaw | 3 | All Maps | STV","players":[{"user_id":86,"name":"coygus","steam_id":76561198071751994,"connected_time":1819000000000,"state":"active","ping":73},{"user_id":110,"name":"kluri","steam_id":76561198084518962,"connected_time":91000000000,"state":"active","ping":76},{"user_id":101,"name":"svyat.hodorov","steam_id":76561199230663060,"connected_time":837000000000,"state":"active","ping":64},{"user_id":102,"name":"rower123","steam_id":76561198265062481,"connected_time":290000000000,"state":"active","ping":58},{"user_id":103,"name":"iGinifinioi","steam_id":76561198032980409,"connected_time":220000000000,"state":"active","ping":38},{"user_id":100,"name":"Pighead_08","steam_id":76561199060466647,"connected_time":1033000000000,"state":"active","ping":116},{"user_id":104,"name":"releng0","steam_id":76561198120708390,"connected_time":217000000000,"state":"active","ping":57},{"user_id":108,"name":"Giga–°had Pyro","steam_id":76561198140742485,"connected_time":183000000000,"state":"active","ping":71},{"user_id":89,"name":"_ZIGHAIL_","steam_id":76561199075965069,"connected_time":1608000000000,"state":"active","ping":75},{"user_id":81,"name":"RJErik","steam_id":76561198321118547,"connected_time":2130000000000,"state":"active","ping":60},{"user_id":92,"name":"Fiat Multipla","steam_id":76561198160607127,"connected_time":1435000000000,"state":"active","ping":110},{"user_id":105,"name":"Flying skyhigh","steam_id":76561198372971096,"connected_time":216000000000,"state":"active","ping":93},{"user_id":30,"name":"Chairforce","steam_id":76561198020208899,"connected_time":3906000000000,"state":"active","ping":83},{"user_id":44,"name":"bestuan","steam_id":76561199083610617,"connected_time":3384000000000,"state":"active","ping":164},{"user_id":112,"name":"Collin","steam_id":76561198067030681,"connected_time":49000000000,"state":"active","ping":82},{"user_id":93,"name":"xxX_Plague_Doctor_Xxx","steam_id":76561199219922990,"connected_time":1410000000000,"state":"active","ping":76},{"user_id":113,"name":"* /","steam_id":76561198086304421,"connected_time":42000000000,"state":"active","ping":75},{"user_id":114,"name":"ProPlayer3000","steam_id":76561198154613129,"connected_time":13000000000,"state":"active","ping":44},{"user_id":115,"name":"m909","steam_id":76561198279621400,"connected_time":10000000000,"state":"spawning","ping":111},{"user_id":116,"name":"Gr√∏nkj√¶r","steam_id":76561198041075280,"connected_time":8000000000,"state":"spawning","ping":89}]},{"server_id":52,"name":"Uncletopia | Warsaw | 4 | All Maps","name_short":"waw-4","host":"waw-1.pl.uncletopia.com","port":27045,"enabled":true,"region":"eu","cc":"pl","latitude":52.2297,"longitude":21.017532,"reserved":0,"last_update":"0001-01-01T00:00:00Z","name_a2s":"Uncletopia | Warsaw | 4 | All Maps","protocol":17,"map":"cp_mountainlab","folder":"tf","game":"Team Fortress","app_id":440,"player_count":0,"max_players":24,"Bots":0,"server_type":"Dedicated","server_os":"Linux","password":true,"vac":true,"version":"7961495","steam_id":85568392925397853,"keywords":["cp","nocrits","nodmgspread","uncletopia"],"game_id":440,"stv_port":27046,"stv_name":"Uncletopia | Warsaw | 4 | All Maps | STV","players":null},{"server_id":53,"name":"Uncletopia | Warsaw | 5 | Stopwatch","name_short":"waw-5","host":"waw-1.pl.uncletopia.com","port":27055,"enabled":true,"region":"eu","cc":"pl","latitude":52.2297,"longitude":21.017532,"reserved":0,"last_update":"0001-01-01T00:00:00Z","name_a2s":"Uncletopia | Warsaw | 5 | Stopwatch","protocol":17,"map":"workshop/pl_vigil_rc10.ugc1266210012","folder":"tf","game":"Team Fortress","app_id":440,"player_count":0,"max_players":24,"Bots":0,"server_type":"Dedicated","server_os":"Linux","password":true,"vac":true,"version":"7961495","steam_id":85568392925397854,"keywords":["nocrits","nodmgspread","payload","uncletopia"],"game_id":440,"stv_port":27056,"stv_name":"Uncletopia | Warsaw | 5 | Stopwatch | STV","players":null},{"server_id":54,"name":"Uncletopia | Warsaw | 6 | Community","name_short":"waw-6","host":"waw-1.pl.uncletopia.com","port":27065,"enabled":true,"region":"eu","cc":"pl","latitude":52.2297,"longitude":21.017532,"reserved":0,"last_update":"0001-01-01T00:00:00Z","name_a2s":"Uncletopia | Warsaw | 6 | Community","protocol":17,"map":"workshop/koth_slaughter_rc1.ugc1712845210","folder":"tf","game":"Team Fortress","app_id":440,"player_count":0,"max_players":24,"Bots":0,"server_type":"Dedicated","server_os":"Linux","password":true,"vac":true,"version":"7961495","steam_id":85568392925397856,"keywords":["cp","nocrits","nodmgspread","uncletopia"],"game_id":440,"stv_port":27066,"stv_name":"Uncletopia | Warsaw | 6 | Community | STV","players":null}]}