{"status":true,"message":"","result":[{"server_id":9,"name":"Uncletopia | Atlanta | 1 | All Maps","name_short":"atl-1","host":"atl-1.us.uncletopia.com","port":27015,"enabled":true,"region":"us-east","cc":"us","latitude":33.753746,"longitude":-84.38633,"reserved":0,"last_update":"0001-01-01T00:00:00Z","name_a2s":"Uncletopia | Atlanta | 1 | All Maps","protocol":17,"map":"pl_borneo","folder":"tf","game":"Team Fortress","app_id":440,"player_count":24,"max_players":24,"Bots":0,"server_type":"Dedicated","server_os":"Linux","password":true,"vac":true,"version":"7757534","steam_id":85568392924469982,"keywords":["nocrits","nodmgspread","payload","uncletopia"],"game_id":440,"stv_port":27016,"stv_name":"Uncletopia | Atlanta | 1 | All Maps | STV","players":[{"user_id":68,"name":"DFR DeezNoodlez","steam_id":76561198246700372,"connected_time":155000000000,"state":"active","ping":59},{"user_id":64,"name":"ClericsRose","steam_id":76561198011013806,"connected_time":552000000000,"state":"active","ping":70},{"user_id":8,"name":"Jin Gulilo","steam_id":76561198065151242,"connected_time":3564000000000,"state":"active","ping":69},{"user_id":43,"name":"Lechery","steam_id":76561198021204016,"connected_time":2060000000000,"state":"active","ping":70},{"user_id":42,"name":"GoofyIcarus","steam_id":76561198056443886,"connected_time":2079000000000,"state":"active","ping":174},{"user_id":44,"name":"Nanovyne","steam_id":76561198040222059,"connected_time":2046000000000,"state":"active","ping":77},{"user_id":62,"name":"Regi","steam_id":76561198271508598,"connected_time":575000000000,"state":"active","ping":74},{"user_id":13,"name":"Albino Jellyfish","steam_id":76561198208561097,"connected_time":3352000000000,"state":"active","ping":62},{"user_id":14,"name":"xX_HimboSwallower_Xx","steam_id":76561198016029965,"connected_time":3350000000000,"state":"active","ping":60},{"user_id":38,"name":"Horse","steam_id":76561199112075552,"connected_time":2174000000000,"state":"active","ping":69},{"user_id":40,"name":"luxin","steam_id":76561198399383047,"connected_time":2086000000000,"state":"active","ping":52},{"user_id":17,"name":"BasicPeaches","steam_id":76561198190890150,"connected_time":2946000000000,"state":"active","ping":89},{"user_id":66,"name":"proon","steam_id":76561198155983535,"connected_time":291000000000,"state":"active","ping":53},{"user_id":63,"name":"CPUnit","steam_id":76561198162881878,"connected_time":574000000000,"state":"active","ping":65},{"user_id":69,"name":"russia will be mine","steam_id":76561198105613110,"connected_time":111000000000,"state":"active","ping":74},{"user_id":72,"name":"Intro Bonito","steam_id":76561198119478838,"connected_time":18000000000,"state":"spawning","ping":47},{"user_id":56,"name":"Monster","steam_id":76561198189429665,"connected_time":863000000000,"state":"active","ping":59},{"user_id":71,"name":"irgü§†","steam_id":76561198019394451,"connected_time":97000000000,"state":"active","ping":78},{"user_id":58,"name":"Natascha Gaming","steam_id":76561198400058665,"connected_time":638000000000,"state":"active","ping":65},{"user_id":59,"name":"FEARSlayer01","steam_id":76561198431198110,"connected_time":604000000000,"state":"active","ping":73},{"user_id":50,"name":"Bailster","steam_id":76561198091530428,"connected_time":1601000000000,"state":"active","ping":74},{"user_id":53,"name":"scuba doo warfare","steam_id":76561198018761740,"connected_time":1018000000000,"state":"active","ping":75},{"user_id":60,"name":"Sergeant Joker #savetf2","steam_id":76561198854616604,"connected_time":604000000000,"state":"active","ping":77},{"user_id":49,"name":"G00D G00GLY M00GLY!!","steam_id":76561199177310566,"connected_time":1798000000000,"state":"active","ping":90}]},{"server_id":104,"name":"Uncletopia | Atlanta | 2 | All Maps","name_short":"atl-2","host":"atl-1.us.uncletopia.com","port":27025,"enabled":true,"region":"us-east","cc":"us","latitude":33.753746,"longitude":-84.38633,"reserved":0,"last_update":"0001-01-01T00:00:00Z","name_a2s":"Uncletopia | Atlanta | 2 | All Maps","protocol":17,"map":"cp_dustbowl","folder":"tf","game":"Team Fortress","app_id":440,"player_count":0,"max_players":24,"Bots":0,"server_type":"Dedicated","server_os":"Linux","password":true,"vac":true,"version":"7757534","steam_id":85568392924469983,"keywords":["cp","nocrits","nodmgspread","uncletopia"],"game_id":440,"stv_port":27026,"stv_name":"Uncletopia | Atlanta | 2 | All Maps | STV","players":null},{"server_id":400,"name":"Uncletopia | Atlanta | 3 | Community","name_short":"atl-3","host":"atl-1.us.uncletopia.com","port":27035,"enabled":true,"region":"us-east","cc":"us","latitude":33.753746,"longitude":-84.38633,"reserved":0,"last_update":"0001-01-01T00:00:00Z","name_a2s":"Uncletopia | Atlanta | 3 | Community","protocol":17,"map":"workshop/cp_hazyfort_rc6.ugc1365963729","folder":"tf","game":"Team Fortress","app_id":440,"player_count":0,"max_players":24,"Bots":0,"server_type":"Dedicated","server_os":"Linux","password":true,"vac":true,"version":"7757534","steam_id":85568392924515187,"keywords":["cp","nocrits","nodmgspread","uncletopia"],"game_id":440,"stv_port":27036,"stv_name":"Uncletopia | Atlanta | 3 | Community | STV","players":null},{"server_id":401,"name":"Uncletopia | Atlanta | 4 | No Payload","name_short":"atl-4","host":"atl-1.us.uncletopia.com","port":27045,"enabled":true,"region":"us-east","cc":"us","latitude":33.753746,"longitude":-84.38633,"reserved":0,"last_update":"0001-01-01T00:00:00Z","name_a2s":"","protocol":0,"map":"","folder":"","game":"","app_id":0,"player_count":0,"max_players":0,"Bots":0,"server_type":"","server_os":"","password":false,"vac":false,"version":"","steam_id":0,"keywords":null,"game_id":0,"stv_port":0,"stv_name":"","players":null},{"server_id":2,"name":"Uncletopia | Chicago | 1 | All Maps","name_short":"chi-1","host":"chi-1.us.uncletopia.com","port":27015,"enabled":true,"region":"us-central","cc":"us","latitude":41.881832,"longitude":-87.62318,"reserved":0,"last_update":"0001-01-01T00:00:00Z","name_a2s":"Uncletopia | Chicago | 1 | All Maps","protocol":17,"map":"koth_highpass","folder":"tf","game":"Team Fortress","app_id":440,"player_count":0,"max_players":24,"Bots":0,"server_type":"Dedicated","server_os":"Linux","password":true,"vac":true,"version":"7757534","steam_id":85568392924469984,"keywords":["cp","nocrits","nodmgspread","uncletopia"],"game_id":440,"stv_port":27016,"stv_name":"Uncletopia | Chicago | 1 | All Maps | STV","players":null},{"server_id":106,"name":"Uncletopia | Chicago | 2 | All Maps","name_short":"chi-2","host":"chi-1.us.uncletopia.com","port":27025,"enabled":true,"region":"us-central","cc":"us","latitude":41.881832,"longitude":-87.62318,"reserved":0,"last_update":"0001-01-01T00:00:00Z","name_a2s":"Uncletopia | Chicago | 2 | All Maps","protocol":17,"map":"koth_nucleus","folder":"tf","game":"Team Fortress","app_id":440,"player_count":0,"max_players":24,"Bots":0,"server_type":"Dedicated","server_os":"Linux","password":true,"vac":true,"version":"7757534","steam_id":85568392924469985,"keywords":["cp","nocrits","nodmgspread","uncletopia"],"game_id":440,"stv_port":27026,"stv_name":"Uncletopia | Chicago | 2 | All Maps | STV","players":null},{"server_id":402,"name":"Uncletopia | Chicago | 3 | All Maps","name_short":"chi-3","host":"chi-1.us.uncletopia.com","port":27035,"enabled":true,"region":"us-central","cc":"us","latitude":41.881832,"longitude":-87.62318,"reserved":0,"last_update":"0001-01-01T00:00:00Z","name_a2s":"Uncletopia | Chicago | 3 | All Maps","protocol":17,"map":"pl_upward","folder":"tf","game":"Team Fortress","app_id":440,"player_count":24,"max_players":24,"Bots":0,"server_type":"Dedicated","server_os":"Linux","password":true,"vac":true,"version":"7757534","steam_id":85568392924515191,"keywords":["nocrits","nodmgspread","payload","uncletopia"],"game_id":440,"stv_port":27036,"stv_name":"Uncletopia | Chicago | 3 | All Maps | STV","players":[{"user_id":148,"name":"ivan","steam_id":76561198289253554,"connected_time":179000000000,"state":"active","ping":190},{"user_id":144,"name":"THE SHOCKMASTER","steam_id":76561198169925494,"connected_time":662000000000,"state":"active","ping":65},{"user_id":96,"name":"Shamrock Shake Oct.10.2020 @8pm","steam_id":76561198833313201,"connected_time":4609000000000,"state":"active","ping":112},{"user_id":114,"name":"Austin - Tags.tf","steam_id":76561198115507647,"connected_time":2362000000000,"state":"active","ping":91},{"user_id":149,"name":"[√úBER] Bunnyboy","steam_id":76561198298416058,"connected_time":174000000000,"state":"active","ping":65},{"user_id":126,"name":"tesagi","steam_id":76561198026664629,"connected_time":2169000000000,"state":"active","ping":46},{"user_id":111,"name":"Garfield","steam_id":76561198037803087,"connected_time":2986000000000,"state":"active","ping":72},{"user_id":128,"name":"cow","steam_id":76561198117331762,"connected_time":2073000000000,"state":"active","ping":47},{"user_id":134,"name":"HOTA","steam_id":76561199002778841,"connected_time":1253000000000,"state":"active","ping":74},{"user_id":137,"name":"doctor large","steam_id":76561199195836752,"connected_time":1180000000000,"state":"active","ping":69},{"user_id":150,"name":"¬¨‚Äø¬¨","steam_id":76561198325526945,"connected_time":158000000000,"state":"active","ping":67},{"user_id":102,"name":"the doo doo man","steam_id":76561198057076267,"connected_time":4506000000000,"state":"active","ping":67},{"user_id":145,"name":"COOK","steam_id":76561198149929885,"connected_time":506000000000,"state":"active","ping":67},{"user_id":109,"name":"Suns","steam_id":76561198272323195,"connected_time":3659000000000,"state":"active","ping":106},{"user_id":140,"name":"Ghost","steam_id":76561198110914180,"connected_time":1132000000000,"state":"active","ping":179},{"user_id":141,"name":"sand hanitizer","steam_id":76561198109625221,"connected_time":1095000000000,"state":"active","ping":57},{"user_id":153,"name":"chanoc","steam_id":76561198026734746,"connected_time":6000000000,"state":"spawning","ping":98},{"user_id":124,"name":"nalezinik","steam_id":76561198030026119,"connected_time":2202000000000,"state":"active","ping":60},{"user_id":112,"name":"careuwuy","steam_id":76561198077321435,"connected_time":2569000000000,"state":"active","ping":77},{"user_id":131,"name":"WatchWill","steam_id":76561198157237945,"connected_time":1965000000000,"state":"active","ping":74},{"user_id":130,"name":"m√•lingen","steam_id":76561198035014807,"connected_time":2026000000000,"state":"active","ping":115},{"user_id":68,"name":"fish (2:3)","steam_id":76561198134331073,"connected_time":6253000000000,"state":"active","ping":110},{"user_id":152,"name":"voidpuppy","steam_id":76561198799922000,"connected_time":128000000000,"state":"active","ping":100},{"user_id":151,"name":"Leviathan","steam_id":76561197997528907,"connected_time":149000000000,"state":"active","ping":59}]},{"server_id":403,"name":"Uncletopia | Chicago | 4 | All Maps","name_short":"chi-4","host":"chi-1.us.uncletopia.com","port":27045,"enabled":true,"region":"us-central","cc":"us","latitude":41.881832,"longitude":-87.62318,"reserved":0,"last_update":"0001-01-01T00:00:00Z","name_a2s":"Uncletopia | Chicago | 4 | All Maps","protocol":17,"map":"cp_dustbowl","folder":"tf","game":"Team Fortress","app_id":440,"player_count":24,"max_players":24,"Bots":0,"server_type":"Dedicated","server_os":"Linux","password":true,"vac":true,"version":"7757534","steam_id":85568392924515193,"keywords":["cp","nocrits","nodmgspread","uncletopia"],"game_id":440,"stv_port":27046,"stv_name":"Uncletopia | Chicago | 4 | All Maps | STV","players":[{"user_id":320,"name":"09robcraft2","steam_id":76561199073189184,"connected_time":866000000000,"state":"active","ping":79},{"user_id":310,"name":"O Dog","steam_id":76561198133498912,"connected_time":1149000000000,"state":"active","ping":100},{"user_id":306,"name":"Mimir","steam_id":76561197995003142,"connected_time":1921000000000,"state":"active","ping":84},{"user_id":256,"name":"Evolution","steam_id":76561198144767370,"connected_time":5236000000000,"state":"active","ping":45},{"user_id":300,"name":"Scorpie Doodle","steam_id":76561198021845763,"connected_time":2467000000000,"state":"active","ping":51},{"user_id":311,"name":"Pro Box","steam_id":76561198035990809,"connected_time":1136000000000,"state":"active","ping":84},{"user_id":290,"name":"wùëíùëívil","steam_id":76561198081260791,"connected_time":3041000000000,"state":"active","ping":166},{"user_id":267,"name":"Satori Komeiji","steam_id":76561198158211423,"connected_time":4549000000000,"state":"active","ping":99},{"user_id":321,"name":"test","steam_id":76561198197388678,"connected_time":803000000000,"state":"active","ping":75},{"user_id":324,"name":"I Am Alpharius","steam_id":76561198799197135,"connected_time":324000000000,"state":"active","ping":56},{"user_id":325,"name":"TCMQ","steam_id":76561198377872976,"connected_time":296000000000,"state":"active","ping":72},{"user_id":301,"name":"Flooder","steam_id":76561198043792818,"connected_time":2391000000000,"state":"active","ping":97},{"user_id":313,"name":"Sprit ‚ô•","steam_id":76561198268780781,"connected_time":1024000000000,"state":"active","ping":48},{"user_id":314,"name":"Joyous Jenny","steam_id":76561198127998866,"connected_time":1024000000000,"state":"active","ping":64},{"user_id":286,"name":"SenTreats","steam_id":76561198085835841,"connected_time":3444000000000,"state":"active","ping":111},{"user_id":317,"name":"Eden","steam_id":76561198075587475,"connected_time":953000000000,"state":"active","ping":43},{"user_id":308,"name":"Uncle Majic the Hip Hop Magicia","steam_id":76561198107924303,"connected_time":1558000000000,"state":"active","ping":55},{"user_id":315,"name":"Goldensliv","steam_id":76561198161673891,"connected_time":1004000000000,"state":"active","ping":91},{"user_id":297,"name":"served","steam_id":76561199438267625,"connected_time":2875000000000,"state":"active","ping":106},{"user_id":322,"name":"maze","steam_id":76561198068443860,"connected_time":749000000000,"state":"active","ping":42},{"user_id":249,"name":"Drachma","steam_id":76561198007310514,"connected_time":5547000000000,"state":"active","ping":72},{"user_id":319,"name":"Hello I'm a Swedish Plumber","steam_id":76561199215811448,"connected_time":932000000000,"state":"active","ping":80},{"user_id":265,"name":"ÔºîÔºê Ôº¶Ôº∞Ôº≥","steam_id":76561198272394965,"connected_time":4952000000000,"state":"active","ping":141},{"user_id":303,"name":"Kaluka","steam_id":76561198036861445,"connected_time":2358000000000,"state":"active","ping":74}]},{"server_id":36,"name":"Uncletopia | Chicago | 5 | All Maps","name_short":"chi-5","host":"chi-2.us.uncletopia.com","port":27015,"enabled":true,"region":"us-central","cc":"us","latitude":41.881832,"longitude":-87.62318,"reserved":0,"last_update":"0001-01-01T00:00:00Z","name_a2s":"Uncletopia | Chicago | 5 | All Maps","protocol":17,"map":"koth_cascade","folder":"tf","game":"Team Fortress","app_id":440,"player_count":0,"max_players":24,"Bots":0,"server_type":"Dedicated","server_os":"Linux","password":true,"vac":true,"version":"7757534","steam_id":85568392924866362,"keywords":["cp","nocrits","nodmgspread","uncletopia"],"game_id":440,"stv_port":27016,"stv_name":"Uncletopia | Chicago | 5 | All Maps | STV","players":null},{"server_id":37,"name":"Uncletopia | Chicago | 6 | All Maps","name_short":"chi-6","host":"chi-2.us.uncletopia.com","port":27025,"enabled":true,"region":"us-central","cc":"us","latitude":41.881832,"longitude":-87.62318,"reserved":0,"last_update":"0001-01-01T00:00:00Z","name_a2s":"Uncletopia | Chicago | 6 | All Maps","protocol":17,"map":"pl_snowycoast","folder":"tf","game":"Team Fortress","app_id":440,"player_count":24,"max_players":24,"Bots":0,"server_type":"Dedicated","server_os":"Linux","password":true,"vac":true,"version":"7757534","steam_id":85568392924866363,"keywords":["nocrits","nodmgspread","payload","uncletopia"],"game_id":440,"stv_port":27026,"stv_name":"Uncletopia | Chicago | 6 | All Maps | STV","players":[{"user_id":147,"name":"MF LerN","steam_id":76561198083463877,"connected_time":2598000000000,"state":"active","ping":54},{"user_id":164,"name":"4+1MyriadFuturesCosMo@BousouFC","steam_id":76561198181929019,"connected_time":1127000000000,"state":"active","ping":48},{"user_id":126,"name":"kametro4","steam_id":76561198835430429,"connected_time":3878000000000,"state":"active","ping":75},{"user_id":177,"name":"TrashMann","steam_id":76561198040969743,"connected_time":334000000000,"state":"active","ping":72},{"user_id":170,"name":"AkimboAoki","steam_id":76561198158323058,"connected_time":536000000000,"state":"active","ping":93},{"user_id":165,"name":"joethefool","steam_id":76561199015436319,"connected_time":959000000000,"state":"active","ping":70},{"user_id":157,"name":"TFBot(1)","steam_id":76561198105538929,"connected_time":1328000000000,"state":"active","ping":58},{"user_id":171,"name":"pablo","steam_id":76561199190247198,"connected_time":474000000000,"state":"active","ping":107},{"user_id":162,"name":"MontellWilliams","steam_id":76561198172143015,"connected_time":1278000000000,"state":"active","ping":56},{"user_id":163,"name":"Parker","steam_id":76561198046044893,"connected_time":1232000000000,"state":"active","ping":52},{"user_id":178,"name":"whip bone grew shrooms","steam_id":76561198338482937,"connected_time":305000000000,"state":"active","ping":61},{"user_id":111,"name":"*Gage*","steam_id":76561197975233869,"connected_time":4848000000000,"state":"active","ping":92},{"user_id":150,"name":"emctwo","steam_id":76561198095082517,"connected_time":2515000000000,"state":"active","ping":63},{"user_id":138,"name":"Stoa","steam_id":76561198332519926,"connected_time":3201000000000,"state":"active","ping":88},{"user_id":54,"name":"Jack Horner","steam_id":76561199435609906,"connected_time":8879000000000,"state":"active","ping":84},{"user_id":139,"name":"moe5x","steam_id":76561198316877833,"connected_time":3153000000000,"state":"active","ping":140},{"user_id":172,"name":"HeisenBurger","steam_id":76561198040632080,"connected_time":461000000000,"state":"active","ping":45},{"user_id":180,"name":"EmptyB33R","steam_id":76561198993166528,"connected_time":81000000000,"state":"spawning","ping":318},{"user_id":179,"name":"AxonAndroidCM","steam_id":76561198086269391,"connected_time":164000000000,"state":"active","ping":89},{"user_id":153,"name":"no thoughts, head empty snake","steam_id":76561198872396820,"connected_time":2083000000000,"state":"active","ping":94},{"user_id":155,"name":"Its Shrimple; We Fry The Rice","steam_id":76561198024540614,"connected_time":1721000000000,"state":"active","ping":62},{"user_id":130,"name":"cannibalistic rival archetype.","steam_id":76561198294013916,"connected_time":3800000000000,"state":"active","ping":64},{"user_id":174,"name":"Dr. Eduardo","steam_id":76561198865808161,"connected_time":421000000000,"state":"active","ping":80},{"user_id":176,"name":"FellowGamer","steam_id":76561198089600392,"connected_time":400000000000,"state":"active","ping":81}]},{"server_id":38,"name":"Uncletopia | Chicago | 7 | Stopwatch Beta","name_short":"chi-7","host":"chi-2.us.uncletopia.com","port":27035,"enabled":true,"region":"us-central","cc":"us","latitude":41.881832,"longitude":-87.62318,"reserved":0,"last_update":"0001-01-01T00:00:00Z","name_a2s":"Uncletopia | Chicago | 7 | Stopwatch Beta","protocol":17,"map":"pl_barnblitz","folder":"tf","game":"Team Fortress","app_id":440,"player_count":0,"max_players":24,"Bots":0,"server_type":"Dedicated","server_os":"Linux","password":true,"vac":true,"version":"7757534","steam_id":85568392924866364,"keywords":["nocrits","nodmgspread","payload","uncletopia"],"game_id":440,"stv_port":27036,"stv_name":"Uncletopia | Chicago | 7 | Stopwatch Beta | STV","players":null},{"server_id":39,"name":"Uncletopia | Chicago | 8 | Community","name_short":"chi-8","host":"chi-2.us.uncletopia.com","port":27045,"enabled":true,"region":"us-central","cc":"us","latitude":41.881832,"longitude":-87.62318,"reserved":0,"last_update":"0001-01-01T00:00:00Z","name_a2s":"Uncletopia | Chicago | 8 | Community","protocol":17,"map":"koth_cascade","folder":"tf","game":"Team Fortress","app_id":440,"player_count":0,"max_players":24,"Bots":0,"server_type":"Dedicated","server_os":"Linux","password":true,"vac":true,"version":"7757534","steam_id":85568392924866365,"keywords":["cp","nocrits","nodmgspread","uncletopia"],"game_id":440,"stv_port":27046,"stv_name":"Uncletopia | Chicago | 8 | Community | STV","players":null},{"server_id":8,"name":"Uncletopia | Dallas | 1 | All Maps","name_short":"dal-1","host":"dal-1.us.uncletopia.com","port":27015,"enabled":true,"region":"us-central","cc":"us","latitude":32.779167,"longitude":-96.80889,"reserved":0,"last_update":"0001-01-01T00:00:00Z","name_a2s":"Uncletopia | Dallas | 1 | All Maps","protocol":17,"map":"koth_cascade","folder":"tf","game":"Team Fortress","app_id":440,"player_count":0,"max_players":24,"Bots":0,"server_type":"Dedicated","server_os":"Linux","password":true,"vac":true,"version":"7757534","steam_id":85568392924469986,"keywords":["cp","nocrits","nodmgspread","uncletopia"],"game_id":440,"stv_port":27016,"stv_name":"Uncletopia | Dallas | 1 | All Maps | STV","players":null},{"server_id":108,"name":"Uncletopia | Dallas | 2 | All Maps","name_short":"dal-2","host":"dal-1.us.uncletopia.com","port":27025,"enabled":true,"region":"us-central","cc":"us","latitude":32.779167,"longitude":-96.80889,"reserved":0,"last_update":"0001-01-01T00:00:00Z","name_a2s":"Uncletopia | Dallas | 2 | All Maps","protocol":17,"map":"cp_sunshine","folder":"tf","game":"Team Fortress","app_id":440,"player_count":24,"max_players":24,"Bots":0,"server_type":"Dedicated","server_os":"Linux","password":true,"vac":true,"version":"7757534","steam_id":85568392924469988,"keywords":["cp","nocrits","nodmgspread","uncletopia"],"game_id":440,"stv_port":27026,"stv_name":"Uncletopia | Dallas | 2 | All Maps | STV","players":[{"user_id":144,"name":"Anon","steam_id":76561198109740776,"connected_time":6033000000000,"state":"active","ping":96},{"user_id":241,"name":"Si1entSn1pa","steam_id":76561198170095479,"connected_time":1432000000000,"state":"active","ping":88},{"user_id":253,"name":"Slashes","steam_id":76561197968573499,"connected_time":409000000000,"state":"active","ping":87},{"user_id":243,"name":"Steadman Slick","steam_id":76561198092633444,"connected_time":1241000000000,"state":"active","ping":67},{"user_id":234,"name":"Bunchie","steam_id":76561198011549808,"connected_time":1821000000000,"state":"active","ping":37},{"user_id":239,"name":"lukamine","steam_id":76561198166827208,"connected_time":1744000000000,"state":"active","ping":97},{"user_id":198,"name":"Cinnifox","steam_id":76561198068773971,"connected_time":3446000000000,"state":"active","ping":74},{"user_id":119,"name":"Romanian Officer B Dingling","steam_id":76561198831997540,"connected_time":7399000000000,"state":"active","ping":57},{"user_id":246,"name":"Architect","steam_id":76561198015242016,"connected_time":984000000000,"state":"active","ping":70},{"user_id":247,"name":"Walmart Employee","steam_id":76561198840373909,"connected_time":970000000000,"state":"active","ping":99},{"user_id":248,"name":"mkl","steam_id":76561197986401685,"connected_time":951000000000,"state":"active","ping":56},{"user_id":242,"name":"Tyler\u0026Fingers","steam_id":76561198085154485,"connected_time":1288000000000,"state":"active","ping":92},{"user_id":200,"name":"Goodboish","steam_id":76561198170403119,"connected_time":3397000000000,"state":"active","ping":85},{"user_id":230,"name":"stoned jester","steam_id":76561198079609974,"connected_time":1852000000000,"state":"active","ping":81},{"user_id":244,"name":"Vortiger","steam_id":76561198275813176,"connected_time":1053000000000,"state":"active","ping":103},{"user_id":212,"name":"MysteryLemur","steam_id":76561198083412688,"connected_time":2898000000000,"state":"active","ping":116},{"user_id":107,"name":"Joe Swanson","steam_id":76561199089907740,"connected_time":8739000000000,"state":"active","ping":63},{"user_id":249,"name":"TaBunnie","steam_id":76561198197894178,"connected_time":949000000000,"state":"active","ping":88},{"user_id":250,"name":"Recursive Gamer","steam_id":76561198042102952,"connected_time":900000000000,"state":"active","ping":85},{"user_id":232,"name":"The chumbler | 20bb","steam_id":76561198999161827,"connected_time":1831000000000,"state":"active","ping":77},{"user_id":213,"name":"weebloser","steam_id":76561198155571316,"connected_time":2895000000000,"state":"active","ping":63},{"user_id":252,"name":"DiscoTraveler","steam_id":76561199240168088,"connected_time":665000000000,"state":"active","ping":82},{"user_id":254,"name":"crypt","steam_id":76561198280142450,"connected_time":367000000000,"state":"active","ping":52},{"user_id":223,"name":"Pharma","steam_id":76561198258475476,"connected_time":2233000000000,"state":"active","ping":70}]},{"server_id":5,"name":"Uncletopia | Frankfurt | 1 | All Maps","name_short":"frk-1","host":"frk-1.de.uncletopia.com","port":27015,"enabled":true,"region":"eu","cc":"de","latitude":50.110924,"longitude":8.682127,"reserved":0,"last_update":"0001-01-01T00:00:00Z","name_a2s":"Uncletopia | Frankfurt | 1 | All Maps","protocol":17,"map":"pl_barnblitz","folder":"tf","game":"Team Fortress","app_id":440,"player_count":24,"max_players":24,"Bots":0,"server_type":"Dedicated","server_os":"Linux","password":true,"vac":true,"version":"7757534","steam_id":85568392924469989,"keywords":["nocrits","nodmgspread","payload","uncletopia"],"game_id":440,"stv_port":27016,"stv_name":"Uncletopia | Frankfurt | 1 | All Maps | STV","players":[{"user_id":682,"name":"Piox","steam_id":76561198125689157,"connected_time":1006000000000,"state":"active","ping":86},{"user_id":685,"name":"Walle","steam_id":76561197995148937,"connected_time":421000000000,"state":"active","ping":66},{"user_id":676,"name":"Kid named download","steam_id":76561199192074448,"connected_time":1341000000000,"state":"active","ping":172},{"user_id":669,"name":"daddy cheese","steam_id":76561199049128913,"connected_time":1645000000000,"state":"active","ping":56},{"user_id":636,"name":"Cranto","steam_id":76561198101745576,"connected_time":4140000000000,"state":"active","ping":71},{"user_id":666,"name":"Datenegassie","steam_id":76561198089417032,"connected_time":1689000000000,"state":"active","ping":66},{"user_id":629,"name":"Trebox78","steam_id":76561198071963357,"connected_time":4404000000000,"state":"active","ping":85},{"user_id":658,"name":"Dr.090","steam_id":76561198201215334,"connected_time":1934000000000,"state":"active","ping":87},{"user_id":667,"name":"Miolen","steam_id":76561198083366424,"connected_time":1671000000000,"state":"active","ping":114},{"user_id":678,"name":"Teroristu din Pestisani","steam_id":76561198878599352,"connected_time":1310000000000,"state":"active","ping":88},{"user_id":679,"name":"Svilar","steam_id":76561198828348612,"connected_time":1120000000000,"state":"active","ping":90},{"user_id":412,"name":"grandpa's post-mortem photo","steam_id":76561198130116078,"connected_time":18578000000000,"state":"active","ping":98},{"user_id":621,"name":"decommandpro","steam_id":76561198971647041,"connected_time":5067000000000,"state":"active","ping":81},{"user_id":671,"name":"lofimonkeyjazz","steam_id":76561198117059662,"connected_time":1627000000000,"state":"active","ping":82},{"user_id":683,"name":"Rigby","steam_id":76561198021552128,"connected_time":853000000000,"state":"active","ping":104},{"user_id":659,"name":"james","steam_id":76561198133591664,"connected_time":1855000000000,"state":"active","ping":150},{"user_id":687,"name":"Seeker","steam_id":76561198873052772,"connected_time":183000000000,"state":"active","ping":66},{"user_id":684,"name":"tree goblin","steam_id":76561199176610938,"connected_time":525000000000,"state":"active","ping":77},{"user_id":640,"name":"DrExplosive","steam_id":76561198063678579,"connected_time":3828000000000,"state":"active","ping":66},{"user_id":627,"name":"Wardruna96","steam_id":76561199057083828,"connected_time":4871000000000,"state":"active","ping":68},{"user_id":674,"name":"Skuld","steam_id":76561198064734905,"connected_time":1406000000000,"state":"active","ping":93},{"user_id":637,"name":"gxoul","steam_id":76561199091006994,"connected_time":4111000000000,"state":"active","ping":81},{"user_id":677,"name":"ARYZON","steam_id":76561198070705087,"connected_time":1332000000000,"state":"active","ping":49},{"user_id":681,"name":"‚òÖpoyo‚òÖ","steam_id":76561198150078959,"connected_time":1069000000000,"state":"active","ping":62}]},{"server_id":110,"name":"Uncletopia | Frankfurt | 2 | All Maps","name_short":"frk-2","host":"frk-1.de.uncletopia.com","port":27025,"enabled":true,"region":"eu","cc":"de","latitude":50.110924,"longitude":8.682127,"reserved":0,"last_update":"0001-01-01T00:00:00Z","name_a2s":"Uncletopia | Frankfurt | 2 | All Maps","protocol":17,"map":"pl_frontier_final","folder":"tf","game":"Team Fortress","app_id":440,"player_count":24,"max_players":24,"Bots":0,"server_type":"Dedicated","server_os":"Linux","password":true,"vac":true,"version":"7757534","steam_id":85568392924469990,"keywords":["nocrits","nodmgspread","payload","uncletopia"],"game_id":440,"stv_port":27026,"stv_name":"Uncletopia | Frankfurt | 2 | All Maps | STV","players":[{"user_id":394,"name":"etc","steam_id":76561197998394797,"connected_time":229000000000,"state":"active","ping":59},{"user_id":358,"name":"Topia","steam_id":76561198163571788,"connected_time":1981000000000,"state":"active","ping":72},{"user_id":350,"name":"Quacksterhand","steam_id":76561197999080808,"connected_time":3047000000000,"state":"active","ping":118},{"user_id":330,"name":"Br√∂ther","steam_id":76561198198387485,"connected_time":4248000000000,"state":"active","ping":64},{"user_id":328,"name":"Blob","steam_id":76561197971418993,"connected_time":4406000000000,"state":"active","ping":99},{"user_id":387,"name":"MrMartin","steam_id":76561198399954507,"connected_time":695000000000,"state":"active","ping":88},{"user_id":378,"name":"Solymr ibn Wali Barad","steam_id":76561198044008976,"connected_time":945000000000,"state":"active","ping":70},{"user_id":379,"name":"Mor'du","steam_id":76561198274105878,"connected_time":939000000000,"state":"active","ping":98},{"user_id":381,"name":"zek","steam_id":76561198862763731,"connected_time":791000000000,"state":"active","ping":56},{"user_id":361,"name":"Vidrox #savetf2","steam_id":76561199217854983,"connected_time":1905000000000,"state":"active","ping":95},{"user_id":347,"name":"The pusheen cat","steam_id":76561199002462516,"connected_time":3268000000000,"state":"active","ping":73},{"user_id":391,"name":"malink√Ω","steam_id":76561198048683488,"connected_time":551000000000,"state":"active","ping":62},{"user_id":382,"name":"saderhesz","steam_id":76561197992287330,"connected_time":789000000000,"state":"active","ping":60},{"user_id":383,"name":"Wren","steam_id":76561198046292179,"connected_time":758000000000,"state":"active","ping":70},{"user_id":395,"name":"laser","steam_id":76561198036030697,"connected_time":107000000000,"state":"active","ping":53},{"user_id":393,"name":"cursedbygod‚ô°","steam_id":76561198318291047,"connected_time":289000000000,"state":"active","ping":115},{"user_id":386,"name":"Fat Juicy Girlcock","steam_id":76561198022584980,"connected_time":715000000000,"state":"active","ping":70},{"user_id":368,"name":"S_ApplePie","steam_id":76561198106947669,"connected_time":1824000000000,"state":"active","ping":85},{"user_id":388,"name":"CoqCriard","steam_id":76561198799129042,"connected_time":683000000000,"state":"active","ping":97},{"user_id":321,"name":"Tyzone‚ô•","steam_id":76561198024844539,"connected_time":4696000000000,"state":"active","ping":56},{"user_id":313,"name":"‚ô• Aura ‚ô•","steam_id":76561198066258544,"connected_time":5266000000000,"state":"active","ping":67},{"user_id":371,"name":"Vitun Jonne","steam_id":76561198401737380,"connected_time":1519000000000,"state":"active","ping":59},{"user_id":392,"name":"cherry","steam_id":76561199006915718,"connected_time":454000000000,"state":"active","ping":71},{"user_id":390,"name":"Hamza Gaming","steam_id":76561198150448445,"connected_time":670000000000,"state":"active","ping":59}]},{"server_id":308,"name":"Uncletopia | Frankfurt | 3 | All Maps","name_short":"frk-3","host":"frk-1.de.uncletopia.com","port":27035,"enabled":true,"region":"eu","cc":"de","latitude":50.110924,"longitude":8.682127,"reserved":0,"last_update":"0001-01-01T00:00:00Z","name_a2s":"Uncletopia | Frankfurt | 3 | All Maps","protocol":17,"map":"cp_snakewater_final1","folder":"tf","game":"Team Fortress","app_id":440,"player_count":0,"max_players":24,"Bots":0,"server_type":"Dedicated","server_os":"Linux","password":true,"vac":true,"version":"7757534","steam_id":85568392924504274,"keywords":["cp","nocrits","nodmgspread","uncletopia"],"game_id":440,"stv_port":27036,"stv_name":"Uncletopia | Frankfurt | 3 | All Maps | STV","players":null},{"server_id":309,"name":"Uncletopia | Frankfurt | 4 | All Maps","name_short":"frk-4","host":"frk-1.de.uncletopia.com","port":27045,"enabled":true,"region":"eu","cc":"de","latitude":50.110924,"longitude":8.682127,"reserved":0,"last_update":"0001-01-01T00:00:00Z","name_a2s":"Uncletopia | Frankfurt | 4 | All Maps","protocol":17,"map":"cp_dustbowl","folder":"tf","game":"Team Fortress","app_id":440,"player_count":24,"max_players":24,"Bots":0,"server_type":"Dedicated","server_os":"Linux","password":true,"vac":true,"version":"7757534","steam_id":85568392924504275,"keywords":["cp","nocrits","nodmgspread","uncletopia"],"game_id":440,"stv_port":27046,"stv_name":"Uncletopia | Frankfurt | 4 | All Maps | STV","players":[{"user_id":249,"name":"thuurs","steam_id":76561198095850568,"connected_time":1510000000000,"state":"active","ping":55},{"user_id":250,"name":"Garuda1","steam_id":76561198058244959,"connected_time":1464000000000,"state":"active","ping":77},{"user_id":273,"name":"Michael","steam_id":76561198003146906,"connected_time":277000000000,"state":"active","ping":56},{"user_id":196,"name":"–ü–µ–Ω—å","steam_id":76561198103127918,"connected_time":5844000000000,"state":"active","ping":99},{"user_id":225,"name":"ja","steam_id":76561199228540618,"connected_time":3438000000000,"state":"active","ping":79},{"user_id":235,"name":"InariTPG (They Them)","steam_id":76561198872670782,"connected_time":2636000000000,"state":"active","ping":78},{"user_id":259,"name":"diam","steam_id":76561198015364262,"connected_time":1038000000000,"state":"active","ping":55},{"user_id":246,"name":"Charged","steam_id":76561199127215130,"connected_time":1594000000000,"state":"active","ping":85},{"user_id":274,"name":"BeefBeatus","steam_id":76561198388493371,"connected_time":268000000000,"state":"active","ping":71},{"user_id":260,"name":"Elkabat","steam_id":76561198150017277,"connected_time":1018000000000,"state":"active","ping":65},{"user_id":277,"name":"Surplus Rice","steam_id":76561198181097561,"connected_time":89000000000,"state":"active","ping":62},{"user_id":253,"name":"Per√§miehen√§","steam_id":76561197968945306,"connected_time":1234000000000,"state":"active","ping":70},{"user_id":258,"name":"Creative","steam_id":76561198835034247,"connected_time":1059000000000,"state":"active","ping":76},{"user_id":242,"name":"Itai","steam_id":76561198804555329,"connected_time":2070000000000,"state":"active","ping":97},{"user_id":276,"name":"Wyro","steam_id":76561199176835169,"connected_time":250000000000,"state":"active","ping":65},{"user_id":244,"name":"USBug999","steam_id":76561199174677820,"connected_time":1778000000000,"state":"active","ping":133},{"user_id":261,"name":"Luppi van Puppi","steam_id":76561198055986745,"connected_time":1013000000000,"state":"active","ping":61},{"user_id":262,"name":"Baki ‡∂û","steam_id":76561198193615529,"connected_time":984000000000,"state":"active","ping":60},{"user_id":269,"name":"EEEEEH","steam_id":76561198126717413,"connected_time":447000000000,"state":"active","ping":80},{"user_id":268,"name":"roblan11","steam_id":76561198066839258,"connected_time":595000000000,"state":"active","ping":44},{"user_id":265,"name":"Darkny","steam_id":76561198045570547,"connected_time":806000000000,"state":"active","ping":92},{"user_id":270,"name":"JohkupohkuXD","steam_id":76561198391108762,"connected_time":363000000000,"state":"active","ping":90},{"user_id":169,"name":"Hegyi tah√≥ F2P","steam_id":76561199219150356,"connected_time":7496000000000,"state":"active","ping":63},{"user_id":267,"name":"knyazF","steam_id":76561198163278585,"connected_time":780000000000,"state":"active","ping":71}]},{"server_id":310,"name":"Uncletopia | Frankfurt | 5 | All Maps","name_short":"frk-5","host":"frk-1.de.uncletopia.com","port":27055,"enabled":true,"region":"eu","cc":"de","latitude":50.110924,"longitude":8.682127,"reserved":0,"last_update":"0001-01-01T00:00:00Z","name_a2s":"Uncletopia | Frankfurt | 5 | All Maps","protocol":17,"map":"pl_goldrush","folder":"tf","game":"Team Fortress","app_id":440,"player_count":24,"max_players":24,"Bots":0,"server_type":"Dedicated","server_os":"Linux","password":true,"vac":true,"version":"7757534","steam_id":85568392924504277,"keywords":["nocrits","nodmgspread","payload","uncletopia"],"game_id":440,"stv_port":27056,"stv_name":"Uncletopia | Frankfurt | 5 | All Maps | STV","players":[{"user_id":70,"name":"shadowarrior","steam_id":76561198231304076,"connected_time":249000000000,"state":"active","ping":186},{"user_id":66,"name":"I.C. Wiener","steam_id":76561197999912254,"connected_time":370000000000,"state":"active","ping":93},{"user_id":42,"name":"Mr. Mundy","steam_id":76561198132008918,"connected_time":1556000000000,"state":"active","ping":74},{"user_id":24,"name":"Tre3","steam_id":76561198054795379,"connected_time":2417000000000,"state":"active","ping":58},{"user_id":71,"name":"Bastard'Nick","steam_id":76561198044044651,"connected_time":241000000000,"state":"active","ping":71},{"user_id":26,"name":"Frank","steam_id":76561198086672774,"connected_time":2203000000000,"state":"active","ping":62},{"user_id":67,"name":"FroschyDABossy","steam_id":76561199060527723,"connected_time":343000000000,"state":"active","ping":58},{"user_id":29,"name":"VanillaWoof","steam_id":76561198158343951,"connected_time":2053000000000,"state":"active","ping":48},{"user_id":47,"name":"Lokinn","steam_id":76561198127117580,"connected_time":1229000000000,"state":"active","ping":75},{"user_id":31,"name":"M.Bou","steam_id":76561199097750260,"connected_time":1922000000000,"state":"active","ping":146},{"user_id":46,"name":"Chocofrolik","steam_id":76561198454779847,"connected_time":1356000000000,"state":"active","ping":77},{"user_id":48,"name":"Flying skyhigh","steam_id":76561198372971096,"connected_time":1202000000000,"state":"active","ping":74},{"user_id":57,"name":"AsuX","steam_id":76561197990333289,"connected_time":949000000000,"state":"active","ping":67},{"user_id":35,"name":"Acanda","steam_id":76561198123246537,"connected_time":1752000000000,"state":"active","ping":56},{"user_id":49,"name":"W√ºstenfuchs","steam_id":76561198453885708,"connected_time":1167000000000,"state":"active","ping":69},{"user_id":38,"name":"Waluigi","steam_id":76561199070474380,"connected_time":1675000000000,"state":"active","ping":92},{"user_id":68,"name":"strideŒî","steam_id":76561199007826093,"connected_time":337000000000,"state":"active","ping":87},{"user_id":61,"name":"Vytuzas","steam_id":76561198012868436,"connected_time":703000000000,"state":"active","ping":60},{"user_id":43,"name":"coree","steam_id":76561199082156030,"connected_time":1512000000000,"state":"active","ping":90},{"user_id":51,"name":"Nyhde","steam_id":76561198012771416,"connected_time":1120000000000,"state":"active","ping":89},{"user_id":69,"name":"piping hot","steam_id":76561198011692496,"connected_time":332000000000,"state":"active","ping":59},{"user_id":54,"name":"Jack Dickfister","steam_id":76561198145145810,"connected_time":1021000000000,"state":"active","ping":57},{"user_id":62,"name":"[HOL] Solringen","steam_id":76561198003584681,"connected_time":581000000000,"state":"active","ping":70},{"user_id":59,"name":"Farmercy","steam_id":76561198000038039,"connected_time":925000000000,"state":"active","ping":59}]},{"server_id":311,"name":"Uncletopia | Frankfurt | 6 | All Maps","name_short":"frk-6","host":"frk-1.de.uncletopia.com","port":27065,"enabled":true,"region":"eu","cc":"de","latitude":50.110924,"longitude":8.682127,"reserved":0,"last_update":"0001-01-01T00:00:00Z","name_a2s":"Uncletopia | Frankfurt | 6 | All Maps","protocol":17,"map":"pl_snowycoast","folder":"tf","game":"Team Fortress","app_id":440,"player_count":23,"max_players":24,"Bots":0,"server_type":"Dedicated","server_os":"Linux","password":true,"vac":true,"version":"7757534","steam_id":85568392924504278,"keywords":["nocrits","nodmgspread","payload","uncletopia"],"game_id":440,"stv_port":27066,"stv_name":"Uncletopia | Frankfurt | 6 | All Maps | STV","players":[{"user_id":142,"name":"Cypher","steam_id":76561197996967254,"connected_time":2394000000000,"state":"active","ping":45},{"user_id":92,"name":"SnowShot","steam_id":76561198004766638,"connected_time":5479000000000,"state":"active","ping":63},{"user_id":173,"name":"Gravel Mercenary","steam_id":76561199019412162,"connected_time":525000000000,"state":"active","ping":63},{"user_id":158,"name":"Doriian","steam_id":76561198071438810,"connected_time":1638000000000,"state":"active","ping":80},{"user_id":175,"name":"pedestrianise gloucester rd","steam_id":76561198126022039,"connected_time":499000000000,"state":"active","ping":59},{"user_id":179,"name":"Sirzen","steam_id":76561198170155434,"connected_time":119000000000,"state":"active","ping":52},{"user_id":126,"name":"Sandvich","steam_id":76561199079493666,"connected_time":3053000000000,"state":"active","ping":87},{"user_id":176,"name":"Ross from F.R.I.E.N.D.S.","steam_id":76561198008511665,"connected_time":464000000000,"state":"active","ping":59},{"user_id":119,"name":"After8","steam_id":76561198090750865,"connected_time":3354000000000,"state":"active","ping":66},{"user_id":127,"name":"Fran","steam_id":76561199070516960,"connected_time":3012000000000,"state":"active","ping":68},{"user_id":141,"name":"Nag","steam_id":76561197970488206,"connected_time":2408000000000,"state":"active","ping":85},{"user_id":178,"name":"SaltyCupcakes","steam_id":76561198256386417,"connected_time":326000000000,"state":"active","ping":60},{"user_id":150,"name":"Egor Pomidor","steam_id":76561199175688390,"connected_time":1908000000000,"state":"active","ping":75},{"user_id":167,"name":"Squishy","steam_id":76561198124618876,"connected_time":641000000000,"state":"active","ping":110},{"user_id":109,"name":"Soyboy","steam_id":76561198053885716,"connected_time":3855000000000,"state":"active","ping":91},{"user_id":168,"name":"Setter Ball Gaul","steam_id":76561198130427881,"connected_time":630000000000,"state":"active","ping":159},{"user_id":131,"name":"Ishy the Lagger","steam_id":76561198835943890,"connected_time":2823000000000,"state":"active","ping":174},{"user_id":160,"name":"Myrmodion","steam_id":76561198054746247,"connected_time":1181000000000,"state":"active","ping":65},{"user_id":170,"name":"Yorm","steam_id":76561198078459249,"connected_time":611000000000,"state":"active","ping":190},{"user_id":157,"name":"Sza","steam_id":76561198022132105,"connected_time":1767000000000,"state":"active","ping":63},{"user_id":171,"name":"MAKENTAKEN","steam_id":76561199127359587,"connected_time":595000000000,"state":"active","ping":100},{"user_id":163,"name":"Jabussy","steam_id":76561198111148719,"connected_time":820000000000,"state":"active","ping":71},{"user_id":180,"name":"Knapka","steam_id":76561198090422767,"connected_time":116000000000,"state":"active","ping":61}]},{"server_id":23,"name":"Uncletopia | Frankfurt | 7 | Stopwatch Beta","name_short":"frk-7","host":"frk-1.de.uncletopia.com","port":27075,"enabled":true,"region":"eu","cc":"de","latitude":50.110924,"longitude":8.682127,"reserved":0,"last_update":"0001-01-01T00:00:00Z","name_a2s":"Uncletopia | Frankfurt | 7 | Stopwatch Beta","protocol":17,"map":"workshop/koth_bagel_rc6.ugc2514036946","folder":"tf","game":"Team Fortress","app_id":440,"player_count":0,"max_players":24,"Bots":0,"server_type":"Dedicated","server_os":"Linux","password":true,"vac":true,"version":"7757534","steam_id":85568392924742827,"keywords":["cp","nocrits","nodmgspread","uncletopia"],"game_id":440,"stv_port":27076,"stv_name":"Uncletopia | Frankfurt | 7 | Stopwatch Beta | STV","players":null},{"server_id":24,"name":"Uncletopia | Frankfurt | 8 | Community","name_short":"frk-8","host":"frk-1.de.uncletopia.com","port":27085,"enabled":true,"region":"eu","cc":"de","latitude":50.110924,"longitude":8.682127,"reserved":0,"last_update":"0001-01-01T00:00:00Z","name_a2s":"Uncletopia | Frankfurt | 8 | Community","protocol":17,"map":"workshop/pl_corrode_rc2.ugc546577989","folder":"tf","game":"Team Fortress","app_id":440,"player_count":24,"max_players":24,"Bots":0,"server_type":"Dedicated","server_os":"Linux","password":true,"vac":true,"version":"7757534","steam_id":85568392924742828,"keywords":["nocrits","nodmgspread","payload","uncletopia"],"game_id":440,"stv_port":27086,"stv_name":"Uncletopia | Frankfurt | 8 | Community | STV","players":[{"user_id":154,"name":"cislastar","steam_id":76561198027202375,"connected_time":4930000000000,"state":"active","ping":71},{"user_id":248,"name":"Fletcher","steam_id":76561198108604934,"connected_time":238000000000,"state":"active","ping":82},{"user_id":233,"name":"cirkuu","steam_id":76561198053465042,"connected_time":1334000000000,"state":"active","ping":180},{"user_id":249,"name":"goblinninja110","steam_id":76561198269159354,"connected_time":229000000000,"state":"active","ping":68},{"user_id":253,"name":"TidB","steam_id":76561198055342304,"connected_time":51000000000,"state":"active","ping":52},{"user_id":228,"name":"Trokmanaoul","steam_id":76561199148272568,"connected_time":1488000000000,"state":"active","ping":119},{"user_id":207,"name":"Een schaap zonder slaap","steam_id":76561198084808410,"connected_time":2209000000000,"state":"active","ping":60},{"user_id":234,"name":"htraB","steam_id":76561198043122677,"connected_time":1322000000000,"state":"active","ping":60},{"user_id":225,"name":"wicked","steam_id":76561198164376035,"connected_time":1619000000000,"state":"active","ping":75},{"user_id":231,"name":"balanced diet","steam_id":76561198240320806,"connected_time":1368000000000,"state":"active","ping":69},{"user_id":244,"name":"cof","steam_id":76561199128417805,"connected_time":987000000000,"state":"active","ping":71},{"user_id":163,"name":"GamliRaudur1","steam_id":76561199179181105,"connected_time":4560000000000,"state":"active","ping":99},{"user_id":229,"name":"KonehoChicken.","steam_id":76561198167116467,"connected_time":1421000000000,"state":"active","ping":93},{"user_id":165,"name":"Brainfart08","steam_id":76561198170156079,"connected_time":4453000000000,"state":"active","ping":104},{"user_id":250,"name":"sHIFTINGvORTEX","steam_id":76561198231648332,"connected_time":203000000000,"state":"active","ping":77},{"user_id":226,"name":"Prism","steam_id":76561198075538312,"connected_time":1613000000000,"state":"active","ping":74},{"user_id":236,"name":"gagalak","steam_id":76561198089979108,"connected_time":1262000000000,"state":"active","ping":92},{"user_id":245,"name":"AXAL","steam_id":76561198178250598,"connected_time":923000000000,"state":"active","ping":127},{"user_id":237,"name":"SirSangoor","steam_id":76561198044462559,"connected_time":1182000000000,"state":"active","ping":120},{"user_id":252,"name":"EGirlGang","steam_id":76561198257435792,"connected_time":135000000000,"state":"active","ping":76},{"user_id":243,"name":"Ymi","steam_id":76561198070039615,"connected_time":1007000000000,"state":"active","ping":93},{"user_id":218,"name":"Kleiner Engel","steam_id":76561198009922500,"connected_time":1814000000000,"state":"active","ping":62},{"user_id":246,"name":"tiiyama","steam_id":76561198046196005,"connected_time":880000000000,"state":"active","ping":49},{"user_id":227,"name":"El Goblino","steam_id":76561198232877396,"connected_time":1605000000000,"state":"active","ping":106}]},{"server_id":202,"name":"Uncletopia | Hong Kong | 1 | All Maps","name_short":"hgk-1","host":"hgk-1.hk.uncletopia.com","port":27015,"enabled":true,"region":"asia","cc":"hk","latitude":22.302711,"longitude":114.177216,"reserved":0,"last_update":"0001-01-01T00:00:00Z","name_a2s":"Uncletopia | Hong Kong | 1 | All Maps","protocol":17,"map":"koth_lakeside_final","folder":"tf","game":"Team Fortress","app_id":440,"player_count":0,"max_players":24,"Bots":0,"server_type":"Dedicated","server_os":"Linux","password":true,"vac":true,"version":"7757534","steam_id":85568392924494504,"keywords":["cp","nocrits","nodmgspread","uncletopia"],"game_id":440,"stv_port":27016,"stv_name":"Uncletopia | Hong Kong | 1 | All Maps | STV","players":null},{"server_id":1,"name":"Uncletopia | Los Angeles | 1 | All Maps","name_short":"lax-1","host":"lax-1.us.uncletopia.com","port":27015,"enabled":true,"region":"us-west","cc":"us","latitude":33.94279,"longitude":-118.41004,"reserved":0,"last_update":"0001-01-01T00:00:00Z","name_a2s":"Uncletopia | Los Angeles | 1 | All Maps","protocol":17,"map":"koth_lakeside_final","folder":"tf","game":"Team Fortress","app_id":440,"player_count":0,"max_players":24,"Bots":0,"server_type":"Dedicated","server_os":"Linux","password":true,"vac":true,"version":"7757534","steam_id":85568392924469991,"keywords":["cp","nocrits","nodmgspread","uncletopia"],"game_id":440,"stv_port":27016,"stv_name":"Uncletopia | Los Angeles | 1 | All Maps | STV","players":null},{"server_id":112,"name":"Uncletopia | Los Angeles | 2 | All Maps","name_short":"lax-2","host":"lax-1.us.uncletopia.com","port":27025,"enabled":true,"region":"us-west","cc":"us","latitude":33.94279,"longitude":-118.41004,"reserved":0,"last_update":"0001-01-01T00:00:00Z","name_a2s":"Uncletopia | Los Angeles | 2 | All Maps","protocol":17,"map":"pl_badwater","folder":"tf","game":"Team Fortress","app_id":440,"player_count":0,"max_players":24,"Bots":0,"server_type":"Dedicated","server_os":"Linux","password":true,"vac":true,"version":"7757534","steam_id":85568392924469992,"keywords":["nocrits","nodmgspread","payload","uncletopia"],"game_id":440,"stv_port":27026,"stv_name":"Uncletopia | Los Angeles | 2 | All Maps | STV","players":null},{"server_id":324,"name":"Uncletopia | Los Angeles | 3 | All Maps","name_short":"lax-3","host":"lax-1.us.uncletopia.com","port":27035,"enabled":true,"region":"us-west","cc":"us","latitude":33.94279,"longitude":-118.41004,"reserved":0,"last_update":"0001-01-01T00:00:00Z","name_a2s":"Uncletopia | Los Angeles | 3 | All Maps","protocol":17,"map":"pl_barnblitz","folder":"tf","game":"Team Fortress","app_id":440,"player_count":0,"max_players":24,"Bots":0,"server_type":"Dedicated","server_os":"Linux","password":true,"vac":true,"version":"7757534","steam_id":85568392924510198,"keywords":["nocrits","nodmgspread","payload","uncletopia"],"game_id":440,"stv_port":27036,"stv_name":"Uncletopia | Los Angeles | 3 | All Maps | STV","players":null},{"server_id":25,"name":"Uncletopia | Los Angeles | 4 | Stopwatch Beta","name_short":"lax-4","host":"lax-1.us.uncletopia.com","port":27045,"enabled":true,"region":"us-west","cc":"us","latitude":33.94279,"longitude":-118.41004,"reserved":0,"last_update":"0001-01-01T00:00:00Z","name_a2s":"Uncletopia | Los Angeles | 4 | Stopwatch Beta","protocol":17,"map":"pl_swiftwater_final1","folder":"tf","game":"Team Fortress","app_id":440,"player_count":0,"max_players":24,"Bots":0,"server_type":"Dedicated","server_os":"Linux","password":true,"vac":true,"version":"7757534","steam_id":85568392924510199,"keywords":["nocrits","nodmgspread","payload","uncletopia"],"game_id":440,"stv_port":27046,"stv_name":"Uncletopia | Los Angeles | 4 | Stopwatch Beta | STV","players":null},{"server_id":11,"name":"Uncletopia | London | 1 | All Maps","name_short":"lon-1","host":"lon-1.uk.uncletopia.com","port":27015,"enabled":true,"region":"eu","cc":"gb","latitude":51.509865,"longitude":-0.118092,"reserved":0,"last_update":"0001-01-01T00:00:00Z","name_a2s":"Uncletopia | London | 1 | All Maps","protocol":17,"map":"pl_badwater","folder":"tf","game":"Team Fortress","app_id":440,"player_count":24,"max_players":24,"Bots":0,"server_type":"Dedicated","server_os":"Linux","password":true,"vac":true,"version":"7757534","steam_id":85568392924367362,"keywords":["nocrits","nodmgspread","payload","uncletopia"],"game_id":440,"stv_port":27016,"stv_name":"Uncletopia | London | 1 | All Maps | STV","players":[{"user_id":479,"name":"honneur aux pauvres","steam_id":76561198048741472,"connected_time":1693000000000,"state":"active","ping":46},{"user_id":504,"name":"Son Goku","steam_id":76561199383437138,"connected_time":514000000000,"state":"active","ping":125},{"user_id":508,"name":"Pancakes","steam_id":76561198196259989,"connected_time":372000000000,"state":"active","ping":55},{"user_id":513,"name":"Lewylow","steam_id":76561198005425686,"connected_time":140000000000,"state":"active","ping":52},{"user_id":488,"name":"jimmy bob","steam_id":76561198319583692,"connected_time":1536000000000,"state":"active","ping":55},{"user_id":462,"name":"Aaron","steam_id":76561197990046953,"connected_time":2390000000000,"state":"active","ping":66},{"user_id":414,"name":"Caerot","steam_id":76561198839000676,"connected_time":4942000000000,"state":"active","ping":72},{"user_id":461,"name":"Dwevy","steam_id":76561198090379437,"connected_time":2538000000000,"state":"active","ping":52},{"user_id":512,"name":"S√≠theach","steam_id":76561198138915310,"connected_time":297000000000,"state":"active","ping":59},{"user_id":514,"name":"Insain Bolt!","steam_id":76561198025687726,"connected_time":131000000000,"state":"active","ping":78},{"user_id":505,"name":"call my Skype","steam_id":76561199026097466,"connected_time":483000000000,"state":"active","ping":72},{"user_id":511,"name":"TF2 Lollichop (Real)","steam_id":76561199047081427,"connected_time":317000000000,"state":"active","ping":81},{"user_id":480,"name":"Some Guy","steam_id":76561198137335527,"connected_time":1689000000000,"state":"active","ping":52},{"user_id":491,"name":"Femboy Portal Radio Uncompresse","steam_id":76561198072320671,"connected_time":1390000000000,"state":"active","ping":40},{"user_id":477,"name":"willus212","steam_id":76561199182615246,"connected_time":1725000000000,"state":"active","ping":81},{"user_id":469,"name":"Milca_11 [Wielder of Ham]","steam_id":76561198848650365,"connected_time":1937000000000,"state":"active","ping":83},{"user_id":497,"name":"ciliorkun18","steam_id":76561198228942500,"connected_time":1147000000000,"state":"active","ping":157},{"user_id":417,"name":"bum","steam_id":76561198060105180,"connected_time":4592000000000,"state":"active","ping":63},{"user_id":498,"name":"Toodlesnoot","steam_id":76561198036543689,"connected_time":897000000000,"state":"active","ping":60},{"user_id":506,"name":"Kretur","steam_id":76561198161086266,"connected_time":453000000000,"state":"active","ping":104},{"user_id":515,"name":"muZ","steam_id":76561198060145190,"connected_time":117000000000,"state":"active","ping":68},{"user_id":516,"name":"FoOzTV","steam_id":76561197998636728,"connected_time":112000000000,"state":"active","ping":69},{"user_id":500,"name":"Mannequin","steam_id":76561198128833974,"connected_time":839000000000,"state":"active","ping":53},{"user_id":495,"name":"NonProphet","steam_id":76561198280149820,"connected_time":1357000000000,"state":"active","ping":69}]},{"server_id":114,"name":"Uncletopia | London | 2 | All Maps","name_short":"lon-2","host":"lon-1.uk.uncletopia.com","port":27025,"enabled":true,"region":"eu","cc":"gb","latitude":51.509865,"longitude":-0.118092,"reserved":0,"last_update":"0001-01-01T00:00:00Z","name_a2s":"Uncletopia | London | 2 | All Maps","protocol":17,"map":"koth_viaduct","folder":"tf","game":"Team Fortress","app_id":440,"player_count":0,"max_players":24,"Bots":0,"server_type":"Dedicated","server_os":"Linux","password":true,"vac":true,"version":"7757534","steam_id":85568392924470941,"keywords":["cp","nocrits","nodmgspread","uncletopia"],"game_id":440,"stv_port":27026,"stv_name":"Uncletopia | London | 2 | All Maps | STV","players":null},{"server_id":320,"name":"Uncletopia | London | 3 | All Maps","name_short":"lon-3","host":"lon-1.uk.uncletopia.com","port":27035,"enabled":true,"region":"eu","cc":"gb","latitude":51.509865,"longitude":-0.118092,"reserved":0,"last_update":"0001-01-01T00:00:00Z","name_a2s":"Uncletopia | London | 3 | All Maps","protocol":17,"map":"cp_sunshine","folder":"tf","game":"Team Fortress","app_id":440,"player_count":24,"max_players":24,"Bots":0,"server_type":"Dedicated","server_os":"Linux","password":true,"vac":true,"version":"7757534","steam_id":85568392924510192,"keywords":["cp","nocrits","nodmgspread","uncletopia"],"game_id":440,"stv_port":27036,"stv_name":"Uncletopia | London | 3 | All Maps | STV","players":[{"user_id":423,"name":"Woa","steam_id":76561198345683201,"connected_time":2339000000000,"state":"active","ping":98},{"user_id":424,"name":"Mediplier (real)","steam_id":76561198970762992,"connected_time":2325000000000,"state":"active","ping":79},{"user_id":443,"name":"robert wife cheato","steam_id":76561198023211417,"connected_time":887000000000,"state":"active","ping":92},{"user_id":452,"name":"lun4tic","steam_id":76561198850496647,"connected_time":534000000000,"state":"active","ping":66},{"user_id":456,"name":"heimdall","steam_id":76561198069380992,"connected_time":336000000000,"state":"active","ping":168},{"user_id":462,"name":"Dispenser(Dispenser)","steam_id":76561199211831658,"connected_time":119000000000,"state":"active","ping":64},{"user_id":458,"name":"Big Knoxy","steam_id":76561198291107227,"connected_time":170000000000,"state":"active","ping":67},{"user_id":465,"name":"simplistic","steam_id":76561198231690748,"connected_time":63000000000,"state":"active","ping":55},{"user_id":353,"name":"Mr.SmaiL :3","steam_id":76561198017315169,"connected_time":4567000000000,"state":"active","ping":141},{"user_id":431,"name":"The Daniella","steam_id":76561198023075547,"connected_time":1762000000000,"state":"active","ping":63},{"user_id":459,"name":"miev","steam_id":76561198078278737,"connected_time":148000000000,"state":"active","ping":74},{"user_id":454,"name":"sod","steam_id":76561198986102579,"connected_time":427000000000,"state":"active","ping":59},{"user_id":463,"name":"FoxyTheFish","steam_id":76561199074190919,"connected_time":111000000000,"state":"active","ping":61},{"user_id":457,"name":"tm","steam_id":76561198256619964,"connected_time":335000000000,"state":"active","ping":81},{"user_id":438,"name":"Pauler le one","steam_id":76561198398152855,"connected_time":1191000000000,"state":"active","ping":92},{"user_id":445,"name":"e","steam_id":76561198803089656,"connected_time":801000000000,"state":"active","ping":73},{"user_id":400,"name":"Sinny","steam_id":76561197999598422,"connected_time":3099000000000,"state":"active","ping":82},{"user_id":432,"name":"goktwoxd","steam_id":76561198065114415,"connected_time":1762000000000,"state":"active","ping":75},{"user_id":467,"name":"Puh","steam_id":76561198144888879,"connected_time":1000000000,"state":"spawning","ping":54},{"user_id":425,"name":"johnny dorito","steam_id":76561198148074472,"connected_time":2313000000000,"state":"active","ping":45},{"user_id":466,"name":"GEP Gun","steam_id":76561197981821003,"connected_time":15000000000,"state":"spawning","ping":57},{"user_id":451,"name":"TJ1212","steam_id":76561199013575313,"connected_time":555000000000,"state":"active","ping":66},{"user_id":412,"name":"PistolShrimp","steam_id":76561199171648755,"connected_time":2527000000000,"state":"active","ping":69},{"user_id":426,"name":"worst feeling ever","steam_id":76561198147277460,"connected_time":2308000000000,"state":"active","ping":61}]},{"server_id":321,"name":"Uncletopia | London | 4 | All Maps","name_short":"lon-4","host":"lon-1.uk.uncletopia.com","port":27045,"enabled":true,"region":"eu","cc":"gb","latitude":51.509865,"longitude":-0.118092,"reserved":0,"last_update":"0001-01-01T00:00:00Z","name_a2s":"Uncletopia | London | 4 | All Maps","protocol":17,"map":"cp_altitude","folder":"tf","game":"Team Fortress","app_id":440,"player_count":1,"max_players":24,"Bots":0,"server_type":"Dedicated","server_os":"Linux","password":true,"vac":true,"version":"7757534","steam_id":85568392924510193,"keywords":["cp","nocrits","nodmgspread","uncletopia"],"game_id":440,"stv_port":27046,"stv_name":"Uncletopia | London | 4 | All Maps | STV","players":[{"user_id":39,"name":"Bug","steam_id":76561198168268048,"connected_time":84000000000,"state":"active","ping":54}]},{"server_id":21,"name":"Uncletopia | London | 5 | All Maps","name_short":"lon-5","host":"lon-1.uk.uncletopia.com","port":27055,"enabled":true,"region":"eu","cc":"gb","latitude":51.509865,"longitude":-0.118092,"reserved":0,"last_update":"0001-01-01T00:00:00Z","name_a2s":"Uncletopia | London | 5 | All Maps","protocol":17,"map":"pl_pier","folder":"tf","game":"Team Fortress","app_id":440,"player_count":24,"max_players":24,"Bots":0,"server_type":"Dedicated","server_os":"Linux","password":true,"vac":true,"version":"7757534","steam_id":85568392924742829,"keywords":["nocrits","nodmgspread","payload","uncletopia"],"game_id":440,"stv_port":27056,"stv_name":"Uncletopia | London | 5 | All Maps | STV","players":[{"user_id":127,"name":"The Business Man","steam_id":76561198059907124,"connected_time":1780000000000,"state":"active","ping":158},{"user_id":156,"name":"Oga","steam_id":76561197999060660,"connected_time":476000000000,"state":"active","ping":92},{"user_id":132,"name":"New","steam_id":76561198402195911,"connected_time":1589000000000,"state":"active","ping":121},{"user_id":93,"name":"Tails8521","steam_id":76561198051747164,"connected_time":3095000000000,"state":"active","ping":55},{"user_id":118,"name":"Shynii","steam_id":76561198194682105,"connected_time":2081000000000,"state":"active","ping":55},{"user_id":95,"name":"HurrpNana","steam_id":76561199102156562,"connected_time":3055000000000,"state":"active","ping":99},{"user_id":165,"name":"moser23","steam_id":76561197960543171,"connected_time":155000000000,"state":"active","ping":45},{"user_id":139,"name":"Denzonian","steam_id":76561198445738614,"connected_time":1067000000000,"state":"active","ping":56},{"user_id":158,"name":"Never √úber Me","steam_id":76561198140522687,"connected_time":408000000000,"state":"active","ping":85},{"user_id":159,"name":"Bluecat11","steam_id":76561198062566771,"connected_time":401000000000,"state":"active","ping":132},{"user_id":150,"name":"Lukas","steam_id":76561198009118452,"connected_time":549000000000,"state":"active","ping":68},{"user_id":119,"name":"B3Y0NDTH3M1ND","steam_id":76561198262637389,"connected_time":2042000000000,"state":"active","ping":85},{"user_id":82,"name":"Pls.do.it!","steam_id":76561198211638119,"connected_time":3863000000000,"state":"active","ping":97},{"user_id":164,"name":"franco","steam_id":76561198113693551,"connected_time":217000000000,"state":"active","ping":134},{"user_id":160,"name":"Swede1291","steam_id":76561198067175500,"connected_time":400000000000,"state":"active","ping":70},{"user_id":134,"name":"Hey, I¬¥m Andy!","steam_id":76561198060337777,"connected_time":1490000000000,"state":"active","ping":84},{"user_id":117,"name":"Chikapu_Xek","steam_id":76561198428023493,"connected_time":2282000000000,"state":"active","ping":63},{"user_id":142,"name":"78","steam_id":76561198208328357,"connected_time":919000000000,"state":"active","ping":86},{"user_id":136,"name":"THE TUNNEL IS INCOMPLETE","steam_id":76561198183949987,"connected_time":1387000000000,"state":"active","ping":53},{"user_id":155,"name":"tqla","steam_id":76561198073092585,"connected_time":496000000000,"state":"active","ping":96},{"user_id":152,"name":"Lm","steam_id":76561198836754631,"connected_time":511000000000,"state":"active","ping":44},{"user_id":161,"name":"socksareok","steam_id":76561198287902748,"connected_time":335000000000,"state":"active","ping":65},{"user_id":114,"name":"BONK-TEC!","steam_id":76561198272667029,"connected_time":2386000000000,"state":"active","ping":55},{"user_id":163,"name":"jeiner","steam_id":76561198170939887,"connected_time":269000000000,"state":"active","ping":60}]},{"server_id":22,"name":"Uncletopia | London | 6 | All Maps","name_short":"lon-6","host":"lon-1.uk.uncletopia.com","port":27065,"enabled":true,"region":"eu","cc":"gb","latitude":51.509865,"longitude":-0.118092,"reserved":0,"last_update":"0001-01-01T00:00:00Z","name_a2s":"Uncletopia | London | 6 | All Maps","protocol":17,"map":"koth_highpass","folder":"tf","game":"Team Fortress","app_id":440,"player_count":0,"max_players":24,"Bots":0,"server_type":"Dedicated","server_os":"Linux","password":true,"vac":true,"version":"7757534","steam_id":85568392924742830,"keywords":["cp","nocrits","nodmgspread","uncletopia"],"game_id":440,"stv_port":27066,"stv_name":"Uncletopia | London | 6 | All Maps | STV","players":null},{"server_id":40,"name":"Uncletopia | London | 7 | No Payload","name_short":"lon-7","host":"lon-1.uk.uncletopia.com","port":27075,"enabled":true,"region":"eu","cc":"gb","latitude":51.509865,"longitude":-0.118092,"reserved":0,"last_update":"0001-01-01T00:00:00Z","name_a2s":"Uncletopia | London | 7 | No Payload","protocol":17,"map":"cp_gorge","folder":"tf","game":"Team Fortress","app_id":440,"player_count":0,"max_players":24,"Bots":0,"server_type":"Dedicated","server_os":"Linux","password":true,"vac":true,"version":"7757534","steam_id":85568392924964314,"keywords":["cp","nocrits","nodmgspread","uncletopia"],"game_id":440,"stv_port":27076,"stv_name":"Uncletopia | London | 7 | No Payload | STV","players":null},{"server_id":41,"name":"Uncletopia | London | 8 | Community","name_short":"lon-8","host":"lon-1.uk.uncletopia.com","port":27085,"enabled":true,"region":"eu","cc":"gb","latitude":51.509865,"longitude":-0.118092,"reserved":0,"last_update":"0001-01-01T00:00:00Z","name_a2s":"Uncletopia | London | 8 | Community","protocol":17,"map":"workshop/cp_overgrown_rc7b.ugc503939302","folder":"tf","game":"Team Fortress","app_id":440,"player_count":1,"max_players":24,"Bots":0,"server_type":"Dedicated","server_os":"Linux","password":true,"vac":true,"version":"7757534","steam_id":85568392924964315,"keywords":["cp","nocrits","nodmgspread","uncletopia"],"game_id":440,"stv_port":27086,"stv_name":"Uncletopia | London | 8 | Community | STV","players":[{"user_id":11,"name":"fried","steam_id":76561198307522022,"connected_time":2829000000000,"state":"spawning","ping":53}]},{"server_id":300,"name":"Uncletopia | Montr√©al | 1 | All Maps","name_short":"mtl-1","host":"mtl-1.ca.uncletopia.com","port":27015,"enabled":true,"region":"us-east","cc":"ca","latitude":45.50889,"longitude":-73.56167,"reserved":0,"last_update":"0001-01-01T00:00:00Z","name_a2s":"Uncletopia | Montr√©al | 1 | All Maps","protocol":17,"map":"pl_upward","folder":"tf","game":"Team Fortress","app_id":440,"player_count":0,"max_players":24,"Bots":0,"server_type":"Dedicated","server_os":"Linux","password":true,"vac":true,"version":"7757534","steam_id":85568392924500087,"keywords":["nocrits","nodmgspread","payload","uncletopia"],"game_id":440,"stv_port":27016,"stv_name":"Uncletopia | Montr√©al | 1 | All Maps | STV","players":null},{"server_id":301,"name":"Uncletopia | Montr√©al | 2 | All Maps","name_short":"mtl-2","host":"mtl-1.ca.uncletopia.com","port":27025,"enabled":true,"region":"us-east","cc":"ca","latitude":45.50889,"longitude":-73.56167,"reserved":0,"last_update":"0001-01-01T00:00:00Z","name_a2s":"Uncletopia | Montr√©al | 2 | All Maps","protocol":17,"map":"pl_snowycoast","folder":"tf","game":"Team Fortress","app_id":440,"player_count":0,"max_players":24,"Bots":0,"server_type":"Dedicated","server_os":"Linux","password":true,"vac":true,"version":"7757534","steam_id":85568392924500088,"keywords":["nocrits","nodmgspread","payload","uncletopia"],"game_id":440,"stv_port":27026,"stv_name":"Uncletopia | Montr√©al | 2 | All Maps | STV","players":null},{"server_id":302,"name":"Uncletopia | Montr√©al | 3 | All Maps","name_short":"mtl-3","host":"mtl-1.ca.uncletopia.com","port":27035,"enabled":true,"region":"us-east","cc":"ca","latitude":45.50889,"longitude":-73.56167,"reserved":0,"last_update":"0001-01-01T00:00:00Z","name_a2s":"Uncletopia | Montr√©al | 3 | All Maps","protocol":17,"map":"pl_swiftwater_final1","folder":"tf","game":"Team Fortress","app_id":440,"player_count":0,"max_players":24,"Bots":0,"server_type":"Dedicated","server_os":"Linux","password":true,"vac":true,"version":"7757534","steam_id":85568392924500089,"keywords":["nocrits","nodmgspread","payload","uncletopia"],"game_id":440,"stv_port":27036,"stv_name":"Uncletopia | Montr√©al | 3 | All Maps | STV","players":null},{"server_id":303,"name":"Uncletopia | Montr√©al | 4 | No Payload","name_short":"mtl-4","host":"mtl-1.ca.uncletopia.com","port":27045,"enabled":true,"region":"us-east","cc":"ca","latitude":45.50889,"longitude":-73.56167,"reserved":0,"last_update":"0001-01-01T00:00:00Z","name_a2s":"Uncletopia | Montr√©al | 4 | No Payload","protocol":17,"map":"cp_mercenarypark","folder":"tf","game":"Team Fortress","app_id":440,"player_count":0,"max_players":24,"Bots":0,"server_type":"Dedicated","server_os":"Linux","password":true,"vac":true,"version":"7757534","steam_id":85568392924500090,"keywords":["cp","nocrits","nodmgspread","uncletopia"],"game_id":440,"stv_port":27046,"stv_name":"Uncletopia | Montr√©al | 4 | No Payload | STV","players":null},{"server_id":13,"name":"Uncletopia | New York City | 1 | All Maps","name_short":"nyc-1","host":"nyc-1.us.uncletopia.com","port":27015,"enabled":true,"region":"us-east","cc":"us","latitude":40.73061,"longitude":-73.93524,"reserved":0,"last_update":"0001-01-01T00:00:00Z","name_a2s":"Uncletopia | New York City | 1 | All Maps","protocol":17,"map":"koth_viaduct","folder":"tf","game":"Team Fortress","app_id":440,"player_count":0,"max_players":24,"Bots":0,"server_type":"Dedicated","server_os":"Linux","password":true,"vac":true,"version":"7757534","steam_id":85568392924469993,"keywords":["cp","nocrits","nodmgspread","uncletopia"],"game_id":440,"stv_port":27016,"stv_name":"Uncletopia | New York City | 1 | All Maps | STV","players":null},{"server_id":14,"name":"Uncletopia | New York City | 2 | All Maps","name_short":"nyc-2","host":"nyc-1.us.uncletopia.com","port":27025,"enabled":true,"region":"us-east","cc":"us","latitude":40.73061,"longitude":-73.93524,"reserved":0,"last_update":"0001-01-01T00:00:00Z","name_a2s":"Uncletopia | New York City | 2 | All Maps","protocol":17,"map":"koth_lakeside_final","folder":"tf","game":"Team Fortress","app_id":440,"player_count":0,"max_players":24,"Bots":0,"server_type":"Dedicated","server_os":"Linux","password":true,"vac":true,"version":"7757534","steam_id":85568392924469994,"keywords":["cp","nocrits","nodmgspread","uncletopia"],"game_id":440,"stv_port":27026,"stv_name":"Uncletopia | New York City | 2 | All Maps | STV","players":null},{"server_id":15,"name":"Uncletopia | New York City | 3 | Stopwatch Beta","name_short":"nyc-3","host":"nyc-1.us.uncletopia.com","port":27035,"enabled":true,"region":"us-east","cc":"us","latitude":40.73061,"longitude":-73.93524,"reserved":0,"last_update":"0001-01-01T00:00:00Z","name_a2s":"Uncletopia | New York City | 3 | Stopwatch Beta","protocol":17,"map":"pl_upward","folder":"tf","game":"Team Fortress","app_id":440,"player_count":0,"max_players":24,"Bots":0,"server_type":"Dedicated","server_os":"Linux","password":true,"vac":true,"version":"7757534","steam_id":85568392924742820,"keywords":["nocrits","nodmgspread","payload","uncletopia"],"game_id":440,"stv_port":27036,"stv_name":"Uncletopia | New York City | 3 | Stopwatch Beta | STV","players":null},{"server_id":16,"name":"Uncletopia | New York City | 4 | Community","name_short":"nyc-4","host":"nyc-1.us.uncletopia.com","port":27045,"enabled":true,"region":"us-east","cc":"us","latitude":40.73061,"longitude":-73.93524,"reserved":0,"last_update":"0001-01-01T00:00:00Z","name_a2s":"Uncletopia | New York City | 4 | Community","protocol":17,"map":"workshop/koth_kemptown_rc1.ugc767410655","folder":"tf","game":"Team Fortress","app_id":440,"player_count":0,"max_players":24,"Bots":0,"server_type":"Dedicated","server_os":"Linux","password":true,"vac":true,"version":"7757534","steam_id":85568392924742821,"keywords":["cp","nocrits","nodmgspread","uncletopia"],"game_id":440,"stv_port":27046,"stv_name":"Uncletopia | New York City | 4 | Community | STV","players":null},{"server_id":142,"name":"Uncletopia | S√£o Paulo | 1 | All Maps","name_short":"sao-1","host":"sao-1.br.uncletopia.com","port":27015,"enabled":true,"region":"sa","cc":"br","latitude":-23.533773,"longitude":-46.62529,"reserved":0,"last_update":"0001-01-01T00:00:00Z","name_a2s":"Uncletopia | S√£o Paulo | 1 | All Maps","protocol":17,"map":"koth_lakeside_final","folder":"tf","game":"Team Fortress","app_id":440,"player_count":0,"max_players":24,"Bots":0,"server_type":"Dedicated","server_os":"Linux","password":true,"vac":true,"version":"7757534","steam_id":85568392924469996,"keywords":["cp","nocrits","nodmgspread","uncletopia"],"game_id":440,"stv_port":27016,"stv_name":"Uncletopia | S√£o Paulo | 1 | All Maps | STV","players":null},{"server_id":143,"name":"Uncletopia | S√£o Paulo | 2 | All Maps","name_short":"sao-2","host":"sao-2.br.uncletopia.com","port":27015,"enabled":true,"region":"sa","cc":"br","latitude":-23.533773,"longitude":-46.62529,"reserved":0,"last_update":"0001-01-01T00:00:00Z","name_a2s":"Uncletopia | S√£o Paulo | 2 | All Maps","protocol":17,"map":"koth_viaduct","folder":"tf","game":"Team Fortress","app_id":440,"player_count":0,"max_players":24,"Bots":0,"server_type":"Dedicated","server_os":"Linux","password":true,"vac":true,"version":"7757534","steam_id":85568392924485349,"keywords":["cp","nocrits","nodmgspread","uncletopia"],"game_id":440,"stv_port":27016,"stv_name":"Uncletopia | S√£o Paulo | 2 | All Maps | STV","players":null},{"server_id":7,"name":"Uncletopia | Seattle | 1 | All Maps","name_short":"sea-1","host":"sea-1.us.uncletopia.com","port":27015,"enabled":true,"region":"us-west","cc":"us","latitude":47.608013,"longitude":-122.33517,"reserved":0,"last_update":"0001-01-01T00:00:00Z","name_a2s":"Uncletopia | Seattle | 1 | All Maps","protocol":17,"map":"pl_thundermountain","folder":"tf","game":"Team Fortress","app_id":440,"player_count":24,"max_players":24,"Bots":0,"server_type":"Dedicated","server_os":"Linux","password":true,"vac":true,"version":"7757534","steam_id":85568392924469997,"keywords":["nocrits","nodmgspread","payload","uncletopia"],"game_id":440,"stv_port":27016,"stv_name":"Uncletopia | Seattle | 1 | All Maps | STV","players":[{"user_id":292,"name":"Piogre","steam_id":76561198006182258,"connected_time":540000000000,"state":"active","ping":102},{"user_id":216,"name":"AmiableNebula","steam_id":76561198094306627,"connected_time":5951000000000,"state":"active","ping":75},{"user_id":297,"name":"Whammy","steam_id":76561197984525567,"connected_time":139000000000,"state":"active","ping":133},{"user_id":298,"name":"Mormon Discoball","steam_id":76561198028006216,"connected_time":123000000000,"state":"active","ping":68},{"user_id":199,"name":"Neo Kojiro","steam_id":76561198000967076,"connected_time":7669000000000,"state":"active","ping":125},{"user_id":296,"name":"rjsly","steam_id":76561198036573271,"connected_time":215000000000,"state":"active","ping":125},{"user_id":294,"name":"standing here,","steam_id":76561198066315453,"connected_time":445000000000,"state":"active","ping":78},{"user_id":287,"name":"Aqua Tofana","steam_id":76561198351183381,"connected_time":840000000000,"state":"active","ping":55},{"user_id":295,"name":"cool beans","steam_id":76561198045758072,"connected_time":289000000000,"state":"active","ping":62},{"user_id":289,"name":"shy guy","steam_id":76561198151246059,"connected_time":721000000000,"state":"active","ping":64},{"user_id":254,"name":"Blitzy","steam_id":76561198149472890,"connected_time":3443000000000,"state":"active","ping":65},{"user_id":279,"name":"Lesbian Futa Mommy","steam_id":76561198130479030,"connected_time":1140000000000,"state":"active","ping":104},{"user_id":269,"name":"Blank_Sicon","steam_id":76561198887041407,"connected_time":2074000000000,"state":"active","ping":87},{"user_id":247,"name":"MORE BOUNCE TO THE OUNCE","steam_id":76561198243399336,"connected_time":3954000000000,"state":"active","ping":85},{"user_id":255,"name":"üÖúüÖîüÖîüÖöüÖ¢üÖ£üÖî\ufffd\ufffd\ufffd","steam_id":76561197999748343,"connected_time":3428000000000,"state":"active","ping":94},{"user_id":268,"name":"Chad the Sex Haver","steam_id":76561198058236528,"connected_time":2116000000000,"state":"active","ping":88},{"user_id":299,"name":"!! BRO IS FLABBERGASTED !!","steam_id":76561198135036396,"connected_time":72000000000,"state":"active","ping":120},{"user_id":284,"name":"the sludge?!","steam_id":76561198094575882,"connected_time":957000000000,"state":"active","ping":52},{"user_id":282,"name":"collacot","steam_id":76561198243248798,"connected_time":1025000000000,"state":"active","ping":148},{"user_id":293,"name":"420blzItM8","steam_id":76561198137983285,"connected_time":484000000000,"state":"active","ping":76},{"user_id":300,"name":"The Pepsi¬Æ Superbowl¬Æ!","steam_id":76561198080828981,"connected_time":50000000000,"state":"spawning","ping":72},{"user_id":288,"name":"Npenplz","steam_id":76561197999605423,"connected_time":732000000000,"state":"active","ping":78},{"user_id":271,"name":"dust | she/it","steam_id":76561198045218909,"connected_time":1765000000000,"state":"active","ping":44},{"user_id":206,"name":"Dob Bole","steam_id":76561198056367220,"connected_time":7395000000000,"state":"active","ping":70}]},{"server_id":119,"name":"Uncletopia | Seattle | 2 | All Maps","name_short":"sea-2","host":"sea-1.us.uncletopia.com","port":27025,"enabled":true,"region":"us-west","cc":"us","latitude":47.608013,"longitude":-122.33517,"reserved":0,"last_update":"0001-01-01T00:00:00Z","name_a2s":"Uncletopia | Seattle | 2 | All Maps","protocol":17,"map":"pl_barnblitz","folder":"tf","game":"Team Fortress","app_id":440,"player_count":2,"max_players":24,"Bots":0,"server_type":"Dedicated","server_os":"Linux","password":true,"vac":true,"version":"7757534","steam_id":85568392924469998,"keywords":["nocrits","nodmgspread","payload","uncletopia"],"game_id":440,"stv_port":27026,"stv_name":"Uncletopia | Seattle | 2 | All Maps | STV","players":[{"user_id":15,"name":"lifeblood","steam_id":76561199000230695,"connected_time":180000000000,"state":"active","ping":220},{"user_id":14,"name":"Mr. Dick‚Ñ¢","steam_id":76561198047309044,"connected_time":382000000000,"state":"active","ping":107}]},{"server_id":406,"name":"Uncletopia | Seattle | 3 | Stopwatch Beta","name_short":"sea-3","host":"sea-1.us.uncletopia.com","port":27035,"enabled":true,"region":"us-west","cc":"us","latitude":47.608013,"longitude":-122.33517,"reserved":0,"last_update":"0001-01-01T00:00:00Z","name_a2s":"Uncletopia | Seattle | 3 | Stopwatch Beta","protocol":17,"map":"cp_dustbowl","folder":"tf","game":"Team Fortress","app_id":440,"player_count":0,"max_players":24,"Bots":0,"server_type":"Dedicated","server_os":"Linux","password":true,"vac":true,"version":"7757534","steam_id":85568392924515217,"keywords":["cp","nocrits","nodmgspread","uncletopia"],"game_id":440,"stv_port":27036,"stv_name":"Uncletopia | Seattle | 3 | Stopwatch Beta | STV","players":null},{"server_id":17,"name":"Uncletopia | San Francisco | 1 | All Maps","name_short":"sfo-1","host":"sfo-1.us.uncletopia.com","port":27015,"enabled":true,"region":"us-west","cc":"us","latitude":37.77397,"longitude":-122.4313,"reserved":0,"last_update":"0001-01-01T00:00:00Z","name_a2s":"Uncletopia | San Francisco | 1 | All Maps","protocol":17,"map":"cp_process_final","folder":"tf","game":"Team Fortress","app_id":440,"player_count":0,"max_players":24,"Bots":0,"server_type":"Dedicated","server_os":"Linux","password":true,"vac":true,"version":"7757534","steam_id":85568392924469999,"keywords":["cp","nocrits","nodmgspread","uncletopia"],"game_id":440,"stv_port":27016,"stv_name":"Uncletopia | San Francisco | 1 | All Maps | STV","players":null},{"server_id":18,"name":"Uncletopia | San Francisco | 2 | All Maps","name_short":"sfo-2","host":"sfo-1.us.uncletopia.com","port":27025,"enabled":true,"region":"us-west","cc":"us","latitude":37.77397,"longitude":-122.4313,"reserved":0,"last_update":"0001-01-01T00:00:00Z","name_a2s":"Uncletopia | San Francisco | 2 | All Maps","protocol":17,"map":"koth_highpass","folder":"tf","game":"Team Fortress","app_id":440,"player_count":0,"max_players":24,"Bots":0,"server_type":"Dedicated","server_os":"Linux","password":true,"vac":true,"version":"7757534","steam_id":85568392924470000,"keywords":["cp","nocrits","nodmgspread","uncletopia"],"game_id":440,"stv_port":27026,"stv_name":"Uncletopia | San Francisco | 2 | All Maps | STV","players":null},{"server_id":19,"name":"Uncletopia | San Francisco | 3 | Stopwatch Beta","name_short":"sfo-3","host":"sfo-1.us.uncletopia.com","port":27035,"enabled":true,"region":"us-west","cc":"us","latitude":37.77397,"longitude":-122.4313,"reserved":0,"last_update":"0001-01-01T00:00:00Z","name_a2s":"Uncletopia | San Francisco | 3 | Stopwatch Beta","protocol":17,"map":"koth_lakeside_final","folder":"tf","game":"Team Fortress","app_id":440,"player_count":0,"max_players":24,"Bots":0,"server_type":"Dedicated","server_os":"Linux","password":true,"vac":true,"version":"7757534","steam_id":85568392924742824,"keywords":["cp","nocrits","nodmgspread","uncletopia"],"game_id":440,"stv_port":27036,"stv_name":"Uncletopia | San Francisco | 3 | Stopwatch Beta | STV","players":null},{"server_id":20,"name":"Uncletopia | San Francisco | 4 | Community","name_short":"sfo-4","host":"sfo-1.us.uncletopia.com","port":27045,"enabled":true,"region":"us-west","cc":"us","latitude":37.77397,"longitude":-122.4313,"reserved":0,"last_update":"0001-01-01T00:00:00Z","name_a2s":"Uncletopia | San Francisco | 4 | Community","protocol":17,"map":"cp_altitude","folder":"tf","game":"Team Fortress","app_id":440,"player_count":3,"max_players":24,"Bots":0,"server_type":"Dedicated","server_os":"Linux","password":true,"vac":true,"version":"7757534","steam_id":85568392924742826,"keywords":["cp","nocrits","nodmgspread","uncletopia"],"game_id":440,"stv_port":27046,"stv_name":"Uncletopia | San Francisco | 4 | Community | STV","players":[{"user_id":3,"name":"G.bo","steam_id":76561198085176270,"connected_time":1585000000000,"state":"active","ping":59},{"user_id":11,"name":"Œõrmalion","steam_id":76561198012927113,"connected_time":540000000000,"state":"active","ping":131},{"user_id":13,"name":"brandoncg04","steam_id":76561199189398427,"connected_time":43000000000,"state":"active","ping":106}]},{"server_id":141,"name":"Uncletopia | Sydney | 1 | All Maps","name_short":"syd-1","host":"syd-1.au.uncletopia.com","port":27015,"enabled":true,"region":"au","cc":"au","latitude":-33.865143,"longitude":151.2099,"reserved":0,"last_update":"0001-01-01T00:00:00Z","name_a2s":"Uncletopia | Sydney | 1 | All Maps","protocol":17,"map":"koth_viaduct","folder":"tf","game":"Team Fortress","app_id":440,"player_count":1,"max_players":24,"Bots":0,"server_type":"Dedicated","server_os":"Linux","password":true,"vac":true,"version":"7757534","steam_id":85568392924470001,"keywords":["cp","nocrits","nodmgspread","uncletopia"],"game_id":440,"stv_port":27016,"stv_name":"Uncletopia | Sydney | 1 | All Maps | STV","players":[{"user_id":3,"name":"jacky","steam_id":76561199394495674,"connected_time":5000000000,"state":"spawning","ping":71}]},{"server_id":123,"name":"Uncletopia | Sydney | 2 | All Maps","name_short":"syd-2","host":"syd-1.au.uncletopia.com","port":27025,"enabled":true,"region":"au","cc":"au","latitude":-33.865143,"longitude":151.2099,"reserved":0,"last_update":"0001-01-01T00:00:00Z","name_a2s":"Uncletopia | Sydney | 2 | All Maps","protocol":17,"map":"cp_process_final","folder":"tf","game":"Team Fortress","app_id":440,"player_count":0,"max_players":24,"Bots":0,"server_type":"Dedicated","server_os":"Linux","password":true,"vac":true,"version":"7757534","steam_id":85568392924470002,"keywords":["cp","nocrits","nodmgspread","uncletopia"],"game_id":440,"stv_port":27026,"stv_name":"Uncletopia | Sydney | 2 | All Maps | STV","players":null},{"server_id":395,"name":"Uncletopia | Sydney | 3 | All Maps","name_short":"syd-3","host":"syd-1.au.uncletopia.com","port":27035,"enabled":true,"region":"au","cc":"au","latitude":-33.865143,"longitude":151.2099,"reserved":0,"last_update":"0001-01-01T00:00:00Z","name_a2s":"Uncletopia | Sydney | 3 | All Maps","protocol":17,"map":"pl_swiftwater_final1","folder":"tf","game":"Team Fortress","app_id":440,"player_count":0,"max_players":24,"Bots":0,"server_type":"Dedicated","server_os":"Linux","password":true,"vac":true,"version":"7757534","steam_id":85568392925194467,"keywords":["nocrits","nodmgspread","payload","uncletopia"],"game_id":440,"stv_port":27036,"stv_name":"Uncletopia | Sydney | 3 | All Maps | STV","players":null},{"server_id":396,"name":"Uncletopia | Sydney | 4 | All Maps","name_short":"syd-4","host":"syd-1.au.uncletopia.com","port":27045,"enabled":true,"region":"au","cc":"au","latitude":-33.865143,"longitude":151.2099,"reserved":0,"last_update":"0001-01-01T00:00:00Z","name_a2s":"Uncletopia | Sydney | 4 | All Maps","protocol":17,"map":"koth_highpass","folder":"tf","game":"Team Fortress","app_id":440,"player_count":0,"max_players":24,"Bots":0,"server_type":"Dedicated","server_os":"Linux","password":true,"vac":true,"version":"7757534","steam_id":85568392925397958,"keywords":["cp","nocrits","nodmgspread","uncletopia"],"game_id":440,"stv_port":27046,"stv_name":"Uncletopia | Sydney | 4 | All Maps | STV","players":null},{"server_id":58,"name":"Uncletopia | Sydney | 5 | Stopwatch Beta","name_short":"syd-5","host":"syd-1.au.uncletopia.com","port":27055,"enabled":true,"region":"au","cc":"au","latitude":-33.865143,"longitude":151.2099,"reserved":0,"last_update":"0001-01-01T00:00:00Z","name_a2s":"Uncletopia | Sydney | 5 | Stopwatch Beta","protocol":17,"map":"koth_cascade","folder":"tf","game":"Team Fortress","app_id":440,"player_count":0,"max_players":24,"Bots":0,"server_type":"Dedicated","server_os":"Linux","password":true,"vac":true,"version":"7757534","steam_id":85568392925397959,"keywords":["cp","nocrits","nodmgspread","uncletopia"],"game_id":440,"stv_port":27056,"stv_name":"Uncletopia | Sydney | 5 | Stopwatch Beta | STV","players":null},{"server_id":59,"name":"Uncletopia | Sydney | 6 | Community","name_short":"syd-6","host":"syd-1.au.uncletopia.com","port":27065,"enabled":true,"region":"au","cc":"au","latitude":-33.865143,"longitude":151.2099,"reserved":0,"last_update":"0001-01-01T00:00:00Z","name_a2s":"Uncletopia | Sydney | 6 | Community","protocol":17,"map":"cp_snakewater_final1","folder":"tf","game":"Team Fortress","app_id":440,"player_count":0,"max_players":24,"Bots":0,"server_type":"Dedicated","server_os":"Linux","password":true,"vac":true,"version":"7757534","steam_id":85568392925397960,"keywords":["cp","nocrits","nodmgspread","uncletopia"],"game_id":440,"stv_port":27066,"stv_name":"Uncletopia | Sydney | 6 | Community | STV","players":null},{"server_id":49,"name":"Uncletopia | Warsaw | 1 | All Maps","name_short":"waw-1","host":"waw-1.pl.uncletopia.com","port":27015,"enabled":true,"region":"eu","cc":"pl","latitude":52.2297,"longitude":21.017532,"reserved":0,"last_update":"0001-01-01T00:00:00Z","name_a2s":"","protocol":0,"map":"","folder":"","game":"","app_id":0,"player_count":0,"max_players":0,"Bots":0,"server_type":"","server_os":"","password":false,"vac":false,"version":"","steam_id":0,"keywords":null,"game_id":0,"stv_port":0,"stv_name":"","players":null},{"server_id":50,"name":"Uncletopia | Warsaw | 2 | All Maps","name_short":"waw-2","host":"waw-1.pl.uncletopia.com","port":27025,"enabled":true,"region":"eu","cc":"pl","latitude":52.2297,"longitude":21.017532,"reserved":0,"last_update":"0001-01-01T00:00:00Z","name_a2s":"Uncletopia | Warsaw | 2 | All Maps","protocol":17,"map":"pl_barnblitz","folder":"tf","game":"Team Fortress","app_id":440,"player_count":0,"max_players":24,"Bots":0,"server_type":"Dedicated","server_os":"Linux","password":true,"vac":true,"version":"7757534","steam_id":85568392925397851,"keywords":["nocrits","nodmgspread","payload","uncletopia"],"game_id":440,"stv_port":27026,"stv_name":"Uncletopia | Warsaw | 2 | All Maps | STV","players":null},{"server_id":51,"name":"Uncletopia | Warsaw | 3 | All Maps","name_short":"waw-3","host":"waw-1.pl.uncletopia.com","port":27035,"enabled":true,"region":"eu","cc":"pl","latitude":52.2297,"longitude":21.017532,"reserved":0,"last_update":"0001-01-01T00:00:00Z","name_a2s":"Uncletopia | Warsaw | 3 | All Maps","protocol":17,"map":"koth_lakeside_final","folder":"tf","game":"Team Fortress","app_id":440,"player_count":0,"max_players":24,"Bots":0,"server_type":"Dedicated","server_os":"Linux","password":true,"vac":true,"version":"7757534","steam_id":85568392925397852,"keywords":["cp","nocrits","nodmgspread","uncletopia"],"game_id":440,"stv_port":27036,"stv_name":"Uncletopia | Warsaw | 3 | All Maps | STV","players":null},{"server_id":52,"name":"Uncletopia | Warsaw | 4 | All Maps","name_short":"waw-4","host":"waw-1.pl.uncletopia.com","port":27045,"enabled":true,"region":"eu","cc":"pl","latitude":52.2297,"longitude":21.017532,"reserved":0,"last_update":"0001-01-01T00:00:00Z","name_a2s":"Uncletopia | Warsaw | 4 | All Maps","protocol":17,"map":"koth_lakeside_final","folder":"tf","game":"Team Fortress","app_id":440,"player_count":0,"max_players":24,"Bots":0,"server_type":"Dedicated","server_os":"Linux","password":true,"vac":true,"version":"7757534","steam_id":85568392925397853,"keywords":["cp","nocrits","nodmgspread","uncletopia"],"game_id":440,"stv_port":27046,"stv_name":"Uncletopia | Warsaw | 4 | All Maps | STV","players":null},{"server_id":53,"name":"Uncletopia | Warsaw | 5 | Stopwatch Beta","name_short":"waw-5","host":"waw-1.pl.uncletopia.com","port":27055,"enabled":true,"region":"eu","cc":"pl","latitude":52.2297,"longitude":21.017532,"reserved":0,"last_update":"0001-01-01T00:00:00Z","name_a2s":"Uncletopia | Warsaw | 5 | Stopwatch Beta","protocol":17,"map":"pl_borneo","folder":"tf","game":"Team Fortress","app_id":440,"player_count":0,"max_players":24,"Bots":0,"server_type":"Dedicated","server_os":"Linux","password":true,"vac":true,"version":"7757534","steam_id":85568392925397854,"keywords":["nocrits","nodmgspread","payload","uncletopia"],"game_id":440,"stv_port":27056,"stv_name":"Uncletopia | Warsaw | 5 | Stopwatch Beta | STV","players":null},{"server_id":54,"name":"Uncletopia | Warsaw | 6 | Community","name_short":"waw-6","host":"waw-1.pl.uncletopia.com","port":27065,"enabled":true,"region":"eu","cc":"pl","latitude":52.2297,"longitude":21.017532,"reserved":0,"last_update":"0001-01-01T00:00:00Z","name_a2s":"Uncletopia | Warsaw | 6 | Community","protocol":17,"map":"koth_lakeside_final","folder":"tf","game":"Team Fortress","app_id":440,"player_count":0,"max_players":24,"Bots":0,"server_type":"Dedicated","server_os":"Linux","password":true,"vac":true,"version":"7757534","steam_id":85568392925397856,"keywords":["cp","nocrits","nodmgspread","uncletopia"],"game_id":440,"stv_port":27066,"stv_name":"Uncletopia | Warsaw | 6 | Community | STV","players":null}]}