{"status":true,"message":"","result":[{"server_id":9,"name":"Uncletopia | Atlanta | 1 | All Maps","name_short":"atl-1","host":"atl-1.us.uncletopia.com","port":27015,"enabled":true,"region":"us-east","cc":"us","latitude":33.753746,"longitude":-84.38633,"reserved":0,"last_update":"0001-01-01T00:00:00Z","name_a2s":"Uncletopia | Atlanta | 1 | All Maps","protocol":17,"map":"koth_highpass","folder":"tf","game":"Team Fortress","app_id":440,"player_count":24,"max_players":24,"Bots":0,"server_type":"Dedicated","server_os":"Linux","password":true,"vac":true,"version":"7961495","steam_id":85568392924469982,"keywords":["cp","nocrits","nodmgspread","uncletopia"],"game_id":440,"stv_port":27016,"stv_name":"Uncletopia | Atlanta | 1 | All Maps | STV","players":null},{"server_id":104,"name":"Uncletopia | Atlanta | 2 | All Maps","name_short":"atl-2","host":"atl-1.us.uncletopia.com","port":27025,"enabled":true,"region":"us-east","cc":"us","latitude":33.753746,"longitude":-84.38633,"reserved":0,"last_update":"0001-01-01T00:00:00Z","name_a2s":"Uncletopia | Atlanta | 2 | All Maps","protocol":17,"map":"koth_cascade","folder":"tf","game":"Team Fortress","app_id":440,"player_count":18,"max_players":24,"Bots":0,"server_type":"Dedicated","server_os":"Linux","password":true,"vac":true,"version":"7961495","steam_id":85568392924469983,"keywords":["cp","nocrits","nodmgspread","uncletopia"],"game_id":440,"stv_port":27026,"stv_name":"Uncletopia | Atlanta | 2 | All Maps | STV","players":null},{"server_id":400,"name":"Uncletopia | Atlanta | 3 | Stopwatch","name_short":"atl-3","host":"atl-1.us.uncletopia.com","port":27035,"enabled":true,"region":"us-east","cc":"us","latitude":33.753746,"longitude":-84.38633,"reserved":0,"last_update":"0001-01-01T00:00:00Z","name_a2s":"Uncletopia | Atlanta | 3 | Stopwatch","protocol":17,"map":"pl_vigil_rc10","folder":"tf","game":"Team Fortress","app_id":440,"player_count":0,"max_players":24,"Bots":0,"server_type":"Dedicated","server_os":"Linux","password":true,"vac":true,"version":"7961495","steam_id":85568392924515187,"keywords":["nocrits","nodmgspread","payload","uncletopia"],"game_id":440,"stv_port":27036,"stv_name":"Uncletopia | Atlanta | 3 | Stopwatch | STV","players":null},{"server_id":401,"name":"Uncletopia | Atlanta | 4 | Community","name_short":"atl-4","host":"atl-1.us.uncletopia.com","port":27045,"enabled":true,"region":"us-east","cc":"us","latitude":33.753746,"longitude":-84.38633,"reserved":0,"last_update":"0001-01-01T00:00:00Z","name_a2s":"Uncletopia | Atlanta | 4 | Community","protocol":17,"map":"koth_kemptown_rc1","folder":"tf","game":"Team Fortress","app_id":440,"player_count":0,"max_players":24,"Bots":0,"server_type":"Dedicated","server_os":"Linux","password":true,"vac":true,"version":"7961495","steam_id":85568392924515188,"keywords":["cp","nocrits","nodmgspread","uncletopia"],"game_id":440,"stv_port":27046,"stv_name":"Uncletopia | Atlanta | 4 | Community | STV","players":null},{"server_id":2,"name":"Uncletopia | Chicago | 1 | All Maps","name_short":"chi-1","host":"chi-1.us.uncletopia.com","port":27015,"enabled":true,"region":"us-central","cc":"us","latitude":41.881832,"longitude":-87.62318,"reserved":0,"last_update":"0001-01-01T00:00:00Z","name_a2s":"Uncletopia | Chicago | 1 | All Maps","protocol":17,"map":"pl_thundermountain","folder":"tf","game":"Team Fortress","app_id":440,"player_count":24,"max_players":24,"Bots":0,"server_type":"Dedicated","server_os":"Linux","password":true,"vac":true,"version":"7961495","steam_id":85568392924469984,"keywords":["nocrits","nodmgspread","payload","uncletopia"],"game_id":440,"stv_port":27016,"stv_name":"Uncletopia | Chicago | 1 | All Maps | STV","players":[{"user_id":698,"name":"Swash","steam_id":76561197969421355,"connected_time":1911000000000,"state":"active","ping":74},{"user_id":725,"name":"Commander Buzzo","steam_id":76561198123704342,"connected_time":133000000000,"state":"active","ping":74},{"user_id":716,"name":"Confidor72","steam_id":76561198035770021,"connected_time":768000000000,"state":"active","ping":114},{"user_id":714,"name":"Ibrahim","steam_id":76561198028320625,"connected_time":878000000000,"state":"active","ping":67},{"user_id":694,"name":"Giggles™","steam_id":76561198058708019,"connected_time":2423000000000,"state":"active","ping":55},{"user_id":671,"name":"roadkill smoothie","steam_id":76561198083250301,"connected_time":5146000000000,"state":"active","ping":71},{"user_id":712,"name":"Sicko Mode (Chris Pratt Cover)","steam_id":76561198315786174,"connected_time":1478000000000,"state":"active","ping":72},{"user_id":720,"name":"PKBEAST_7","steam_id":76561198177136537,"connected_time":457000000000,"state":"active","ping":89},{"user_id":713,"name":"Løst","steam_id":76561198035677801,"connected_time":983000000000,"state":"active","ping":57},{"user_id":715,"name":"Furry Saul Goodman","steam_id":76561198069580305,"connected_time":791000000000,"state":"active","ping":56},{"user_id":633,"name":"Cyclops_672","steam_id":76561198080169497,"connected_time":7290000000000,"state":"active","ping":42},{"user_id":696,"name":"Snom","steam_id":76561198333827920,"connected_time":2196000000000,"state":"active","ping":95},{"user_id":701,"name":"Your Local Queer Librarian","steam_id":76561198013077080,"connected_time":1867000000000,"state":"active","ping":60},{"user_id":658,"name":"hej","steam_id":76561197996366940,"connected_time":6428000000000,"state":"active","ping":62},{"user_id":680,"name":"Rtx Fred ●","steam_id":76561198999217575,"connected_time":3796000000000,"state":"active","ping":68},{"user_id":666,"name":"MedRed™ #IATAH","steam_id":76561198002962970,"connected_time":5665000000000,"state":"active","ping":100},{"user_id":721,"name":"Bee","steam_id":76561198074681324,"connected_time":407000000000,"state":"active","ping":64},{"user_id":726,"name":"♥ alixei! ♥","steam_id":76561198014557455,"connected_time":44000000000,"state":"active","ping":55},{"user_id":718,"name":"BluePuzzled","steam_id":76561198353662467,"connected_time":735000000000,"state":"active","ping":73},{"user_id":724,"name":"Mr.Dr.Prof. Pickle","steam_id":76561198043421637,"connected_time":151000000000,"state":"active","ping":73},{"user_id":711,"name":"Masonicle","steam_id":76561198192327657,"connected_time":1555000000000,"state":"active","ping":74},{"user_id":710,"name":"CallOfBread","steam_id":76561199143203535,"connected_time":1595000000000,"state":"active","ping":79},{"user_id":670,"name":"PigPig","steam_id":76561198068190834,"connected_time":5218000000000,"state":"active","ping":117},{"user_id":702,"name":"Mog","steam_id":76561198025575870,"connected_time":1865000000000,"state":"active","ping":60}]},{"server_id":106,"name":"Uncletopia | Chicago | 2 | All Maps","name_short":"chi-2","host":"chi-1.us.uncletopia.com","port":27025,"enabled":true,"region":"us-central","cc":"us","latitude":41.881832,"longitude":-87.62318,"reserved":0,"last_update":"0001-01-01T00:00:00Z","name_a2s":"Uncletopia | Chicago | 2 | All Maps","protocol":17,"map":"pl_upward","folder":"tf","game":"Team Fortress","app_id":440,"player_count":24,"max_players":24,"Bots":0,"server_type":"Dedicated","server_os":"Linux","password":true,"vac":true,"version":"7961495","steam_id":85568392924469985,"keywords":["nocrits","nodmgspread","payload","uncletopia"],"game_id":440,"stv_port":27026,"stv_name":"Uncletopia | Chicago | 2 | All Maps | STV","players":[{"user_id":534,"name":"Shaby_Frost","steam_id":76561198401334563,"connected_time":98000000000,"state":"active","ping":45},{"user_id":520,"name":"salty like Lot's wife","steam_id":76561197998619845,"connected_time":569000000000,"state":"active","ping":66},{"user_id":489,"name":"Kamin","steam_id":76561198255299559,"connected_time":1607000000000,"state":"active","ping":88},{"user_id":531,"name":"Willhelm","steam_id":76561198046569146,"connected_time":230000000000,"state":"active","ping":186},{"user_id":535,"name":"Cassius Money","steam_id":76561197979696414,"connected_time":84000000000,"state":"active","ping":53},{"user_id":517,"name":"bouncyhousin","steam_id":76561198852902827,"connected_time":622000000000,"state":"active","ping":52},{"user_id":528,"name":"Deathpill","steam_id":76561197994404793,"connected_time":378000000000,"state":"active","ping":72},{"user_id":468,"name":"Mail Delivery","steam_id":76561198290046318,"connected_time":4424000000000,"state":"active","ping":60},{"user_id":492,"name":"dr peppah chug!","steam_id":76561198068835693,"connected_time":1548000000000,"state":"active","ping":88},{"user_id":498,"name":"sentry food","steam_id":76561198042926224,"connected_time":1358000000000,"state":"active","ping":85},{"user_id":512,"name":"I SEXED THE PUMPKIN","steam_id":76561198152641397,"connected_time":837000000000,"state":"active","ping":46},{"user_id":456,"name":"Tienne","steam_id":76561198359050265,"connected_time":5290000000000,"state":"active","ping":56},{"user_id":499,"name":"Mr. DeLarge","steam_id":76561198336820066,"connected_time":1351000000000,"state":"active","ping":121},{"user_id":522,"name":"Potet","steam_id":76561198167547789,"connected_time":558000000000,"state":"active","ping":72},{"user_id":536,"name":"BIG HOG","steam_id":76561198079923652,"connected_time":74000000000,"state":"active","ping":77},{"user_id":537,"name":"dailyspesh","steam_id":76561197988072369,"connected_time":65000000000,"state":"active","ping":78},{"user_id":532,"name":"Error 4 Oh Four","steam_id":76561198121637567,"connected_time":182000000000,"state":"active","ping":76},{"user_id":518,"name":"sandwich","steam_id":76561199112000229,"connected_time":622000000000,"state":"active","ping":83},{"user_id":503,"name":"Discourse","steam_id":76561198984286678,"connected_time":1316000000000,"state":"active","ping":60},{"user_id":491,"name":"Imagine being trash at Medic","steam_id":76561197986530028,"connected_time":1560000000000,"state":"active","ping":106},{"user_id":452,"name":"rude boi","steam_id":76561198006783260,"connected_time":5563000000000,"state":"active","ping":61},{"user_id":538,"name":"CMahaff","steam_id":76561198017229519,"connected_time":64000000000,"state":"active","ping":78},{"user_id":524,"name":"HemoTox","steam_id":76561197999713466,"connected_time":521000000000,"state":"active","ping":65},{"user_id":539,"name":"Spectre","steam_id":76561198015614607,"connected_time":53000000000,"state":"active","ping":87}]},{"server_id":402,"name":"Uncletopia | Chicago | 3 | All Maps","name_short":"chi-3","host":"chi-1.us.uncletopia.com","port":27035,"enabled":true,"region":"us-central","cc":"us","latitude":41.881832,"longitude":-87.62318,"reserved":0,"last_update":"0001-01-01T00:00:00Z","name_a2s":"Uncletopia | Chicago | 3 | All Maps","protocol":17,"map":"cp_sunshine","folder":"tf","game":"Team Fortress","app_id":440,"player_count":23,"max_players":24,"Bots":0,"server_type":"Dedicated","server_os":"Linux","password":true,"vac":true,"version":"7961495","steam_id":85568392924515191,"keywords":["cp","nocrits","nodmgspread","uncletopia"],"game_id":440,"stv_port":27036,"stv_name":"Uncletopia | Chicago | 3 | All Maps | STV","players":[{"user_id":360,"name":"Stauxie","steam_id":76561198255030077,"connected_time":2006000000000,"state":"active","ping":90},{"user_id":361,"name":"nbwingdinger","steam_id":76561198412627015,"connected_time":2001000000000,"state":"active","ping":116},{"user_id":346,"name":"stick","steam_id":76561198049489094,"connected_time":3131000000000,"state":"active","ping":49},{"user_id":363,"name":"berserker_tf2 yt","steam_id":76561198303464488,"connected_time":1843000000000,"state":"active","ping":54},{"user_id":322,"name":"Six Piece Chicken McNobody","steam_id":76561198129848222,"connected_time":4900000000000,"state":"active","ping":74},{"user_id":375,"name":"Gerald Jay Sussman","steam_id":76561198114515026,"connected_time":971000000000,"state":"active","ping":53},{"user_id":384,"name":"Penrose42","steam_id":76561198288577396,"connected_time":248000000000,"state":"active","ping":86},{"user_id":373,"name":"Mortal Flame","steam_id":76561198130698418,"connected_time":999000000000,"state":"active","ping":95},{"user_id":364,"name":"JetZ","steam_id":76561199122488957,"connected_time":1843000000000,"state":"active","ping":84},{"user_id":379,"name":"Mally","steam_id":76561198025013765,"connected_time":319000000000,"state":"active","ping":81},{"user_id":380,"name":"Sulong","steam_id":76561198798244209,"connected_time":306000000000,"state":"active","ping":74},{"user_id":376,"name":"[82DK] Ike","steam_id":76561198135256526,"connected_time":913000000000,"state":"active","ping":70},{"user_id":352,"name":"gaming gerald","steam_id":76561198011707083,"connected_time":2556000000000,"state":"active","ping":58},{"user_id":381,"name":"logos","steam_id":76561198038080028,"connected_time":298000000000,"state":"active","ping":87},{"user_id":382,"name":"homewurk","steam_id":76561199080327081,"connected_time":284000000000,"state":"active","ping":128},{"user_id":365,"name":"Medici","steam_id":76561198310130481,"connected_time":1800000000000,"state":"active","ping":60},{"user_id":383,"name":"je1i","steam_id":76561198268951743,"connected_time":282000000000,"state":"active","ping":57},{"user_id":385,"name":"dansal","steam_id":76561197997042510,"connected_time":232000000000,"state":"active","ping":81},{"user_id":367,"name":"the rizzler","steam_id":76561198012917426,"connected_time":1487000000000,"state":"active","ping":80},{"user_id":390,"name":"spooby","steam_id":76561198168114366,"connected_time":19000000000,"state":"active","ping":69},{"user_id":391,"name":"LVL","steam_id":76561198334403617,"connected_time":16000000000,"state":"active","ping":53},{"user_id":387,"name":"Penis Chopper","steam_id":76561199016999537,"connected_time":180000000000,"state":"active","ping":128},{"user_id":371,"name":"Sous-Chef","steam_id":76561198075705827,"connected_time":1118000000000,"state":"active","ping":76}]},{"server_id":403,"name":"Uncletopia | Chicago | 4 | All Maps","name_short":"chi-4","host":"chi-1.us.uncletopia.com","port":27045,"enabled":true,"region":"us-central","cc":"us","latitude":41.881832,"longitude":-87.62318,"reserved":0,"last_update":"0001-01-01T00:00:00Z","name_a2s":"Uncletopia | Chicago | 4 | All Maps","protocol":17,"map":"cp_dustbowl","folder":"tf","game":"Team Fortress","app_id":440,"player_count":24,"max_players":24,"Bots":0,"server_type":"Dedicated","server_os":"Linux","password":true,"vac":true,"version":"7961495","steam_id":85568392924515193,"keywords":["cp","nocrits","nodmgspread","uncletopia"],"game_id":440,"stv_port":27046,"stv_name":"Uncletopia | Chicago | 4 | All Maps | STV","players":[{"user_id":170,"name":"AverageJoe","steam_id":76561198313420109,"connected_time":3613000000000,"state":"active","ping":55},{"user_id":208,"name":"LeopoldVR","steam_id":76561198041597869,"connected_time":838000000000,"state":"active","ping":79},{"user_id":196,"name":"tiananmensquare1989","steam_id":76561199076837870,"connected_time":1263000000000,"state":"active","ping":93},{"user_id":160,"name":"ameritech","steam_id":76561198064769089,"connected_time":4326000000000,"state":"active","ping":54},{"user_id":209,"name":"hot pants™","steam_id":76561198033652282,"connected_time":837000000000,"state":"active","ping":78},{"user_id":210,"name":"Engie-Deer","steam_id":76561198817620456,"connected_time":806000000000,"state":"active","ping":79},{"user_id":219,"name":"Ojen","steam_id":76561197998414482,"connected_time":582000000000,"state":"active","ping":60},{"user_id":220,"name":"i need u","steam_id":76561198030625151,"connected_time":406000000000,"state":"active","ping":76},{"user_id":224,"name":"Im Groot","steam_id":76561198294943420,"connected_time":278000000000,"state":"active","ping":62},{"user_id":200,"name":"I don't play games anymore","steam_id":76561198069233124,"connected_time":1235000000000,"state":"active","ping":45},{"user_id":179,"name":"X-7","steam_id":76561198127217378,"connected_time":2867000000000,"state":"active","ping":69},{"user_id":201,"name":"ElBentz","steam_id":76561199059582221,"connected_time":1221000000000,"state":"active","ping":100},{"user_id":202,"name":"flare","steam_id":76561198048623485,"connected_time":1119000000000,"state":"active","ping":60},{"user_id":212,"name":"Jaguar lft/ring","steam_id":76561197971152439,"connected_time":764000000000,"state":"active","ping":61},{"user_id":159,"name":"SIN K4RMA","steam_id":76561198869287223,"connected_time":4383000000000,"state":"active","ping":89},{"user_id":213,"name":"Pan-Demonica","steam_id":76561198294350105,"connected_time":760000000000,"state":"active","ping":90},{"user_id":214,"name":"RaixaR","steam_id":76561198025289430,"connected_time":734000000000,"state":"active","ping":70},{"user_id":204,"name":"Lord butter,stick","steam_id":76561198987249913,"connected_time":1095000000000,"state":"active","ping":72},{"user_id":225,"name":"The Rock","steam_id":76561198433328517,"connected_time":207000000000,"state":"active","ping":80},{"user_id":216,"name":"qt pa 2t","steam_id":76561198066867150,"connected_time":730000000000,"state":"active","ping":61},{"user_id":217,"name":"OddSlaush","steam_id":76561198043898488,"connected_time":729000000000,"state":"active","ping":97},{"user_id":190,"name":"Dr Oshawott","steam_id":76561198042021629,"connected_time":1804000000000,"state":"active","ping":67},{"user_id":205,"name":"League of Legends Player","steam_id":76561198214059091,"connected_time":1069000000000,"state":"active","ping":71},{"user_id":193,"name":"ThePatheticMedic","steam_id":76561198873083105,"connected_time":1600000000000,"state":"active","ping":58}]},{"server_id":36,"name":"Uncletopia | Chicago | 5 | All Maps","name_short":"chi-5","host":"chi-2.us.uncletopia.com","port":27015,"enabled":true,"region":"us-central","cc":"us","latitude":41.881832,"longitude":-87.62318,"reserved":0,"last_update":"0001-01-01T00:00:00Z","name_a2s":"Uncletopia | Chicago | 5 | All Maps","protocol":17,"map":"pl_badwater","folder":"tf","game":"Team Fortress","app_id":440,"player_count":24,"max_players":24,"Bots":0,"server_type":"Dedicated","server_os":"Linux","password":true,"vac":true,"version":"7961495","steam_id":85568392924866362,"keywords":["nocrits","nodmgspread","payload","uncletopia"],"game_id":440,"stv_port":27016,"stv_name":"Uncletopia | Chicago | 5 | All Maps | STV","players":[{"user_id":372,"name":"Quark","steam_id":76561198328155605,"connected_time":3402000000000,"state":"active","ping":53},{"user_id":387,"name":"Mistah Clarence","steam_id":76561197998181418,"connected_time":2367000000000,"state":"active","ping":70},{"user_id":390,"name":"Frontier Psychiatrist","steam_id":76561198038689088,"connected_time":1868000000000,"state":"active","ping":89},{"user_id":378,"name":"vevetables","steam_id":76561198404178400,"connected_time":2713000000000,"state":"active","ping":60},{"user_id":380,"name":"StmyD","steam_id":76561198002041609,"connected_time":2568000000000,"state":"active","ping":81},{"user_id":410,"name":"孫子","steam_id":76561198083112681,"connected_time":364000000000,"state":"active","ping":60},{"user_id":397,"name":"Mr.Henderson","steam_id":76561198048801668,"connected_time":1174000000000,"state":"active","ping":96},{"user_id":394,"name":"c64guy","steam_id":76561198023022744,"connected_time":1579000000000,"state":"active","ping":95},{"user_id":398,"name":"shai","steam_id":76561198144909435,"connected_time":1155000000000,"state":"active","ping":115},{"user_id":349,"name":"Kantamoe","steam_id":76561198046661611,"connected_time":4433000000000,"state":"active","ping":86},{"user_id":396,"name":"CheesyPoofs","steam_id":76561197998650617,"connected_time":1306000000000,"state":"active","ping":101},{"user_id":377,"name":"StrudelB","steam_id":76561198000768061,"connected_time":2738000000000,"state":"active","ping":78},{"user_id":379,"name":"begolds8","steam_id":76561198841069098,"connected_time":2707000000000,"state":"active","ping":74},{"user_id":409,"name":"doghouse","steam_id":76561198000319035,"connected_time":607000000000,"state":"active","ping":112},{"user_id":407,"name":"Born in the 60s and Still Groov","steam_id":76561197993762951,"connected_time":621000000000,"state":"active","ping":88},{"user_id":411,"name":"Rainbeon","steam_id":76561198046150531,"connected_time":28000000000,"state":"active","ping":59},{"user_id":405,"name":"ivan","steam_id":76561199017754044,"connected_time":632000000000,"state":"active","ping":75},{"user_id":408,"name":"Fatpoob","steam_id":76561198056730096,"connected_time":619000000000,"state":"active","ping":71},{"user_id":402,"name":"FrostStorm","steam_id":76561198142685151,"connected_time":923000000000,"state":"active","ping":65},{"user_id":384,"name":"SnakeBrine","steam_id":76561198162007787,"connected_time":2402000000000,"state":"active","ping":78},{"user_id":400,"name":"Tom Dude","steam_id":76561198093913484,"connected_time":1060000000000,"state":"active","ping":61},{"user_id":403,"name":"AkimboAoki","steam_id":76561198158323058,"connected_time":795000000000,"state":"active","ping":95},{"user_id":401,"name":"Skeleton Hotel","steam_id":76561198041704727,"connected_time":1035000000000,"state":"active","ping":58},{"user_id":404,"name":"Julio Foolio","steam_id":76561198407122992,"connected_time":776000000000,"state":"active","ping":71}]},{"server_id":37,"name":"Uncletopia | Chicago | 6 | All Maps","name_short":"chi-6","host":"chi-2.us.uncletopia.com","port":27025,"enabled":true,"region":"us-central","cc":"us","latitude":41.881832,"longitude":-87.62318,"reserved":0,"last_update":"0001-01-01T00:00:00Z","name_a2s":"Uncletopia | Chicago | 6 | All Maps","protocol":17,"map":"ctf_landfall","folder":"tf","game":"Team Fortress","app_id":440,"player_count":18,"max_players":24,"Bots":0,"server_type":"Dedicated","server_os":"Linux","password":true,"vac":true,"version":"7961495","steam_id":85568392924866363,"keywords":["ctf","nocrits","nodmgspread","uncletopia"],"game_id":440,"stv_port":27026,"stv_name":"Uncletopia | Chicago | 6 | All Maps | STV","players":[{"user_id":201,"name":"Average Anarchist","steam_id":76561199175442910,"connected_time":2235000000000,"state":"active","ping":79},{"user_id":214,"name":"MineAGK","steam_id":76561198128372943,"connected_time":1255000000000,"state":"active","ping":81},{"user_id":195,"name":"WitheringLeo","steam_id":76561198046722918,"connected_time":2896000000000,"state":"active","ping":84},{"user_id":193,"name":"Haveltherock27","steam_id":76561199219844391,"connected_time":3045000000000,"state":"active","ping":101},{"user_id":215,"name":"rat boy","steam_id":76561197960785291,"connected_time":1248000000000,"state":"active","ping":71},{"user_id":163,"name":"nemesis","steam_id":76561198115050507,"connected_time":4970000000000,"state":"active","ping":62},{"user_id":218,"name":"Peter Griffin","steam_id":76561199207883307,"connected_time":1128000000000,"state":"active","ping":87},{"user_id":199,"name":"black ops 2 hank hill trolling","steam_id":76561198095313463,"connected_time":2666000000000,"state":"active","ping":65},{"user_id":216,"name":"Anorexic Gamer","steam_id":76561199033746817,"connected_time":1241000000000,"state":"active","ping":87},{"user_id":164,"name":"Bean","steam_id":76561198236529378,"connected_time":4950000000000,"state":"active","ping":56},{"user_id":206,"name":"RexCreeper456","steam_id":76561199319578396,"connected_time":1660000000000,"state":"active","ping":61},{"user_id":189,"name":"mothsprings","steam_id":76561198928604937,"connected_time":3270000000000,"state":"active","ping":81},{"user_id":227,"name":"Candy Sparkles","steam_id":76561198126871264,"connected_time":200000000000,"state":"active","ping":85},{"user_id":190,"name":"BANANA","steam_id":76561198418614551,"connected_time":3246000000000,"state":"active","ping":66},{"user_id":197,"name":"DoggyDogWhirl","steam_id":76561198042841344,"connected_time":2808000000000,"state":"active","ping":86},{"user_id":200,"name":"Yummy Kabobz","steam_id":76561198067661705,"connected_time":2473000000000,"state":"active","ping":68},{"user_id":217,"name":"Sage","steam_id":76561198143101697,"connected_time":1225000000000,"state":"active","ping":100},{"user_id":174,"name":"LittleFieryOne","steam_id":76561198107463724,"connected_time":4145000000000,"state":"active","ping":62}]},{"server_id":38,"name":"Uncletopia | Chicago | 7 | Stopwatch","name_short":"chi-7","host":"chi-2.us.uncletopia.com","port":27035,"enabled":true,"region":"us-central","cc":"us","latitude":41.881832,"longitude":-87.62318,"reserved":0,"last_update":"0001-01-01T00:00:00Z","name_a2s":"Uncletopia | Chicago | 7 | Stopwatch","protocol":17,"map":"workshop/koth_product_final.ugc454272353","folder":"tf","game":"Team Fortress","app_id":440,"player_count":22,"max_players":24,"Bots":0,"server_type":"Dedicated","server_os":"Linux","password":true,"vac":true,"version":"7961495","steam_id":85568392924866364,"keywords":["cp","nocrits","nodmgspread","uncletopia"],"game_id":440,"stv_port":27036,"stv_name":"Uncletopia | Chicago | 7 | Stopwatch | STV","players":[{"user_id":465,"name":"x2RedHawk","steam_id":76561199191680950,"connected_time":634000000000,"state":"active","ping":67},{"user_id":456,"name":"Turbulent Tilapia","steam_id":76561198004630011,"connected_time":1041000000000,"state":"active","ping":56},{"user_id":435,"name":"Goofy Goober","steam_id":76561198941700660,"connected_time":1906000000000,"state":"active","ping":106},{"user_id":467,"name":"yoodle doodle","steam_id":76561198054897884,"connected_time":580000000000,"state":"active","ping":73},{"user_id":331,"name":"flu walrus","steam_id":76561198207940136,"connected_time":4546000000000,"state":"active","ping":78},{"user_id":468,"name":"joshtrademark","steam_id":76561198097422133,"connected_time":556000000000,"state":"active","ping":69},{"user_id":475,"name":"ATL1 | Krissy","steam_id":76561197960848174,"connected_time":306000000000,"state":"active","ping":74},{"user_id":453,"name":"raspy","steam_id":76561198027298961,"connected_time":1247000000000,"state":"active","ping":60},{"user_id":319,"name":"carcin","steam_id":76561198042271448,"connected_time":4644000000000,"state":"active","ping":63},{"user_id":326,"name":"Dirtin","steam_id":76561198082291174,"connected_time":4629000000000,"state":"active","ping":70},{"user_id":478,"name":"C Papi","steam_id":76561198027779564,"connected_time":263000000000,"state":"active","ping":59},{"user_id":414,"name":"Honesty","steam_id":76561198066094995,"connected_time":2440000000000,"state":"active","ping":86},{"user_id":323,"name":"\u003c3","steam_id":76561198065872641,"connected_time":4637000000000,"state":"active","ping":115},{"user_id":474,"name":"Sentry Gun Main Man","steam_id":76561198327938247,"connected_time":331000000000,"state":"active","ping":87},{"user_id":325,"name":"realCptJack","steam_id":76561198021082168,"connected_time":4632000000000,"state":"active","ping":74},{"user_id":355,"name":"ballsack wizard","steam_id":76561198302771784,"connected_time":4011000000000,"state":"active","ping":57},{"user_id":473,"name":"--_Cook_--","steam_id":76561198080855748,"connected_time":356000000000,"state":"active","ping":48},{"user_id":472,"name":"floral incandescent porpoises","steam_id":76561198172454407,"connected_time":367000000000,"state":"active","ping":76},{"user_id":479,"name":"the rock","steam_id":76561198046251318,"connected_time":234000000000,"state":"active","ping":59},{"user_id":481,"name":"Wengatang","steam_id":76561198021747059,"connected_time":157000000000,"state":"active","ping":54},{"user_id":338,"name":"poobis","steam_id":76561198043034787,"connected_time":4432000000000,"state":"active","ping":103},{"user_id":463,"name":"leaving lunar orbit","steam_id":76561199085974120,"connected_time":819000000000,"state":"active","ping":76}]},{"server_id":39,"name":"Uncletopia | Chicago | 8 | Community","name_short":"chi-8","host":"chi-2.us.uncletopia.com","port":27045,"enabled":true,"region":"us-central","cc":"us","latitude":41.881832,"longitude":-87.62318,"reserved":0,"last_update":"0001-01-01T00:00:00Z","name_a2s":"Uncletopia | Chicago | 8 | Community","protocol":17,"map":"workshop/koth_trenchfoot_b1a.ugc731436616","folder":"tf","game":"Team Fortress","app_id":440,"player_count":0,"max_players":24,"Bots":0,"server_type":"Dedicated","server_os":"Linux","password":true,"vac":true,"version":"7961495","steam_id":85568392924866365,"keywords":["cp","nocrits","nodmgspread","uncletopia"],"game_id":440,"stv_port":27046,"stv_name":"Uncletopia | Chicago | 8 | Community | STV","players":null},{"server_id":8,"name":"Uncletopia | Dallas | 1 | All Maps","name_short":"dal-1","host":"dal-1.us.uncletopia.com","port":27015,"enabled":true,"region":"us-central","cc":"us","latitude":32.779167,"longitude":-96.80889,"reserved":0,"last_update":"0001-01-01T00:00:00Z","name_a2s":"Uncletopia | Dallas | 1 | All Maps","protocol":17,"map":"koth_brazil","folder":"tf","game":"Team Fortress","app_id":440,"player_count":24,"max_players":24,"Bots":0,"server_type":"Dedicated","server_os":"Linux","password":true,"vac":true,"version":"7961495","steam_id":85568392924469986,"keywords":["cp","nocrits","nodmgspread","uncletopia"],"game_id":440,"stv_port":27016,"stv_name":"Uncletopia | Dallas | 1 | All Maps | STV","players":[{"user_id":396,"name":"Fyish","steam_id":76561198127303751,"connected_time":46000000000,"state":"active","ping":44},{"user_id":386,"name":"Speejoink","steam_id":76561198076863045,"connected_time":561000000000,"state":"active","ping":61},{"user_id":377,"name":"Swiftmend","steam_id":76561197995595692,"connected_time":1785000000000,"state":"active","ping":105},{"user_id":364,"name":"Ballista","steam_id":76561197983182562,"connected_time":3247000000000,"state":"active","ping":60},{"user_id":372,"name":"Chilly Wintrz","steam_id":76561198137410740,"connected_time":2346000000000,"state":"active","ping":67},{"user_id":391,"name":"MFSHROOM","steam_id":76561198305836153,"connected_time":289000000000,"state":"active","ping":63},{"user_id":389,"name":"banana gaming","steam_id":76561198334907218,"connected_time":360000000000,"state":"active","ping":66},{"user_id":367,"name":"CHIEF","steam_id":76561198011209422,"connected_time":3077000000000,"state":"active","ping":45},{"user_id":383,"name":"ScoutBox","steam_id":76561198111539895,"connected_time":601000000000,"state":"active","ping":79},{"user_id":316,"name":"Proud Swift City Resident","steam_id":76561198036283992,"connected_time":6169000000000,"state":"active","ping":83},{"user_id":387,"name":"Not A Rapper","steam_id":76561198077523537,"connected_time":505000000000,"state":"active","ping":90},{"user_id":395,"name":"Pyromainiac","steam_id":76561199259867180,"connected_time":61000000000,"state":"spawning","ping":102},{"user_id":390,"name":"your little goofy homie","steam_id":76561198967158026,"connected_time":357000000000,"state":"active","ping":73},{"user_id":328,"name":"???","steam_id":76561198200155343,"connected_time":5551000000000,"state":"active","ping":44},{"user_id":392,"name":"Walt","steam_id":76561198121340670,"connected_time":268000000000,"state":"active","ping":102},{"user_id":338,"name":"Spazz","steam_id":76561198036167494,"connected_time":5062000000000,"state":"active","ping":50},{"user_id":394,"name":"C Sharp Minor","steam_id":76561199185191710,"connected_time":158000000000,"state":"active","ping":144},{"user_id":366,"name":"LooneyMonkey","steam_id":76561198414675183,"connected_time":3140000000000,"state":"active","ping":66},{"user_id":378,"name":"Jarate Jihadi","steam_id":76561197999837455,"connected_time":1459000000000,"state":"active","ping":77},{"user_id":397,"name":"Agent Bowtie","steam_id":76561198175839279,"connected_time":22000000000,"state":"spawning","ping":55},{"user_id":384,"name":"aidenmc3","steam_id":76561198062209166,"connected_time":595000000000,"state":"active","ping":41},{"user_id":385,"name":"Borgir","steam_id":76561198325390265,"connected_time":588000000000,"state":"active","ping":79},{"user_id":379,"name":"Mr.Nostalgic","steam_id":76561198083240822,"connected_time":1123000000000,"state":"active","ping":94},{"user_id":376,"name":"JaHeeK","steam_id":76561198056928613,"connected_time":2176000000000,"state":"active","ping":76}]},{"server_id":108,"name":"Uncletopia | Dallas | 2 | All Maps","name_short":"dal-2","host":"dal-1.us.uncletopia.com","port":27025,"enabled":true,"region":"us-central","cc":"us","latitude":32.779167,"longitude":-96.80889,"reserved":0,"last_update":"0001-01-01T00:00:00Z","name_a2s":"Uncletopia | Dallas | 2 | All Maps","protocol":17,"map":"cp_snakewater_final1","folder":"tf","game":"Team Fortress","app_id":440,"player_count":23,"max_players":24,"Bots":0,"server_type":"Dedicated","server_os":"Linux","password":true,"vac":true,"version":"7961495","steam_id":85568392924469988,"keywords":["cp","nocrits","nodmgspread","uncletopia"],"game_id":440,"stv_port":27026,"stv_name":"Uncletopia | Dallas | 2 | All Maps | STV","players":[{"user_id":647,"name":"heroine(real)","steam_id":76561199026721822,"connected_time":1819000000000,"state":"active","ping":115},{"user_id":630,"name":"Bullwinkle J. Moose","steam_id":76561198075977196,"connected_time":2908000000000,"state":"active","ping":62},{"user_id":632,"name":"Mr. Hankey","steam_id":76561198872852200,"connected_time":2493000000000,"state":"active","ping":142},{"user_id":646,"name":"King of Lames","steam_id":76561198006366763,"connected_time":2011000000000,"state":"active","ping":48},{"user_id":601,"name":"barker bill","steam_id":76561198018451994,"connected_time":5127000000000,"state":"active","ping":61},{"user_id":644,"name":"♥ DorkyPickle ♥","steam_id":76561198096221632,"connected_time":2213000000000,"state":"active","ping":62},{"user_id":657,"name":"RUF","steam_id":76561198062315805,"connected_time":851000000000,"state":"active","ping":92},{"user_id":645,"name":"Seshreb","steam_id":76561198846614634,"connected_time":2087000000000,"state":"active","ping":89},{"user_id":649,"name":"Panda Loser","steam_id":76561198828745176,"connected_time":1426000000000,"state":"active","ping":93},{"user_id":621,"name":"dopadream","steam_id":76561198068383694,"connected_time":3820000000000,"state":"active","ping":50},{"user_id":626,"name":"Darko","steam_id":76561198872531879,"connected_time":3429000000000,"state":"active","ping":70},{"user_id":604,"name":"GIGAHAXX","steam_id":76561197993714726,"connected_time":4976000000000,"state":"active","ping":60},{"user_id":648,"name":"radicalPolio","steam_id":76561197961561855,"connected_time":1492000000000,"state":"active","ping":45},{"user_id":658,"name":"[FOFS]billyburl","steam_id":76561198079535159,"connected_time":105000000000,"state":"active","ping":81},{"user_id":654,"name":"Viren","steam_id":76561198012636897,"connected_time":1097000000000,"state":"active","ping":45},{"user_id":631,"name":"mario DIES in the movie bro","steam_id":76561198800386026,"connected_time":2644000000000,"state":"active","ping":98},{"user_id":659,"name":"RockMan","steam_id":76561199228684720,"connected_time":91000000000,"state":"active","ping":61},{"user_id":660,"name":"Masked","steam_id":76561198093697845,"connected_time":66000000000,"state":"active","ping":315},{"user_id":656,"name":"EL HEDDO","steam_id":76561199239477515,"connected_time":1042000000000,"state":"active","ping":77},{"user_id":600,"name":"Abysa.","steam_id":76561198424398862,"connected_time":5392000000000,"state":"active","ping":161},{"user_id":642,"name":"Didwhy","steam_id":76561198040956974,"connected_time":2266000000000,"state":"active","ping":57},{"user_id":661,"name":"Molotov","steam_id":76561198117184826,"connected_time":27000000000,"state":"spawning","ping":130},{"user_id":584,"name":"Anon","steam_id":76561198109740776,"connected_time":6685000000000,"state":"active","ping":92}]},{"server_id":404,"name":"Uncletopia | Dallas | 3 | All Maps","name_short":"dal-3","host":"dal-1.us.uncletopia.com","port":27035,"enabled":true,"region":"us-central","cc":"us","latitude":32.779167,"longitude":-96.80889,"reserved":0,"last_update":"0001-01-01T00:00:00Z","name_a2s":"Uncletopia | Dallas | 3 | All Maps","protocol":17,"map":"pl_pier","folder":"tf","game":"Team Fortress","app_id":440,"player_count":22,"max_players":24,"Bots":0,"server_type":"Dedicated","server_os":"Linux","password":true,"vac":true,"version":"7961495","steam_id":85568392924515219,"keywords":["nocrits","nodmgspread","payload","uncletopia"],"game_id":440,"stv_port":27036,"stv_name":"Uncletopia | Dallas | 3 | All Maps | STV","players":[{"user_id":187,"name":"sophacles","steam_id":76561198953893481,"connected_time":190000000000,"state":"active","ping":102},{"user_id":54,"name":"Niko","steam_id":76561198185806553,"connected_time":8817000000000,"state":"active","ping":60},{"user_id":188,"name":"StarB","steam_id":76561198149605368,"connected_time":175000000000,"state":"active","ping":70},{"user_id":189,"name":"Engideer","steam_id":76561198145733164,"connected_time":127000000000,"state":"active","ping":47},{"user_id":175,"name":"small meth pouch","steam_id":76561198130412963,"connected_time":1165000000000,"state":"active","ping":68},{"user_id":163,"name":"Rager Reshiram","steam_id":76561198066619792,"connected_time":2090000000000,"state":"active","ping":66},{"user_id":161,"name":"Just a baby","steam_id":76561198018660838,"connected_time":2204000000000,"state":"active","ping":111},{"user_id":190,"name":"Floor chicken nugget","steam_id":76561198840484105,"connected_time":99000000000,"state":"active","ping":86},{"user_id":191,"name":"wyatt","steam_id":76561198035096199,"connected_time":97000000000,"state":"active","ping":62},{"user_id":118,"name":"JtsRes","steam_id":76561197994809241,"connected_time":5412000000000,"state":"active","ping":62},{"user_id":182,"name":"gagobears","steam_id":76561198086008437,"connected_time":526000000000,"state":"active","ping":51},{"user_id":181,"name":"Question","steam_id":76561198809528150,"connected_time":657000000000,"state":"active","ping":82},{"user_id":159,"name":"emerge","steam_id":76561198186882891,"connected_time":2307000000000,"state":"active","ping":75},{"user_id":165,"name":"VerrucktMedic","steam_id":76561198093144226,"connected_time":2060000000000,"state":"active","ping":100},{"user_id":166,"name":"Starkiller","steam_id":76561198101643120,"connected_time":2046000000000,"state":"active","ping":103},{"user_id":183,"name":"kalsamir","steam_id":76561198120634061,"connected_time":502000000000,"state":"active","ping":101},{"user_id":171,"name":"Medic Bag","steam_id":76561198403209900,"connected_time":1561000000000,"state":"active","ping":75},{"user_id":156,"name":"Hiigara","steam_id":76561198028393133,"connected_time":2854000000000,"state":"active","ping":67},{"user_id":179,"name":"xLeoparrd","steam_id":76561198940657194,"connected_time":810000000000,"state":"active","ping":53},{"user_id":185,"name":"smooth brain","steam_id":76561198049253541,"connected_time":340000000000,"state":"active","ping":75},{"user_id":135,"name":"ĐïɐȐɹɦɆa","steam_id":76561198981411945,"connected_time":4393000000000,"state":"active","ping":86},{"user_id":170,"name":"Space360","steam_id":76561198106743284,"connected_time":1991000000000,"state":"active","ping":101}]},{"server_id":405,"name":"Uncletopia | Dallas | 4 | Community","name_short":"dal-4","host":"dal-1.us.uncletopia.com","port":27045,"enabled":true,"region":"us-central","cc":"us","latitude":32.779167,"longitude":-96.80889,"reserved":0,"last_update":"0001-01-01T00:00:00Z","name_a2s":"Uncletopia | Dallas | 4 | Community","protocol":17,"map":"workshop/cp_reckoner_rc6.ugc674719999","folder":"tf","game":"Team Fortress","app_id":440,"player_count":15,"max_players":24,"Bots":0,"server_type":"Dedicated","server_os":"Linux","password":true,"vac":true,"version":"7961495","steam_id":85568392924515220,"keywords":["cp","nocrits","nodmgspread","uncletopia"],"game_id":440,"stv_port":27046,"stv_name":"Uncletopia | Dallas | 4 | Community | STV","players":[{"user_id":38,"name":"Carver Ze Derp","steam_id":76561198459813941,"connected_time":80000000000,"state":"active","ping":34},{"user_id":35,"name":"Novakhiin","steam_id":76561198066626874,"connected_time":484000000000,"state":"active","ping":92},{"user_id":37,"name":"CasperEl9","steam_id":76561199467303523,"connected_time":345000000000,"state":"active","ping":188},{"user_id":14,"name":"TheSmolPopato","steam_id":76561199076606348,"connected_time":2231000000000,"state":"active","ping":78},{"user_id":16,"name":"(TTV) The_Astrum_Guardian","steam_id":76561198130134103,"connected_time":1745000000000,"state":"active","ping":49},{"user_id":36,"name":"Space","steam_id":76561198090743707,"connected_time":462000000000,"state":"active","ping":84},{"user_id":18,"name":"BrownestBean","steam_id":76561198862810158,"connected_time":1406000000000,"state":"active","ping":51},{"user_id":19,"name":"dweamy","steam_id":76561198119181880,"connected_time":1298000000000,"state":"active","ping":60},{"user_id":20,"name":"intek","steam_id":76561198052705291,"connected_time":1263000000000,"state":"active","ping":84},{"user_id":22,"name":"KOL, Kind Of Lazy","steam_id":76561199078949165,"connected_time":910000000000,"state":"active","ping":115},{"user_id":23,"name":"BreakfastTacos","steam_id":76561198847620442,"connected_time":879000000000,"state":"active","ping":79},{"user_id":24,"name":"No.21 - Feral Scent","steam_id":76561198045844070,"connected_time":875000000000,"state":"active","ping":57},{"user_id":25,"name":"Xnopyt","steam_id":76561198052516404,"connected_time":723000000000,"state":"active","ping":87},{"user_id":26,"name":"Golurk with some bitches","steam_id":76561198085888959,"connected_time":610000000000,"state":"active","ping":56},{"user_id":28,"name":"Matisguy","steam_id":76561199020903681,"connected_time":601000000000,"state":"active","ping":59}]},{"server_id":5,"name":"Uncletopia | Frankfurt | 1 | All Maps","name_short":"frk-1","host":"frk-1.de.uncletopia.com","port":27015,"enabled":true,"region":"eu","cc":"de","latitude":50.110924,"longitude":8.682127,"reserved":0,"last_update":"0001-01-01T00:00:00Z","name_a2s":"Uncletopia | Frankfurt | 1 | All Maps","protocol":17,"map":"koth_highpass","folder":"tf","game":"Team Fortress","app_id":440,"player_count":0,"max_players":24,"Bots":0,"server_type":"Dedicated","server_os":"Linux","password":true,"vac":true,"version":"7961495","steam_id":85568392924469989,"keywords":["cp","nocrits","nodmgspread","uncletopia"],"game_id":440,"stv_port":27016,"stv_name":"Uncletopia | Frankfurt | 1 | All Maps | STV","players":null},{"server_id":110,"name":"Uncletopia | Frankfurt | 2 | All Maps","name_short":"frk-2","host":"frk-1.de.uncletopia.com","port":27025,"enabled":true,"region":"eu","cc":"de","latitude":50.110924,"longitude":8.682127,"reserved":0,"last_update":"0001-01-01T00:00:00Z","name_a2s":"Uncletopia | Frankfurt | 2 | All Maps","protocol":17,"map":"koth_highpass","folder":"tf","game":"Team Fortress","app_id":440,"player_count":0,"max_players":24,"Bots":0,"server_type":"Dedicated","server_os":"Linux","password":true,"vac":true,"version":"7961495","steam_id":85568392924469990,"keywords":["cp","nocrits","nodmgspread","uncletopia"],"game_id":440,"stv_port":27026,"stv_name":"Uncletopia | Frankfurt | 2 | All Maps | STV","players":null},{"server_id":308,"name":"Uncletopia | Frankfurt | 3 | All Maps","name_short":"frk-3","host":"frk-1.de.uncletopia.com","port":27035,"enabled":true,"region":"eu","cc":"de","latitude":50.110924,"longitude":8.682127,"reserved":0,"last_update":"0001-01-01T00:00:00Z","name_a2s":"Uncletopia | Frankfurt | 3 | All Maps","protocol":17,"map":"pl_frontier_final","folder":"tf","game":"Team Fortress","app_id":440,"player_count":0,"max_players":24,"Bots":0,"server_type":"Dedicated","server_os":"Linux","password":true,"vac":true,"version":"7961495","steam_id":85568392924504274,"keywords":["nocrits","nodmgspread","payload","uncletopia"],"game_id":440,"stv_port":27036,"stv_name":"Uncletopia | Frankfurt | 3 | All Maps | STV","players":null},{"server_id":309,"name":"Uncletopia | Frankfurt | 4 | All Maps","name_short":"frk-4","host":"frk-1.de.uncletopia.com","port":27045,"enabled":true,"region":"eu","cc":"de","latitude":50.110924,"longitude":8.682127,"reserved":0,"last_update":"0001-01-01T00:00:00Z","name_a2s":"Uncletopia | Frankfurt | 4 | All Maps","protocol":17,"map":"koth_highpass","folder":"tf","game":"Team Fortress","app_id":440,"player_count":0,"max_players":24,"Bots":0,"server_type":"Dedicated","server_os":"Linux","password":true,"vac":true,"version":"7961495","steam_id":85568392924504275,"keywords":["cp","nocrits","nodmgspread","uncletopia"],"game_id":440,"stv_port":27046,"stv_name":"Uncletopia | Frankfurt | 4 | All Maps | STV","players":null},{"server_id":310,"name":"Uncletopia | Frankfurt | 5 | All Maps","name_short":"frk-5","host":"frk-1.de.uncletopia.com","port":27055,"enabled":true,"region":"eu","cc":"de","latitude":50.110924,"longitude":8.682127,"reserved":0,"last_update":"0001-01-01T00:00:00Z","name_a2s":"Uncletopia | Frankfurt | 5 | All Maps","protocol":17,"map":"cp_altitude","folder":"tf","game":"Team Fortress","app_id":440,"player_count":0,"max_players":24,"Bots":0,"server_type":"Dedicated","server_os":"Linux","password":true,"vac":true,"version":"7961495","steam_id":85568392924504277,"keywords":["cp","nocrits","nodmgspread","uncletopia"],"game_id":440,"stv_port":27056,"stv_name":"Uncletopia | Frankfurt | 5 | All Maps | STV","players":null},{"server_id":311,"name":"Uncletopia | Frankfurt | 6 | All Maps","name_short":"frk-6","host":"frk-1.de.uncletopia.com","port":27065,"enabled":true,"region":"eu","cc":"de","latitude":50.110924,"longitude":8.682127,"reserved":0,"last_update":"0001-01-01T00:00:00Z","name_a2s":"Uncletopia | Frankfurt | 6 | All Maps","protocol":17,"map":"pl_badwater","folder":"tf","game":"Team Fortress","app_id":440,"player_count":0,"max_players":24,"Bots":0,"server_type":"Dedicated","server_os":"Linux","password":true,"vac":true,"version":"7961495","steam_id":85568392924504278,"keywords":["nocrits","nodmgspread","payload","uncletopia"],"game_id":440,"stv_port":27066,"stv_name":"Uncletopia | Frankfurt | 6 | All Maps | STV","players":null},{"server_id":23,"name":"Uncletopia | Frankfurt | 7 | Stopwatch","name_short":"frk-7","host":"frk-1.de.uncletopia.com","port":27075,"enabled":true,"region":"eu","cc":"de","latitude":50.110924,"longitude":8.682127,"reserved":0,"last_update":"0001-01-01T00:00:00Z","name_a2s":"Uncletopia | Frankfurt | 7 | Stopwatch","protocol":17,"map":"workshop/koth_ashville_final.ugc2130459942","folder":"tf","game":"Team Fortress","app_id":440,"player_count":0,"max_players":24,"Bots":0,"server_type":"Dedicated","server_os":"Linux","password":true,"vac":true,"version":"7961495","steam_id":85568392924742827,"keywords":["cp","nocrits","nodmgspread","uncletopia"],"game_id":440,"stv_port":27076,"stv_name":"Uncletopia | Frankfurt | 7 | Stopwatch | STV","players":null},{"server_id":24,"name":"Uncletopia | Frankfurt | 8 | Community","name_short":"frk-8","host":"frk-1.de.uncletopia.com","port":27085,"enabled":true,"region":"eu","cc":"de","latitude":50.110924,"longitude":8.682127,"reserved":0,"last_update":"0001-01-01T00:00:00Z","name_a2s":"Uncletopia | Frankfurt | 8 | Community","protocol":17,"map":"workshop/koth_trenchfoot_b1a.ugc731436616","folder":"tf","game":"Team Fortress","app_id":440,"player_count":0,"max_players":24,"Bots":0,"server_type":"Dedicated","server_os":"Linux","password":true,"vac":true,"version":"7961495","steam_id":85568392924742828,"keywords":["cp","nocrits","nodmgspread","uncletopia"],"game_id":440,"stv_port":27086,"stv_name":"Uncletopia | Frankfurt | 8 | Community | STV","players":null},{"server_id":202,"name":"Uncletopia | Hong Kong | 1 | All Maps","name_short":"hgk-1","host":"hgk-1.hk.uncletopia.com","port":27015,"enabled":true,"region":"asia","cc":"hk","latitude":22.302711,"longitude":114.177216,"reserved":0,"last_update":"0001-01-01T00:00:00Z","name_a2s":"Uncletopia | Hong Kong | 1 | All Maps","protocol":17,"map":"cp_dustbowl","folder":"tf","game":"Team Fortress","app_id":440,"player_count":6,"max_players":24,"Bots":0,"server_type":"Dedicated","server_os":"Linux","password":true,"vac":true,"version":"7961495","steam_id":85568392924494504,"keywords":["cp","nocrits","nodmgspread","uncletopia"],"game_id":440,"stv_port":27016,"stv_name":"Uncletopia | Hong Kong | 1 | All Maps | STV","players":[{"user_id":14,"name":"Bossrabeet (ඬ arc)","steam_id":76561199203075792,"connected_time":142000000000,"state":"active","ping":55},{"user_id":9,"name":"TheOneWhoIsDogwater (f2p)","steam_id":76561199287754329,"connected_time":1308000000000,"state":"active","ping":72},{"user_id":10,"name":"Kaneki_Ghoul","steam_id":76561199230730593,"connected_time":1275000000000,"state":"active","ping":312},{"user_id":11,"name":"(C17H35COO)3C3H5","steam_id":76561199113304832,"connected_time":927000000000,"state":"active","ping":64},{"user_id":12,"name":"Theducktube","steam_id":76561198137265224,"connected_time":715000000000,"state":"active","ping":117},{"user_id":15,"name":"blobeye","steam_id":76561198420018387,"connected_time":130000000000,"state":"active","ping":49}]},{"server_id":1,"name":"Uncletopia | Los Angeles | 1 | All Maps","name_short":"lax-1","host":"lax-1.us.uncletopia.com","port":27015,"enabled":true,"region":"us-west","cc":"us","latitude":33.94279,"longitude":-118.41004,"reserved":0,"last_update":"0001-01-01T00:00:00Z","name_a2s":"Uncletopia | Los Angeles | 1 | All Maps","protocol":17,"map":"pl_upward","folder":"tf","game":"Team Fortress","app_id":440,"player_count":23,"max_players":24,"Bots":0,"server_type":"Dedicated","server_os":"Linux","password":true,"vac":true,"version":"7961495","steam_id":85568392924469991,"keywords":["nocrits","nodmgspread","payload","uncletopia"],"game_id":440,"stv_port":27016,"stv_name":"Uncletopia | Los Angeles | 1 | All Maps | STV","players":[{"user_id":236,"name":"Wacks","steam_id":76561198079476100,"connected_time":1590000000000,"state":"active","ping":53},{"user_id":221,"name":"cielael","steam_id":76561198043971956,"connected_time":2963000000000,"state":"active","ping":56},{"user_id":216,"name":"BrightOrangeMango","steam_id":76561198023144607,"connected_time":3314000000000,"state":"active","ping":60},{"user_id":245,"name":"catrinaisahuman","steam_id":76561198281355729,"connected_time":1109000000000,"state":"active","ping":78},{"user_id":238,"name":"Malinok","steam_id":76561198025681131,"connected_time":1469000000000,"state":"active","ping":102},{"user_id":188,"name":"Squids023","steam_id":76561199013031576,"connected_time":5139000000000,"state":"active","ping":75},{"user_id":253,"name":"Word To Your Mothership","steam_id":76561198034329138,"connected_time":725000000000,"state":"active","ping":56},{"user_id":230,"name":"Teeth?","steam_id":76561198284821342,"connected_time":1826000000000,"state":"active","ping":109},{"user_id":247,"name":"Bodhisattva","steam_id":76561198085228896,"connected_time":1011000000000,"state":"active","ping":48},{"user_id":237,"name":"HiddenEgg","steam_id":76561199045105518,"connected_time":1475000000000,"state":"active","ping":53},{"user_id":239,"name":"BLU Orbama","steam_id":76561198047002366,"connected_time":1461000000000,"state":"active","ping":73},{"user_id":256,"name":"Donnie Blasto","steam_id":76561198043432005,"connected_time":300000000000,"state":"active","ping":104},{"user_id":241,"name":"OneMisguidedSlyGuy","steam_id":76561198372243261,"connected_time":1414000000000,"state":"active","ping":47},{"user_id":258,"name":"rad killl raccoon","steam_id":76561198980975595,"connected_time":234000000000,"state":"active","ping":91},{"user_id":220,"name":"Ockulus","steam_id":76561199069638460,"connected_time":3046000000000,"state":"active","ping":56},{"user_id":257,"name":"BLØRG","steam_id":76561198036126673,"connected_time":298000000000,"state":"active","ping":92},{"user_id":226,"name":"r,b;","steam_id":76561198150137369,"connected_time":2172000000000,"state":"active","ping":53},{"user_id":249,"name":"Thequirka","steam_id":76561198968058652,"connected_time":969000000000,"state":"active","ping":77},{"user_id":251,"name":"Jerry Bee","steam_id":76561198170444711,"connected_time":907000000000,"state":"active","ping":71},{"user_id":261,"name":"LordKirby","steam_id":76561198006938286,"connected_time":58000000000,"state":"active","ping":74},{"user_id":250,"name":"type \"bad med\" to kick","steam_id":76561198076402476,"connected_time":957000000000,"state":"active","ping":67},{"user_id":260,"name":"Korn Dawg","steam_id":76561198026941076,"connected_time":102000000000,"state":"active","ping":61},{"user_id":255,"name":"Stapler","steam_id":76561198099295077,"connected_time":498000000000,"state":"active","ping":60}]},{"server_id":112,"name":"Uncletopia | Los Angeles | 2 | All Maps","name_short":"lax-2","host":"lax-1.us.uncletopia.com","port":27025,"enabled":true,"region":"us-west","cc":"us","latitude":33.94279,"longitude":-118.41004,"reserved":0,"last_update":"0001-01-01T00:00:00Z","name_a2s":"Uncletopia | Los Angeles | 2 | All Maps","protocol":17,"map":"pl_pier","folder":"tf","game":"Team Fortress","app_id":440,"player_count":25,"max_players":24,"Bots":0,"server_type":"Dedicated","server_os":"Linux","password":true,"vac":true,"version":"7961495","steam_id":85568392924469992,"keywords":["nocrits","nodmgspread","payload","uncletopia"],"game_id":440,"stv_port":27026,"stv_name":"Uncletopia | Los Angeles | 2 | All Maps | STV","players":[{"user_id":418,"name":"donutdagger","steam_id":76561199203048300,"connected_time":3027000000000,"state":"active","ping":67},{"user_id":407,"name":"Ralph Kramden (Slim Charles)","steam_id":76561197981687895,"connected_time":3480000000000,"state":"active","ping":56},{"user_id":461,"name":"Stran","steam_id":76561198143389308,"connected_time":316000000000,"state":"active","ping":67},{"user_id":417,"name":"cjetson","steam_id":76561198074482272,"connected_time":3169000000000,"state":"active","ping":56},{"user_id":462,"name":"Antwan","steam_id":76561198246200638,"connected_time":249000000000,"state":"active","ping":71},{"user_id":463,"name":"Idiotden","steam_id":76561199340950135,"connected_time":184000000000,"state":"active","ping":56},{"user_id":464,"name":"Minecraft Furnace","steam_id":76561199071151136,"connected_time":147000000000,"state":"active","ping":42},{"user_id":432,"name":"Gordon Ramsay.","steam_id":76561199167165627,"connected_time":1765000000000,"state":"active","ping":89},{"user_id":439,"name":"Schnitz","steam_id":76561198265484253,"connected_time":1223000000000,"state":"active","ping":59},{"user_id":384,"name":"john.","steam_id":76561198982939658,"connected_time":5134000000000,"state":"active","ping":62},{"user_id":450,"name":"chanoc","steam_id":76561198026734746,"connected_time":1094000000000,"state":"active","ping":60},{"user_id":460,"name":"Mediocre Lobster","steam_id":76561198131201321,"connected_time":376000000000,"state":"active","ping":65},{"user_id":443,"name":"summer ant","steam_id":76561198340389876,"connected_time":1163000000000,"state":"active","ping":52},{"user_id":425,"name":"Pez","steam_id":76561199197778137,"connected_time":2336000000000,"state":"active","ping":69},{"user_id":459,"name":"nao","steam_id":76561198073982533,"connected_time":526000000000,"state":"active","ping":83},{"user_id":457,"name":"Bartalong","steam_id":76561198075744195,"connected_time":616000000000,"state":"active","ping":85},{"user_id":446,"name":"Shmootis","steam_id":76561198128764422,"connected_time":1138000000000,"state":"active","ping":65},{"user_id":465,"name":"GatoChingon","steam_id":76561199234905377,"connected_time":133000000000,"state":"active","ping":106},{"user_id":387,"name":"Penne","steam_id":76561198982393756,"connected_time":4335000000000,"state":"active","ping":54},{"user_id":430,"name":"Wendall555","steam_id":76561198985637603,"connected_time":1889000000000,"state":"active","ping":54},{"user_id":451,"name":"MrMind","steam_id":76561199321657653,"connected_time":1083000000000,"state":"active","ping":61},{"user_id":399,"name":"Delta","steam_id":76561198021957971,"connected_time":3837000000000,"state":"active","ping":58},{"user_id":466,"name":"lytewerk","steam_id":76561198002819791,"connected_time":85000000000,"state":"active","ping":89},{"user_id":452,"name":"Fractured_Mango","steam_id":76561199013113268,"connected_time":1022000000000,"state":"active","ping":71},{"user_id":467,"name":"A UsedNom","steam_id":76561198402832756,"connected_time":7000000000,"state":"spawning","ping":44}]},{"server_id":324,"name":"Uncletopia | Los Angeles | 3 | All Maps","name_short":"lax-3","host":"lax-1.us.uncletopia.com","port":27035,"enabled":true,"region":"us-west","cc":"us","latitude":33.94279,"longitude":-118.41004,"reserved":0,"last_update":"0001-01-01T00:00:00Z","name_a2s":"Uncletopia | Los Angeles | 3 | All Maps","protocol":17,"map":"koth_viaduct","folder":"tf","game":"Team Fortress","app_id":440,"player_count":0,"max_players":24,"Bots":0,"server_type":"Dedicated","server_os":"Linux","password":true,"vac":true,"version":"7961495","steam_id":85568392924510198,"keywords":["cp","nocrits","nodmgspread","uncletopia"],"game_id":440,"stv_port":27036,"stv_name":"Uncletopia | Los Angeles | 3 | All Maps | STV","players":null},{"server_id":25,"name":"Uncletopia | Los Angeles | 4 | Stopwatch","name_short":"lax-4","host":"lax-1.us.uncletopia.com","port":27045,"enabled":true,"region":"us-west","cc":"us","latitude":33.94279,"longitude":-118.41004,"reserved":0,"last_update":"0001-01-01T00:00:00Z","name_a2s":"Uncletopia | Los Angeles | 4 | Stopwatch","protocol":17,"map":"workshop/pl_badwater_pro_v12.ugc2142942074","folder":"tf","game":"Team Fortress","app_id":440,"player_count":0,"max_players":24,"Bots":0,"server_type":"Dedicated","server_os":"Linux","password":true,"vac":true,"version":"7961495","steam_id":85568392924510199,"keywords":["nocrits","nodmgspread","payload","uncletopia"],"game_id":440,"stv_port":27046,"stv_name":"Uncletopia | Los Angeles | 4 | Stopwatch | STV","players":null},{"server_id":11,"name":"Uncletopia | London | 1 | All Maps","name_short":"lon-1","host":"lon-1.uk.uncletopia.com","port":27015,"enabled":true,"region":"eu","cc":"gb","latitude":51.509865,"longitude":-0.118092,"reserved":0,"last_update":"0001-01-01T00:00:00Z","name_a2s":"Uncletopia | London | 1 | All Maps","protocol":17,"map":"koth_lakeside_final","folder":"tf","game":"Team Fortress","app_id":440,"player_count":0,"max_players":24,"Bots":0,"server_type":"Dedicated","server_os":"Linux","password":true,"vac":true,"version":"7961495","steam_id":85568392924367362,"keywords":["cp","nocrits","nodmgspread","uncletopia"],"game_id":440,"stv_port":27016,"stv_name":"Uncletopia | London | 1 | All Maps | STV","players":null},{"server_id":114,"name":"Uncletopia | London | 2 | All Maps","name_short":"lon-2","host":"lon-1.uk.uncletopia.com","port":27025,"enabled":true,"region":"eu","cc":"gb","latitude":51.509865,"longitude":-0.118092,"reserved":0,"last_update":"0001-01-01T00:00:00Z","name_a2s":"Uncletopia | London | 2 | All Maps","protocol":17,"map":"pl_borneo","folder":"tf","game":"Team Fortress","app_id":440,"player_count":19,"max_players":24,"Bots":0,"server_type":"Dedicated","server_os":"Linux","password":true,"vac":true,"version":"7961495","steam_id":85568392924470941,"keywords":["nocrits","nodmgspread","payload","uncletopia"],"game_id":440,"stv_port":27026,"stv_name":"Uncletopia | London | 2 | All Maps | STV","players":[{"user_id":465,"name":"Shynii","steam_id":76561198194682105,"connected_time":447000000000,"state":"active","ping":56},{"user_id":466,"name":"FarisKO","steam_id":76561198259234555,"connected_time":442000000000,"state":"active","ping":182},{"user_id":460,"name":"i AM the medic gf","steam_id":76561198247284680,"connected_time":986000000000,"state":"active","ping":74},{"user_id":457,"name":"tommy","steam_id":76561198195628823,"connected_time":1182000000000,"state":"active","ping":45},{"user_id":458,"name":"etc","steam_id":76561197998394797,"connected_time":1004000000000,"state":"active","ping":45},{"user_id":470,"name":"foster","steam_id":76561198060337360,"connected_time":96000000000,"state":"active","ping":49},{"user_id":471,"name":"LonelyScot","steam_id":76561198190830395,"connected_time":24000000000,"state":"active","ping":42},{"user_id":440,"name":"bird ideas","steam_id":76561199480942903,"connected_time":2745000000000,"state":"active","ping":67},{"user_id":462,"name":"BlueBlueFox","steam_id":76561198053817230,"connected_time":634000000000,"state":"active","ping":89},{"user_id":463,"name":"rng","steam_id":76561198436059214,"connected_time":614000000000,"state":"active","ping":33},{"user_id":464,"name":"Menace activities","steam_id":76561198328805441,"connected_time":610000000000,"state":"active","ping":102},{"user_id":467,"name":"Squid","steam_id":76561198197045587,"connected_time":351000000000,"state":"active","ping":142},{"user_id":452,"name":"sam-","steam_id":76561198013770973,"connected_time":1654000000000,"state":"active","ping":87},{"user_id":469,"name":"Churo","steam_id":76561198016542134,"connected_time":121000000000,"state":"active","ping":50},{"user_id":395,"name":"Ch4bby","steam_id":76561198058792875,"connected_time":6096000000000,"state":"active","ping":47},{"user_id":450,"name":"SuntanPikachu","steam_id":76561198121242476,"connected_time":1840000000000,"state":"active","ping":62},{"user_id":422,"name":"Scrumpy Main","steam_id":76561198146302597,"connected_time":3941000000000,"state":"active","ping":142},{"user_id":423,"name":"Colonel Dissapointment","steam_id":76561198181891649,"connected_time":3913000000000,"state":"active","ping":153},{"user_id":455,"name":"r0la","steam_id":76561198128315340,"connected_time":1342000000000,"state":"active","ping":73}]},{"server_id":320,"name":"Uncletopia | London | 3 | All Maps","name_short":"lon-3","host":"lon-1.uk.uncletopia.com","port":27035,"enabled":true,"region":"eu","cc":"gb","latitude":51.509865,"longitude":-0.118092,"reserved":0,"last_update":"0001-01-01T00:00:00Z","name_a2s":"Uncletopia | London | 3 | All Maps","protocol":17,"map":"pl_barnblitz","folder":"tf","game":"Team Fortress","app_id":440,"player_count":0,"max_players":24,"Bots":0,"server_type":"Dedicated","server_os":"Linux","password":true,"vac":true,"version":"7961495","steam_id":85568392924510192,"keywords":["nocrits","nodmgspread","payload","uncletopia"],"game_id":440,"stv_port":27036,"stv_name":"Uncletopia | London | 3 | All Maps | STV","players":null},{"server_id":321,"name":"Uncletopia | London | 4 | All Maps","name_short":"lon-4","host":"lon-1.uk.uncletopia.com","port":27045,"enabled":true,"region":"eu","cc":"gb","latitude":51.509865,"longitude":-0.118092,"reserved":0,"last_update":"0001-01-01T00:00:00Z","name_a2s":"Uncletopia | London | 4 | All Maps","protocol":17,"map":"koth_cascade","folder":"tf","game":"Team Fortress","app_id":440,"player_count":0,"max_players":24,"Bots":0,"server_type":"Dedicated","server_os":"Linux","password":true,"vac":true,"version":"7961495","steam_id":85568392924510193,"keywords":["cp","nocrits","nodmgspread","uncletopia"],"game_id":440,"stv_port":27046,"stv_name":"Uncletopia | London | 4 | All Maps | STV","players":null},{"server_id":21,"name":"Uncletopia | London | 5 | All Maps","name_short":"lon-5","host":"lon-1.uk.uncletopia.com","port":27055,"enabled":true,"region":"eu","cc":"gb","latitude":51.509865,"longitude":-0.118092,"reserved":0,"last_update":"0001-01-01T00:00:00Z","name_a2s":"Uncletopia | London | 5 | All Maps","protocol":17,"map":"pl_swiftwater_final1","folder":"tf","game":"Team Fortress","app_id":440,"player_count":0,"max_players":24,"Bots":0,"server_type":"Dedicated","server_os":"Linux","password":true,"vac":true,"version":"7961495","steam_id":85568392924742829,"keywords":["nocrits","nodmgspread","payload","uncletopia"],"game_id":440,"stv_port":27056,"stv_name":"Uncletopia | London | 5 | All Maps | STV","players":null},{"server_id":22,"name":"Uncletopia | London | 6 | All Maps","name_short":"lon-6","host":"lon-1.uk.uncletopia.com","port":27065,"enabled":true,"region":"eu","cc":"gb","latitude":51.509865,"longitude":-0.118092,"reserved":0,"last_update":"0001-01-01T00:00:00Z","name_a2s":"Uncletopia | London | 6 | All Maps","protocol":17,"map":"pl_borneo","folder":"tf","game":"Team Fortress","app_id":440,"player_count":0,"max_players":24,"Bots":0,"server_type":"Dedicated","server_os":"Linux","password":true,"vac":true,"version":"7961495","steam_id":85568392924742830,"keywords":["nocrits","nodmgspread","payload","uncletopia"],"game_id":440,"stv_port":27066,"stv_name":"Uncletopia | London | 6 | All Maps | STV","players":null},{"server_id":40,"name":"Uncletopia | London | 7 | Stopwatch","name_short":"lon-7","host":"lon-1.uk.uncletopia.com","port":27075,"enabled":true,"region":"eu","cc":"gb","latitude":51.509865,"longitude":-0.118092,"reserved":0,"last_update":"0001-01-01T00:00:00Z","name_a2s":"Uncletopia | London | 7 | Stopwatch","protocol":17,"map":"workshop/koth_ramjam_rc1.ugc459778887","folder":"tf","game":"Team Fortress","app_id":440,"player_count":0,"max_players":24,"Bots":0,"server_type":"Dedicated","server_os":"Linux","password":true,"vac":true,"version":"7961495","steam_id":85568392924964314,"keywords":["cp","nocrits","nodmgspread","uncletopia"],"game_id":440,"stv_port":27076,"stv_name":"Uncletopia | London | 7 | Stopwatch | STV","players":null},{"server_id":41,"name":"Uncletopia | London | 8 | Community","name_short":"lon-8","host":"lon-1.uk.uncletopia.com","port":27085,"enabled":true,"region":"eu","cc":"gb","latitude":51.509865,"longitude":-0.118092,"reserved":0,"last_update":"0001-01-01T00:00:00Z","name_a2s":"Uncletopia | London | 8 | Community","protocol":17,"map":"workshop/cp_caldera_rc2.ugc2834196889","folder":"tf","game":"Team Fortress","app_id":440,"player_count":0,"max_players":24,"Bots":0,"server_type":"Dedicated","server_os":"Linux","password":true,"vac":true,"version":"7961495","steam_id":85568392924964315,"keywords":["cp","nocrits","nodmgspread","uncletopia"],"game_id":440,"stv_port":27086,"stv_name":"Uncletopia | London | 8 | Community | STV","players":null},{"server_id":300,"name":"Uncletopia | Montréal | 1 | All Maps","name_short":"mtl-1","host":"mtl-1.ca.uncletopia.com","port":27015,"enabled":true,"region":"us-east","cc":"ca","latitude":45.50889,"longitude":-73.56167,"reserved":0,"last_update":"0001-01-01T00:00:00Z","name_a2s":"","protocol":0,"map":"","folder":"","game":"","app_id":0,"player_count":23,"max_players":0,"Bots":0,"server_type":"","server_os":"","password":false,"vac":false,"version":"","steam_id":0,"keywords":null,"game_id":0,"stv_port":0,"stv_name":"","players":[{"user_id":122,"name":"OG Pemguin","steam_id":76561199240575933,"connected_time":3755000000000,"state":"active","ping":123},{"user_id":158,"name":"triple_range_merge","steam_id":76561198991225026,"connected_time":1497000000000,"state":"active","ping":65},{"user_id":121,"name":"Slob and Sup","steam_id":76561198123441203,"connected_time":4117000000000,"state":"active","ping":51},{"user_id":141,"name":"Trubuckifan","steam_id":76561197990991360,"connected_time":2713000000000,"state":"active","ping":71},{"user_id":103,"name":"killer fish from san diego","steam_id":76561198800084189,"connected_time":4695000000000,"state":"active","ping":96},{"user_id":154,"name":"austinsmith","steam_id":76561198167838540,"connected_time":1672000000000,"state":"active","ping":61},{"user_id":112,"name":"mrappledumb","steam_id":76561199133590774,"connected_time":4357000000000,"state":"active","ping":61},{"user_id":148,"name":"Vithralia","steam_id":76561198036815585,"connected_time":2268000000000,"state":"active","ping":70},{"user_id":149,"name":"bobbymcbobington","steam_id":76561199089411172,"connected_time":2243000000000,"state":"active","ping":133},{"user_id":172,"name":"crayonnipple","steam_id":76561198070253331,"connected_time":320000000000,"state":"active","ping":51},{"user_id":163,"name":"Sheppy","steam_id":76561198295126940,"connected_time":1252000000000,"state":"active","ping":50},{"user_id":83,"name":"Maxley","steam_id":76561198148602225,"connected_time":5337000000000,"state":"active","ping":83},{"user_id":139,"name":"Spimtav","steam_id":76561198058989464,"connected_time":3019000000000,"state":"active","ping":56},{"user_id":169,"name":"Violetcherry","steam_id":76561198057445944,"connected_time":587000000000,"state":"active","ping":60},{"user_id":166,"name":"Darghul the Skeleton Lord","steam_id":76561198004140161,"connected_time":935000000000,"state":"active","ping":60},{"user_id":129,"name":"Tesman James","steam_id":76561199093793428,"connected_time":3621000000000,"state":"active","ping":59},{"user_id":164,"name":"Renota","steam_id":76561198058224488,"connected_time":1028000000000,"state":"active","ping":60},{"user_id":160,"name":"ngc","steam_id":76561198082432068,"connected_time":1342000000000,"state":"active","ping":68},{"user_id":155,"name":"Dr. Mosquito, M.D.","steam_id":76561198292258115,"connected_time":1618000000000,"state":"active","ping":62},{"user_id":161,"name":"not a good idea","steam_id":76561198032259680,"connected_time":1324000000000,"state":"active","ping":67},{"user_id":165,"name":"Alucard","steam_id":76561198411176566,"connected_time":979000000000,"state":"active","ping":52},{"user_id":168,"name":"Trout","steam_id":76561198075180255,"connected_time":890000000000,"state":"active","ping":56},{"user_id":137,"name":"nut","steam_id":76561198979466940,"connected_time":3181000000000,"state":"active","ping":100}]},{"server_id":301,"name":"Uncletopia | Montréal | 2 | All Maps","name_short":"mtl-2","host":"mtl-1.ca.uncletopia.com","port":27025,"enabled":true,"region":"us-east","cc":"ca","latitude":45.50889,"longitude":-73.56167,"reserved":0,"last_update":"0001-01-01T00:00:00Z","name_a2s":"","protocol":0,"map":"","folder":"","game":"","app_id":0,"player_count":0,"max_players":0,"Bots":0,"server_type":"","server_os":"","password":false,"vac":false,"version":"","steam_id":0,"keywords":null,"game_id":0,"stv_port":0,"stv_name":"","players":null},{"server_id":302,"name":"Uncletopia | Montréal | 3 | All Maps","name_short":"mtl-3","host":"mtl-1.ca.uncletopia.com","port":27035,"enabled":true,"region":"us-east","cc":"ca","latitude":45.50889,"longitude":-73.56167,"reserved":0,"last_update":"0001-01-01T00:00:00Z","name_a2s":"","protocol":0,"map":"","folder":"","game":"","app_id":0,"player_count":0,"max_players":0,"Bots":0,"server_type":"","server_os":"","password":false,"vac":false,"version":"","steam_id":0,"keywords":null,"game_id":0,"stv_port":0,"stv_name":"","players":null},{"server_id":303,"name":"Uncletopia | Montréal | 4 | No Payload","name_short":"mtl-4","host":"mtl-1.ca.uncletopia.com","port":27045,"enabled":true,"region":"us-east","cc":"ca","latitude":45.50889,"longitude":-73.56167,"reserved":0,"last_update":"0001-01-01T00:00:00Z","name_a2s":"","protocol":0,"map":"","folder":"","game":"","app_id":0,"player_count":0,"max_players":0,"Bots":0,"server_type":"","server_os":"","password":false,"vac":false,"version":"","steam_id":0,"keywords":null,"game_id":0,"stv_port":0,"stv_name":"","players":null},{"server_id":13,"name":"Uncletopia | New York City | 1 | All Maps","name_short":"nyc-1","host":"nyc-1.us.uncletopia.com","port":27015,"enabled":true,"region":"us-east","cc":"us","latitude":40.73061,"longitude":-73.93524,"reserved":0,"last_update":"0001-01-01T00:00:00Z","name_a2s":"Uncletopia | New York City | 1 | All Maps","protocol":17,"map":"pl_badwater","folder":"tf","game":"Team Fortress","app_id":440,"player_count":24,"max_players":24,"Bots":0,"server_type":"Dedicated","server_os":"Linux","password":true,"vac":true,"version":"7961495","steam_id":85568392924469993,"keywords":["nocrits","nodmgspread","payload","uncletopia"],"game_id":440,"stv_port":27016,"stv_name":"Uncletopia | New York City | 1 | All Maps | STV","players":[{"user_id":401,"name":"googa","steam_id":76561198133130452,"connected_time":5253000000000,"state":"active","ping":45},{"user_id":424,"name":"Unnecessary Toxicity","steam_id":76561198249397292,"connected_time":2710000000000,"state":"active","ping":58},{"user_id":317,"name":"De","steam_id":76561198206728044,"connected_time":12521000000000,"state":"active","ping":76},{"user_id":463,"name":"Storebrand Vegeta","steam_id":76561197999105221,"connected_time":722000000000,"state":"active","ping":90},{"user_id":449,"name":"Yeti","steam_id":76561198035450920,"connected_time":1573000000000,"state":"active","ping":56},{"user_id":464,"name":"Two-Teste Tommy","steam_id":76561198064308936,"connected_time":695000000000,"state":"active","ping":59},{"user_id":445,"name":"Spiral Mountain","steam_id":76561198058683715,"connected_time":1790000000000,"state":"active","ping":75},{"user_id":474,"name":"Minnie","steam_id":76561198091052019,"connected_time":146000000000,"state":"active","ping":45},{"user_id":432,"name":"Doubie","steam_id":76561198104492019,"connected_time":2489000000000,"state":"active","ping":67},{"user_id":469,"name":"hashmap","steam_id":76561198043794014,"connected_time":356000000000,"state":"active","ping":63},{"user_id":450,"name":"Evan","steam_id":76561197972292926,"connected_time":1569000000000,"state":"active","ping":64},{"user_id":465,"name":"Fredrick","steam_id":76561197981419964,"connected_time":674000000000,"state":"active","ping":52},{"user_id":455,"name":"Bastard_Yanisaur","steam_id":76561199134114075,"connected_time":1329000000000,"state":"active","ping":85},{"user_id":442,"name":"Bert.","steam_id":76561198140666346,"connected_time":1879000000000,"state":"active","ping":59},{"user_id":475,"name":"Small tiny feet","steam_id":76561199141538581,"connected_time":93000000000,"state":"active","ping":121},{"user_id":448,"name":"Bee_Pirate","steam_id":76561199000599111,"connected_time":1607000000000,"state":"active","ping":65},{"user_id":466,"name":"Lore","steam_id":76561198098407538,"connected_time":665000000000,"state":"active","ping":61},{"user_id":438,"name":"yoshido","steam_id":76561198846313229,"connected_time":2152000000000,"state":"active","ping":59},{"user_id":421,"name":"Luther_51","steam_id":76561198042994473,"connected_time":3743000000000,"state":"active","ping":63},{"user_id":471,"name":"I am the pinnacle of funny","steam_id":76561198306393090,"connected_time":242000000000,"state":"active","ping":59},{"user_id":454,"name":"Frisbee","steam_id":76561197962808987,"connected_time":1507000000000,"state":"active","ping":88},{"user_id":476,"name":"Festive Panda","steam_id":76561198025758017,"connected_time":93000000000,"state":"active","ping":70},{"user_id":456,"name":"Eviscerator","steam_id":76561197980073637,"connected_time":1216000000000,"state":"active","ping":87},{"user_id":460,"name":"Parth Makeo","steam_id":76561198002516581,"connected_time":904000000000,"state":"active","ping":46}]},{"server_id":14,"name":"Uncletopia | New York City | 2 | All Maps","name_short":"nyc-2","host":"nyc-1.us.uncletopia.com","port":27025,"enabled":true,"region":"us-east","cc":"us","latitude":40.73061,"longitude":-73.93524,"reserved":0,"last_update":"0001-01-01T00:00:00Z","name_a2s":"Uncletopia | New York City | 2 | All Maps","protocol":17,"map":"pl_borneo","folder":"tf","game":"Team Fortress","app_id":440,"player_count":24,"max_players":24,"Bots":0,"server_type":"Dedicated","server_os":"Linux","password":true,"vac":true,"version":"7961495","steam_id":85568392924469994,"keywords":["nocrits","nodmgspread","payload","uncletopia"],"game_id":440,"stv_port":27026,"stv_name":"Uncletopia | New York City | 2 | All Maps | STV","players":[{"user_id":463,"name":"Onion Prince","steam_id":76561198140691887,"connected_time":8996000000000,"state":"active","ping":54},{"user_id":597,"name":"stabbing on thin ice","steam_id":76561198354622099,"connected_time":804000000000,"state":"active","ping":75},{"user_id":594,"name":"Chernov","steam_id":76561198014463424,"connected_time":1187000000000,"state":"active","ping":32},{"user_id":579,"name":"WarMace","steam_id":76561198395937853,"connected_time":2152000000000,"state":"active","ping":88},{"user_id":598,"name":"popular loner","steam_id":76561198353975792,"connected_time":785000000000,"state":"active","ping":72},{"user_id":589,"name":"BradB","steam_id":76561199163905036,"connected_time":1572000000000,"state":"active","ping":80},{"user_id":573,"name":"RuinLucky","steam_id":76561199481172481,"connected_time":3200000000000,"state":"active","ping":95},{"user_id":606,"name":"capeeKo","steam_id":76561197970346623,"connected_time":56000000000,"state":"active","ping":52},{"user_id":592,"name":"acid","steam_id":76561198055855408,"connected_time":1366000000000,"state":"active","ping":55},{"user_id":581,"name":"ObsessedNerd505","steam_id":76561199045531456,"connected_time":2123000000000,"state":"active","ping":56},{"user_id":582,"name":"thats a big problem","steam_id":76561198080310253,"connected_time":2109000000000,"state":"active","ping":119},{"user_id":564,"name":"Swag and Money n farts","steam_id":76561198043970593,"connected_time":4007000000000,"state":"active","ping":71},{"user_id":565,"name":"algebruh","steam_id":76561199379415267,"connected_time":4006000000000,"state":"active","ping":74},{"user_id":570,"name":"femtofarad™","steam_id":76561198308583053,"connected_time":3242000000000,"state":"active","ping":68},{"user_id":586,"name":"GOD of SEX","steam_id":76561198209689295,"connected_time":1946000000000,"state":"active","ping":68},{"user_id":603,"name":"ʕ•ᴥ•ʔ the bear","steam_id":76561197989591976,"connected_time":653000000000,"state":"active","ping":62},{"user_id":605,"name":"TheSnowGhost","steam_id":76561198271967286,"connected_time":258000000000,"state":"active","ping":62},{"user_id":602,"name":"Dr.Poopshit M.D","steam_id":76561198061770842,"connected_time":662000000000,"state":"active","ping":64},{"user_id":604,"name":"Pistol Freeman","steam_id":76561198026818915,"connected_time":653000000000,"state":"active","ping":73},{"user_id":577,"name":"i wish you obelisk","steam_id":76561198032482394,"connected_time":2353000000000,"state":"active","ping":59},{"user_id":568,"name":"Blade Racer","steam_id":76561198155896703,"connected_time":3675000000000,"state":"active","ping":65},{"user_id":523,"name":"g00bur","steam_id":76561197993622520,"connected_time":6464000000000,"state":"active","ping":56},{"user_id":583,"name":"Ballstead","steam_id":76561198144152293,"connected_time":2059000000000,"state":"active","ping":59},{"user_id":585,"name":"Overdrive","steam_id":76561198040632616,"connected_time":2051000000000,"state":"active","ping":54}]},{"server_id":15,"name":"Uncletopia | New York City | 3 | Stopwatch","name_short":"nyc-3","host":"nyc-1.us.uncletopia.com","port":27035,"enabled":true,"region":"us-east","cc":"us","latitude":40.73061,"longitude":-73.93524,"reserved":0,"last_update":"0001-01-01T00:00:00Z","name_a2s":"Uncletopia | New York City | 3 | Stopwatch","protocol":17,"map":"workshop/koth_bagel_rc6.ugc2514036946","folder":"tf","game":"Team Fortress","app_id":440,"player_count":24,"max_players":24,"Bots":0,"server_type":"Dedicated","server_os":"Linux","password":true,"vac":true,"version":"7961495","steam_id":85568392924742820,"keywords":["cp","nocrits","nodmgspread","uncletopia"],"game_id":440,"stv_port":27036,"stv_name":"Uncletopia | New York City | 3 | Stopwatch | STV","players":[{"user_id":145,"name":"PBnJames","steam_id":76561198834000962,"connected_time":4862000000000,"state":"active","ping":58},{"user_id":187,"name":"sithreis","steam_id":76561198000564263,"connected_time":1798000000000,"state":"active","ping":75},{"user_id":202,"name":"GrahamisGood","steam_id":76561198988396980,"connected_time":1040000000000,"state":"active","ping":51},{"user_id":182,"name":"Lamp","steam_id":76561198369922506,"connected_time":2120000000000,"state":"active","ping":40},{"user_id":177,"name":"hilarious","steam_id":76561198981494806,"connected_time":3440000000000,"state":"active","ping":55},{"user_id":185,"name":"blood-thirsty pitbull","steam_id":76561198106690989,"connected_time":1827000000000,"state":"active","ping":53},{"user_id":210,"name":"Utopea","steam_id":76561198089722921,"connected_time":569000000000,"state":"active","ping":64},{"user_id":188,"name":"AlecTheNefarious","steam_id":76561198035291230,"connected_time":1768000000000,"state":"active","ping":83},{"user_id":206,"name":"♦♣Quadric♥♠","steam_id":76561198061003853,"connected_time":835000000000,"state":"active","ping":57},{"user_id":204,"name":"BigMan","steam_id":76561198277150955,"connected_time":871000000000,"state":"active","ping":51},{"user_id":196,"name":"Xenny femmy","steam_id":76561198299269074,"connected_time":1274000000000,"state":"active","ping":69},{"user_id":215,"name":"Ignor4nT","steam_id":76561198208838824,"connected_time":189000000000,"state":"active","ping":58},{"user_id":166,"name":"Not a Gamer Girl","steam_id":76561199122232082,"connected_time":3685000000000,"state":"active","ping":57},{"user_id":218,"name":"Silverkeys","steam_id":76561197986012496,"connected_time":15000000000,"state":"active","ping":57},{"user_id":214,"name":"Fuzzy","steam_id":76561198113445043,"connected_time":332000000000,"state":"active","ping":73},{"user_id":180,"name":"lazily","steam_id":76561198051127715,"connected_time":2639000000000,"state":"active","ping":61},{"user_id":193,"name":"bluebluepickles","steam_id":76561198119503953,"connected_time":1662000000000,"state":"active","ping":85},{"user_id":198,"name":"crystalgamerag","steam_id":76561198140553724,"connected_time":1245000000000,"state":"active","ping":73},{"user_id":192,"name":"TwelvePackofSaltyBones","steam_id":76561198224764664,"connected_time":1679000000000,"state":"active","ping":73},{"user_id":200,"name":"Honorificabilitudinitatibus","steam_id":76561198085286373,"connected_time":1170000000000,"state":"active","ping":37},{"user_id":201,"name":"leumas","steam_id":76561198240408540,"connected_time":1159000000000,"state":"active","ping":45},{"user_id":212,"name":"MrLonelySlayer","steam_id":76561198061793470,"connected_time":422000000000,"state":"active","ping":55},{"user_id":219,"name":"GetWickd","steam_id":76561198326400188,"connected_time":12000000000,"state":"spawning","ping":77},{"user_id":142,"name":"GossamerMoon{{SHE/HER}}","steam_id":76561198216909469,"connected_time":5032000000000,"state":"active","ping":86}]},{"server_id":16,"name":"Uncletopia | New York City | 4 | Community","name_short":"nyc-4","host":"nyc-1.us.uncletopia.com","port":27045,"enabled":true,"region":"us-east","cc":"us","latitude":40.73061,"longitude":-73.93524,"reserved":0,"last_update":"0001-01-01T00:00:00Z","name_a2s":"Uncletopia | New York City | 4 | Community","protocol":17,"map":"workshop/cp_caldera_rc2.ugc2834196889","folder":"tf","game":"Team Fortress","app_id":440,"player_count":17,"max_players":24,"Bots":0,"server_type":"Dedicated","server_os":"Linux","password":true,"vac":true,"version":"7961495","steam_id":85568392924742821,"keywords":["cp","nocrits","nodmgspread","uncletopia"],"game_id":440,"stv_port":27046,"stv_name":"Uncletopia | New York City | 4 | Community | STV","players":[{"user_id":163,"name":"kho","steam_id":76561198195764728,"connected_time":1034000000000,"state":"active","ping":78},{"user_id":165,"name":"Long Wong Van Hugendong","steam_id":76561198074856827,"connected_time":527000000000,"state":"active","ping":125},{"user_id":131,"name":"La()VaJ()86","steam_id":76561198247547042,"connected_time":3884000000000,"state":"active","ping":114},{"user_id":137,"name":"Rodrick Knee","steam_id":76561198283021062,"connected_time":3523000000000,"state":"active","ping":70},{"user_id":39,"name":"Shagbark","steam_id":76561198173447342,"connected_time":9381000000000,"state":"active","ping":63},{"user_id":161,"name":"yamme","steam_id":76561198117849124,"connected_time":1132000000000,"state":"active","ping":108},{"user_id":133,"name":"Knuckles","steam_id":76561198000704259,"connected_time":3725000000000,"state":"active","ping":37},{"user_id":146,"name":"erf","steam_id":76561198078203677,"connected_time":3239000000000,"state":"active","ping":53},{"user_id":166,"name":"Skiddy","steam_id":76561198125942665,"connected_time":416000000000,"state":"active","ping":61},{"user_id":162,"name":"tntkiller","steam_id":76561198067401676,"connected_time":1129000000000,"state":"active","ping":49},{"user_id":167,"name":"G.bo","steam_id":76561198085176270,"connected_time":199000000000,"state":"active","ping":124},{"user_id":168,"name":"flm","steam_id":76561198144052860,"connected_time":123000000000,"state":"active","ping":85},{"user_id":138,"name":"Xbmann | Resurfed","steam_id":76561198041017977,"connected_time":3521000000000,"state":"active","ping":91},{"user_id":152,"name":"Windup Monkey in a Human Suit","steam_id":76561198119501444,"connected_time":2312000000000,"state":"active","ping":95},{"user_id":147,"name":"Chechens Spotted","steam_id":76561199028910893,"connected_time":3130000000000,"state":"active","ping":71},{"user_id":141,"name":"J-Booty Rasengan","steam_id":76561198088854411,"connected_time":3460000000000,"state":"active","ping":59},{"user_id":145,"name":"Zerwee","steam_id":76561198181368101,"connected_time":3266000000000,"state":"active","ping":144}]},{"server_id":142,"name":"Uncletopia | São Paulo | 1 | All Maps","name_short":"sao-1","host":"sao-1.br.uncletopia.com","port":27015,"enabled":true,"region":"sa","cc":"br","latitude":-23.533773,"longitude":-46.62529,"reserved":0,"last_update":"0001-01-01T00:00:00Z","name_a2s":"Uncletopia | São Paulo | 1 | All Maps","protocol":17,"map":"koth_cascade","folder":"tf","game":"Team Fortress","app_id":440,"player_count":0,"max_players":24,"Bots":0,"server_type":"Dedicated","server_os":"Linux","password":true,"vac":true,"version":"7961495","steam_id":85568392924469996,"keywords":["cp","nocrits","nodmgspread","uncletopia"],"game_id":440,"stv_port":27016,"stv_name":"Uncletopia | São Paulo | 1 | All Maps | STV","players":null},{"server_id":143,"name":"Uncletopia | São Paulo | 2 | Community","name_short":"sao-2","host":"sao-2.br.uncletopia.com","port":27015,"enabled":true,"region":"sa","cc":"br","latitude":-23.533773,"longitude":-46.62529,"reserved":0,"last_update":"0001-01-01T00:00:00Z","name_a2s":"Uncletopia | São Paulo | 2 | Community","protocol":17,"map":"workshop/koth_ramjam_rc1.ugc459778887","folder":"tf","game":"Team Fortress","app_id":440,"player_count":0,"max_players":24,"Bots":0,"server_type":"Dedicated","server_os":"Linux","password":true,"vac":true,"version":"7961495","steam_id":85568392924485349,"keywords":["cp","nocrits","nodmgspread","uncletopia"],"game_id":440,"stv_port":27016,"stv_name":"Uncletopia | São Paulo | 2 | Community | STV","players":null},{"server_id":7,"name":"Uncletopia | Seattle | 1 | All Maps","name_short":"sea-1","host":"sea-1.us.uncletopia.com","port":27015,"enabled":true,"region":"us-west","cc":"us","latitude":47.608013,"longitude":-122.33517,"reserved":0,"last_update":"0001-01-01T00:00:00Z","name_a2s":"Uncletopia | Seattle | 1 | All Maps","protocol":17,"map":"koth_harvest_final","folder":"tf","game":"Team Fortress","app_id":440,"player_count":24,"max_players":24,"Bots":0,"server_type":"Dedicated","server_os":"Linux","password":true,"vac":true,"version":"7961495","steam_id":85568392924469997,"keywords":["cp","nocrits","nodmgspread","uncletopia"],"game_id":440,"stv_port":27016,"stv_name":"Uncletopia | Seattle | 1 | All Maps | STV","players":[{"user_id":513,"name":"lasky","steam_id":76561198017030029,"connected_time":2149000000000,"state":"active","ping":66},{"user_id":679,"name":"Father","steam_id":76561198055542054,"connected_time":231000000000,"state":"active","ping":52},{"user_id":680,"name":"Can of Oranges","steam_id":76561199121813529,"connected_time":190000000000,"state":"active","ping":53},{"user_id":493,"name":"[TrC] Nosy","steam_id":76561197978859310,"connected_time":2850000000000,"state":"active","ping":60},{"user_id":681,"name":"Skabbety","steam_id":76561198168044257,"connected_time":156000000000,"state":"active","ping":30},{"user_id":617,"name":"Vincent Van Bro","steam_id":76561197966919802,"connected_time":1229000000000,"state":"active","ping":58},{"user_id":628,"name":"Eraser cat","steam_id":76561199045570463,"connected_time":1201000000000,"state":"active","ping":56},{"user_id":450,"name":"tr","steam_id":76561198046944222,"connected_time":6135000000000,"state":"active","ping":39},{"user_id":514,"name":"trackpad gaming | f2p","steam_id":76561198840414371,"connected_time":2141000000000,"state":"active","ping":55},{"user_id":677,"name":"Jalapeño Poppers","steam_id":76561198082093612,"connected_time":272000000000,"state":"active","ping":48},{"user_id":682,"name":"Neptune˖⁺｡˚⋆˙♥","steam_id":76561199054203198,"connected_time":151000000000,"state":"active","ping":149},{"user_id":495,"name":"Username","steam_id":76561199033122306,"connected_time":2804000000000,"state":"active","ping":156},{"user_id":630,"name":"Alf Creepypasta","steam_id":76561198841844093,"connected_time":1192000000000,"state":"active","ping":70},{"user_id":627,"name":"Ayayayayayahuasca","steam_id":76561199002906056,"connected_time":1205000000000,"state":"active","ping":60},{"user_id":671,"name":"geekin and tweakin","steam_id":76561198095480838,"connected_time":335000000000,"state":"active","ping":46},{"user_id":500,"name":"NEЯO","steam_id":76561197965450216,"connected_time":2410000000000,"state":"active","ping":55},{"user_id":683,"name":"pepe warlord","steam_id":76561198080819197,"connected_time":145000000000,"state":"active","ping":72},{"user_id":684,"name":"Razorblade166","steam_id":76561198035303249,"connected_time":115000000000,"state":"active","ping":48},{"user_id":687,"name":"holymolee","steam_id":76561198894230126,"connected_time":49000000000,"state":"active","ping":170},{"user_id":486,"name":"[TrC] Dackstrus","steam_id":76561197973518509,"connected_time":3047000000000,"state":"active","ping":57},{"user_id":640,"name":"Level 99 Mudcrab","steam_id":76561198077452771,"connected_time":1009000000000,"state":"active","ping":86},{"user_id":491,"name":"NEBULA","steam_id":76561198086878595,"connected_time":2902000000000,"state":"active","ping":67},{"user_id":652,"name":"Tripll-L","steam_id":76561197998077437,"connected_time":594000000000,"state":"active","ping":70},{"user_id":625,"name":"Kc","steam_id":76561198210734407,"connected_time":1207000000000,"state":"active","ping":120}]},{"server_id":119,"name":"Uncletopia | Seattle | 2 | All Maps","name_short":"sea-2","host":"sea-1.us.uncletopia.com","port":27025,"enabled":true,"region":"us-west","cc":"us","latitude":47.608013,"longitude":-122.33517,"reserved":0,"last_update":"0001-01-01T00:00:00Z","name_a2s":"Uncletopia | Seattle | 2 | All Maps","protocol":17,"map":"koth_harvest_final","folder":"tf","game":"Team Fortress","app_id":440,"player_count":24,"max_players":24,"Bots":0,"server_type":"Dedicated","server_os":"Linux","password":true,"vac":true,"version":"7961495","steam_id":85568392924469998,"keywords":["cp","nocrits","nodmgspread","uncletopia"],"game_id":440,"stv_port":27026,"stv_name":"Uncletopia | Seattle | 2 | All Maps | STV","players":[{"user_id":241,"name":"Lili W.","steam_id":76561199391478575,"connected_time":4332000000000,"state":"active","ping":62},{"user_id":267,"name":"mizurush","steam_id":76561198039595304,"connected_time":2202000000000,"state":"active","ping":135},{"user_id":178,"name":"Lilmaggedon","steam_id":76561198072393166,"connected_time":10246000000000,"state":"active","ping":81},{"user_id":262,"name":"mooney","steam_id":76561199110622484,"connected_time":2755000000000,"state":"active","ping":69},{"user_id":244,"name":"slushy :))","steam_id":76561198135281802,"connected_time":4062000000000,"state":"active","ping":30},{"user_id":276,"name":"Dextersbrain","steam_id":76561198011831579,"connected_time":754000000000,"state":"active","ping":70},{"user_id":247,"name":"c a l l i e ↟ ↟","steam_id":76561198058199952,"connected_time":3495000000000,"state":"active","ping":45},{"user_id":279,"name":"Strikerbolt","steam_id":76561199095622897,"connected_time":247000000000,"state":"active","ping":81},{"user_id":280,"name":"Starpillow ♡","steam_id":76561198095034817,"connected_time":246000000000,"state":"active","ping":50},{"user_id":275,"name":"Amy Sapphire","steam_id":76561198122860452,"connected_time":903000000000,"state":"active","ping":87},{"user_id":269,"name":"ThePump","steam_id":76561198845710840,"connected_time":1452000000000,"state":"active","ping":47},{"user_id":282,"name":"Mii Guest C, From Wii Sports","steam_id":76561198197964803,"connected_time":236000000000,"state":"active","ping":64},{"user_id":273,"name":"The King of Piss World","steam_id":76561198082806956,"connected_time":1156000000000,"state":"active","ping":160},{"user_id":283,"name":"Soda","steam_id":76561198219209367,"connected_time":180000000000,"state":"active","ping":54},{"user_id":220,"name":"TJ Money Bags","steam_id":76561198047678037,"connected_time":7024000000000,"state":"active","ping":116},{"user_id":284,"name":"el_presidente","steam_id":76561199063461257,"connected_time":121000000000,"state":"active","ping":156},{"user_id":246,"name":"mub","steam_id":76561197961943948,"connected_time":3512000000000,"state":"active","ping":45},{"user_id":235,"name":"Sweet Iced Tea From McDonald's","steam_id":76561198081110786,"connected_time":4963000000000,"state":"active","ping":58},{"user_id":277,"name":"dougrocks421","steam_id":76561198165063918,"connected_time":607000000000,"state":"active","ping":41},{"user_id":253,"name":"BlazedBunny","steam_id":76561198243610560,"connected_time":3223000000000,"state":"active","ping":70},{"user_id":248,"name":"CashGordon","steam_id":76561197975594096,"connected_time":3475000000000,"state":"active","ping":36},{"user_id":285,"name":"LaserDog","steam_id":76561199088111891,"connected_time":92000000000,"state":"active","ping":121},{"user_id":256,"name":"sadlaxx","steam_id":76561198061354919,"connected_time":2936000000000,"state":"active","ping":95},{"user_id":266,"name":"♦Benji♦","steam_id":76561198313529973,"connected_time":2229000000000,"state":"active","ping":46}]},{"server_id":406,"name":"Uncletopia | Seattle | 3 | Stopwatch","name_short":"sea-3","host":"sea-1.us.uncletopia.com","port":27035,"enabled":true,"region":"us-west","cc":"us","latitude":47.608013,"longitude":-122.33517,"reserved":0,"last_update":"0001-01-01T00:00:00Z","name_a2s":"Uncletopia | Seattle | 3 | Stopwatch","protocol":17,"map":"workshop/koth_ashville_final.ugc2130459942","folder":"tf","game":"Team Fortress","app_id":440,"player_count":0,"max_players":24,"Bots":0,"server_type":"Dedicated","server_os":"Linux","password":true,"vac":true,"version":"7961495","steam_id":85568392924515217,"keywords":["cp","nocrits","nodmgspread","uncletopia"],"game_id":440,"stv_port":27036,"stv_name":"Uncletopia | Seattle | 3 | Stopwatch | STV","players":null},{"server_id":17,"name":"Uncletopia | San Francisco | 1 | All Maps","name_short":"sfo-1","host":"sfo-1.us.uncletopia.com","port":27015,"enabled":true,"region":"us-west","cc":"us","latitude":37.77397,"longitude":-122.4313,"reserved":0,"last_update":"0001-01-01T00:00:00Z","name_a2s":"Uncletopia | San Francisco | 1 | All Maps","protocol":17,"map":"pl_barnblitz","folder":"tf","game":"Team Fortress","app_id":440,"player_count":25,"max_players":24,"Bots":0,"server_type":"Dedicated","server_os":"Linux","password":true,"vac":true,"version":"7961495","steam_id":85568392924469999,"keywords":["nocrits","nodmgspread","payload","uncletopia"],"game_id":440,"stv_port":27016,"stv_name":"Uncletopia | San Francisco | 1 | All Maps | STV","players":[{"user_id":256,"name":"ORANGE","steam_id":76561198000401769,"connected_time":1547000000000,"state":"active","ping":74},{"user_id":237,"name":"VicLoL","steam_id":76561198045580784,"connected_time":2738000000000,"state":"active","ping":67},{"user_id":223,"name":"cool beans","steam_id":76561198321591685,"connected_time":3723000000000,"state":"active","ping":105},{"user_id":215,"name":"Lucas","steam_id":76561198399704604,"connected_time":4321000000000,"state":"active","ping":62},{"user_id":238,"name":"alen","steam_id":76561198110731302,"connected_time":2680000000000,"state":"active","ping":54},{"user_id":268,"name":"PJROCK101","steam_id":76561198070616561,"connected_time":1417000000000,"state":"active","ping":79},{"user_id":257,"name":"dunbar","steam_id":76561198143771806,"connected_time":1542000000000,"state":"active","ping":90},{"user_id":273,"name":"A rotting llama corpse","steam_id":76561198140840588,"connected_time":711000000000,"state":"active","ping":96},{"user_id":277,"name":"Drapph","steam_id":76561199384213314,"connected_time":498000000000,"state":"active","ping":114},{"user_id":269,"name":"BLU3","steam_id":76561198059652670,"connected_time":1395000000000,"state":"active","ping":63},{"user_id":258,"name":"paypur -rng","steam_id":76561198214370515,"connected_time":1535000000000,"state":"active","ping":110},{"user_id":259,"name":"Guatty","steam_id":76561198272698584,"connected_time":1531000000000,"state":"active","ping":103},{"user_id":254,"name":"Silly Shark","steam_id":76561198130714378,"connected_time":1863000000000,"state":"active","ping":86},{"user_id":272,"name":"supcupman","steam_id":76561198051513866,"connected_time":1067000000000,"state":"active","ping":63},{"user_id":261,"name":"Doomeister","steam_id":76561198070277587,"connected_time":1517000000000,"state":"active","ping":66},{"user_id":262,"name":"Master John Thursday","steam_id":76561197987593154,"connected_time":1514000000000,"state":"active","ping":75},{"user_id":225,"name":"lolzfrdawin21","steam_id":76561199006665979,"connected_time":3702000000000,"state":"active","ping":125},{"user_id":276,"name":"zinnk","steam_id":76561198092081825,"connected_time":502000000000,"state":"active","ping":35},{"user_id":265,"name":"dodecadron","steam_id":76561198027397222,"connected_time":1504000000000,"state":"active","ping":83},{"user_id":234,"name":"Giorno Giovanna","steam_id":76561198044106874,"connected_time":2944000000000,"state":"active","ping":65},{"user_id":278,"name":"grape","steam_id":76561197993980328,"connected_time":464000000000,"state":"active","ping":85},{"user_id":266,"name":"f1722","steam_id":76561198119103778,"connected_time":1466000000000,"state":"active","ping":117},{"user_id":188,"name":"DeckofDragons","steam_id":76561198057398213,"connected_time":5724000000000,"state":"active","ping":79},{"user_id":280,"name":"Swag3","steam_id":76561198056166863,"connected_time":3000000000,"state":"spawning","ping":43},{"user_id":275,"name":"i have sex and you dont","steam_id":76561199107134575,"connected_time":608000000000,"state":"active","ping":121}]},{"server_id":18,"name":"Uncletopia | San Francisco | 2 | All Maps","name_short":"sfo-2","host":"sfo-1.us.uncletopia.com","port":27025,"enabled":true,"region":"us-west","cc":"us","latitude":37.77397,"longitude":-122.4313,"reserved":0,"last_update":"0001-01-01T00:00:00Z","name_a2s":"Uncletopia | San Francisco | 2 | All Maps","protocol":17,"map":"pl_upward","folder":"tf","game":"Team Fortress","app_id":440,"player_count":15,"max_players":24,"Bots":0,"server_type":"Dedicated","server_os":"Linux","password":true,"vac":true,"version":"7961495","steam_id":85568392924470000,"keywords":["nocrits","nodmgspread","payload","uncletopia"],"game_id":440,"stv_port":27026,"stv_name":"Uncletopia | San Francisco | 2 | All Maps | STV","players":[{"user_id":541,"name":"The Angel of Death","steam_id":76561198026079349,"connected_time":555000000000,"state":"active","ping":82},{"user_id":532,"name":"ratthew","steam_id":76561198418172095,"connected_time":773000000000,"state":"active","ping":87},{"user_id":546,"name":"PTR","steam_id":76561198237253772,"connected_time":288000000000,"state":"active","ping":90},{"user_id":518,"name":"Captain Buggy","steam_id":76561198024444448,"connected_time":2455000000000,"state":"active","ping":60},{"user_id":549,"name":"HeaT","steam_id":76561198089227368,"connected_time":1000000000,"state":"spawning","ping":229},{"user_id":523,"name":"green bean","steam_id":76561198113099204,"connected_time":2205000000000,"state":"active","ping":33},{"user_id":483,"name":"Swag6","steam_id":76561198064110837,"connected_time":4819000000000,"state":"active","ping":46},{"user_id":548,"name":"squid game","steam_id":76561199248960166,"connected_time":159000000000,"state":"active","ping":63},{"user_id":484,"name":"Swag5","steam_id":76561198065311356,"connected_time":4813000000000,"state":"active","ping":46},{"user_id":504,"name":"freyja","steam_id":76561198012480197,"connected_time":3104000000000,"state":"active","ping":36},{"user_id":506,"name":"Grassman (Cc)","steam_id":76561198026488532,"connected_time":3095000000000,"state":"active","ping":44},{"user_id":540,"name":"Blanke","steam_id":76561198064100364,"connected_time":586000000000,"state":"active","ping":105},{"user_id":529,"name":"Buswolley","steam_id":76561197995205571,"connected_time":901000000000,"state":"active","ping":54},{"user_id":526,"name":"spurious george","steam_id":76561198043558709,"connected_time":2072000000000,"state":"active","ping":63},{"user_id":528,"name":"illness","steam_id":76561198200749235,"connected_time":970000000000,"state":"active","ping":31}]},{"server_id":19,"name":"Uncletopia | San Francisco | 3 | Stopwatch","name_short":"sfo-3","host":"sfo-1.us.uncletopia.com","port":27035,"enabled":true,"region":"us-west","cc":"us","latitude":37.77397,"longitude":-122.4313,"reserved":0,"last_update":"0001-01-01T00:00:00Z","name_a2s":"Uncletopia | San Francisco | 3 | Stopwatch","protocol":17,"map":"workshop/cp_reckoner_rc6.ugc674719999","folder":"tf","game":"Team Fortress","app_id":440,"player_count":0,"max_players":24,"Bots":0,"server_type":"Dedicated","server_os":"Linux","password":true,"vac":true,"version":"7961495","steam_id":85568392924742824,"keywords":["cp","nocrits","nodmgspread","uncletopia"],"game_id":440,"stv_port":27036,"stv_name":"Uncletopia | San Francisco | 3 | Stopwatch | STV","players":null},{"server_id":20,"name":"Uncletopia | San Francisco | 4 | Community","name_short":"sfo-4","host":"sfo-1.us.uncletopia.com","port":27045,"enabled":true,"region":"us-west","cc":"us","latitude":37.77397,"longitude":-122.4313,"reserved":0,"last_update":"0001-01-01T00:00:00Z","name_a2s":"Uncletopia | San Francisco | 4 | Community","protocol":17,"map":"workshop/cp_logjam_rc12.ugc454812035","folder":"tf","game":"Team Fortress","app_id":440,"player_count":0,"max_players":24,"Bots":0,"server_type":"Dedicated","server_os":"Linux","password":true,"vac":true,"version":"7961495","steam_id":85568392924742826,"keywords":["cp","nocrits","nodmgspread","uncletopia"],"game_id":440,"stv_port":27046,"stv_name":"Uncletopia | San Francisco | 4 | Community | STV","players":null},{"server_id":141,"name":"Uncletopia | Sydney | 1 | All Maps","name_short":"syd-1","host":"syd-1.au.uncletopia.com","port":27015,"enabled":true,"region":"au","cc":"au","latitude":-33.865143,"longitude":151.2099,"reserved":0,"last_update":"0001-01-01T00:00:00Z","name_a2s":"Uncletopia | Sydney | 1 | All Maps","protocol":17,"map":"ctf_2fort","folder":"tf","game":"Team Fortress","app_id":440,"player_count":15,"max_players":24,"Bots":0,"server_type":"Dedicated","server_os":"Linux","password":true,"vac":true,"version":"7961495","steam_id":85568392924470001,"keywords":["ctf","nocrits","nodmgspread","uncletopia"],"game_id":440,"stv_port":27016,"stv_name":"Uncletopia | Sydney | 1 | All Maps | STV","players":[{"user_id":24,"name":"JP","steam_id":76561198026221737,"connected_time":2269000000000,"state":"active","ping":45},{"user_id":40,"name":"Sir Bigg","steam_id":76561199080759165,"connected_time":356000000000,"state":"active","ping":59},{"user_id":38,"name":"Level 20 Commoner","steam_id":76561198020401609,"connected_time":478000000000,"state":"active","ping":54},{"user_id":27,"name":"bread","steam_id":76561199405764106,"connected_time":1834000000000,"state":"active","ping":32},{"user_id":36,"name":"hyak ♥","steam_id":76561198175700625,"connected_time":619000000000,"state":"active","ping":83},{"user_id":37,"name":"wom","steam_id":76561199375834537,"connected_time":565000000000,"state":"active","ping":122},{"user_id":34,"name":"Jeshī","steam_id":76561198105982416,"connected_time":1573000000000,"state":"active","ping":56},{"user_id":45,"name":"Golfing with Joel","steam_id":76561199161637215,"connected_time":135000000000,"state":"active","ping":93},{"user_id":41,"name":"make like a tree and Keith","steam_id":76561198301282416,"connected_time":322000000000,"state":"active","ping":47},{"user_id":42,"name":"buggybones jones","steam_id":76561198025099660,"connected_time":319000000000,"state":"active","ping":31},{"user_id":43,"name":"Leaves19","steam_id":76561199262891492,"connected_time":284000000000,"state":"active","ping":91},{"user_id":44,"name":"burfdae boi","steam_id":76561199000827969,"connected_time":277000000000,"state":"active","ping":30},{"user_id":46,"name":"Foxivan","steam_id":76561198428775175,"connected_time":69000000000,"state":"spawning","ping":73},{"user_id":47,"name":"please be patient i have autism","steam_id":76561199219741520,"connected_time":13000000000,"state":"active","ping":136},{"user_id":49,"name":"Hippity_Hoppity","steam_id":76561198861050395,"connected_time":2000000000,"state":"spawning","ping":49}]},{"server_id":123,"name":"Uncletopia | Sydney | 2 | All Maps","name_short":"syd-2","host":"syd-1.au.uncletopia.com","port":27025,"enabled":true,"region":"au","cc":"au","latitude":-33.865143,"longitude":151.2099,"reserved":0,"last_update":"0001-01-01T00:00:00Z","name_a2s":"Uncletopia | Sydney | 2 | All Maps","protocol":17,"map":"koth_lakeside_final","folder":"tf","game":"Team Fortress","app_id":440,"player_count":0,"max_players":24,"Bots":0,"server_type":"Dedicated","server_os":"Linux","password":true,"vac":true,"version":"7961495","steam_id":85568392924470002,"keywords":["cp","nocrits","nodmgspread","uncletopia"],"game_id":440,"stv_port":27026,"stv_name":"Uncletopia | Sydney | 2 | All Maps | STV","players":null},{"server_id":395,"name":"Uncletopia | Sydney | 3 | All Maps","name_short":"syd-3","host":"syd-1.au.uncletopia.com","port":27035,"enabled":true,"region":"au","cc":"au","latitude":-33.865143,"longitude":151.2099,"reserved":0,"last_update":"0001-01-01T00:00:00Z","name_a2s":"Uncletopia | Sydney | 3 | All Maps","protocol":17,"map":"pl_frontier_final","folder":"tf","game":"Team Fortress","app_id":440,"player_count":0,"max_players":24,"Bots":0,"server_type":"Dedicated","server_os":"Linux","password":true,"vac":true,"version":"7961495","steam_id":85568392925194467,"keywords":["nocrits","nodmgspread","payload","uncletopia"],"game_id":440,"stv_port":27036,"stv_name":"Uncletopia | Sydney | 3 | All Maps | STV","players":null},{"server_id":396,"name":"Uncletopia | Sydney | 4 | All Maps","name_short":"syd-4","host":"syd-1.au.uncletopia.com","port":27045,"enabled":true,"region":"au","cc":"au","latitude":-33.865143,"longitude":151.2099,"reserved":0,"last_update":"0001-01-01T00:00:00Z","name_a2s":"Uncletopia | Sydney | 4 | All Maps","protocol":17,"map":"pl_upward","folder":"tf","game":"Team Fortress","app_id":440,"player_count":0,"max_players":24,"Bots":0,"server_type":"Dedicated","server_os":"Linux","password":true,"vac":true,"version":"7961495","steam_id":85568392925397958,"keywords":["nocrits","nodmgspread","payload","uncletopia"],"game_id":440,"stv_port":27046,"stv_name":"Uncletopia | Sydney | 4 | All Maps | STV","players":null},{"server_id":58,"name":"Uncletopia | Sydney | 5 | Stopwatch","name_short":"syd-5","host":"syd-1.au.uncletopia.com","port":27055,"enabled":true,"region":"au","cc":"au","latitude":-33.865143,"longitude":151.2099,"reserved":0,"last_update":"0001-01-01T00:00:00Z","name_a2s":"Uncletopia | Sydney | 5 | Stopwatch","protocol":17,"map":"workshop/koth_ramjam_rc1.ugc459778887","folder":"tf","game":"Team Fortress","app_id":440,"player_count":0,"max_players":24,"Bots":0,"server_type":"Dedicated","server_os":"Linux","password":true,"vac":true,"version":"7961495","steam_id":85568392925397959,"keywords":["cp","nocrits","nodmgspread","uncletopia"],"game_id":440,"stv_port":27056,"stv_name":"Uncletopia | Sydney | 5 | Stopwatch | STV","players":null},{"server_id":59,"name":"Uncletopia | Sydney | 6 | Community","name_short":"syd-6","host":"syd-1.au.uncletopia.com","port":27065,"enabled":true,"region":"au","cc":"au","latitude":-33.865143,"longitude":151.2099,"reserved":0,"last_update":"0001-01-01T00:00:00Z","name_a2s":"Uncletopia | Sydney | 6 | Community","protocol":17,"map":"cp_sunshine","folder":"tf","game":"Team Fortress","app_id":440,"player_count":0,"max_players":24,"Bots":0,"server_type":"Dedicated","server_os":"Linux","password":true,"vac":true,"version":"7961495","steam_id":85568392925397960,"keywords":["cp","nocrits","nodmgspread","uncletopia"],"game_id":440,"stv_port":27066,"stv_name":"Uncletopia | Sydney | 6 | Community | STV","players":null},{"server_id":49,"name":"Uncletopia | Warsaw | 1 | All Maps","name_short":"waw-1","host":"waw-1.pl.uncletopia.com","port":27015,"enabled":true,"region":"eu","cc":"pl","latitude":52.2297,"longitude":21.017532,"reserved":0,"last_update":"0001-01-01T00:00:00Z","name_a2s":"Uncletopia | Warsaw | 1 | All Maps","protocol":17,"map":"koth_highpass","folder":"tf","game":"Team Fortress","app_id":440,"player_count":0,"max_players":24,"Bots":0,"server_type":"Dedicated","server_os":"Linux","password":true,"vac":true,"version":"7961495","steam_id":85568392925397850,"keywords":["cp","nocrits","nodmgspread","uncletopia"],"game_id":440,"stv_port":27016,"stv_name":"Uncletopia | Warsaw | 1 | All Maps | STV","players":null},{"server_id":50,"name":"Uncletopia | Warsaw | 2 | All Maps","name_short":"waw-2","host":"waw-1.pl.uncletopia.com","port":27025,"enabled":true,"region":"eu","cc":"pl","latitude":52.2297,"longitude":21.017532,"reserved":0,"last_update":"0001-01-01T00:00:00Z","name_a2s":"Uncletopia | Warsaw | 2 | All Maps","protocol":17,"map":"koth_highpass","folder":"tf","game":"Team Fortress","app_id":440,"player_count":0,"max_players":24,"Bots":0,"server_type":"Dedicated","server_os":"Linux","password":true,"vac":true,"version":"7961495","steam_id":85568392925397851,"keywords":["cp","nocrits","nodmgspread","uncletopia"],"game_id":440,"stv_port":27026,"stv_name":"Uncletopia | Warsaw | 2 | All Maps | STV","players":null},{"server_id":51,"name":"Uncletopia | Warsaw | 3 | All Maps","name_short":"waw-3","host":"waw-1.pl.uncletopia.com","port":27035,"enabled":true,"region":"eu","cc":"pl","latitude":52.2297,"longitude":21.017532,"reserved":0,"last_update":"0001-01-01T00:00:00Z","name_a2s":"Uncletopia | Warsaw | 3 | All Maps","protocol":17,"map":"koth_viaduct","folder":"tf","game":"Team Fortress","app_id":440,"player_count":0,"max_players":24,"Bots":0,"server_type":"Dedicated","server_os":"Linux","password":true,"vac":true,"version":"7961495","steam_id":85568392925397852,"keywords":["cp","nocrits","nodmgspread","uncletopia"],"game_id":440,"stv_port":27036,"stv_name":"Uncletopia | Warsaw | 3 | All Maps | STV","players":null},{"server_id":52,"name":"Uncletopia | Warsaw | 4 | All Maps","name_short":"waw-4","host":"waw-1.pl.uncletopia.com","port":27045,"enabled":true,"region":"eu","cc":"pl","latitude":52.2297,"longitude":21.017532,"reserved":0,"last_update":"0001-01-01T00:00:00Z","name_a2s":"Uncletopia | Warsaw | 4 | All Maps","protocol":17,"map":"cp_altitude","folder":"tf","game":"Team Fortress","app_id":440,"player_count":0,"max_players":24,"Bots":0,"server_type":"Dedicated","server_os":"Linux","password":true,"vac":true,"version":"7961495","steam_id":85568392925397853,"keywords":["cp","nocrits","nodmgspread","uncletopia"],"game_id":440,"stv_port":27046,"stv_name":"Uncletopia | Warsaw | 4 | All Maps | STV","players":null},{"server_id":53,"name":"Uncletopia | Warsaw | 5 | Stopwatch","name_short":"waw-5","host":"waw-1.pl.uncletopia.com","port":27055,"enabled":true,"region":"eu","cc":"pl","latitude":52.2297,"longitude":21.017532,"reserved":0,"last_update":"0001-01-01T00:00:00Z","name_a2s":"Uncletopia | Warsaw | 5 | Stopwatch","protocol":17,"map":"cp_granary","folder":"tf","game":"Team Fortress","app_id":440,"player_count":0,"max_players":24,"Bots":0,"server_type":"Dedicated","server_os":"Linux","password":true,"vac":true,"version":"7961495","steam_id":85568392925397854,"keywords":["cp","nocrits","nodmgspread","uncletopia"],"game_id":440,"stv_port":27056,"stv_name":"Uncletopia | Warsaw | 5 | Stopwatch | STV","players":null},{"server_id":54,"name":"Uncletopia | Warsaw | 6 | Community","name_short":"waw-6","host":"waw-1.pl.uncletopia.com","port":27065,"enabled":true,"region":"eu","cc":"pl","latitude":52.2297,"longitude":21.017532,"reserved":0,"last_update":"0001-01-01T00:00:00Z","name_a2s":"Uncletopia | Warsaw | 6 | Community","protocol":17,"map":"workshop/cp_hazyfort_rc6.ugc1365963729","folder":"tf","game":"Team Fortress","app_id":440,"player_count":0,"max_players":24,"Bots":0,"server_type":"Dedicated","server_os":"Linux","password":true,"vac":true,"version":"7961495","steam_id":85568392925397856,"keywords":["cp","nocrits","nodmgspread","uncletopia"],"game_id":440,"stv_port":27066,"stv_name":"Uncletopia | Warsaw | 6 | Community | STV","players":null}]}