{"status":true,"message":"","result":[{"server_id":9,"name":"Uncletopia | Atlanta | 1 | All Maps","name_short":"atl-1","host":"atl-1.us.uncletopia.com","port":27015,"enabled":true,"region":"us-east","cc":"us","latitude":33.753746,"longitude":-84.38633,"reserved":0,"last_update":"0001-01-01T00:00:00Z","name_a2s":"Uncletopia | Atlanta | 1 | All Maps","protocol":17,"map":"cp_dustbowl","folder":"tf","game":"Team Fortress","app_id":440,"player_count":24,"max_players":24,"Bots":0,"server_type":"Dedicated","server_os":"Linux","password":true,"vac":true,"version":"7961495","steam_id":85568392924469982,"keywords":["cp","nocrits","nodmgspread","uncletopia"],"game_id":440,"stv_port":27016,"stv_name":"Uncletopia | Atlanta | 1 | All Maps | STV","players":null},{"server_id":104,"name":"Uncletopia | Atlanta | 2 | All Maps","name_short":"atl-2","host":"atl-1.us.uncletopia.com","port":27025,"enabled":true,"region":"us-east","cc":"us","latitude":33.753746,"longitude":-84.38633,"reserved":0,"last_update":"0001-01-01T00:00:00Z","name_a2s":"Uncletopia | Atlanta | 2 | All Maps","protocol":17,"map":"cp_mountainlab","folder":"tf","game":"Team Fortress","app_id":440,"player_count":24,"max_players":24,"Bots":0,"server_type":"Dedicated","server_os":"Linux","password":true,"vac":true,"version":"7961495","steam_id":85568392924469983,"keywords":["cp","nocrits","nodmgspread","uncletopia"],"game_id":440,"stv_port":27026,"stv_name":"Uncletopia | Atlanta | 2 | All Maps | STV","players":null},{"server_id":400,"name":"Uncletopia | Atlanta | 3 | Stopwatch","name_short":"atl-3","host":"atl-1.us.uncletopia.com","port":27035,"enabled":true,"region":"us-east","cc":"us","latitude":33.753746,"longitude":-84.38633,"reserved":0,"last_update":"0001-01-01T00:00:00Z","name_a2s":"Uncletopia | Atlanta | 3 | Stopwatch","protocol":17,"map":"pl_badwater","folder":"tf","game":"Team Fortress","app_id":440,"player_count":0,"max_players":24,"Bots":0,"server_type":"Dedicated","server_os":"Linux","password":true,"vac":true,"version":"7961495","steam_id":85568392924515187,"keywords":["nocrits","nodmgspread","payload","uncletopia"],"game_id":440,"stv_port":27036,"stv_name":"Uncletopia | Atlanta | 3 | Stopwatch | STV","players":null},{"server_id":401,"name":"Uncletopia | Atlanta | 4 | Community","name_short":"atl-4","host":"atl-1.us.uncletopia.com","port":27045,"enabled":true,"region":"us-east","cc":"us","latitude":33.753746,"longitude":-84.38633,"reserved":0,"last_update":"0001-01-01T00:00:00Z","name_a2s":"Uncletopia | Atlanta | 4 | Community","protocol":17,"map":"cp_alloy_rc3","folder":"tf","game":"Team Fortress","app_id":440,"player_count":0,"max_players":24,"Bots":0,"server_type":"Dedicated","server_os":"Linux","password":true,"vac":true,"version":"7961495","steam_id":85568392924515188,"keywords":["cp","nocrits","nodmgspread","uncletopia"],"game_id":440,"stv_port":27046,"stv_name":"Uncletopia | Atlanta | 4 | Community | STV","players":null},{"server_id":2,"name":"Uncletopia | Chicago | 1 | All Maps","name_short":"chi-1","host":"chi-1.us.uncletopia.com","port":27015,"enabled":true,"region":"us-central","cc":"us","latitude":41.881832,"longitude":-87.62318,"reserved":0,"last_update":"0001-01-01T00:00:00Z","name_a2s":"Uncletopia | Chicago | 1 | All Maps","protocol":17,"map":"cp_steel","folder":"tf","game":"Team Fortress","app_id":440,"player_count":23,"max_players":24,"Bots":0,"server_type":"Dedicated","server_os":"Linux","password":true,"vac":true,"version":"7961495","steam_id":85568392924469984,"keywords":["cp","nocrits","nodmgspread","uncletopia"],"game_id":440,"stv_port":27016,"stv_name":"Uncletopia | Chicago | 1 | All Maps | STV","players":[{"user_id":791,"name":"Wolffkran","steam_id":76561198003018041,"connected_time":3068000000000,"state":"active","ping":101},{"user_id":822,"name":"unlucky bastard","steam_id":76561199216874750,"connected_time":14000000000,"state":"active","ping":51},{"user_id":803,"name":"HOTA","steam_id":76561199002778841,"connected_time":2099000000000,"state":"active","ping":62},{"user_id":819,"name":"Toxic Ron","steam_id":76561198089302972,"connected_time":180000000000,"state":"active","ping":60},{"user_id":807,"name":"pepsi","steam_id":76561198843190923,"connected_time":1659000000000,"state":"spawning","ping":45},{"user_id":817,"name":"Mr. Daft Punk II","steam_id":76561198414538682,"connected_time":630000000000,"state":"spawning","ping":124},{"user_id":806,"name":"Trader Yohan","steam_id":76561198048956010,"connected_time":1734000000000,"state":"active","ping":112},{"user_id":786,"name":"King Crust of Crustmus","steam_id":76561198160930421,"connected_time":3374000000000,"state":"active","ping":67},{"user_id":744,"name":"Boxpipe","steam_id":76561197964501915,"connected_time":6559000000000,"state":"active","ping":45},{"user_id":814,"name":"PitocoHery","steam_id":76561198814499824,"connected_time":1139000000000,"state":"active","ping":182},{"user_id":815,"name":"Keymaster","steam_id":76561198881514228,"connected_time":1098000000000,"state":"active","ping":82},{"user_id":799,"name":"fried rice","steam_id":76561198928939100,"connected_time":2834000000000,"state":"active","ping":81},{"user_id":810,"name":"jan kili","steam_id":76561198289894834,"connected_time":1573000000000,"state":"spawning","ping":65},{"user_id":800,"name":"firetruck","steam_id":76561198074188404,"connected_time":2833000000000,"state":"active","ping":76},{"user_id":823,"name":"vv","steam_id":76561198134813102,"connected_time":7000000000,"state":"spawning","ping":50},{"user_id":821,"name":"daffodil","steam_id":76561198049480053,"connected_time":52000000000,"state":"active","ping":60},{"user_id":805,"name":"Meat_fungus","steam_id":76561199474196933,"connected_time":2088000000000,"state":"active","ping":72},{"user_id":788,"name":"Your Local Queer Librarian","steam_id":76561198013077080,"connected_time":3103000000000,"state":"active","ping":53},{"user_id":678,"name":"Keegs","steam_id":76561198346917831,"connected_time":12287000000000,"state":"active","ping":44},{"user_id":816,"name":"Data","steam_id":76561197996329548,"connected_time":1083000000000,"state":"active","ping":70},{"user_id":772,"name":"Milkmur","steam_id":76561198210043821,"connected_time":4020000000000,"state":"active","ping":64},{"user_id":796,"name":"funkeymonkey15","steam_id":76561198930961042,"connected_time":3031000000000,"state":"active","ping":90},{"user_id":702,"name":"feudal","steam_id":76561198057374871,"connected_time":9407000000000,"state":"active","ping":56}]},{"server_id":106,"name":"Uncletopia | Chicago | 2 | All Maps","name_short":"chi-2","host":"chi-1.us.uncletopia.com","port":27025,"enabled":true,"region":"us-central","cc":"us","latitude":41.881832,"longitude":-87.62318,"reserved":0,"last_update":"0001-01-01T00:00:00Z","name_a2s":"Uncletopia | Chicago | 2 | All Maps","protocol":17,"map":"pl_badwater","folder":"tf","game":"Team Fortress","app_id":440,"player_count":24,"max_players":24,"Bots":0,"server_type":"Dedicated","server_os":"Linux","password":true,"vac":true,"version":"7961495","steam_id":85568392924469985,"keywords":["nocrits","nodmgspread","payload","uncletopia"],"game_id":440,"stv_port":27026,"stv_name":"Uncletopia | Chicago | 2 | All Maps | STV","players":[{"user_id":272,"name":"Tom","steam_id":76561198139202942,"connected_time":897000000000,"state":"active","ping":78},{"user_id":289,"name":"rock raiders enjoyer","steam_id":76561198139718219,"connected_time":172000000000,"state":"active","ping":71},{"user_id":277,"name":"Seskova","steam_id":76561198090207032,"connected_time":766000000000,"state":"active","ping":110},{"user_id":290,"name":"reis","steam_id":76561199232952016,"connected_time":56000000000,"state":"active","ping":179},{"user_id":252,"name":"howiredot","steam_id":76561198256931961,"connected_time":1703000000000,"state":"active","ping":60},{"user_id":249,"name":"XeroDollars","steam_id":76561198137858047,"connected_time":2107000000000,"state":"active","ping":66},{"user_id":286,"name":"Hud","steam_id":76561198146122110,"connected_time":373000000000,"state":"active","ping":60},{"user_id":275,"name":"Generator","steam_id":76561198011762257,"connected_time":835000000000,"state":"active","ping":123},{"user_id":267,"name":"SC|Formuoli","steam_id":76561198254354595,"connected_time":1188000000000,"state":"active","ping":30},{"user_id":239,"name":"WheelockWarlock","steam_id":76561198171456553,"connected_time":2643000000000,"state":"active","ping":85},{"user_id":280,"name":"SomeRandomCat","steam_id":76561199107044061,"connected_time":742000000000,"state":"active","ping":72},{"user_id":287,"name":"bee","steam_id":76561198025553902,"connected_time":292000000000,"state":"active","ping":45},{"user_id":253,"name":"TheConchinator","steam_id":76561199388149092,"connected_time":1649000000000,"state":"active","ping":63},{"user_id":288,"name":"Severeburrito16","steam_id":76561198353155991,"connected_time":290000000000,"state":"active","ping":75},{"user_id":246,"name":"the zoo","steam_id":76561198013732450,"connected_time":2521000000000,"state":"active","ping":54},{"user_id":227,"name":"Gibus","steam_id":76561198348883814,"connected_time":3894000000000,"state":"active","ping":60},{"user_id":270,"name":"Mecha","steam_id":76561198014927379,"connected_time":974000000000,"state":"active","ping":65},{"user_id":283,"name":"interloper","steam_id":76561198042518244,"connected_time":664000000000,"state":"active","ping":103},{"user_id":262,"name":"Amari","steam_id":76561198272446730,"connected_time":1434000000000,"state":"active","ping":53},{"user_id":282,"name":"Tis_Me_Hacksoulslayer1","steam_id":76561198340064206,"connected_time":715000000000,"state":"active","ping":78},{"user_id":284,"name":"c64guy","steam_id":76561198023022744,"connected_time":580000000000,"state":"active","ping":60},{"user_id":292,"name":"dipp","steam_id":76561198395577807,"connected_time":3000000000,"state":"spawning","ping":67},{"user_id":261,"name":"Alecto","steam_id":76561198042476864,"connected_time":1489000000000,"state":"active","ping":46},{"user_id":269,"name":"MrDuck","steam_id":76561199194675734,"connected_time":1163000000000,"state":"active","ping":70}]},{"server_id":402,"name":"Uncletopia | Chicago | 3 | All Maps","name_short":"chi-3","host":"chi-1.us.uncletopia.com","port":27035,"enabled":true,"region":"us-central","cc":"us","latitude":41.881832,"longitude":-87.62318,"reserved":0,"last_update":"0001-01-01T00:00:00Z","name_a2s":"Uncletopia | Chicago | 3 | All Maps","protocol":17,"map":"cp_dustbowl","folder":"tf","game":"Team Fortress","app_id":440,"player_count":20,"max_players":24,"Bots":0,"server_type":"Dedicated","server_os":"Linux","password":true,"vac":true,"version":"7961495","steam_id":85568392924515191,"keywords":["cp","nocrits","nodmgspread","uncletopia"],"game_id":440,"stv_port":27036,"stv_name":"Uncletopia | Chicago | 3 | All Maps | STV","players":[{"user_id":237,"name":"Pawn Cushman","steam_id":76561198221635676,"connected_time":148000000000,"state":"active","ping":65},{"user_id":186,"name":"HollyBlocky","steam_id":76561198030156100,"connected_time":5249000000000,"state":"active","ping":68},{"user_id":240,"name":"newgrounds1004","steam_id":76561199471951160,"connected_time":103000000000,"state":"active","ping":73},{"user_id":241,"name":"Winter the Witchie","steam_id":76561198151971178,"connected_time":102000000000,"state":"active","ping":61},{"user_id":189,"name":"puppy :3","steam_id":76561198011196264,"connected_time":5216000000000,"state":"active","ping":43},{"user_id":233,"name":"he munch","steam_id":76561198339644583,"connected_time":1003000000000,"state":"active","ping":57},{"user_id":209,"name":"pimbo jingus","steam_id":76561198275343583,"connected_time":3799000000000,"state":"active","ping":66},{"user_id":157,"name":"RandomRainbow","steam_id":76561199107573588,"connected_time":8628000000000,"state":"active","ping":46},{"user_id":242,"name":"Poop Deck Joe","steam_id":76561198271397568,"connected_time":36000000000,"state":"active","ping":87},{"user_id":227,"name":"frenemy","steam_id":76561198011363677,"connected_time":1552000000000,"state":"active","ping":47},{"user_id":210,"name":"serialnumber435","steam_id":76561199466187650,"connected_time":3763000000000,"state":"active","ping":150},{"user_id":231,"name":"Toottoot","steam_id":76561197992404836,"connected_time":1299000000000,"state":"active","ping":46},{"user_id":238,"name":"D","steam_id":76561198130086000,"connected_time":140000000000,"state":"active","ping":106},{"user_id":196,"name":"Fiendish Frog","steam_id":76561198029478821,"connected_time":5043000000000,"state":"active","ping":73},{"user_id":211,"name":"og biden pack cart","steam_id":76561198253731826,"connected_time":3662000000000,"state":"active","ping":62},{"user_id":230,"name":"xXBongRipper420Xx","steam_id":76561198199344313,"connected_time":1423000000000,"state":"active","ping":120},{"user_id":222,"name":"Rornir","steam_id":76561198081829615,"connected_time":2810000000000,"state":"active","ping":34},{"user_id":184,"name":"rickyrickyricky","steam_id":76561198041765918,"connected_time":5498000000000,"state":"active","ping":115},{"user_id":229,"name":"Ludens","steam_id":76561198044423822,"connected_time":1509000000000,"state":"active","ping":78},{"user_id":216,"name":"roast pig with apple in mouth","steam_id":76561198051353647,"connected_time":3154000000000,"state":"active","ping":64}]},{"server_id":403,"name":"Uncletopia | Chicago | 4 | All Maps","name_short":"chi-4","host":"chi-1.us.uncletopia.com","port":27045,"enabled":true,"region":"us-central","cc":"us","latitude":41.881832,"longitude":-87.62318,"reserved":0,"last_update":"0001-01-01T00:00:00Z","name_a2s":"Uncletopia | Chicago | 4 | All Maps","protocol":17,"map":"cp_snakewater_final1","folder":"tf","game":"Team Fortress","app_id":440,"player_count":5,"max_players":24,"Bots":0,"server_type":"Dedicated","server_os":"Linux","password":true,"vac":true,"version":"7961495","steam_id":85568392924515193,"keywords":["cp","nocrits","nodmgspread","uncletopia"],"game_id":440,"stv_port":27046,"stv_name":"Uncletopia | Chicago | 4 | All Maps | STV","players":[{"user_id":14,"name":"Tri-Dot","steam_id":76561199075186597,"connected_time":491000000000,"state":"active","ping":57},{"user_id":15,"name":"rin","steam_id":76561198155841915,"connected_time":369000000000,"state":"active","ping":61},{"user_id":16,"name":"birdhouse in your soul","steam_id":76561198105515914,"connected_time":59000000000,"state":"active","ping":45},{"user_id":17,"name":"Halibard","steam_id":76561198011239659,"connected_time":53000000000,"state":"active","ping":64},{"user_id":18,"name":"Rawhate","steam_id":76561198079736945,"connected_time":33000000000,"state":"active","ping":61}]},{"server_id":36,"name":"Uncletopia | Chicago | 5 | All Maps","name_short":"chi-5","host":"chi-2.us.uncletopia.com","port":27015,"enabled":true,"region":"us-central","cc":"us","latitude":41.881832,"longitude":-87.62318,"reserved":0,"last_update":"0001-01-01T00:00:00Z","name_a2s":"Uncletopia | Chicago | 5 | All Maps","protocol":17,"map":"pl_upward","folder":"tf","game":"Team Fortress","app_id":440,"player_count":23,"max_players":24,"Bots":0,"server_type":"Dedicated","server_os":"Linux","password":true,"vac":true,"version":"7961495","steam_id":85568392924866362,"keywords":["nocrits","nodmgspread","payload","uncletopia"],"game_id":440,"stv_port":27016,"stv_name":"Uncletopia | Chicago | 5 | All Maps | STV","players":[{"user_id":40,"name":"think about it","steam_id":76561198241948526,"connected_time":1539000000000,"state":"active","ping":61},{"user_id":48,"name":"MagFoxx","steam_id":76561198994002105,"connected_time":699000000000,"state":"active","ping":83},{"user_id":15,"name":"saturn eating his own ass","steam_id":76561198016826181,"connected_time":2322000000000,"state":"active","ping":72},{"user_id":59,"name":"aaron","steam_id":76561198113364714,"connected_time":169000000000,"state":"active","ping":60},{"user_id":58,"name":"mudkippers","steam_id":76561199388123242,"connected_time":190000000000,"state":"active","ping":53},{"user_id":50,"name":"jeff","steam_id":76561198059450566,"connected_time":676000000000,"state":"active","ping":63},{"user_id":51,"name":"Wicket","steam_id":76561198044023036,"connected_time":657000000000,"state":"active","ping":46},{"user_id":61,"name":"wahooka","steam_id":76561197981211922,"connected_time":143000000000,"state":"active","ping":69},{"user_id":22,"name":"Primeagen tf2 vimlike in 30 min","steam_id":76561198268348324,"connected_time":1973000000000,"state":"active","ping":105},{"user_id":23,"name":"Rogurts","steam_id":76561198087665145,"connected_time":1967000000000,"state":"active","ping":59},{"user_id":24,"name":"DustyGlare","steam_id":76561198216765672,"connected_time":1952000000000,"state":"active","ping":63},{"user_id":42,"name":"Hot Milk + Big Slappies","steam_id":76561197988989149,"connected_time":1454000000000,"state":"active","ping":85},{"user_id":47,"name":"ThePatheticMedic","steam_id":76561198873083105,"connected_time":792000000000,"state":"active","ping":65},{"user_id":57,"name":"Crowvette","steam_id":76561198000457496,"connected_time":210000000000,"state":"active","ping":90},{"user_id":29,"name":"hoOmIN","steam_id":76561198334947079,"connected_time":1882000000000,"state":"active","ping":90},{"user_id":30,"name":"Peiran","steam_id":76561199073582682,"connected_time":1852000000000,"state":"active","ping":82},{"user_id":62,"name":"oppenheimer style","steam_id":76561198026664629,"connected_time":85000000000,"state":"active","ping":59},{"user_id":53,"name":"Pan Wizard","steam_id":76561198031939694,"connected_time":656000000000,"state":"active","ping":81},{"user_id":33,"name":"PhaserLazer","steam_id":76561198407341298,"connected_time":1823000000000,"state":"active","ping":72},{"user_id":56,"name":"arsenicCatnip","steam_id":76561198322969864,"connected_time":537000000000,"state":"active","ping":85},{"user_id":36,"name":"Cute Little Femboy :3","steam_id":76561199280564132,"connected_time":1795000000000,"state":"active","ping":43},{"user_id":37,"name":"incredirocks","steam_id":76561198061079993,"connected_time":1785000000000,"state":"active","ping":46},{"user_id":44,"name":"Roz257","steam_id":76561198842844532,"connected_time":1335000000000,"state":"active","ping":63}]},{"server_id":37,"name":"Uncletopia | Chicago | 6 | All Maps","name_short":"chi-6","host":"chi-2.us.uncletopia.com","port":27025,"enabled":true,"region":"us-central","cc":"us","latitude":41.881832,"longitude":-87.62318,"reserved":0,"last_update":"0001-01-01T00:00:00Z","name_a2s":"Uncletopia | Chicago | 6 | All Maps","protocol":17,"map":"cp_sunshine","folder":"tf","game":"Team Fortress","app_id":440,"player_count":24,"max_players":24,"Bots":0,"server_type":"Dedicated","server_os":"Linux","password":true,"vac":true,"version":"7961495","steam_id":85568392924866363,"keywords":["cp","nocrits","nodmgspread","uncletopia"],"game_id":440,"stv_port":27026,"stv_name":"Uncletopia | Chicago | 6 | All Maps | STV","players":[{"user_id":128,"name":"al.vasiglev","steam_id":76561198307359545,"connected_time":694000000000,"state":"active","ping":129},{"user_id":111,"name":"Oxygen User","steam_id":76561199111975528,"connected_time":2196000000000,"state":"active","ping":101},{"user_id":15,"name":"Eviscerator","steam_id":76561197980073637,"connected_time":8273000000000,"state":"active","ping":68},{"user_id":124,"name":"Shitsack the Indomitable","steam_id":76561198408159536,"connected_time":885000000000,"state":"active","ping":52},{"user_id":123,"name":"marty","steam_id":76561198032782746,"connected_time":916000000000,"state":"active","ping":83},{"user_id":104,"name":"Samercam","steam_id":76561198189403190,"connected_time":2759000000000,"state":"active","ping":46},{"user_id":91,"name":"Chernov","steam_id":76561198014463424,"connected_time":3250000000000,"state":"active","ping":57},{"user_id":130,"name":"musicforthemind123","steam_id":76561198329409923,"connected_time":199000000000,"state":"active","ping":85},{"user_id":22,"name":"InchMan","steam_id":76561198272658825,"connected_time":7977000000000,"state":"active","ping":84},{"user_id":90,"name":"Ikalpo","steam_id":76561198044686915,"connected_time":3580000000000,"state":"active","ping":102},{"user_id":125,"name":"A jpeg of Robert Downey Jr","steam_id":76561198993010853,"connected_time":748000000000,"state":"active","ping":72},{"user_id":56,"name":"rum","steam_id":76561198465334150,"connected_time":7239000000000,"state":"active","ping":80},{"user_id":118,"name":"scott7540","steam_id":76561198065859171,"connected_time":1464000000000,"state":"active","ping":43},{"user_id":129,"name":"rigatoniashes","steam_id":76561198285819311,"connected_time":665000000000,"state":"active","ping":95},{"user_id":131,"name":"Nexusuxen","steam_id":76561198117547131,"connected_time":157000000000,"state":"active","ping":72},{"user_id":116,"name":"FaZe hyaz (like to meow.. ALOT)","steam_id":76561199100342013,"connected_time":1992000000000,"state":"active","ping":92},{"user_id":133,"name":"leaving lunar orbit","steam_id":76561199085974120,"connected_time":13000000000,"state":"active","ping":85},{"user_id":100,"name":"flappyflap2","steam_id":76561198285048973,"connected_time":3036000000000,"state":"active","ping":61},{"user_id":117,"name":"Frisbee","steam_id":76561197962808987,"connected_time":1914000000000,"state":"active","ping":60},{"user_id":127,"name":"dansal","steam_id":76561197997042510,"connected_time":732000000000,"state":"active","ping":84},{"user_id":75,"name":"Godmode","steam_id":76561198076240365,"connected_time":5442000000000,"state":"active","ping":67},{"user_id":120,"name":"WADE BOGGS","steam_id":76561199497207470,"connected_time":1437000000000,"state":"active","ping":100},{"user_id":46,"name":"Beany","steam_id":76561198102299438,"connected_time":7485000000000,"state":"active","ping":67},{"user_id":121,"name":"Ax0L_","steam_id":76561199008960175,"connected_time":1404000000000,"state":"active","ping":49}]},{"server_id":38,"name":"Uncletopia | Chicago | 7 | Stopwatch","name_short":"chi-7","host":"chi-2.us.uncletopia.com","port":27035,"enabled":true,"region":"us-central","cc":"us","latitude":41.881832,"longitude":-87.62318,"reserved":0,"last_update":"0001-01-01T00:00:00Z","name_a2s":"Uncletopia | Chicago | 7 | Stopwatch","protocol":17,"map":"pl_badwater","folder":"tf","game":"Team Fortress","app_id":440,"player_count":0,"max_players":24,"Bots":0,"server_type":"Dedicated","server_os":"Linux","password":true,"vac":true,"version":"7961495","steam_id":85568392924866364,"keywords":["nocrits","nodmgspread","payload","uncletopia"],"game_id":440,"stv_port":27036,"stv_name":"Uncletopia | Chicago | 7 | Stopwatch | STV","players":null},{"server_id":39,"name":"Uncletopia | Chicago | 8 | Community","name_short":"chi-8","host":"chi-2.us.uncletopia.com","port":27045,"enabled":true,"region":"us-central","cc":"us","latitude":41.881832,"longitude":-87.62318,"reserved":0,"last_update":"0001-01-01T00:00:00Z","name_a2s":"Uncletopia | Chicago | 8 | Community","protocol":17,"map":"workshop/koth_synthetic_rc6a.ugc1549817316","folder":"tf","game":"Team Fortress","app_id":440,"player_count":2,"max_players":24,"Bots":0,"server_type":"Dedicated","server_os":"Linux","password":true,"vac":true,"version":"7961495","steam_id":85568392924866365,"keywords":["cp","nocrits","nodmgspread","uncletopia"],"game_id":440,"stv_port":27046,"stv_name":"Uncletopia | Chicago | 8 | Community | STV","players":[{"user_id":7,"name":"Themarinaraman","steam_id":76561198819873321,"connected_time":2265000000000,"state":"active","ping":68},{"user_id":8,"name":"3masterotha","steam_id":76561199382332116,"connected_time":2245000000000,"state":"active","ping":71}]},{"server_id":8,"name":"Uncletopia | Dallas | 1 | All Maps","name_short":"dal-1","host":"dal-1.us.uncletopia.com","port":27015,"enabled":true,"region":"us-central","cc":"us","latitude":32.779167,"longitude":-96.80889,"reserved":0,"last_update":"0001-01-01T00:00:00Z","name_a2s":"Uncletopia | Dallas | 1 | All Maps","protocol":17,"map":"cp_sunshine","folder":"tf","game":"Team Fortress","app_id":440,"player_count":22,"max_players":24,"Bots":0,"server_type":"Dedicated","server_os":"Linux","password":true,"vac":true,"version":"7961495","steam_id":85568392924469986,"keywords":["cp","nocrits","nodmgspread","uncletopia"],"game_id":440,"stv_port":27016,"stv_name":"Uncletopia | Dallas | 1 | All Maps | STV","players":[{"user_id":199,"name":"Darling","steam_id":76561198127525888,"connected_time":263000000000,"state":"active","ping":45},{"user_id":145,"name":"Niko","steam_id":76561198185806553,"connected_time":4738000000000,"state":"active","ping":53},{"user_id":125,"name":"Soap","steam_id":76561197994893383,"connected_time":5862000000000,"state":"active","ping":71},{"user_id":116,"name":"finger","steam_id":76561198068558572,"connected_time":7121000000000,"state":"active","ping":67},{"user_id":191,"name":"maximusbabaximus","steam_id":76561198419378913,"connected_time":827000000000,"state":"active","ping":100},{"user_id":176,"name":"Spare(8)Ball","steam_id":76561197982432995,"connected_time":1565000000000,"state":"active","ping":91},{"user_id":177,"name":"Discourse","steam_id":76561198984286678,"connected_time":1451000000000,"state":"active","ping":81},{"user_id":178,"name":"Detrimental","steam_id":76561199152388008,"connected_time":1450000000000,"state":"active","ping":79},{"user_id":185,"name":"meggie","steam_id":76561198038291026,"connected_time":1232000000000,"state":"active","ping":36},{"user_id":156,"name":"corviraptor (\u003c--- awesome)","steam_id":76561198058284392,"connected_time":3791000000000,"state":"active","ping":55},{"user_id":198,"name":"Cash MoneyBlue","steam_id":76561198934825927,"connected_time":352000000000,"state":"active","ping":88},{"user_id":158,"name":"dog","steam_id":76561198263873491,"connected_time":3734000000000,"state":"active","ping":60},{"user_id":138,"name":"Bobby Ray","steam_id":76561198044131188,"connected_time":4906000000000,"state":"active","ping":75},{"user_id":192,"name":"Crack Addict","steam_id":76561198166681494,"connected_time":627000000000,"state":"active","ping":45},{"user_id":159,"name":"Tomato","steam_id":76561197996472649,"connected_time":3733000000000,"state":"active","ping":89},{"user_id":172,"name":"denzell05","steam_id":76561198086987061,"connected_time":2579000000000,"state":"active","ping":84},{"user_id":180,"name":"howie","steam_id":76561198108685037,"connected_time":1416000000000,"state":"active","ping":65},{"user_id":193,"name":"Shipmunk","steam_id":76561198063062670,"connected_time":583000000000,"state":"active","ping":83},{"user_id":170,"name":"Glaceon","steam_id":76561198177715869,"connected_time":2902000000000,"state":"active","ping":68},{"user_id":150,"name":"FanaticSalt","steam_id":76561199380123059,"connected_time":4122000000000,"state":"active","ping":51},{"user_id":197,"name":"_Ati","steam_id":76561198339777801,"connected_time":363000000000,"state":"active","ping":86},{"user_id":202,"name":"hl3 hot gay sex","steam_id":76561199122281764,"connected_time":197000000000,"state":"active","ping":77}]},{"server_id":108,"name":"Uncletopia | Dallas | 2 | All Maps","name_short":"dal-2","host":"dal-1.us.uncletopia.com","port":27025,"enabled":true,"region":"us-central","cc":"us","latitude":32.779167,"longitude":-96.80889,"reserved":0,"last_update":"0001-01-01T00:00:00Z","name_a2s":"Uncletopia | Dallas | 2 | All Maps","protocol":17,"map":"pl_upward","folder":"tf","game":"Team Fortress","app_id":440,"player_count":21,"max_players":24,"Bots":0,"server_type":"Dedicated","server_os":"Linux","password":true,"vac":true,"version":"7961495","steam_id":85568392924469988,"keywords":["nocrits","nodmgspread","payload","uncletopia"],"game_id":440,"stv_port":27026,"stv_name":"Uncletopia | Dallas | 2 | All Maps | STV","players":[{"user_id":71,"name":"HUESO","steam_id":76561198276383681,"connected_time":3537000000000,"state":"active","ping":87},{"user_id":109,"name":"y","steam_id":76561198304265800,"connected_time":212000000000,"state":"active","ping":73},{"user_id":106,"name":"Carbonated Cocaine","steam_id":76561198110678966,"connected_time":452000000000,"state":"active","ping":51},{"user_id":104,"name":"Elm","steam_id":76561198127972568,"connected_time":908000000000,"state":"active","ping":85},{"user_id":78,"name":"Gamerfan64","steam_id":76561198801410962,"connected_time":3032000000000,"state":"active","ping":38},{"user_id":88,"name":"Shalom","steam_id":76561198410005222,"connected_time":2488000000000,"state":"active","ping":61},{"user_id":110,"name":"Melaza Madera","steam_id":76561199031977210,"connected_time":190000000000,"state":"active","ping":67},{"user_id":117,"name":"Your Dad™","steam_id":76561198254739340,"connected_time":28000000000,"state":"spawning","ping":78},{"user_id":112,"name":"Momazos","steam_id":76561198346410032,"connected_time":172000000000,"state":"active","ping":84},{"user_id":111,"name":"Thunder","steam_id":76561198097721532,"connected_time":176000000000,"state":"active","ping":75},{"user_id":113,"name":"sketchy","steam_id":76561198827076523,"connected_time":125000000000,"state":"active","ping":92},{"user_id":114,"name":"turnip","steam_id":76561197999375941,"connected_time":110000000000,"state":"active","ping":55},{"user_id":115,"name":"Freyja","steam_id":76561198207412177,"connected_time":97000000000,"state":"active","ping":70},{"user_id":100,"name":"Major Woody","steam_id":76561198835541533,"connected_time":1258000000000,"state":"active","ping":62},{"user_id":94,"name":"ВꙮЛК","steam_id":76561198198717582,"connected_time":1719000000000,"state":"active","ping":72},{"user_id":103,"name":"sex enjoyer","steam_id":76561198106320012,"connected_time":950000000000,"state":"active","ping":78},{"user_id":95,"name":"Jimbobmeboy","steam_id":76561198148317197,"connected_time":1693000000000,"state":"active","ping":87},{"user_id":99,"name":"ʏᴜᴊɪ","steam_id":76561198401572620,"connected_time":1284000000000,"state":"active","ping":84},{"user_id":105,"name":"MY LOVE DRIPS IN RED","steam_id":76561198072179483,"connected_time":605000000000,"state":"active","ping":114},{"user_id":108,"name":"Melon Keller","steam_id":76561198127426615,"connected_time":299000000000,"state":"active","ping":89},{"user_id":98,"name":"Jack the Dripper","steam_id":76561198043911582,"connected_time":1462000000000,"state":"active","ping":88}]},{"server_id":404,"name":"Uncletopia | Dallas | 3 | All Maps","name_short":"dal-3","host":"dal-1.us.uncletopia.com","port":27035,"enabled":true,"region":"us-central","cc":"us","latitude":32.779167,"longitude":-96.80889,"reserved":0,"last_update":"0001-01-01T00:00:00Z","name_a2s":"Uncletopia | Dallas | 3 | All Maps","protocol":17,"map":"cp_sunshine","folder":"tf","game":"Team Fortress","app_id":440,"player_count":24,"max_players":24,"Bots":0,"server_type":"Dedicated","server_os":"Linux","password":true,"vac":true,"version":"7961495","steam_id":85568392924515219,"keywords":["cp","nocrits","nodmgspread","uncletopia"],"game_id":440,"stv_port":27036,"stv_name":"Uncletopia | Dallas | 3 | All Maps | STV","players":[{"user_id":426,"name":"LILGI4THAW","steam_id":76561198403803842,"connected_time":487000000000,"state":"active","ping":109},{"user_id":407,"name":"Bhutch","steam_id":76561198145654275,"connected_time":1733000000000,"state":"active","ping":72},{"user_id":406,"name":"Fostrel","steam_id":76561198152160601,"connected_time":1752000000000,"state":"active","ping":53},{"user_id":435,"name":"♥♡∞iMaCH∞♡♥","steam_id":76561198820527565,"connected_time":139000000000,"state":"active","ping":93},{"user_id":413,"name":"beans","steam_id":76561199082781884,"connected_time":1042000000000,"state":"active","ping":52},{"user_id":427,"name":"jimmz","steam_id":76561199076776118,"connected_time":467000000000,"state":"active","ping":97},{"user_id":432,"name":"King Cotton","steam_id":76561198292444376,"connected_time":319000000000,"state":"active","ping":69},{"user_id":405,"name":"Orang Sicle","steam_id":76561198363050210,"connected_time":1826000000000,"state":"active","ping":64},{"user_id":408,"name":"noelle","steam_id":76561198159622003,"connected_time":1718000000000,"state":"active","ping":94},{"user_id":424,"name":"BackToSchoolAds","steam_id":76561198870281128,"connected_time":667000000000,"state":"active","ping":105},{"user_id":409,"name":"cozy","steam_id":76561199044037628,"connected_time":1693000000000,"state":"active","ping":89},{"user_id":422,"name":"Shaso1008","steam_id":76561198111957006,"connected_time":779000000000,"state":"active","ping":95},{"user_id":434,"name":"transgender communist","steam_id":76561198189664639,"connected_time":170000000000,"state":"active","ping":95},{"user_id":425,"name":"Rob","steam_id":76561199187786660,"connected_time":655000000000,"state":"active","ping":56},{"user_id":383,"name":"alien","steam_id":76561198007464245,"connected_time":3183000000000,"state":"active","ping":74},{"user_id":436,"name":"Salt","steam_id":76561198418001135,"connected_time":138000000000,"state":"active","ping":69},{"user_id":401,"name":"Vriska","steam_id":76561198942104681,"connected_time":2242000000000,"state":"active","ping":99},{"user_id":411,"name":"bbcf keeps crashing","steam_id":76561198303948269,"connected_time":1655000000000,"state":"active","ping":88},{"user_id":437,"name":"weeb","steam_id":76561199125254477,"connected_time":13000000000,"state":"active","ping":92},{"user_id":433,"name":"big fish","steam_id":76561198186479818,"connected_time":297000000000,"state":"active","ping":85},{"user_id":397,"name":"Mi cara","steam_id":76561198190771759,"connected_time":2632000000000,"state":"active","ping":105},{"user_id":431,"name":"Mer","steam_id":76561198192171041,"connected_time":431000000000,"state":"active","ping":116},{"user_id":404,"name":"small meth pouch","steam_id":76561198130412963,"connected_time":1997000000000,"state":"active","ping":67},{"user_id":399,"name":"opossum","steam_id":76561198148905570,"connected_time":2568000000000,"state":"active","ping":74}]},{"server_id":405,"name":"Uncletopia | Dallas | 4 | Community","name_short":"dal-4","host":"dal-1.us.uncletopia.com","port":27045,"enabled":true,"region":"us-central","cc":"us","latitude":32.779167,"longitude":-96.80889,"reserved":0,"last_update":"0001-01-01T00:00:00Z","name_a2s":"Uncletopia | Dallas | 4 | Community","protocol":17,"map":"workshop/koth_ashville_final.ugc2130459942","folder":"tf","game":"Team Fortress","app_id":440,"player_count":0,"max_players":24,"Bots":0,"server_type":"Dedicated","server_os":"Linux","password":true,"vac":true,"version":"7961495","steam_id":85568392924515220,"keywords":["cp","nocrits","nodmgspread","uncletopia"],"game_id":440,"stv_port":27046,"stv_name":"Uncletopia | Dallas | 4 | Community | STV","players":null},{"server_id":5,"name":"Uncletopia | Frankfurt | 1 | All Maps","name_short":"frk-1","host":"frk-1.de.uncletopia.com","port":27015,"enabled":true,"region":"eu","cc":"de","latitude":50.110924,"longitude":8.682127,"reserved":0,"last_update":"0001-01-01T00:00:00Z","name_a2s":"Uncletopia | Frankfurt | 1 | All Maps","protocol":17,"map":"pl_swiftwater_final1","folder":"tf","game":"Team Fortress","app_id":440,"player_count":14,"max_players":24,"Bots":0,"server_type":"Dedicated","server_os":"Linux","password":true,"vac":true,"version":"7961495","steam_id":85568392924469989,"keywords":["nocrits","nodmgspread","payload","uncletopia"],"game_id":440,"stv_port":27016,"stv_name":"Uncletopia | Frankfurt | 1 | All Maps | STV","players":[{"user_id":729,"name":"Ace","steam_id":76561198162550368,"connected_time":70000000000,"state":"active","ping":164},{"user_id":691,"name":"ashley","steam_id":76561198448551449,"connected_time":3979000000000,"state":"active","ping":45},{"user_id":696,"name":"⭐Bv","steam_id":76561198048943710,"connected_time":2688000000000,"state":"active","ping":45},{"user_id":728,"name":"ProfW","steam_id":76561198078456183,"connected_time":322000000000,"state":"active","ping":72},{"user_id":731,"name":"Jatotz","steam_id":76561198317467283,"connected_time":18000000000,"state":"active","ping":173},{"user_id":720,"name":"Walter White's wrinkled forehea","steam_id":76561198360921840,"connected_time":891000000000,"state":"active","ping":112},{"user_id":698,"name":"lexi ★","steam_id":76561198988695461,"connected_time":2658000000000,"state":"active","ping":64},{"user_id":715,"name":"TilkiLee","steam_id":76561199108512265,"connected_time":1316000000000,"state":"active","ping":107},{"user_id":712,"name":"Voxtec_panzer","steam_id":76561198041995688,"connected_time":1807000000000,"state":"active","ping":45},{"user_id":725,"name":"Enjoyer","steam_id":76561198147399855,"connected_time":456000000000,"state":"active","ping":124},{"user_id":716,"name":"Enby Icon","steam_id":76561198043847825,"connected_time":1230000000000,"state":"active","ping":85},{"user_id":687,"name":"let him cook","steam_id":76561198126762760,"connected_time":4119000000000,"state":"active","ping":51},{"user_id":710,"name":"ORACLE Apollo","steam_id":76561198079585009,"connected_time":1988000000000,"state":"active","ping":58},{"user_id":692,"name":"she teehee onmy dinkie til i yu","steam_id":76561198046280845,"connected_time":3429000000000,"state":"active","ping":46}]},{"server_id":110,"name":"Uncletopia | Frankfurt | 2 | All Maps","name_short":"frk-2","host":"frk-1.de.uncletopia.com","port":27025,"enabled":true,"region":"eu","cc":"de","latitude":50.110924,"longitude":8.682127,"reserved":0,"last_update":"0001-01-01T00:00:00Z","name_a2s":"Uncletopia | Frankfurt | 2 | All Maps","protocol":17,"map":"koth_sawmill","folder":"tf","game":"Team Fortress","app_id":440,"player_count":6,"max_players":24,"Bots":0,"server_type":"Dedicated","server_os":"Linux","password":true,"vac":true,"version":"7961495","steam_id":85568392924469990,"keywords":["cp","nocrits","nodmgspread","uncletopia"],"game_id":440,"stv_port":27026,"stv_name":"Uncletopia | Frankfurt | 2 | All Maps | STV","players":[{"user_id":487,"name":"My name jeff","steam_id":76561199091505339,"connected_time":368000000000,"state":"active","ping":169},{"user_id":476,"name":"Lesu","steam_id":76561198064130397,"connected_time":1932000000000,"state":"active","ping":62},{"user_id":477,"name":"StartCat","steam_id":76561198856359737,"connected_time":1822000000000,"state":"active","ping":100},{"user_id":467,"name":"fischman","steam_id":76561199064142670,"connected_time":3140000000000,"state":"active","ping":53},{"user_id":479,"name":"Onbeheerde_Jongeheer","steam_id":76561198051685232,"connected_time":1692000000000,"state":"active","ping":45},{"user_id":481,"name":"[AXG] PK Blizzard","steam_id":76561198039836567,"connected_time":1626000000000,"state":"active","ping":53}]},{"server_id":308,"name":"Uncletopia | Frankfurt | 3 | All Maps","name_short":"frk-3","host":"frk-1.de.uncletopia.com","port":27035,"enabled":true,"region":"eu","cc":"de","latitude":50.110924,"longitude":8.682127,"reserved":0,"last_update":"0001-01-01T00:00:00Z","name_a2s":"Uncletopia | Frankfurt | 3 | All Maps","protocol":17,"map":"koth_cascade","folder":"tf","game":"Team Fortress","app_id":440,"player_count":0,"max_players":24,"Bots":0,"server_type":"Dedicated","server_os":"Linux","password":true,"vac":true,"version":"7961495","steam_id":85568392924504274,"keywords":["cp","nocrits","nodmgspread","uncletopia"],"game_id":440,"stv_port":27036,"stv_name":"Uncletopia | Frankfurt | 3 | All Maps | STV","players":null},{"server_id":309,"name":"Uncletopia | Frankfurt | 4 | All Maps","name_short":"frk-4","host":"frk-1.de.uncletopia.com","port":27045,"enabled":true,"region":"eu","cc":"de","latitude":50.110924,"longitude":8.682127,"reserved":0,"last_update":"0001-01-01T00:00:00Z","name_a2s":"Uncletopia | Frankfurt | 4 | All Maps","protocol":17,"map":"koth_lakeside_final","folder":"tf","game":"Team Fortress","app_id":440,"player_count":0,"max_players":24,"Bots":0,"server_type":"Dedicated","server_os":"Linux","password":true,"vac":true,"version":"7961495","steam_id":85568392924504275,"keywords":["cp","nocrits","nodmgspread","uncletopia"],"game_id":440,"stv_port":27046,"stv_name":"Uncletopia | Frankfurt | 4 | All Maps | STV","players":null},{"server_id":310,"name":"Uncletopia | Frankfurt | 5 | All Maps","name_short":"frk-5","host":"frk-1.de.uncletopia.com","port":27055,"enabled":true,"region":"eu","cc":"de","latitude":50.110924,"longitude":8.682127,"reserved":0,"last_update":"0001-01-01T00:00:00Z","name_a2s":"Uncletopia | Frankfurt | 5 | All Maps","protocol":17,"map":"koth_viaduct","folder":"tf","game":"Team Fortress","app_id":440,"player_count":0,"max_players":24,"Bots":0,"server_type":"Dedicated","server_os":"Linux","password":true,"vac":true,"version":"7961495","steam_id":85568392924504277,"keywords":["cp","nocrits","nodmgspread","uncletopia"],"game_id":440,"stv_port":27056,"stv_name":"Uncletopia | Frankfurt | 5 | All Maps | STV","players":null},{"server_id":311,"name":"Uncletopia | Frankfurt | 6 | All Maps","name_short":"frk-6","host":"frk-1.de.uncletopia.com","port":27065,"enabled":true,"region":"eu","cc":"de","latitude":50.110924,"longitude":8.682127,"reserved":0,"last_update":"0001-01-01T00:00:00Z","name_a2s":"Uncletopia | Frankfurt | 6 | All Maps","protocol":17,"map":"pl_pier","folder":"tf","game":"Team Fortress","app_id":440,"player_count":11,"max_players":24,"Bots":0,"server_type":"Dedicated","server_os":"Linux","password":true,"vac":true,"version":"7961495","steam_id":85568392924504278,"keywords":["nocrits","nodmgspread","payload","uncletopia"],"game_id":440,"stv_port":27066,"stv_name":"Uncletopia | Frankfurt | 6 | All Maps | STV","players":[{"user_id":286,"name":"REN","steam_id":76561198000596385,"connected_time":3809000000000,"state":"active","ping":64},{"user_id":302,"name":"Cataleptic","steam_id":76561197997966949,"connected_time":2625000000000,"state":"active","ping":71},{"user_id":318,"name":"froge","steam_id":76561198304959766,"connected_time":273000000000,"state":"active","ping":81},{"user_id":315,"name":"sticks","steam_id":76561198127099299,"connected_time":801000000000,"state":"active","ping":45},{"user_id":320,"name":"TiKo_","steam_id":76561198019365210,"connected_time":122000000000,"state":"active","ping":70},{"user_id":303,"name":"Axolotl","steam_id":76561198042135647,"connected_time":2595000000000,"state":"active","ping":69},{"user_id":294,"name":"Fox","steam_id":76561198052541711,"connected_time":3004000000000,"state":"active","ping":69},{"user_id":310,"name":"PiN hEaD","steam_id":76561198834713682,"connected_time":1539000000000,"state":"active","ping":71},{"user_id":269,"name":"Kaupsýslumaðurinn","steam_id":76561198070358944,"connected_time":5017000000000,"state":"active","ping":54},{"user_id":312,"name":"comps","steam_id":76561198118279259,"connected_time":1181000000000,"state":"active","ping":60},{"user_id":314,"name":"Notam","steam_id":76561198023420995,"connected_time":901000000000,"state":"active","ping":60}]},{"server_id":23,"name":"Uncletopia | Frankfurt | 7 | Stopwatch","name_short":"frk-7","host":"frk-1.de.uncletopia.com","port":27075,"enabled":true,"region":"eu","cc":"de","latitude":50.110924,"longitude":8.682127,"reserved":0,"last_update":"0001-01-01T00:00:00Z","name_a2s":"Uncletopia | Frankfurt | 7 | Stopwatch","protocol":17,"map":"workshop/pl_vigil_rc10.ugc1266210012","folder":"tf","game":"Team Fortress","app_id":440,"player_count":0,"max_players":24,"Bots":0,"server_type":"Dedicated","server_os":"Linux","password":true,"vac":true,"version":"7961495","steam_id":85568392924742827,"keywords":["nocrits","nodmgspread","payload","uncletopia"],"game_id":440,"stv_port":27076,"stv_name":"Uncletopia | Frankfurt | 7 | Stopwatch | STV","players":null},{"server_id":24,"name":"Uncletopia | Frankfurt | 8 | Community","name_short":"frk-8","host":"frk-1.de.uncletopia.com","port":27085,"enabled":true,"region":"eu","cc":"de","latitude":50.110924,"longitude":8.682127,"reserved":0,"last_update":"0001-01-01T00:00:00Z","name_a2s":"Uncletopia | Frankfurt | 8 | Community","protocol":17,"map":"workshop/cp_villa_b19.ugc2113052569","folder":"tf","game":"Team Fortress","app_id":440,"player_count":0,"max_players":24,"Bots":0,"server_type":"Dedicated","server_os":"Linux","password":true,"vac":true,"version":"7961495","steam_id":85568392924742828,"keywords":["cp","nocrits","nodmgspread","uncletopia"],"game_id":440,"stv_port":27086,"stv_name":"Uncletopia | Frankfurt | 8 | Community | STV","players":null},{"server_id":202,"name":"Uncletopia | Hong Kong | 1 | All Maps","name_short":"hgk-1","host":"hgk-1.hk.uncletopia.com","port":27015,"enabled":true,"region":"asia","cc":"hk","latitude":22.302711,"longitude":114.177216,"reserved":0,"last_update":"0001-01-01T00:00:00Z","name_a2s":"Uncletopia | Hong Kong | 1 | All Maps","protocol":17,"map":"pl_frontier_final","folder":"tf","game":"Team Fortress","app_id":440,"player_count":0,"max_players":24,"Bots":0,"server_type":"Dedicated","server_os":"Linux","password":true,"vac":true,"version":"7961495","steam_id":85568392924494504,"keywords":["nocrits","nodmgspread","payload","uncletopia"],"game_id":440,"stv_port":27016,"stv_name":"Uncletopia | Hong Kong | 1 | All Maps | STV","players":null},{"server_id":1,"name":"Uncletopia | Los Angeles | 1 | All Maps","name_short":"lax-1","host":"lax-1.us.uncletopia.com","port":27015,"enabled":true,"region":"us-west","cc":"us","latitude":33.94279,"longitude":-118.41004,"reserved":0,"last_update":"0001-01-01T00:00:00Z","name_a2s":"Uncletopia | Los Angeles | 1 | All Maps","protocol":17,"map":"koth_king","folder":"tf","game":"Team Fortress","app_id":440,"player_count":23,"max_players":24,"Bots":0,"server_type":"Dedicated","server_os":"Linux","password":true,"vac":true,"version":"7961495","steam_id":85568392924469991,"keywords":["cp","nocrits","nodmgspread","uncletopia"],"game_id":440,"stv_port":27016,"stv_name":"Uncletopia | Los Angeles | 1 | All Maps | STV","players":[{"user_id":124,"name":"MonkeyNobody","steam_id":76561199451266605,"connected_time":180000000000,"state":"active","ping":56},{"user_id":126,"name":"Bolbi","steam_id":76561198051811597,"connected_time":111000000000,"state":"active","ping":54},{"user_id":76,"name":"cass","steam_id":76561198074502046,"connected_time":3375000000000,"state":"active","ping":141},{"user_id":105,"name":"cyren caster","steam_id":76561198204509499,"connected_time":1443000000000,"state":"active","ping":67},{"user_id":46,"name":"Feldspaten","steam_id":76561199122059102,"connected_time":5157000000000,"state":"active","ping":95},{"user_id":127,"name":"Xenagos","steam_id":76561198045678290,"connected_time":98000000000,"state":"active","ping":73},{"user_id":109,"name":"TTV/ChadMorningWood","steam_id":76561198139832291,"connected_time":1085000000000,"state":"active","ping":47},{"user_id":128,"name":"head in the ceiling fan","steam_id":76561198420237035,"connected_time":86000000000,"state":"active","ping":70},{"user_id":122,"name":"Skeleop","steam_id":76561198981106464,"connected_time":375000000000,"state":"active","ping":49},{"user_id":115,"name":"Cup O' Tea","steam_id":76561199181963791,"connected_time":615000000000,"state":"active","ping":70},{"user_id":116,"name":"ÜberMorpth","steam_id":76561198086185573,"connected_time":613000000000,"state":"active","ping":75},{"user_id":118,"name":"MormonDude","steam_id":76561199101985449,"connected_time":560000000000,"state":"active","ping":89},{"user_id":117,"name":"Dongus","steam_id":76561197979056451,"connected_time":595000000000,"state":"active","ping":80},{"user_id":96,"name":"Joh Bags","steam_id":76561198097004438,"connected_time":2555000000000,"state":"active","ping":68},{"user_id":70,"name":"Cebula33","steam_id":76561197984964095,"connected_time":3824000000000,"state":"active","ping":56},{"user_id":123,"name":"Mr.Nostalgic","steam_id":76561198083240822,"connected_time":228000000000,"state":"active","ping":67},{"user_id":100,"name":"kshrubb","steam_id":76561198055505122,"connected_time":1785000000000,"state":"active","ping":106},{"user_id":130,"name":"Johnora","steam_id":76561198220495936,"connected_time":16000000000,"state":"spawning","ping":75},{"user_id":125,"name":"Kitten","steam_id":76561198191734274,"connected_time":148000000000,"state":"active","ping":97},{"user_id":62,"name":"noceof","steam_id":76561198043656816,"connected_time":4232000000000,"state":"active","ping":176},{"user_id":102,"name":"roach","steam_id":76561198354811369,"connected_time":1712000000000,"state":"active","ping":46},{"user_id":121,"name":"Something useless","steam_id":76561199002772575,"connected_time":483000000000,"state":"active","ping":73},{"user_id":112,"name":"yogi","steam_id":76561198067986753,"connected_time":935000000000,"state":"active","ping":47}]},{"server_id":112,"name":"Uncletopia | Los Angeles | 2 | All Maps","name_short":"lax-2","host":"lax-1.us.uncletopia.com","port":27025,"enabled":true,"region":"us-west","cc":"us","latitude":33.94279,"longitude":-118.41004,"reserved":0,"last_update":"0001-01-01T00:00:00Z","name_a2s":"Uncletopia | Los Angeles | 2 | All Maps","protocol":17,"map":"koth_lakeside_final","folder":"tf","game":"Team Fortress","app_id":440,"player_count":0,"max_players":24,"Bots":0,"server_type":"Dedicated","server_os":"Linux","password":true,"vac":true,"version":"7961495","steam_id":85568392924469992,"keywords":["cp","nocrits","nodmgspread","uncletopia"],"game_id":440,"stv_port":27026,"stv_name":"Uncletopia | Los Angeles | 2 | All Maps | STV","players":null},{"server_id":324,"name":"Uncletopia | Los Angeles | 3 | All Maps","name_short":"lax-3","host":"lax-1.us.uncletopia.com","port":27035,"enabled":true,"region":"us-west","cc":"us","latitude":33.94279,"longitude":-118.41004,"reserved":0,"last_update":"0001-01-01T00:00:00Z","name_a2s":"Uncletopia | Los Angeles | 3 | All Maps","protocol":17,"map":"cp_process_final","folder":"tf","game":"Team Fortress","app_id":440,"player_count":0,"max_players":24,"Bots":0,"server_type":"Dedicated","server_os":"Linux","password":true,"vac":true,"version":"7961495","steam_id":85568392924510198,"keywords":["cp","nocrits","nodmgspread","uncletopia"],"game_id":440,"stv_port":27036,"stv_name":"Uncletopia | Los Angeles | 3 | All Maps | STV","players":null},{"server_id":25,"name":"Uncletopia | Los Angeles | 4 | Stopwatch","name_short":"lax-4","host":"lax-1.us.uncletopia.com","port":27045,"enabled":true,"region":"us-west","cc":"us","latitude":33.94279,"longitude":-118.41004,"reserved":0,"last_update":"0001-01-01T00:00:00Z","name_a2s":"Uncletopia | Los Angeles | 4 | Stopwatch","protocol":17,"map":"cp_snakewater_final1","folder":"tf","game":"Team Fortress","app_id":440,"player_count":0,"max_players":24,"Bots":0,"server_type":"Dedicated","server_os":"Linux","password":true,"vac":true,"version":"7961495","steam_id":85568392924510199,"keywords":["cp","nocrits","nodmgspread","uncletopia"],"game_id":440,"stv_port":27046,"stv_name":"Uncletopia | Los Angeles | 4 | Stopwatch | STV","players":null},{"server_id":11,"name":"Uncletopia | London | 1 | All Maps","name_short":"lon-1","host":"lon-1.uk.uncletopia.com","port":27015,"enabled":true,"region":"eu","cc":"gb","latitude":51.509865,"longitude":-0.118092,"reserved":0,"last_update":"0001-01-01T00:00:00Z","name_a2s":"Uncletopia | London | 1 | All Maps","protocol":17,"map":"pl_swiftwater_final1","folder":"tf","game":"Team Fortress","app_id":440,"player_count":24,"max_players":24,"Bots":0,"server_type":"Dedicated","server_os":"Linux","password":true,"vac":true,"version":"7961495","steam_id":85568392924367362,"keywords":["nocrits","nodmgspread","payload","uncletopia"],"game_id":440,"stv_port":27016,"stv_name":"Uncletopia | London | 1 | All Maps | STV","players":[{"user_id":455,"name":"jafoul","steam_id":76561199383437138,"connected_time":1487000000000,"state":"active","ping":123},{"user_id":436,"name":"killer of noob, winner of game","steam_id":76561198190583242,"connected_time":4287000000000,"state":"active","ping":77},{"user_id":437,"name":"teddy","steam_id":76561198007436837,"connected_time":4270000000000,"state":"active","ping":35},{"user_id":425,"name":"Slifer the Beyblade","steam_id":76561198062255803,"connected_time":5707000000000,"state":"active","ping":73},{"user_id":392,"name":"Purps","steam_id":76561198053886680,"connected_time":8998000000000,"state":"active","ping":42},{"user_id":435,"name":"Pantroglodytestherapy","steam_id":76561198236015392,"connected_time":4471000000000,"state":"active","ping":120},{"user_id":468,"name":"JustaBadPlaya","steam_id":76561198408318646,"connected_time":290000000000,"state":"active","ping":53},{"user_id":421,"name":"Sinnamonsters","steam_id":76561198423422354,"connected_time":6153000000000,"state":"active","ping":128},{"user_id":401,"name":"Prime Minister Rishi Sunak","steam_id":76561198846784757,"connected_time":7957000000000,"state":"active","ping":62},{"user_id":415,"name":"BreadBubbles","steam_id":76561198174332826,"connected_time":6616000000000,"state":"active","ping":59},{"user_id":449,"name":"sesgo","steam_id":76561198074917015,"connected_time":2658000000000,"state":"active","ping":82},{"user_id":461,"name":"Dalm (She/Her)","steam_id":76561198010878552,"connected_time":726000000000,"state":"active","ping":45},{"user_id":429,"name":"vi","steam_id":76561198303147966,"connected_time":5321000000000,"state":"active","ping":49},{"user_id":426,"name":"Enter new website now!","steam_id":76561198143614322,"connected_time":5703000000000,"state":"active","ping":57},{"user_id":464,"name":"etc","steam_id":76561197998394797,"connected_time":609000000000,"state":"active","ping":55},{"user_id":451,"name":"Minimi","steam_id":76561198873850443,"connected_time":1933000000000,"state":"active","ping":43},{"user_id":430,"name":"Kai","steam_id":76561198800004578,"connected_time":5259000000000,"state":"active","ping":52},{"user_id":362,"name":"Lyra","steam_id":76561198043601838,"connected_time":12057000000000,"state":"active","ping":60},{"user_id":456,"name":"loonteck","steam_id":76561199057953617,"connected_time":1462000000000,"state":"active","ping":74},{"user_id":463,"name":"Vastol","steam_id":76561198294073078,"connected_time":618000000000,"state":"active","ping":90},{"user_id":466,"name":"Cheezime","steam_id":76561198154740835,"connected_time":552000000000,"state":"active","ping":52},{"user_id":465,"name":"GoblinGaming","steam_id":76561198360395476,"connected_time":578000000000,"state":"active","ping":51},{"user_id":441,"name":"sora","steam_id":76561198096547662,"connected_time":2816000000000,"state":"active","ping":50},{"user_id":394,"name":"beebo","steam_id":76561199120277007,"connected_time":8979000000000,"state":"active","ping":42}]},{"server_id":114,"name":"Uncletopia | London | 2 | All Maps","name_short":"lon-2","host":"lon-1.uk.uncletopia.com","port":27025,"enabled":true,"region":"eu","cc":"gb","latitude":51.509865,"longitude":-0.118092,"reserved":0,"last_update":"0001-01-01T00:00:00Z","name_a2s":"Uncletopia | London | 2 | All Maps","protocol":17,"map":"cp_badlands","folder":"tf","game":"Team Fortress","app_id":440,"player_count":0,"max_players":24,"Bots":0,"server_type":"Dedicated","server_os":"Linux","password":true,"vac":true,"version":"7961495","steam_id":85568392924470941,"keywords":["cp","nocrits","nodmgspread","uncletopia"],"game_id":440,"stv_port":27026,"stv_name":"Uncletopia | London | 2 | All Maps | STV","players":null},{"server_id":320,"name":"Uncletopia | London | 3 | All Maps","name_short":"lon-3","host":"lon-1.uk.uncletopia.com","port":27035,"enabled":true,"region":"eu","cc":"gb","latitude":51.509865,"longitude":-0.118092,"reserved":0,"last_update":"0001-01-01T00:00:00Z","name_a2s":"Uncletopia | London | 3 | All Maps","protocol":17,"map":"cp_dustbowl","folder":"tf","game":"Team Fortress","app_id":440,"player_count":17,"max_players":24,"Bots":0,"server_type":"Dedicated","server_os":"Linux","password":true,"vac":true,"version":"7961495","steam_id":85568392924510192,"keywords":["cp","nocrits","nodmgspread","uncletopia"],"game_id":440,"stv_port":27036,"stv_name":"Uncletopia | London | 3 | All Maps | STV","players":[{"user_id":296,"name":"Jonno","steam_id":76561198023443744,"connected_time":5004000000000,"state":"active","ping":51},{"user_id":335,"name":"hbivnm#freeforsen","steam_id":76561197996468677,"connected_time":2287000000000,"state":"active","ping":60},{"user_id":360,"name":"That Brown Nerd","steam_id":76561198196685086,"connected_time":525000000000,"state":"active","ping":62},{"user_id":337,"name":"Arentrir","steam_id":76561198334126785,"connected_time":2226000000000,"state":"active","ping":90},{"user_id":332,"name":"MovingIsOverRated","steam_id":76561198385633292,"connected_time":2789000000000,"state":"active","ping":77},{"user_id":366,"name":"turtlemage","steam_id":76561198052452373,"connected_time":210000000000,"state":"active","ping":50},{"user_id":300,"name":"E² FTH","steam_id":76561198066287815,"connected_time":4939000000000,"state":"active","ping":107},{"user_id":367,"name":"kogan","steam_id":76561197995646765,"connected_time":197000000000,"state":"active","ping":88},{"user_id":364,"name":"🌭 0mger","steam_id":76561198053615827,"connected_time":345000000000,"state":"active","ping":65},{"user_id":358,"name":"PootisLovesDispenser","steam_id":76561199184100727,"connected_time":541000000000,"state":"active","ping":75},{"user_id":338,"name":"turbo shart","steam_id":76561198012351808,"connected_time":2220000000000,"state":"active","ping":60},{"user_id":365,"name":"Splow","steam_id":76561198804238242,"connected_time":341000000000,"state":"active","ping":175},{"user_id":368,"name":"a","steam_id":76561198236652792,"connected_time":166000000000,"state":"active","ping":89},{"user_id":318,"name":"fishska","steam_id":76561198051166015,"connected_time":3669000000000,"state":"active","ping":60},{"user_id":322,"name":"James","steam_id":76561198138558005,"connected_time":3439000000000,"state":"active","ping":46},{"user_id":355,"name":"Erior","steam_id":76561198039462080,"connected_time":1556000000000,"state":"active","ping":84},{"user_id":331,"name":"hot guy","steam_id":76561198083063005,"connected_time":3038000000000,"state":"active","ping":33}]},{"server_id":321,"name":"Uncletopia | London | 4 | All Maps","name_short":"lon-4","host":"lon-1.uk.uncletopia.com","port":27045,"enabled":true,"region":"eu","cc":"gb","latitude":51.509865,"longitude":-0.118092,"reserved":0,"last_update":"0001-01-01T00:00:00Z","name_a2s":"Uncletopia | London | 4 | All Maps","protocol":17,"map":"pl_snowycoast","folder":"tf","game":"Team Fortress","app_id":440,"player_count":21,"max_players":24,"Bots":0,"server_type":"Dedicated","server_os":"Linux","password":true,"vac":true,"version":"7961495","steam_id":85568392924510193,"keywords":["nocrits","nodmgspread","payload","uncletopia"],"game_id":440,"stv_port":27046,"stv_name":"Uncletopia | London | 4 | All Maps | STV","players":[{"user_id":178,"name":"Suetolog","steam_id":76561199053090212,"connected_time":6309000000000,"state":"active","ping":60},{"user_id":203,"name":"yungwave2001","steam_id":76561198181134706,"connected_time":4298000000000,"state":"active","ping":67},{"user_id":233,"name":"G.L.O.R.I.","steam_id":76561198134414380,"connected_time":821000000000,"state":"active","ping":65},{"user_id":235,"name":"proph","steam_id":76561197998803950,"connected_time":576000000000,"state":"active","ping":57},{"user_id":229,"name":"boy i'm on yo ass","steam_id":76561198032801875,"connected_time":965000000000,"state":"active","ping":81},{"user_id":236,"name":"Dizzy","steam_id":76561198010192462,"connected_time":575000000000,"state":"active","ping":61},{"user_id":225,"name":"Boner Von Rimjob","steam_id":76561198182293751,"connected_time":1177000000000,"state":"active","ping":55},{"user_id":241,"name":"disabled chimp","steam_id":76561198132062857,"connected_time":133000000000,"state":"active","ping":75},{"user_id":227,"name":"Joppy","steam_id":76561198165581482,"connected_time":1114000000000,"state":"active","ping":40},{"user_id":222,"name":"knyazF","steam_id":76561198163278585,"connected_time":1775000000000,"state":"active","ping":88},{"user_id":230,"name":"Pastely","steam_id":76561198167718627,"connected_time":905000000000,"state":"active","ping":56},{"user_id":231,"name":"LionKing","steam_id":76561198023399545,"connected_time":870000000000,"state":"active","ping":61},{"user_id":237,"name":"Benzo Fury","steam_id":76561198025259336,"connected_time":447000000000,"state":"active","ping":43},{"user_id":238,"name":"soop","steam_id":76561198120399883,"connected_time":343000000000,"state":"active","ping":86},{"user_id":239,"name":"Gooby","steam_id":76561198383937031,"connected_time":338000000000,"state":"active","ping":55},{"user_id":240,"name":"Vexu","steam_id":76561198113145846,"connected_time":275000000000,"state":"active","ping":89},{"user_id":242,"name":"Hyperion","steam_id":76561198043716162,"connected_time":132000000000,"state":"active","ping":58},{"user_id":243,"name":"\u003e\u003c\u003e","steam_id":76561198152392309,"connected_time":112000000000,"state":"active","ping":59},{"user_id":212,"name":"dlk","steam_id":76561198086660302,"connected_time":3204000000000,"state":"active","ping":40},{"user_id":217,"name":"Macro","steam_id":76561199442846226,"connected_time":2839000000000,"state":"active","ping":152},{"user_id":218,"name":"BenteBent","steam_id":76561198297920637,"connected_time":2821000000000,"state":"active","ping":37}]},{"server_id":21,"name":"Uncletopia | London | 5 | All Maps","name_short":"lon-5","host":"lon-1.uk.uncletopia.com","port":27055,"enabled":true,"region":"eu","cc":"gb","latitude":51.509865,"longitude":-0.118092,"reserved":0,"last_update":"0001-01-01T00:00:00Z","name_a2s":"Uncletopia | London | 5 | All Maps","protocol":17,"map":"koth_lakeside_final","folder":"tf","game":"Team Fortress","app_id":440,"player_count":0,"max_players":24,"Bots":0,"server_type":"Dedicated","server_os":"Linux","password":true,"vac":true,"version":"7961495","steam_id":85568392924742829,"keywords":["cp","nocrits","nodmgspread","uncletopia"],"game_id":440,"stv_port":27056,"stv_name":"Uncletopia | London | 5 | All Maps | STV","players":null},{"server_id":22,"name":"Uncletopia | London | 6 | All Maps","name_short":"lon-6","host":"lon-1.uk.uncletopia.com","port":27065,"enabled":true,"region":"eu","cc":"gb","latitude":51.509865,"longitude":-0.118092,"reserved":0,"last_update":"0001-01-01T00:00:00Z","name_a2s":"Uncletopia | London | 6 | All Maps","protocol":17,"map":"pl_frontier_final","folder":"tf","game":"Team Fortress","app_id":440,"player_count":24,"max_players":24,"Bots":0,"server_type":"Dedicated","server_os":"Linux","password":true,"vac":true,"version":"7961495","steam_id":85568392924742830,"keywords":["nocrits","nodmgspread","payload","uncletopia"],"game_id":440,"stv_port":27066,"stv_name":"Uncletopia | London | 6 | All Maps | STV","players":[{"user_id":107,"name":"Bob D","steam_id":76561198026375630,"connected_time":224000000000,"state":"active","ping":52},{"user_id":96,"name":"Brallerin","steam_id":76561198060026189,"connected_time":1071000000000,"state":"active","ping":52},{"user_id":85,"name":"unknown","steam_id":76561198066452389,"connected_time":1877000000000,"state":"active","ping":67},{"user_id":92,"name":"Pvt. Prinny","steam_id":76561198030278562,"connected_time":1365000000000,"state":"active","ping":45},{"user_id":97,"name":"gx71","steam_id":76561198035112358,"connected_time":936000000000,"state":"active","ping":43},{"user_id":44,"name":"Luciat","steam_id":76561198114216087,"connected_time":4425000000000,"state":"active","ping":42},{"user_id":62,"name":"Milos","steam_id":76561199233979726,"connected_time":3241000000000,"state":"active","ping":89},{"user_id":46,"name":"SpidermansHoe","steam_id":76561199245385617,"connected_time":4360000000000,"state":"active","ping":53},{"user_id":98,"name":"Drunk russian with pyromania","steam_id":76561198195527328,"connected_time":832000000000,"state":"active","ping":45},{"user_id":108,"name":"CEO of Racism","steam_id":76561198042317958,"connected_time":7000000000,"state":"active","ping":270},{"user_id":104,"name":"Level 1 Noob","steam_id":76561198088586340,"connected_time":551000000000,"state":"active","ping":54},{"user_id":70,"name":"One-eyed chicken | Trans Rights","steam_id":76561198088881100,"connected_time":2911000000000,"state":"active","ping":55},{"user_id":95,"name":"Proud Jojo Fan #TF2SP","steam_id":76561198847327216,"connected_time":1242000000000,"state":"active","ping":67},{"user_id":101,"name":"Schmack","steam_id":76561198026535437,"connected_time":669000000000,"state":"active","ping":60},{"user_id":54,"name":"Jeffacakes","steam_id":76561198280101970,"connected_time":3657000000000,"state":"active","ping":56},{"user_id":73,"name":"Kaziocalvice","steam_id":76561198146425583,"connected_time":2565000000000,"state":"active","ping":65},{"user_id":56,"name":"iPadkid2009","steam_id":76561198183949987,"connected_time":3618000000000,"state":"active","ping":49},{"user_id":71,"name":"Mr_Pulse_","steam_id":76561198095001602,"connected_time":2787000000000,"state":"active","ping":102},{"user_id":105,"name":"Wodaz","steam_id":76561198043263557,"connected_time":480000000000,"state":"active","ping":62},{"user_id":59,"name":"Jayem","steam_id":76561198076470685,"connected_time":3283000000000,"state":"active","ping":68},{"user_id":106,"name":"outlaw","steam_id":76561198323805289,"connected_time":311000000000,"state":"active","ping":32},{"user_id":88,"name":"Toasted Toby","steam_id":76561198002139581,"connected_time":1764000000000,"state":"active","ping":66},{"user_id":103,"name":"Deformed Gollum","steam_id":76561198155563589,"connected_time":594000000000,"state":"active","ping":52},{"user_id":89,"name":"pellio","steam_id":76561199094535057,"connected_time":1723000000000,"state":"active","ping":43}]},{"server_id":40,"name":"Uncletopia | London | 7 | Stopwatch","name_short":"lon-7","host":"lon-1.uk.uncletopia.com","port":27075,"enabled":true,"region":"eu","cc":"gb","latitude":51.509865,"longitude":-0.118092,"reserved":0,"last_update":"0001-01-01T00:00:00Z","name_a2s":"Uncletopia | London | 7 | Stopwatch","protocol":17,"map":"pl_swiftwater_final1","folder":"tf","game":"Team Fortress","app_id":440,"player_count":0,"max_players":24,"Bots":0,"server_type":"Dedicated","server_os":"Linux","password":true,"vac":true,"version":"7961495","steam_id":85568392924964314,"keywords":["nocrits","nodmgspread","payload","uncletopia"],"game_id":440,"stv_port":27076,"stv_name":"Uncletopia | London | 7 | Stopwatch | STV","players":null},{"server_id":41,"name":"Uncletopia | London | 8 | Community","name_short":"lon-8","host":"lon-1.uk.uncletopia.com","port":27085,"enabled":true,"region":"eu","cc":"gb","latitude":51.509865,"longitude":-0.118092,"reserved":0,"last_update":"0001-01-01T00:00:00Z","name_a2s":"Uncletopia | London | 8 | Community","protocol":17,"map":"workshop/cp_glacier_rc6.ugc2905735376","folder":"tf","game":"Team Fortress","app_id":440,"player_count":0,"max_players":24,"Bots":0,"server_type":"Dedicated","server_os":"Linux","password":true,"vac":true,"version":"7961495","steam_id":85568392924964315,"keywords":["cp","nocrits","nodmgspread","uncletopia"],"game_id":440,"stv_port":27086,"stv_name":"Uncletopia | London | 8 | Community | STV","players":null},{"server_id":300,"name":"Uncletopia | Montréal | 1 | One Thousand Uncles","name_short":"mtl-1","host":"mtl-1.ca.uncletopia.com","port":27015,"enabled":true,"region":"us-east","cc":"ca","latitude":45.50889,"longitude":-73.56167,"reserved":0,"last_update":"0001-01-01T00:00:00Z","name_a2s":"","protocol":0,"map":"","folder":"","game":"","app_id":0,"player_count":16,"max_players":0,"Bots":0,"server_type":"","server_os":"","password":false,"vac":false,"version":"","steam_id":0,"keywords":null,"game_id":0,"stv_port":0,"stv_name":"","players":[{"user_id":2,"name":"Kibeka the Weird","steam_id":76561198116534133,"connected_time":7652000000000,"state":"active","ping":56},{"user_id":173,"name":"1-800-GHOST-DANCE","steam_id":76561198835430429,"connected_time":40000000000,"state":"active","ping":76},{"user_id":77,"name":"Captain Dusk","steam_id":76561199093333752,"connected_time":3754000000000,"state":"active","ping":74},{"user_id":143,"name":"slowdance","steam_id":76561198097427947,"connected_time":1746000000000,"state":"active","ping":135},{"user_id":74,"name":"Adam (Cursed Confetti Creature)","steam_id":76561198317690197,"connected_time":4233000000000,"state":"active","ping":52},{"user_id":145,"name":"Tay","steam_id":76561198059605568,"connected_time":1578000000000,"state":"active","ping":87},{"user_id":85,"name":"LegendaryMister151","steam_id":76561198064890524,"connected_time":3052000000000,"state":"active","ping":106},{"user_id":121,"name":"Maid 'n' China","steam_id":76561198423392976,"connected_time":2083000000000,"state":"active","ping":96},{"user_id":70,"name":"CreateADebate","steam_id":76561198115760035,"connected_time":4722000000000,"state":"active","ping":64},{"user_id":25,"name":"I just joined","steam_id":76561198057999536,"connected_time":7573000000000,"state":"active","ping":113},{"user_id":79,"name":"Viennetta","steam_id":76561198044088335,"connected_time":3667000000000,"state":"active","ping":60},{"user_id":44,"name":"girl piss","steam_id":76561199036496807,"connected_time":6070000000000,"state":"active","ping":148},{"user_id":151,"name":"Lia_Rein","steam_id":76561198151569597,"connected_time":833000000000,"state":"active","ping":134},{"user_id":80,"name":"Ping","steam_id":76561199206514106,"connected_time":3653000000000,"state":"active","ping":73},{"user_id":81,"name":"thai","steam_id":76561198052462287,"connected_time":3646000000000,"state":"active","ping":95},{"user_id":152,"name":"neeK","steam_id":76561198106571410,"connected_time":761000000000,"state":"active","ping":68}]},{"server_id":301,"name":"Uncletopia | Montréal | 2 | One Thousand Uncles","name_short":"mtl-2","host":"mtl-1.ca.uncletopia.com","port":27025,"enabled":true,"region":"us-east","cc":"ca","latitude":45.50889,"longitude":-73.56167,"reserved":0,"last_update":"0001-01-01T00:00:00Z","name_a2s":"","protocol":0,"map":"","folder":"","game":"","app_id":0,"player_count":0,"max_players":0,"Bots":0,"server_type":"","server_os":"","password":false,"vac":false,"version":"","steam_id":0,"keywords":null,"game_id":0,"stv_port":0,"stv_name":"","players":null},{"server_id":302,"name":"Uncletopia | Montréal | 3 | One Thousand Uncles","name_short":"mtl-3","host":"mtl-1.ca.uncletopia.com","port":27035,"enabled":true,"region":"us-east","cc":"ca","latitude":45.50889,"longitude":-73.56167,"reserved":0,"last_update":"0001-01-01T00:00:00Z","name_a2s":"","protocol":0,"map":"","folder":"","game":"","app_id":0,"player_count":7,"max_players":0,"Bots":0,"server_type":"","server_os":"","password":false,"vac":false,"version":"","steam_id":0,"keywords":null,"game_id":0,"stv_port":0,"stv_name":"","players":[{"user_id":82,"name":"tim-","steam_id":76561199119101315,"connected_time":1611000000000,"state":"active","ping":60},{"user_id":87,"name":"Jbomb","steam_id":76561199197866625,"connected_time":754000000000,"state":"active","ping":88},{"user_id":61,"name":"RacoonGamer","steam_id":76561198100907657,"connected_time":2741000000000,"state":"active","ping":47},{"user_id":79,"name":"sheep","steam_id":76561198172943006,"connected_time":1938000000000,"state":"active","ping":63},{"user_id":88,"name":"Akira (they/them)","steam_id":76561198294601519,"connected_time":532000000000,"state":"active","ping":97},{"user_id":84,"name":"Maxxycat","steam_id":76561198194062681,"connected_time":1137000000000,"state":"active","ping":73},{"user_id":85,"name":"Bee_Pirate","steam_id":76561199000599111,"connected_time":1060000000000,"state":"active","ping":46}]},{"server_id":13,"name":"Uncletopia | New York City | 1 | All Maps","name_short":"nyc-1","host":"nyc-1.us.uncletopia.com","port":27015,"enabled":true,"region":"us-east","cc":"us","latitude":40.73061,"longitude":-73.93524,"reserved":0,"last_update":"0001-01-01T00:00:00Z","name_a2s":"Uncletopia | New York City | 1 | All Maps","protocol":17,"map":"pl_barnblitz","folder":"tf","game":"Team Fortress","app_id":440,"player_count":23,"max_players":24,"Bots":0,"server_type":"Dedicated","server_os":"Linux","password":true,"vac":true,"version":"7961495","steam_id":85568392924469993,"keywords":["nocrits","nodmgspread","payload","uncletopia"],"game_id":440,"stv_port":27016,"stv_name":"Uncletopia | New York City | 1 | All Maps | STV","players":[{"user_id":374,"name":"menonamed","steam_id":76561198199564382,"connected_time":297000000000,"state":"active","ping":55},{"user_id":375,"name":"Myn","steam_id":76561198055438857,"connected_time":275000000000,"state":"active","ping":62},{"user_id":359,"name":"Xx_gam3rberg_xX","steam_id":76561199035781025,"connected_time":1756000000000,"state":"active","ping":79},{"user_id":371,"name":"LevelRaisin","steam_id":76561198082924440,"connected_time":754000000000,"state":"active","ping":61},{"user_id":327,"name":"adult tim","steam_id":76561198075510786,"connected_time":3457000000000,"state":"active","ping":91},{"user_id":356,"name":"Cool-Aids Man","steam_id":76561198280184641,"connected_time":2087000000000,"state":"active","ping":57},{"user_id":376,"name":"FattSucc","steam_id":76561198009500503,"connected_time":266000000000,"state":"active","ping":93},{"user_id":377,"name":"brawndo luvr","steam_id":76561198202436474,"connected_time":254000000000,"state":"active","ping":47},{"user_id":350,"name":"Ghille","steam_id":76561198027234838,"connected_time":2485000000000,"state":"active","ping":72},{"user_id":386,"name":"K\u0026S Beverages","steam_id":76561198058378081,"connected_time":1000000000,"state":"spawning","ping":45},{"user_id":379,"name":"TacoMan","steam_id":76561198049405741,"connected_time":244000000000,"state":"active","ping":84},{"user_id":354,"name":"WaWaSkittleTits","steam_id":76561198411234398,"connected_time":2163000000000,"state":"active","ping":133},{"user_id":385,"name":"wafflehamster2000","steam_id":76561198849161820,"connected_time":77000000000,"state":"active","ping":90},{"user_id":365,"name":"Ainsley Bringing The Painsley","steam_id":76561198017910209,"connected_time":1419000000000,"state":"active","ping":54},{"user_id":384,"name":"Parth Makeo","steam_id":76561198002516581,"connected_time":88000000000,"state":"active","ping":45},{"user_id":358,"name":"Urbanzpinapple","steam_id":76561198115426938,"connected_time":2056000000000,"state":"active","ping":72},{"user_id":380,"name":"7thelden","steam_id":76561198297428761,"connected_time":244000000000,"state":"active","ping":74},{"user_id":382,"name":"kn0n2999","steam_id":76561198249172818,"connected_time":198000000000,"state":"active","ping":144},{"user_id":329,"name":"A Cat","steam_id":76561198221549132,"connected_time":3444000000000,"state":"active","ping":118},{"user_id":373,"name":"IlikeChowMien","steam_id":76561199466131782,"connected_time":375000000000,"state":"active","ping":74},{"user_id":270,"name":"Rose","steam_id":76561199163784606,"connected_time":6095000000000,"state":"active","ping":63},{"user_id":346,"name":"Pinhed Lary","steam_id":76561198378320706,"connected_time":2764000000000,"state":"active","ping":86},{"user_id":361,"name":"Liver stealer","steam_id":76561199029954287,"connected_time":1729000000000,"state":"active","ping":148}]},{"server_id":14,"name":"Uncletopia | New York City | 2 | All Maps","name_short":"nyc-2","host":"nyc-1.us.uncletopia.com","port":27025,"enabled":true,"region":"us-east","cc":"us","latitude":40.73061,"longitude":-73.93524,"reserved":0,"last_update":"0001-01-01T00:00:00Z","name_a2s":"Uncletopia | New York City | 2 | All Maps","protocol":17,"map":"pl_barnblitz","folder":"tf","game":"Team Fortress","app_id":440,"player_count":24,"max_players":24,"Bots":0,"server_type":"Dedicated","server_os":"Linux","password":true,"vac":true,"version":"7961495","steam_id":85568392924469994,"keywords":["nocrits","nodmgspread","payload","uncletopia"],"game_id":440,"stv_port":27026,"stv_name":"Uncletopia | New York City | 2 | All Maps | STV","players":[{"user_id":509,"name":"KATSURB","steam_id":76561199172118456,"connected_time":836000000000,"state":"active","ping":72},{"user_id":541,"name":"BubbyBoy27","steam_id":76561199102009679,"connected_time":44000000000,"state":"active","ping":79},{"user_id":481,"name":"Rodrick Knee","steam_id":76561198283021062,"connected_time":2641000000000,"state":"active","ping":75},{"user_id":504,"name":"MajorPancake","steam_id":76561198068713831,"connected_time":909000000000,"state":"active","ping":53},{"user_id":477,"name":"Cat in Your Backyard","steam_id":76561197979078330,"connected_time":2764000000000,"state":"active","ping":60},{"user_id":501,"name":"rodafy","steam_id":76561198071093393,"connected_time":1194000000000,"state":"active","ping":122},{"user_id":510,"name":"cheesebro","steam_id":76561198002072852,"connected_time":824000000000,"state":"active","ping":105},{"user_id":505,"name":"Sky","steam_id":76561198043549371,"connected_time":908000000000,"state":"active","ping":42},{"user_id":474,"name":"TheBoxWizard","steam_id":76561198447992832,"connected_time":3224000000000,"state":"active","ping":45},{"user_id":507,"name":"Bobby Dazzler 魔鐘","steam_id":76561198007405067,"connected_time":879000000000,"state":"active","ping":75},{"user_id":476,"name":"Fuzzy Toast","steam_id":76561198028067781,"connected_time":3190000000000,"state":"active","ping":58},{"user_id":537,"name":"nav","steam_id":76561198872608266,"connected_time":129000000000,"state":"active","ping":67},{"user_id":543,"name":"pik","steam_id":76561199073950489,"connected_time":10000000000,"state":"spawning","ping":61},{"user_id":497,"name":"Shuu","steam_id":76561199199180558,"connected_time":1505000000000,"state":"active","ping":46},{"user_id":508,"name":"Dark Lord","steam_id":76561198044199150,"connected_time":860000000000,"state":"active","ping":66},{"user_id":495,"name":"badasscoolboy57","steam_id":76561198795412055,"connected_time":1538000000000,"state":"active","ping":70},{"user_id":428,"name":"Hook, Line, and Sphincter","steam_id":76561198078207743,"connected_time":6992000000000,"state":"active","ping":50},{"user_id":513,"name":"NoobCesar","steam_id":76561198095250755,"connected_time":777000000000,"state":"active","ping":73},{"user_id":467,"name":"triple_range_merge","steam_id":76561198991225026,"connected_time":3896000000000,"state":"active","ping":65},{"user_id":418,"name":"Bob The Insult Comic Skeleton","steam_id":76561198049945735,"connected_time":7532000000000,"state":"active","ping":60},{"user_id":512,"name":"Octomal800","steam_id":76561199453595616,"connected_time":810000000000,"state":"active","ping":63},{"user_id":489,"name":"artichoke","steam_id":76561198980994364,"connected_time":2469000000000,"state":"active","ping":83},{"user_id":492,"name":"Stryder","steam_id":76561199387418697,"connected_time":2438000000000,"state":"active","ping":100},{"user_id":540,"name":"GoldtoothFour","steam_id":76561198055529332,"connected_time":72000000000,"state":"active","ping":72}]},{"server_id":15,"name":"Uncletopia | New York City | 3 | Stopwatch","name_short":"nyc-3","host":"nyc-1.us.uncletopia.com","port":27035,"enabled":true,"region":"us-east","cc":"us","latitude":40.73061,"longitude":-73.93524,"reserved":0,"last_update":"0001-01-01T00:00:00Z","name_a2s":"Uncletopia | New York City | 3 | Stopwatch","protocol":17,"map":"workshop/koth_bagel_rc6.ugc2514036946","folder":"tf","game":"Team Fortress","app_id":440,"player_count":3,"max_players":24,"Bots":0,"server_type":"Dedicated","server_os":"Linux","password":true,"vac":true,"version":"7961495","steam_id":85568392924742820,"keywords":["cp","nocrits","nodmgspread","uncletopia"],"game_id":440,"stv_port":27036,"stv_name":"Uncletopia | New York City | 3 | Stopwatch | STV","players":[{"user_id":8,"name":"AprilB0rnSt0rm","steam_id":76561199135214335,"connected_time":294000000000,"state":"active","ping":70},{"user_id":9,"name":"Gosey098","steam_id":76561199121965465,"connected_time":289000000000,"state":"active","ping":69},{"user_id":10,"name":"notparrots","steam_id":76561199102020018,"connected_time":257000000000,"state":"active","ping":68}]},{"server_id":16,"name":"Uncletopia | New York City | 4 | Community","name_short":"nyc-4","host":"nyc-1.us.uncletopia.com","port":27045,"enabled":true,"region":"us-east","cc":"us","latitude":40.73061,"longitude":-73.93524,"reserved":0,"last_update":"0001-01-01T00:00:00Z","name_a2s":"Uncletopia | New York City | 4 | Community","protocol":17,"map":"workshop/koth_ashville_final.ugc2130459942","folder":"tf","game":"Team Fortress","app_id":440,"player_count":20,"max_players":24,"Bots":0,"server_type":"Dedicated","server_os":"Linux","password":true,"vac":true,"version":"7961495","steam_id":85568392924742821,"keywords":["cp","nocrits","nodmgspread","uncletopia"],"game_id":440,"stv_port":27046,"stv_name":"Uncletopia | New York City | 4 | Community | STV","players":[{"user_id":145,"name":"ZZurved","steam_id":76561198392990630,"connected_time":24000000000,"state":"spawning","ping":177},{"user_id":143,"name":"songcreator","steam_id":76561198076822464,"connected_time":191000000000,"state":"active","ping":61},{"user_id":144,"name":"lego star wars on the psp","steam_id":76561198148014773,"connected_time":130000000000,"state":"active","ping":58},{"user_id":140,"name":"lightsword24","steam_id":76561198227552556,"connected_time":347000000000,"state":"active","ping":107},{"user_id":141,"name":"Scuff1e","steam_id":76561198272995728,"connected_time":333000000000,"state":"active","ping":88},{"user_id":146,"name":"GoGo","steam_id":76561198023080645,"connected_time":19000000000,"state":"active","ping":69},{"user_id":107,"name":"Captain Chicken","steam_id":76561198047767530,"connected_time":2734000000000,"state":"active","ping":111},{"user_id":125,"name":"Horizon","steam_id":76561198088957930,"connected_time":1412000000000,"state":"active","ping":72},{"user_id":126,"name":"SchmitySchmit","steam_id":76561198127024448,"connected_time":1411000000000,"state":"active","ping":59},{"user_id":134,"name":"the.land.of.avalon","steam_id":76561198245431668,"connected_time":1103000000000,"state":"active","ping":69},{"user_id":142,"name":"Maxtheand","steam_id":76561198967517258,"connected_time":301000000000,"state":"active","ping":81},{"user_id":113,"name":"GuyGoom","steam_id":76561198254522178,"connected_time":2388000000000,"state":"active","ping":69},{"user_id":114,"name":"Grob","steam_id":76561198039261820,"connected_time":2186000000000,"state":"active","ping":101},{"user_id":147,"name":"firefly77","steam_id":76561199155478745,"connected_time":17000000000,"state":"spawning","ping":150},{"user_id":117,"name":"Imagine Wagons","steam_id":76561198241556846,"connected_time":1851000000000,"state":"active","ping":62},{"user_id":119,"name":"Funne Monke","steam_id":76561198147868601,"connected_time":1672000000000,"state":"active","ping":54},{"user_id":121,"name":"dietcokefan42","steam_id":76561198135307995,"connected_time":1624000000000,"state":"active","ping":55},{"user_id":123,"name":"Froyo Ding Dong","steam_id":76561198379421700,"connected_time":1583000000000,"state":"active","ping":66},{"user_id":124,"name":"stampdawg","steam_id":76561198050500060,"connected_time":1568000000000,"state":"active","ping":74},{"user_id":132,"name":"Dog Goggles","steam_id":76561197995233692,"connected_time":1223000000000,"state":"active","ping":64}]},{"server_id":142,"name":"Uncletopia | São Paulo | 1 | All Maps","name_short":"sao-1","host":"sao-1.br.uncletopia.com","port":27015,"enabled":true,"region":"sa","cc":"br","latitude":-23.533773,"longitude":-46.62529,"reserved":0,"last_update":"0001-01-01T00:00:00Z","name_a2s":"Uncletopia | São Paulo | 1 | All Maps","protocol":17,"map":"koth_harvest_final","folder":"tf","game":"Team Fortress","app_id":440,"player_count":0,"max_players":24,"Bots":0,"server_type":"Dedicated","server_os":"Linux","password":true,"vac":true,"version":"7961495","steam_id":85568392924469996,"keywords":["cp","nocrits","nodmgspread","uncletopia"],"game_id":440,"stv_port":27016,"stv_name":"Uncletopia | São Paulo | 1 | All Maps | STV","players":null},{"server_id":143,"name":"Uncletopia | São Paulo | 2 | Community","name_short":"sao-2","host":"sao-2.br.uncletopia.com","port":27015,"enabled":true,"region":"sa","cc":"br","latitude":-23.533773,"longitude":-46.62529,"reserved":0,"last_update":"0001-01-01T00:00:00Z","name_a2s":"Uncletopia | São Paulo | 2 | Community","protocol":17,"map":"workshop/koth_trenchfoot_b1a.ugc731436616","folder":"tf","game":"Team Fortress","app_id":440,"player_count":0,"max_players":24,"Bots":0,"server_type":"Dedicated","server_os":"Linux","password":true,"vac":true,"version":"7961495","steam_id":85568392924485349,"keywords":["cp","nocrits","nodmgspread","uncletopia"],"game_id":440,"stv_port":27016,"stv_name":"Uncletopia | São Paulo | 2 | Community | STV","players":null},{"server_id":7,"name":"Uncletopia | Seattle | 1 | All Maps","name_short":"sea-1","host":"sea-1.us.uncletopia.com","port":27015,"enabled":true,"region":"us-west","cc":"us","latitude":47.608013,"longitude":-122.33517,"reserved":0,"last_update":"0001-01-01T00:00:00Z","name_a2s":"Uncletopia | Seattle | 1 | All Maps","protocol":17,"map":"pl_badwater","folder":"tf","game":"Team Fortress","app_id":440,"player_count":23,"max_players":24,"Bots":0,"server_type":"Dedicated","server_os":"Linux","password":true,"vac":true,"version":"7961495","steam_id":85568392924469997,"keywords":["nocrits","nodmgspread","payload","uncletopia"],"game_id":440,"stv_port":27016,"stv_name":"Uncletopia | Seattle | 1 | All Maps | STV","players":[{"user_id":189,"name":"Battle Bug","steam_id":76561198005793034,"connected_time":208000000000,"state":"active","ping":33},{"user_id":194,"name":"Greskrendtregk","steam_id":76561197969553142,"connected_time":7000000000,"state":"active","ping":57},{"user_id":171,"name":"spiderland","steam_id":76561198335992132,"connected_time":1209000000000,"state":"active","ping":45},{"user_id":187,"name":"blahaj enjoyer","steam_id":76561198043889548,"connected_time":418000000000,"state":"active","ping":75},{"user_id":195,"name":"Jared","steam_id":76561198020432651,"connected_time":2000000000,"state":"spawning","ping":94},{"user_id":185,"name":"› Noir","steam_id":76561197977418994,"connected_time":549000000000,"state":"active","ping":67},{"user_id":191,"name":"Neptune˖⁺｡˚⋆˙♥","steam_id":76561199054203198,"connected_time":53000000000,"state":"active","ping":132},{"user_id":190,"name":"Kc","steam_id":76561198210734407,"connected_time":127000000000,"state":"active","ping":97},{"user_id":183,"name":"Mak","steam_id":76561198089197922,"connected_time":585000000000,"state":"active","ping":60},{"user_id":99,"name":"owl","steam_id":76561198088403016,"connected_time":6421000000000,"state":"active","ping":161},{"user_id":146,"name":"Havi","steam_id":76561198197832829,"connected_time":2938000000000,"state":"active","ping":48},{"user_id":172,"name":"a_hooman","steam_id":76561198888917114,"connected_time":1152000000000,"state":"active","ping":65},{"user_id":159,"name":"Polar","steam_id":76561198271964253,"connected_time":1747000000000,"state":"active","ping":67},{"user_id":167,"name":"RainboomCrash","steam_id":76561198065612273,"connected_time":1331000000000,"state":"active","ping":50},{"user_id":141,"name":"Karg","steam_id":76561198091387866,"connected_time":3053000000000,"state":"active","ping":62},{"user_id":186,"name":"MrRojan","steam_id":76561197993760849,"connected_time":459000000000,"state":"active","ping":46},{"user_id":173,"name":"Petrivus","steam_id":76561198202152453,"connected_time":1072000000000,"state":"active","ping":42},{"user_id":184,"name":"Lt. Dan","steam_id":76561199123578119,"connected_time":582000000000,"state":"active","ping":116},{"user_id":168,"name":"Omegaman","steam_id":76561198034579579,"connected_time":1329000000000,"state":"active","ping":49},{"user_id":123,"name":"cob","steam_id":76561198040642125,"connected_time":4815000000000,"state":"active","ping":61},{"user_id":192,"name":"RectalExam","steam_id":76561197970502312,"connected_time":51000000000,"state":"active","ping":140},{"user_id":147,"name":"CHIEF_JUSTICE_FUCKASS","steam_id":76561199261675844,"connected_time":2676000000000,"state":"active","ping":50},{"user_id":150,"name":"Azary56","steam_id":76561198321404617,"connected_time":2400000000000,"state":"spawning","ping":64}]},{"server_id":119,"name":"Uncletopia | Seattle | 2 | All Maps","name_short":"sea-2","host":"sea-1.us.uncletopia.com","port":27025,"enabled":true,"region":"us-west","cc":"us","latitude":47.608013,"longitude":-122.33517,"reserved":0,"last_update":"0001-01-01T00:00:00Z","name_a2s":"Uncletopia | Seattle | 2 | All Maps","protocol":17,"map":"cp_snakewater_final1","folder":"tf","game":"Team Fortress","app_id":440,"player_count":24,"max_players":24,"Bots":0,"server_type":"Dedicated","server_os":"Linux","password":true,"vac":true,"version":"7961495","steam_id":85568392924469998,"keywords":["cp","nocrits","nodmgspread","uncletopia"],"game_id":440,"stv_port":27026,"stv_name":"Uncletopia | Seattle | 2 | All Maps | STV","players":[{"user_id":518,"name":"Dimple #TF2Center","steam_id":76561198980324190,"connected_time":811000000000,"state":"active","ping":47},{"user_id":519,"name":"SandyMany","steam_id":76561198183098099,"connected_time":803000000000,"state":"active","ping":46},{"user_id":513,"name":"Saber 0X1","steam_id":76561198090226093,"connected_time":898000000000,"state":"active","ping":122},{"user_id":275,"name":"Paradon","steam_id":76561198242214772,"connected_time":17635000000000,"state":"active","ping":71},{"user_id":498,"name":"ZEKKER","steam_id":76561197967968980,"connected_time":2158000000000,"state":"active","ping":44},{"user_id":504,"name":"Y△▽△","steam_id":76561198050770818,"connected_time":1818000000000,"state":"active","ping":50},{"user_id":492,"name":"Indra Goya","steam_id":76561198044017525,"connected_time":2337000000000,"state":"active","ping":41},{"user_id":510,"name":"Dox","steam_id":76561198120368589,"connected_time":1387000000000,"state":"active","ping":126},{"user_id":456,"name":"MacchuPeachu","steam_id":76561199093242587,"connected_time":5819000000000,"state":"active","ping":61},{"user_id":506,"name":"ceres fauna free use","steam_id":76561198097330521,"connected_time":1705000000000,"state":"active","ping":137},{"user_id":515,"name":"Chubbles","steam_id":76561198237619472,"connected_time":888000000000,"state":"active","ping":118},{"user_id":521,"name":"mn","steam_id":76561198042357436,"connected_time":247000000000,"state":"active","ping":32},{"user_id":449,"name":"sillypilled","steam_id":76561198093883448,"connected_time":6847000000000,"state":"active","ping":46},{"user_id":522,"name":"Tsunami","steam_id":76561198097188001,"connected_time":241000000000,"state":"active","ping":44},{"user_id":379,"name":"ninja45","steam_id":76561198150619521,"connected_time":10476000000000,"state":"active","ping":56},{"user_id":493,"name":"Bagelvid","steam_id":76561198056656727,"connected_time":2331000000000,"state":"active","ping":44},{"user_id":507,"name":"mudunit","steam_id":76561198811544015,"connected_time":1579000000000,"state":"active","ping":61},{"user_id":512,"name":"okiki_114","steam_id":76561199192983913,"connected_time":946000000000,"state":"active","ping":93},{"user_id":477,"name":"greens beans","steam_id":76561198153611491,"connected_time":3647000000000,"state":"active","ping":51},{"user_id":496,"name":"♦♣Quadric♥♠","steam_id":76561198061003853,"connected_time":2274000000000,"state":"active","ping":107},{"user_id":495,"name":"king sir glorious","steam_id":76561198115676070,"connected_time":2298000000000,"state":"active","ping":149},{"user_id":517,"name":"Vlad","steam_id":76561198072334604,"connected_time":836000000000,"state":"active","ping":44},{"user_id":497,"name":"Gud","steam_id":76561198311369336,"connected_time":2238000000000,"state":"active","ping":104},{"user_id":508,"name":"Lane","steam_id":76561197965828506,"connected_time":1545000000000,"state":"active","ping":89}]},{"server_id":406,"name":"Uncletopia | Seattle | 3 | Stopwatch","name_short":"sea-3","host":"sea-1.us.uncletopia.com","port":27035,"enabled":true,"region":"us-west","cc":"us","latitude":47.608013,"longitude":-122.33517,"reserved":0,"last_update":"0001-01-01T00:00:00Z","name_a2s":"Uncletopia | Seattle | 3 | Stopwatch","protocol":17,"map":"pl_pier","folder":"tf","game":"Team Fortress","app_id":440,"player_count":0,"max_players":24,"Bots":0,"server_type":"Dedicated","server_os":"Linux","password":true,"vac":true,"version":"7961495","steam_id":85568392924515217,"keywords":["nocrits","nodmgspread","payload","uncletopia"],"game_id":440,"stv_port":27036,"stv_name":"Uncletopia | Seattle | 3 | Stopwatch | STV","players":null},{"server_id":17,"name":"Uncletopia | San Francisco | 1 | All Maps","name_short":"sfo-1","host":"sfo-1.us.uncletopia.com","port":27015,"enabled":true,"region":"us-west","cc":"us","latitude":37.77397,"longitude":-122.4313,"reserved":0,"last_update":"0001-01-01T00:00:00Z","name_a2s":"Uncletopia | San Francisco | 1 | All Maps","protocol":17,"map":"koth_cascade","folder":"tf","game":"Team Fortress","app_id":440,"player_count":0,"max_players":24,"Bots":0,"server_type":"Dedicated","server_os":"Linux","password":true,"vac":true,"version":"7961495","steam_id":85568392924469999,"keywords":["cp","nocrits","nodmgspread","uncletopia"],"game_id":440,"stv_port":27016,"stv_name":"Uncletopia | San Francisco | 1 | All Maps | STV","players":null},{"server_id":18,"name":"Uncletopia | San Francisco | 2 | All Maps","name_short":"sfo-2","host":"sfo-1.us.uncletopia.com","port":27025,"enabled":true,"region":"us-west","cc":"us","latitude":37.77397,"longitude":-122.4313,"reserved":0,"last_update":"0001-01-01T00:00:00Z","name_a2s":"Uncletopia | San Francisco | 2 | All Maps","protocol":17,"map":"pl_frontier_final","folder":"tf","game":"Team Fortress","app_id":440,"player_count":0,"max_players":24,"Bots":0,"server_type":"Dedicated","server_os":"Linux","password":true,"vac":true,"version":"7961495","steam_id":85568392924470000,"keywords":["nocrits","nodmgspread","payload","uncletopia"],"game_id":440,"stv_port":27026,"stv_name":"Uncletopia | San Francisco | 2 | All Maps | STV","players":null},{"server_id":19,"name":"Uncletopia | San Francisco | 3 | Stopwatch","name_short":"sfo-3","host":"sfo-1.us.uncletopia.com","port":27035,"enabled":true,"region":"us-west","cc":"us","latitude":37.77397,"longitude":-122.4313,"reserved":0,"last_update":"0001-01-01T00:00:00Z","name_a2s":"Uncletopia | San Francisco | 3 | Stopwatch","protocol":17,"map":"pl_pier","folder":"tf","game":"Team Fortress","app_id":440,"player_count":0,"max_players":24,"Bots":0,"server_type":"Dedicated","server_os":"Linux","password":true,"vac":true,"version":"7961495","steam_id":85568392924742824,"keywords":["nocrits","nodmgspread","payload","uncletopia"],"game_id":440,"stv_port":27036,"stv_name":"Uncletopia | San Francisco | 3 | Stopwatch | STV","players":null},{"server_id":20,"name":"Uncletopia | San Francisco | 4 | Community","name_short":"sfo-4","host":"sfo-1.us.uncletopia.com","port":27045,"enabled":true,"region":"us-west","cc":"us","latitude":37.77397,"longitude":-122.4313,"reserved":0,"last_update":"0001-01-01T00:00:00Z","name_a2s":"Uncletopia | San Francisco | 4 | Community","protocol":17,"map":"pl_pier","folder":"tf","game":"Team Fortress","app_id":440,"player_count":0,"max_players":24,"Bots":0,"server_type":"Dedicated","server_os":"Linux","password":true,"vac":true,"version":"7961495","steam_id":85568392924742826,"keywords":["nocrits","nodmgspread","payload","uncletopia"],"game_id":440,"stv_port":27046,"stv_name":"Uncletopia | San Francisco | 4 | Community | STV","players":null},{"server_id":141,"name":"Uncletopia | Sydney | 1 | All Maps","name_short":"syd-1","host":"syd-1.au.uncletopia.com","port":27015,"enabled":true,"region":"au","cc":"au","latitude":-33.865143,"longitude":151.2099,"reserved":0,"last_update":"0001-01-01T00:00:00Z","name_a2s":"Uncletopia | Sydney | 1 | All Maps","protocol":17,"map":"koth_viaduct","folder":"tf","game":"Team Fortress","app_id":440,"player_count":0,"max_players":24,"Bots":0,"server_type":"Dedicated","server_os":"Linux","password":true,"vac":true,"version":"7961495","steam_id":85568392924470001,"keywords":["cp","nocrits","nodmgspread","uncletopia"],"game_id":440,"stv_port":27016,"stv_name":"Uncletopia | Sydney | 1 | All Maps | STV","players":null},{"server_id":123,"name":"Uncletopia | Sydney | 2 | All Maps","name_short":"syd-2","host":"syd-1.au.uncletopia.com","port":27025,"enabled":true,"region":"au","cc":"au","latitude":-33.865143,"longitude":151.2099,"reserved":0,"last_update":"0001-01-01T00:00:00Z","name_a2s":"Uncletopia | Sydney | 2 | All Maps","protocol":17,"map":"koth_lakeside_final","folder":"tf","game":"Team Fortress","app_id":440,"player_count":0,"max_players":24,"Bots":0,"server_type":"Dedicated","server_os":"Linux","password":true,"vac":true,"version":"7961495","steam_id":85568392924470002,"keywords":["cp","nocrits","nodmgspread","uncletopia"],"game_id":440,"stv_port":27026,"stv_name":"Uncletopia | Sydney | 2 | All Maps | STV","players":null},{"server_id":395,"name":"Uncletopia | Sydney | 3 | All Maps","name_short":"syd-3","host":"syd-1.au.uncletopia.com","port":27035,"enabled":true,"region":"au","cc":"au","latitude":-33.865143,"longitude":151.2099,"reserved":0,"last_update":"0001-01-01T00:00:00Z","name_a2s":"Uncletopia | Sydney | 3 | All Maps","protocol":17,"map":"pl_frontier_final","folder":"tf","game":"Team Fortress","app_id":440,"player_count":0,"max_players":24,"Bots":0,"server_type":"Dedicated","server_os":"Linux","password":true,"vac":true,"version":"7961495","steam_id":85568392925194467,"keywords":["nocrits","nodmgspread","payload","uncletopia"],"game_id":440,"stv_port":27036,"stv_name":"Uncletopia | Sydney | 3 | All Maps | STV","players":null},{"server_id":396,"name":"Uncletopia | Sydney | 4 | All Maps","name_short":"syd-4","host":"syd-1.au.uncletopia.com","port":27045,"enabled":true,"region":"au","cc":"au","latitude":-33.865143,"longitude":151.2099,"reserved":0,"last_update":"0001-01-01T00:00:00Z","name_a2s":"Uncletopia | Sydney | 4 | All Maps","protocol":17,"map":"cp_process_final","folder":"tf","game":"Team Fortress","app_id":440,"player_count":0,"max_players":24,"Bots":0,"server_type":"Dedicated","server_os":"Linux","password":true,"vac":true,"version":"7961495","steam_id":85568392925397958,"keywords":["cp","nocrits","nodmgspread","uncletopia"],"game_id":440,"stv_port":27046,"stv_name":"Uncletopia | Sydney | 4 | All Maps | STV","players":null},{"server_id":58,"name":"Uncletopia | Sydney | 5 | Stopwatch","name_short":"syd-5","host":"syd-1.au.uncletopia.com","port":27055,"enabled":true,"region":"au","cc":"au","latitude":-33.865143,"longitude":151.2099,"reserved":0,"last_update":"0001-01-01T00:00:00Z","name_a2s":"Uncletopia | Sydney | 5 | Stopwatch","protocol":17,"map":"pl_frontier_final","folder":"tf","game":"Team Fortress","app_id":440,"player_count":0,"max_players":24,"Bots":0,"server_type":"Dedicated","server_os":"Linux","password":true,"vac":true,"version":"7961495","steam_id":85568392925397959,"keywords":["nocrits","nodmgspread","payload","uncletopia"],"game_id":440,"stv_port":27056,"stv_name":"Uncletopia | Sydney | 5 | Stopwatch | STV","players":null},{"server_id":59,"name":"Uncletopia | Sydney | 6 | Community","name_short":"syd-6","host":"syd-1.au.uncletopia.com","port":27065,"enabled":true,"region":"au","cc":"au","latitude":-33.865143,"longitude":151.2099,"reserved":0,"last_update":"0001-01-01T00:00:00Z","name_a2s":"Uncletopia | Sydney | 6 | Community","protocol":17,"map":"cp_sunshine","folder":"tf","game":"Team Fortress","app_id":440,"player_count":0,"max_players":24,"Bots":0,"server_type":"Dedicated","server_os":"Linux","password":true,"vac":true,"version":"7961495","steam_id":85568392925397960,"keywords":["cp","nocrits","nodmgspread","uncletopia"],"game_id":440,"stv_port":27066,"stv_name":"Uncletopia | Sydney | 6 | Community | STV","players":null},{"server_id":49,"name":"Uncletopia | Warsaw | 1 | One Thousand Uncles","name_short":"waw-1","host":"waw-1.pl.uncletopia.com","port":27015,"enabled":true,"region":"eu","cc":"pl","latitude":52.2297,"longitude":21.017532,"reserved":0,"last_update":"0001-01-01T00:00:00Z","name_a2s":"Uncletopia | Warsaw | 1 | One Thousand Uncles","protocol":17,"map":"pl_goldrush","folder":"tf","game":"Team Fortress","app_id":440,"player_count":23,"max_players":32,"Bots":16,"server_type":"Dedicated","server_os":"Linux","password":true,"vac":true,"version":"7961495","steam_id":85568392925397850,"keywords":["alltalk","bots","danepve","increased_maxplayers","nocrits","norespawntime","payload","uncletopia"],"game_id":440,"stv_port":0,"stv_name":"","players":[{"user_id":423,"name":"Zillsy","steam_id":76561198166436893,"connected_time":5995000000000,"state":"active","ping":43},{"user_id":473,"name":"Xeno","steam_id":76561198074667742,"connected_time":937000000000,"state":"active","ping":62},{"user_id":448,"name":"Samuel L. Jackson","steam_id":76561198130427881,"connected_time":4468000000000,"state":"active","ping":172},{"user_id":442,"name":"SvinoPitek","steam_id":76561199402865949,"connected_time":5862000000000,"state":"active","ping":44},{"user_id":475,"name":"Gudiks","steam_id":76561198150375237,"connected_time":51000000000,"state":"active","ping":120},{"user_id":472,"name":"mud","steam_id":76561198141497461,"connected_time":1701000000000,"state":"active","ping":90},{"user_id":440,"name":"Marx_guard","steam_id":76561198987233274,"connected_time":5977000000000,"state":"active","ping":46}]},{"server_id":50,"name":"Uncletopia | Warsaw | 2 | One Thousand Uncles","name_short":"waw-2","host":"waw-1.pl.uncletopia.com","port":27025,"enabled":true,"region":"eu","cc":"pl","latitude":52.2297,"longitude":21.017532,"reserved":0,"last_update":"0001-01-01T00:00:00Z","name_a2s":"Uncletopia | Warsaw | 2 | One Thousand Uncles","protocol":17,"map":"pl_upward","folder":"tf","game":"Team Fortress","app_id":440,"player_count":0,"max_players":32,"Bots":0,"server_type":"Dedicated","server_os":"Linux","password":true,"vac":true,"version":"7961495","steam_id":85568392925397851,"keywords":["alltalk","danepve","increased_maxplayers","nocrits","norespawntime","payload","uncletopia"],"game_id":440,"stv_port":0,"stv_name":"","players":null},{"server_id":51,"name":"Uncletopia | Warsaw | 3 | All Maps","name_short":"waw-3","host":"waw-1.pl.uncletopia.com","port":27035,"enabled":true,"region":"eu","cc":"pl","latitude":52.2297,"longitude":21.017532,"reserved":0,"last_update":"0001-01-01T00:00:00Z","name_a2s":"Uncletopia | Warsaw | 3 | All Maps","protocol":17,"map":"plr_pipeline","folder":"tf","game":"Team Fortress","app_id":440,"player_count":0,"max_players":24,"Bots":0,"server_type":"Dedicated","server_os":"Linux","password":true,"vac":true,"version":"7961495","steam_id":85568392925397852,"keywords":["nocrits","nodmgspread","payload","uncletopia"],"game_id":440,"stv_port":27036,"stv_name":"Uncletopia | Warsaw | 3 | All Maps | STV","players":null},{"server_id":52,"name":"Uncletopia | Warsaw | 4 | All Maps","name_short":"waw-4","host":"waw-1.pl.uncletopia.com","port":27045,"enabled":true,"region":"eu","cc":"pl","latitude":52.2297,"longitude":21.017532,"reserved":0,"last_update":"0001-01-01T00:00:00Z","name_a2s":"Uncletopia | Warsaw | 4 | All Maps","protocol":17,"map":"koth_cascade","folder":"tf","game":"Team Fortress","app_id":440,"player_count":0,"max_players":24,"Bots":0,"server_type":"Dedicated","server_os":"Linux","password":true,"vac":true,"version":"7961495","steam_id":85568392925397853,"keywords":["cp","nocrits","nodmgspread","uncletopia"],"game_id":440,"stv_port":27046,"stv_name":"Uncletopia | Warsaw | 4 | All Maps | STV","players":null},{"server_id":53,"name":"Uncletopia | Warsaw | 5 | Stopwatch","name_short":"waw-5","host":"waw-1.pl.uncletopia.com","port":27055,"enabled":true,"region":"eu","cc":"pl","latitude":52.2297,"longitude":21.017532,"reserved":0,"last_update":"0001-01-01T00:00:00Z","name_a2s":"Uncletopia | Warsaw | 5 | Stopwatch","protocol":17,"map":"workshop/koth_ashville_final.ugc2130459942","folder":"tf","game":"Team Fortress","app_id":440,"player_count":0,"max_players":24,"Bots":0,"server_type":"Dedicated","server_os":"Linux","password":true,"vac":true,"version":"7961495","steam_id":85568392925397854,"keywords":["cp","nocrits","nodmgspread","uncletopia"],"game_id":440,"stv_port":27056,"stv_name":"Uncletopia | Warsaw | 5 | Stopwatch | STV","players":null},{"server_id":54,"name":"Uncletopia | Warsaw | 6 | Community","name_short":"waw-6","host":"waw-1.pl.uncletopia.com","port":27065,"enabled":true,"region":"eu","cc":"pl","latitude":52.2297,"longitude":21.017532,"reserved":0,"last_update":"0001-01-01T00:00:00Z","name_a2s":"Uncletopia | Warsaw | 6 | Community","protocol":17,"map":"workshop/cp_propaganda_b18.ugc1603743849","folder":"tf","game":"Team Fortress","app_id":440,"player_count":0,"max_players":24,"Bots":0,"server_type":"Dedicated","server_os":"Linux","password":true,"vac":true,"version":"7961495","steam_id":85568392925397856,"keywords":["cp","nocrits","nodmgspread","uncletopia"],"game_id":440,"stv_port":27066,"stv_name":"Uncletopia | Warsaw | 6 | Community | STV","players":null}]}