{"status":true,"message":"","result":[{"server_id":9,"name":"Uncletopia | Atlanta | 1 | All Maps","name_short":"atl-1","host":"atl-1.us.uncletopia.com","port":27015,"enabled":true,"region":"us-east","cc":"us","latitude":33.753746,"longitude":-84.38633,"reserved":0,"last_update":"0001-01-01T00:00:00Z","name_a2s":"Uncletopia | Atlanta | 1 | All Maps","protocol":17,"map":"pl_badwater","folder":"tf","game":"Team Fortress","app_id":440,"player_count":23,"max_players":24,"Bots":0,"server_type":"Dedicated","server_os":"Linux","password":true,"vac":true,"version":"7961495","steam_id":85568392924469982,"keywords":["nocrits","nodmgspread","payload","uncletopia"],"game_id":440,"stv_port":27016,"stv_name":"Uncletopia | Atlanta | 1 | All Maps | STV","players":[{"user_id":8,"name":"Typh","steam_id":76561198315344079,"connected_time":3814000000000,"state":"active","ping":55},{"user_id":25,"name":"ChimpChampion","steam_id":76561198046520712,"connected_time":2604000000000,"state":"active","ping":94},{"user_id":50,"name":"wickedwaki","steam_id":76561198135492259,"connected_time":1679000000000,"state":"active","ping":49},{"user_id":13,"name":"Shibo","steam_id":76561198168517216,"connected_time":3439000000000,"state":"active","ping":182},{"user_id":14,"name":"boylover29","steam_id":76561198163089355,"connected_time":3331000000000,"state":"active","ping":67},{"user_id":46,"name":"VisibleForce","steam_id":76561198104178938,"connected_time":1943000000000,"state":"active","ping":80},{"user_id":16,"name":"Obelisk","steam_id":76561198049416866,"connected_time":3012000000000,"state":"active","ping":50},{"user_id":51,"name":"Piggypot","steam_id":76561199106826976,"connected_time":1500000000000,"state":"active","ping":80},{"user_id":59,"name":"Ata","steam_id":76561198349085545,"connected_time":232000000000,"state":"active","ping":81},{"user_id":20,"name":"yeetyfreety","steam_id":76561198882735886,"connected_time":2792000000000,"state":"active","ping":41},{"user_id":22,"name":"federal agent","steam_id":76561198136278172,"connected_time":2718000000000,"state":"active","ping":121},{"user_id":61,"name":"MineAGK","steam_id":76561198128372943,"connected_time":9000000000,"state":"spawning","ping":74},{"user_id":53,"name":"Rodgedan","steam_id":76561198226236524,"connected_time":1077000000000,"state":"active","ping":90},{"user_id":26,"name":"SlitherDoodle","steam_id":76561198000275473,"connected_time":2576000000000,"state":"active","ping":147},{"user_id":27,"name":"SoundKitKiller","steam_id":76561198053535873,"connected_time":2518000000000,"state":"active","ping":86},{"user_id":52,"name":"frid","steam_id":76561198005806915,"connected_time":1230000000000,"state":"active","ping":75},{"user_id":62,"name":"capetanunito","steam_id":76561199364524852,"connected_time":1000000000,"state":"spawning","ping":184},{"user_id":60,"name":"Drilly22","steam_id":76561198068838338,"connected_time":165000000000,"state":"active","ping":78},{"user_id":54,"name":"walrus","steam_id":76561198057853319,"connected_time":1071000000000,"state":"active","ping":67},{"user_id":38,"name":"KhorneBread Ô∏ª„Éá ‰∏Ä","steam_id":76561198097069958,"connected_time":2275000000000,"state":"active","ping":75},{"user_id":57,"name":"kite","steam_id":76561198346516392,"connected_time":738000000000,"state":"active","ping":80},{"user_id":36,"name":"Major Woody","steam_id":76561198835541533,"connected_time":2344000000000,"state":"active","ping":100},{"user_id":37,"name":"BatMatt","steam_id":76561198045910433,"connected_time":2307000000000,"state":"active","ping":62}]},{"server_id":104,"name":"Uncletopia | Atlanta | 2 | All Maps","name_short":"atl-2","host":"atl-1.us.uncletopia.com","port":27025,"enabled":true,"region":"us-east","cc":"us","latitude":33.753746,"longitude":-84.38633,"reserved":0,"last_update":"0001-01-01T00:00:00Z","name_a2s":"Uncletopia | Atlanta | 2 | All Maps","protocol":17,"map":"koth_cascade","folder":"tf","game":"Team Fortress","app_id":440,"player_count":0,"max_players":24,"Bots":0,"server_type":"Dedicated","server_os":"Linux","password":true,"vac":true,"version":"7961495","steam_id":85568392924469983,"keywords":["cp","nocrits","nodmgspread","uncletopia"],"game_id":440,"stv_port":27026,"stv_name":"Uncletopia | Atlanta | 2 | All Maps | STV","players":null},{"server_id":400,"name":"Uncletopia | Atlanta | 3 | Stopwatch","name_short":"atl-3","host":"atl-1.us.uncletopia.com","port":27035,"enabled":true,"region":"us-east","cc":"us","latitude":33.753746,"longitude":-84.38633,"reserved":0,"last_update":"0001-01-01T00:00:00Z","name_a2s":"Uncletopia | Atlanta | 3 | Stopwatch","protocol":17,"map":"koth_highpass","folder":"tf","game":"Team Fortress","app_id":440,"player_count":0,"max_players":24,"Bots":0,"server_type":"Dedicated","server_os":"Linux","password":true,"vac":true,"version":"7961495","steam_id":85568392924515187,"keywords":["cp","nocrits","nodmgspread","uncletopia"],"game_id":440,"stv_port":27036,"stv_name":"Uncletopia | Atlanta | 3 | Stopwatch | STV","players":null},{"server_id":401,"name":"Uncletopia | Atlanta | 4 | Community","name_short":"atl-4","host":"atl-1.us.uncletopia.com","port":27045,"enabled":true,"region":"us-east","cc":"us","latitude":33.753746,"longitude":-84.38633,"reserved":0,"last_update":"0001-01-01T00:00:00Z","name_a2s":"Uncletopia | Atlanta | 4 | Community","protocol":17,"map":"workshop/koth_product_final.ugc454272353","folder":"tf","game":"Team Fortress","app_id":440,"player_count":0,"max_players":24,"Bots":0,"server_type":"Dedicated","server_os":"Linux","password":true,"vac":true,"version":"7961495","steam_id":85568392924515188,"keywords":["cp","nocrits","nodmgspread","uncletopia"],"game_id":440,"stv_port":27046,"stv_name":"Uncletopia | Atlanta | 4 | Community | STV","players":null},{"server_id":2,"name":"Uncletopia | Chicago | 1 | All Maps","name_short":"chi-1","host":"chi-1.us.uncletopia.com","port":27015,"enabled":true,"region":"us-central","cc":"us","latitude":41.881832,"longitude":-87.62318,"reserved":0,"last_update":"0001-01-01T00:00:00Z","name_a2s":"Uncletopia | Chicago | 1 | All Maps","protocol":17,"map":"koth_viaduct","folder":"tf","game":"Team Fortress","app_id":440,"player_count":24,"max_players":24,"Bots":0,"server_type":"Dedicated","server_os":"Linux","password":true,"vac":true,"version":"7961495","steam_id":85568392924469984,"keywords":["cp","nocrits","nodmgspread","uncletopia"],"game_id":440,"stv_port":27016,"stv_name":"Uncletopia | Chicago | 1 | All Maps | STV","players":[{"user_id":8,"name":"Robtobs #SaveTF2","steam_id":76561198282084680,"connected_time":2105000000000,"state":"active","ping":85},{"user_id":11,"name":"Leftover Soup","steam_id":76561198112816872,"connected_time":1632000000000,"state":"active","ping":119},{"user_id":45,"name":"noid","steam_id":76561198074077426,"connected_time":7000000000,"state":"spawning","ping":58},{"user_id":16,"name":"teleport goblin 2","steam_id":76561198882404753,"connected_time":1365000000000,"state":"active","ping":79},{"user_id":13,"name":"Jeramosa","steam_id":76561198811000094,"connected_time":1507000000000,"state":"active","ping":85},{"user_id":22,"name":"Bruv","steam_id":76561198921023375,"connected_time":1002000000000,"state":"active","ping":85},{"user_id":43,"name":"yuuko","steam_id":76561198097711389,"connected_time":101000000000,"state":"active","ping":91},{"user_id":23,"name":"TJGSASQUATCH","steam_id":76561198077806921,"connected_time":745000000000,"state":"active","ping":76},{"user_id":24,"name":"Iron Sheik","steam_id":76561198069980923,"connected_time":623000000000,"state":"active","ping":72},{"user_id":25,"name":"ZackPlayz","steam_id":76561198393823932,"connected_time":616000000000,"state":"active","ping":91},{"user_id":28,"name":"WhrSkr","steam_id":76561198845227751,"connected_time":518000000000,"state":"active","ping":47},{"user_id":29,"name":"peanut butter","steam_id":76561198117839474,"connected_time":479000000000,"state":"active","ping":66},{"user_id":30,"name":"PyroTechno","steam_id":76561198060929872,"connected_time":393000000000,"state":"active","ping":94},{"user_id":31,"name":"roto","steam_id":76561198138735860,"connected_time":377000000000,"state":"active","ping":1146},{"user_id":32,"name":"Tawny Autumn","steam_id":76561198254016347,"connected_time":367000000000,"state":"active","ping":88},{"user_id":44,"name":"Microsoft Excel","steam_id":76561199401598364,"connected_time":99000000000,"state":"active","ping":84},{"user_id":34,"name":"Wolfman","steam_id":76561198095264646,"connected_time":296000000000,"state":"active","ping":92},{"user_id":46,"name":"mkl","steam_id":76561197986401685,"connected_time":4000000000,"state":"spawning","ping":109},{"user_id":36,"name":"King De","steam_id":76561198194427422,"connected_time":253000000000,"state":"active","ping":62},{"user_id":37,"name":"Sergeant Joker LFT","steam_id":76561198854616604,"connected_time":237000000000,"state":"active","ping":67},{"user_id":38,"name":":)","steam_id":76561198446767124,"connected_time":228000000000,"state":"active","ping":98},{"user_id":39,"name":"Siz","steam_id":76561198072962154,"connected_time":220000000000,"state":"active","ping":65},{"user_id":40,"name":"Gary Budussy","steam_id":76561197969793969,"connected_time":201000000000,"state":"active","ping":60},{"user_id":41,"name":"D(b) Hell","steam_id":76561198067869016,"connected_time":195000000000,"state":"active","ping":42}]},{"server_id":106,"name":"Uncletopia | Chicago | 2 | All Maps","name_short":"chi-2","host":"chi-1.us.uncletopia.com","port":27025,"enabled":true,"region":"us-central","cc":"us","latitude":41.881832,"longitude":-87.62318,"reserved":0,"last_update":"0001-01-01T00:00:00Z","name_a2s":"Uncletopia | Chicago | 2 | All Maps","protocol":17,"map":"koth_lakeside_final","folder":"tf","game":"Team Fortress","app_id":440,"player_count":0,"max_players":24,"Bots":0,"server_type":"Dedicated","server_os":"Linux","password":true,"vac":true,"version":"7961495","steam_id":85568392924469985,"keywords":["cp","nocrits","nodmgspread","uncletopia"],"game_id":440,"stv_port":27026,"stv_name":"Uncletopia | Chicago | 2 | All Maps | STV","players":null},{"server_id":402,"name":"Uncletopia | Chicago | 3 | All Maps","name_short":"chi-3","host":"chi-1.us.uncletopia.com","port":27035,"enabled":true,"region":"us-central","cc":"us","latitude":41.881832,"longitude":-87.62318,"reserved":0,"last_update":"0001-01-01T00:00:00Z","name_a2s":"Uncletopia | Chicago | 3 | All Maps","protocol":17,"map":"pl_thundermountain","folder":"tf","game":"Team Fortress","app_id":440,"player_count":24,"max_players":24,"Bots":0,"server_type":"Dedicated","server_os":"Linux","password":true,"vac":true,"version":"7961495","steam_id":85568392924515191,"keywords":["nocrits","nodmgspread","payload","uncletopia"],"game_id":440,"stv_port":27036,"stv_name":"Uncletopia | Chicago | 3 | All Maps | STV","players":[{"user_id":185,"name":"BIG HOG","steam_id":76561198079923652,"connected_time":556000000000,"state":"active","ping":86},{"user_id":169,"name":"Toady","steam_id":76561198012587461,"connected_time":1490000000000,"state":"active","ping":98},{"user_id":189,"name":"rabscootle","steam_id":76561198045619076,"connected_time":146000000000,"state":"active","ping":64},{"user_id":181,"name":"MikeLovesRabbit","steam_id":76561197997742625,"connected_time":744000000000,"state":"active","ping":65},{"user_id":151,"name":"Poppet","steam_id":76561198012301951,"connected_time":3040000000000,"state":"active","ping":55},{"user_id":174,"name":"La Tabda","steam_id":76561198120364620,"connected_time":868000000000,"state":"active","ping":102},{"user_id":135,"name":"JPSS","steam_id":76561199239530493,"connected_time":4108000000000,"state":"active","ping":86},{"user_id":166,"name":"Octto","steam_id":76561198070124921,"connected_time":2004000000000,"state":"active","ping":52},{"user_id":162,"name":"boys kissing","steam_id":76561198392539722,"connected_time":2198000000000,"state":"active","ping":80},{"user_id":134,"name":"William Wallace","steam_id":76561199343316814,"connected_time":4131000000000,"state":"active","ping":74},{"user_id":182,"name":"PadrePockets","steam_id":76561197993251606,"connected_time":721000000000,"state":"active","ping":86},{"user_id":96,"name":"andreana","steam_id":76561198047500553,"connected_time":5810000000000,"state":"active","ping":62},{"user_id":188,"name":"nanachi","steam_id":76561199102728775,"connected_time":477000000000,"state":"active","ping":90},{"user_id":130,"name":"Rornir","steam_id":76561198081829615,"connected_time":4596000000000,"state":"active","ping":41},{"user_id":153,"name":"gooch_masta","steam_id":76561198151578423,"connected_time":3029000000000,"state":"active","ping":100},{"user_id":170,"name":"Bee","steam_id":76561198074681324,"connected_time":1391000000000,"state":"active","ping":61},{"user_id":175,"name":"Zero","steam_id":76561198033384990,"connected_time":859000000000,"state":"active","ping":58},{"user_id":148,"name":"vv","steam_id":76561198134813102,"connected_time":3287000000000,"state":"active","ping":60},{"user_id":187,"name":"Candy Sparkles","steam_id":76561198126871264,"connected_time":499000000000,"state":"active","ping":87},{"user_id":173,"name":"ThatGamingKiwi","steam_id":76561199170522237,"connected_time":1124000000000,"state":"active","ping":82},{"user_id":183,"name":"Gotta Move That Gear Up","steam_id":76561197993467034,"connected_time":683000000000,"state":"active","ping":56},{"user_id":92,"name":"I_Am_Lazy","steam_id":76561199030283067,"connected_time":6007000000000,"state":"active","ping":86},{"user_id":127,"name":"eBay","steam_id":76561198061214569,"connected_time":4714000000000,"state":"active","ping":101},{"user_id":138,"name":"girls kissing","steam_id":76561198249206656,"connected_time":4038000000000,"state":"active","ping":63}]},{"server_id":403,"name":"Uncletopia | Chicago | 4 | All Maps","name_short":"chi-4","host":"chi-1.us.uncletopia.com","port":27045,"enabled":true,"region":"us-central","cc":"us","latitude":41.881832,"longitude":-87.62318,"reserved":0,"last_update":"0001-01-01T00:00:00Z","name_a2s":"Uncletopia | Chicago | 4 | All Maps","protocol":17,"map":"koth_cascade","folder":"tf","game":"Team Fortress","app_id":440,"player_count":0,"max_players":24,"Bots":0,"server_type":"Dedicated","server_os":"Linux","password":true,"vac":true,"version":"7961495","steam_id":85568392924515193,"keywords":["cp","nocrits","nodmgspread","uncletopia"],"game_id":440,"stv_port":27046,"stv_name":"Uncletopia | Chicago | 4 | All Maps | STV","players":null},{"server_id":36,"name":"Uncletopia | Chicago | 5 | All Maps","name_short":"chi-5","host":"chi-2.us.uncletopia.com","port":27015,"enabled":true,"region":"us-central","cc":"us","latitude":41.881832,"longitude":-87.62318,"reserved":0,"last_update":"0001-01-01T00:00:00Z","name_a2s":"Uncletopia | Chicago | 5 | All Maps","protocol":17,"map":"koth_viaduct","folder":"tf","game":"Team Fortress","app_id":440,"player_count":0,"max_players":24,"Bots":0,"server_type":"Dedicated","server_os":"Linux","password":true,"vac":true,"version":"7961495","steam_id":85568392924866362,"keywords":["cp","nocrits","nodmgspread","uncletopia"],"game_id":440,"stv_port":27016,"stv_name":"Uncletopia | Chicago | 5 | All Maps | STV","players":null},{"server_id":37,"name":"Uncletopia | Chicago | 6 | All Maps","name_short":"chi-6","host":"chi-2.us.uncletopia.com","port":27025,"enabled":true,"region":"us-central","cc":"us","latitude":41.881832,"longitude":-87.62318,"reserved":0,"last_update":"0001-01-01T00:00:00Z","name_a2s":"Uncletopia | Chicago | 6 | All Maps","protocol":17,"map":"pl_frontier_final","folder":"tf","game":"Team Fortress","app_id":440,"player_count":0,"max_players":24,"Bots":0,"server_type":"Dedicated","server_os":"Linux","password":true,"vac":true,"version":"7961495","steam_id":85568392924866363,"keywords":["nocrits","nodmgspread","payload","uncletopia"],"game_id":440,"stv_port":27026,"stv_name":"Uncletopia | Chicago | 6 | All Maps | STV","players":null},{"server_id":38,"name":"Uncletopia | Chicago | 7 | Stopwatch","name_short":"chi-7","host":"chi-2.us.uncletopia.com","port":27035,"enabled":true,"region":"us-central","cc":"us","latitude":41.881832,"longitude":-87.62318,"reserved":0,"last_update":"0001-01-01T00:00:00Z","name_a2s":"Uncletopia | Chicago | 7 | Stopwatch","protocol":17,"map":"pl_badwater","folder":"tf","game":"Team Fortress","app_id":440,"player_count":0,"max_players":24,"Bots":0,"server_type":"Dedicated","server_os":"Linux","password":true,"vac":true,"version":"7961495","steam_id":85568392924866364,"keywords":["nocrits","nodmgspread","payload","uncletopia"],"game_id":440,"stv_port":27036,"stv_name":"Uncletopia | Chicago | 7 | Stopwatch | STV","players":null},{"server_id":39,"name":"Uncletopia | Chicago | 8 | Community","name_short":"chi-8","host":"chi-2.us.uncletopia.com","port":27045,"enabled":true,"region":"us-central","cc":"us","latitude":41.881832,"longitude":-87.62318,"reserved":0,"last_update":"0001-01-01T00:00:00Z","name_a2s":"Uncletopia | Chicago | 8 | Community","protocol":17,"map":"pl_pier","folder":"tf","game":"Team Fortress","app_id":440,"player_count":0,"max_players":24,"Bots":0,"server_type":"Dedicated","server_os":"Linux","password":true,"vac":true,"version":"7961495","steam_id":85568392924866365,"keywords":["nocrits","nodmgspread","payload","uncletopia"],"game_id":440,"stv_port":27046,"stv_name":"Uncletopia | Chicago | 8 | Community | STV","players":null},{"server_id":8,"name":"Uncletopia | Dallas | 1 | All Maps","name_short":"dal-1","host":"dal-1.us.uncletopia.com","port":27015,"enabled":true,"region":"us-central","cc":"us","latitude":32.779167,"longitude":-96.80889,"reserved":0,"last_update":"0001-01-01T00:00:00Z","name_a2s":"Uncletopia | Dallas | 1 | All Maps","protocol":17,"map":"cp_dustbowl","folder":"tf","game":"Team Fortress","app_id":440,"player_count":2,"max_players":24,"Bots":0,"server_type":"Dedicated","server_os":"Linux","password":true,"vac":true,"version":"7961495","steam_id":85568392924469986,"keywords":["cp","nocrits","nodmgspread","uncletopia"],"game_id":440,"stv_port":27016,"stv_name":"Uncletopia | Dallas | 1 | All Maps | STV","players":[{"user_id":11,"name":"SIMAX","steam_id":76561199243011400,"connected_time":1236000000000,"state":"active","ping":72},{"user_id":12,"name":"Beantama","steam_id":76561198986811476,"connected_time":759000000000,"state":"active","ping":53}]},{"server_id":108,"name":"Uncletopia | Dallas | 2 | All Maps","name_short":"dal-2","host":"dal-1.us.uncletopia.com","port":27025,"enabled":true,"region":"us-central","cc":"us","latitude":32.779167,"longitude":-96.80889,"reserved":0,"last_update":"0001-01-01T00:00:00Z","name_a2s":"Uncletopia | Dallas | 2 | All Maps","protocol":17,"map":"pl_snowycoast","folder":"tf","game":"Team Fortress","app_id":440,"player_count":0,"max_players":24,"Bots":0,"server_type":"Dedicated","server_os":"Linux","password":true,"vac":true,"version":"7961495","steam_id":85568392924469988,"keywords":["nocrits","nodmgspread","payload","uncletopia"],"game_id":440,"stv_port":27026,"stv_name":"Uncletopia | Dallas | 2 | All Maps | STV","players":null},{"server_id":404,"name":"Uncletopia | Dallas | 3 | All Maps","name_short":"dal-3","host":"dal-1.us.uncletopia.com","port":27035,"enabled":true,"region":"us-central","cc":"us","latitude":32.779167,"longitude":-96.80889,"reserved":0,"last_update":"0001-01-01T00:00:00Z","name_a2s":"Uncletopia | Dallas | 3 | All Maps","protocol":17,"map":"cp_sunshine","folder":"tf","game":"Team Fortress","app_id":440,"player_count":0,"max_players":24,"Bots":0,"server_type":"Dedicated","server_os":"Linux","password":true,"vac":true,"version":"7961495","steam_id":85568392924515219,"keywords":["cp","nocrits","nodmgspread","uncletopia"],"game_id":440,"stv_port":27036,"stv_name":"Uncletopia | Dallas | 3 | All Maps | STV","players":null},{"server_id":405,"name":"Uncletopia | Dallas | 4 | Community","name_short":"dal-4","host":"dal-1.us.uncletopia.com","port":27045,"enabled":true,"region":"us-central","cc":"us","latitude":32.779167,"longitude":-96.80889,"reserved":0,"last_update":"0001-01-01T00:00:00Z","name_a2s":"Uncletopia | Dallas | 4 | Community","protocol":17,"map":"pl_pier","folder":"tf","game":"Team Fortress","app_id":440,"player_count":0,"max_players":24,"Bots":0,"server_type":"Dedicated","server_os":"Linux","password":true,"vac":true,"version":"7961495","steam_id":85568392924515220,"keywords":["nocrits","nodmgspread","payload","uncletopia"],"game_id":440,"stv_port":27046,"stv_name":"Uncletopia | Dallas | 4 | Community | STV","players":null},{"server_id":5,"name":"Uncletopia | Frankfurt | 1 | All Maps","name_short":"frk-1","host":"frk-1.de.uncletopia.com","port":27015,"enabled":true,"region":"eu","cc":"de","latitude":50.110924,"longitude":8.682127,"reserved":0,"last_update":"0001-01-01T00:00:00Z","name_a2s":"Uncletopia | Frankfurt | 1 | All Maps","protocol":17,"map":"pl_pier","folder":"tf","game":"Team Fortress","app_id":440,"player_count":18,"max_players":24,"Bots":0,"server_type":"Dedicated","server_os":"Linux","password":true,"vac":true,"version":"7961495","steam_id":85568392924469989,"keywords":["nocrits","nodmgspread","payload","uncletopia"],"game_id":440,"stv_port":27016,"stv_name":"Uncletopia | Frankfurt | 1 | All Maps | STV","players":[{"user_id":141,"name":"Mr. Mundy","steam_id":76561198132008918,"connected_time":3054000000000,"state":"active","ping":125},{"user_id":179,"name":"ScaryTree","steam_id":76561199384362833,"connected_time":27000000000,"state":"connecting","ping":58},{"user_id":181,"name":"VIN WEASEL","steam_id":76561198014387066,"connected_time":4000000000,"state":"spawning","ping":53},{"user_id":180,"name":"Karahieb","steam_id":76561197972670214,"connected_time":27000000000,"state":"connecting","ping":50},{"user_id":152,"name":"lucifer_on_vacation","steam_id":76561198088956059,"connected_time":1539000000000,"state":"active","ping":132},{"user_id":155,"name":"MrMethor","steam_id":76561198155992717,"connected_time":1486000000000,"state":"spawning","ping":67},{"user_id":158,"name":"xam.‚Çâ‚Åπ‚Çâ","steam_id":76561198375761256,"connected_time":1419000000000,"state":"spawning","ping":68},{"user_id":177,"name":"Sommelier_","steam_id":76561198354180808,"connected_time":71000000000,"state":"spawning","ping":80},{"user_id":174,"name":"neJ","steam_id":76561198003397488,"connected_time":546000000000,"state":"active","ping":69},{"user_id":172,"name":"SaltyCupcakes","steam_id":76561198256386417,"connected_time":685000000000,"state":"spawning","ping":61},{"user_id":159,"name":"Mia_","steam_id":76561198042757059,"connected_time":1416000000000,"state":"spawning","ping":302},{"user_id":74,"name":"endlesshills","steam_id":76561198081908373,"connected_time":7250000000000,"state":"spawning","ping":283},{"user_id":160,"name":"Mika","steam_id":76561199183780280,"connected_time":1409000000000,"state":"spawning","ping":344},{"user_id":176,"name":"www.ESYACARSISI.COM","steam_id":76561198378280844,"connected_time":334000000000,"state":"spawning","ping":78},{"user_id":175,"name":"Caliban","steam_id":76561197999696839,"connected_time":499000000000,"state":"active","ping":119},{"user_id":162,"name":"Delere","steam_id":76561198061309755,"connected_time":1342000000000,"state":"spawning","ping":321},{"user_id":166,"name":"dirhs","steam_id":76561198383867611,"connected_time":1226000000000,"state":"spawning","ping":356},{"user_id":178,"name":"fifrok","steam_id":76561198799267621,"connected_time":43000000000,"state":"spawning","ping":268}]},{"server_id":110,"name":"Uncletopia | Frankfurt | 2 | All Maps","name_short":"frk-2","host":"frk-1.de.uncletopia.com","port":27025,"enabled":true,"region":"eu","cc":"de","latitude":50.110924,"longitude":8.682127,"reserved":0,"last_update":"0001-01-01T00:00:00Z","name_a2s":"Uncletopia | Frankfurt | 2 | All Maps","protocol":17,"map":"pl_snowycoast","folder":"tf","game":"Team Fortress","app_id":440,"player_count":23,"max_players":24,"Bots":0,"server_type":"Dedicated","server_os":"Linux","password":true,"vac":true,"version":"7961495","steam_id":85568392924469990,"keywords":["nocrits","nodmgspread","payload","uncletopia"],"game_id":440,"stv_port":27026,"stv_name":"Uncletopia | Frankfurt | 2 | All Maps | STV","players":[{"user_id":301,"name":"Weeb exterminator","steam_id":76561198078964973,"connected_time":3279000000000,"state":"active","ping":60},{"user_id":314,"name":"ExotiiC ‚òØ","steam_id":76561198046149866,"connected_time":2509000000000,"state":"active","ping":81},{"user_id":309,"name":"The CEO of Sex Inc.","steam_id":76561198385989487,"connected_time":2685000000000,"state":"active","ping":106},{"user_id":343,"name":"Dark","steam_id":76561199162752036,"connected_time":97000000000,"state":"active","ping":74},{"user_id":334,"name":"Doriian","steam_id":76561198071438810,"connected_time":875000000000,"state":"active","ping":75},{"user_id":336,"name":"iShockwave","steam_id":76561198404037424,"connected_time":280000000000,"state":"active","ping":98},{"user_id":337,"name":"Mr. Hunts","steam_id":76561197981910397,"connected_time":260000000000,"state":"active","ping":74},{"user_id":313,"name":"katten","steam_id":76561198163615254,"connected_time":2625000000000,"state":"active","ping":50},{"user_id":326,"name":"sin","steam_id":76561198046921199,"connected_time":1943000000000,"state":"active","ping":61},{"user_id":315,"name":"Chewbacca","steam_id":76561198175030159,"connected_time":2448000000000,"state":"active","ping":117},{"user_id":186,"name":"vomitlust","steam_id":76561197994492154,"connected_time":10434000000000,"state":"active","ping":72},{"user_id":327,"name":"Solymr ibn Wali Barad","steam_id":76561198044008976,"connected_time":1881000000000,"state":"active","ping":76},{"user_id":316,"name":"tallen","steam_id":76561198061708595,"connected_time":2444000000000,"state":"active","ping":75},{"user_id":338,"name":"weaselmeister","steam_id":76561199059841173,"connected_time":248000000000,"state":"active","ping":60},{"user_id":312,"name":"the april fool","steam_id":76561198311044984,"connected_time":2634000000000,"state":"active","ping":65},{"user_id":339,"name":"JohnarasGamer1","steam_id":76561198365929872,"connected_time":231000000000,"state":"spawning","ping":75},{"user_id":329,"name":"alfus","steam_id":76561198071003109,"connected_time":1707000000000,"state":"active","ping":53},{"user_id":340,"name":"ArtaKir","steam_id":76561198291746440,"connected_time":218000000000,"state":"active","ping":76},{"user_id":345,"name":"pisser","steam_id":76561198878081592,"connected_time":42000000000,"state":"active","ping":67},{"user_id":342,"name":"BabyYodaIsMySoda","steam_id":76561198321846861,"connected_time":185000000000,"state":"active","ping":79},{"user_id":330,"name":"putrefied meat","steam_id":76561198280507478,"connected_time":1479000000000,"state":"active","ping":60},{"user_id":331,"name":"IT'S OVER","steam_id":76561198094268619,"connected_time":1280000000000,"state":"active","ping":59},{"user_id":332,"name":"Finem Belli","steam_id":76561198227177976,"connected_time":1235000000000,"state":"active","ping":46}]},{"server_id":308,"name":"Uncletopia | Frankfurt | 3 | All Maps","name_short":"frk-3","host":"frk-1.de.uncletopia.com","port":27035,"enabled":true,"region":"eu","cc":"de","latitude":50.110924,"longitude":8.682127,"reserved":0,"last_update":"0001-01-01T00:00:00Z","name_a2s":"Uncletopia | Frankfurt | 3 | All Maps","protocol":17,"map":"pl_swiftwater_final1","folder":"tf","game":"Team Fortress","app_id":440,"player_count":24,"max_players":24,"Bots":0,"server_type":"Dedicated","server_os":"Linux","password":true,"vac":true,"version":"7961495","steam_id":85568392924504274,"keywords":["nocrits","nodmgspread","payload","uncletopia"],"game_id":440,"stv_port":27036,"stv_name":"Uncletopia | Frankfurt | 3 | All Maps | STV","players":[{"user_id":370,"name":"Shovelhalfrusty","steam_id":76561198346447513,"connected_time":262000000000,"state":"active","ping":68},{"user_id":325,"name":"demoman mode","steam_id":76561198095560087,"connected_time":2795000000000,"state":"active","ping":65},{"user_id":321,"name":"Bobo","steam_id":76561198052308399,"connected_time":3309000000000,"state":"active","ping":61},{"user_id":355,"name":"Proofmean","steam_id":76561198878552103,"connected_time":1350000000000,"state":"active","ping":63},{"user_id":368,"name":"Creepy_Cat","steam_id":76561198261967505,"connected_time":468000000000,"state":"active","ping":92},{"user_id":335,"name":"OceanCow","steam_id":76561198343428913,"connected_time":2007000000000,"state":"active","ping":72},{"user_id":356,"name":"Nipa5000","steam_id":76561199027332005,"connected_time":1339000000000,"state":"active","ping":80},{"user_id":330,"name":"Urfangonultasadana","steam_id":76561199389286151,"connected_time":2108000000000,"state":"active","ping":94},{"user_id":254,"name":"aisu","steam_id":76561198043768507,"connected_time":6038000000000,"state":"active","ping":175},{"user_id":363,"name":"Soulman25 (FIN)","steam_id":76561198103611974,"connected_time":1111000000000,"state":"active","ping":83},{"user_id":336,"name":"kanasta","steam_id":76561198206177349,"connected_time":1980000000000,"state":"active","ping":72},{"user_id":357,"name":"Dzieciol","steam_id":76561198160237556,"connected_time":1197000000000,"state":"active","ping":60},{"user_id":230,"name":"CumbustiblePunda","steam_id":76561197974274677,"connected_time":6673000000000,"state":"active","ping":49},{"user_id":329,"name":"akakez","steam_id":76561198095432821,"connected_time":2215000000000,"state":"active","ping":113},{"user_id":359,"name":"big bug buttz","steam_id":76561198115106008,"connected_time":1189000000000,"state":"active","ping":70},{"user_id":358,"name":"Jotman","steam_id":76561198302202478,"connected_time":1196000000000,"state":"active","ping":81},{"user_id":364,"name":"I.AM.THE.BOOP.WHICH.IS.APROACHI","steam_id":76561198049342507,"connected_time":968000000000,"state":"active","ping":88},{"user_id":338,"name":"StoneLord","steam_id":76561198327834107,"connected_time":1919000000000,"state":"active","ping":58},{"user_id":371,"name":"mage","steam_id":76561198049639319,"connected_time":255000000000,"state":"active","ping":73},{"user_id":252,"name":"Mozzaza","steam_id":76561198156316111,"connected_time":6079000000000,"state":"active","ping":140},{"user_id":360,"name":"znunney","steam_id":76561199438501613,"connected_time":1185000000000,"state":"active","ping":80},{"user_id":324,"name":"Sixten the Pale","steam_id":76561197981806008,"connected_time":3045000000000,"state":"active","ping":74},{"user_id":361,"name":"Jeffrey Harpen","steam_id":76561199073314677,"connected_time":1178000000000,"state":"active","ping":70},{"user_id":362,"name":"Morpheus","steam_id":76561198984889776,"connected_time":1162000000000,"state":"active","ping":78}]},{"server_id":309,"name":"Uncletopia | Frankfurt | 4 | All Maps","name_short":"frk-4","host":"frk-1.de.uncletopia.com","port":27045,"enabled":true,"region":"eu","cc":"de","latitude":50.110924,"longitude":8.682127,"reserved":0,"last_update":"0001-01-01T00:00:00Z","name_a2s":"Uncletopia | Frankfurt | 4 | All Maps","protocol":17,"map":"cp_steel","folder":"tf","game":"Team Fortress","app_id":440,"player_count":23,"max_players":24,"Bots":0,"server_type":"Dedicated","server_os":"Linux","password":true,"vac":true,"version":"7961495","steam_id":85568392924504275,"keywords":["cp","nocrits","nodmgspread","uncletopia"],"game_id":440,"stv_port":27046,"stv_name":"Uncletopia | Frankfurt | 4 | All Maps | STV","players":[{"user_id":133,"name":"Star in a pond","steam_id":76561198205501279,"connected_time":377000000000,"state":"active","ping":91},{"user_id":129,"name":"√•tem","steam_id":76561198148681931,"connected_time":453000000000,"state":"active","ping":75},{"user_id":126,"name":"Defenestrator_14","steam_id":76561198153371782,"connected_time":709000000000,"state":"active","ping":61},{"user_id":134,"name":"honda","steam_id":76561199379866656,"connected_time":357000000000,"state":"active","ping":180},{"user_id":137,"name":"Driver's drunkest God","steam_id":76561198969373800,"connected_time":307000000000,"state":"active","ping":72},{"user_id":132,"name":"puck","steam_id":76561198121260981,"connected_time":406000000000,"state":"active","ping":59},{"user_id":144,"name":"schlafen","steam_id":76561198094084071,"connected_time":135000000000,"state":"active","ping":62},{"user_id":119,"name":"Temperance","steam_id":76561198446955878,"connected_time":1158000000000,"state":"active","ping":84},{"user_id":138,"name":"Neeeiks","steam_id":76561198009156801,"connected_time":293000000000,"state":"active","ping":86},{"user_id":136,"name":"Niko","steam_id":76561199006295285,"connected_time":310000000000,"state":"active","ping":61},{"user_id":139,"name":"decainye","steam_id":76561198401018345,"connected_time":262000000000,"state":"active","ping":75},{"user_id":145,"name":"NESS","steam_id":76561197995225318,"connected_time":100000000000,"state":"active","ping":58},{"user_id":116,"name":"Kristall_54","steam_id":76561199405759756,"connected_time":1242000000000,"state":"active","ping":1679},{"user_id":122,"name":"Desnot","steam_id":76561198862581894,"connected_time":848000000000,"state":"active","ping":78},{"user_id":61,"name":"demps","steam_id":76561198049405872,"connected_time":5022000000000,"state":"active","ping":44},{"user_id":130,"name":"wG silentes","steam_id":76561197999595616,"connected_time":438000000000,"state":"active","ping":54},{"user_id":117,"name":"Big Trader","steam_id":76561197992364667,"connected_time":1242000000000,"state":"active","ping":71},{"user_id":128,"name":"luisar02","steam_id":76561198254259783,"connected_time":589000000000,"state":"active","ping":98},{"user_id":141,"name":"sz(k)","steam_id":76561198118500940,"connected_time":240000000000,"state":"active","ping":64},{"user_id":142,"name":"Tywhip","steam_id":76561199207545191,"connected_time":224000000000,"state":"active","ping":59},{"user_id":127,"name":"Nikoanker","steam_id":76561198090336068,"connected_time":697000000000,"state":"active","ping":56},{"user_id":96,"name":"WIZARD","steam_id":76561198199570742,"connected_time":3144000000000,"state":"active","ping":91},{"user_id":97,"name":"k.","steam_id":76561198258197649,"connected_time":3043000000000,"state":"active","ping":92}]},{"server_id":310,"name":"Uncletopia | Frankfurt | 5 | All Maps","name_short":"frk-5","host":"frk-1.de.uncletopia.com","port":27055,"enabled":true,"region":"eu","cc":"de","latitude":50.110924,"longitude":8.682127,"reserved":0,"last_update":"0001-01-01T00:00:00Z","name_a2s":"Uncletopia | Frankfurt | 5 | All Maps","protocol":17,"map":"cp_process_final","folder":"tf","game":"Team Fortress","app_id":440,"player_count":17,"max_players":24,"Bots":0,"server_type":"Dedicated","server_os":"Linux","password":true,"vac":true,"version":"7961495","steam_id":85568392924504277,"keywords":["cp","nocrits","nodmgspread","uncletopia"],"game_id":440,"stv_port":27056,"stv_name":"Uncletopia | Frankfurt | 5 | All Maps | STV","players":[{"user_id":391,"name":"sussy gussy","steam_id":76561198079461874,"connected_time":80000000000,"state":"active","ping":61},{"user_id":367,"name":"naomi","steam_id":76561197974968671,"connected_time":1724000000000,"state":"active","ping":59},{"user_id":388,"name":"luckyminer98","steam_id":76561198177095691,"connected_time":177000000000,"state":"active","ping":61},{"user_id":389,"name":"üá™üá¨ Pharaoh","steam_id":76561198974553024,"connected_time":118000000000,"state":"active","ping":103},{"user_id":390,"name":"N1xD4","steam_id":76561199047686063,"connected_time":101000000000,"state":"active","ping":60},{"user_id":384,"name":"$t@lker_Tim","steam_id":76561198963658042,"connected_time":273000000000,"state":"active","ping":114},{"user_id":355,"name":"Nozzo","steam_id":76561198012367783,"connected_time":2598000000000,"state":"active","ping":75},{"user_id":373,"name":"Sotija","steam_id":76561198141712034,"connected_time":1276000000000,"state":"active","ping":71},{"user_id":392,"name":"princess dvs","steam_id":76561198012901314,"connected_time":75000000000,"state":"active","ping":110},{"user_id":393,"name":"hellbound","steam_id":76561198160562773,"connected_time":52000000000,"state":"active","ping":64},{"user_id":394,"name":"Sulatejuusto","steam_id":76561198063971856,"connected_time":44000000000,"state":"active","ping":78},{"user_id":395,"name":"bAdmon","steam_id":76561197961785793,"connected_time":1000000000,"state":"spawning","ping":41},{"user_id":383,"name":"EEEEEH","steam_id":76561198126717413,"connected_time":302000000000,"state":"active","ping":70},{"user_id":379,"name":"Friusah","steam_id":76561197971677420,"connected_time":1043000000000,"state":"active","ping":129},{"user_id":380,"name":"Jouppi","steam_id":76561198063725468,"connected_time":607000000000,"state":"active","ping":102},{"user_id":369,"name":"Laco","steam_id":76561199073073486,"connected_time":1577000000000,"state":"active","ping":84},{"user_id":370,"name":"Hand Samitizer","steam_id":76561198354682764,"connected_time":1513000000000,"state":"active","ping":70}]},{"server_id":311,"name":"Uncletopia | Frankfurt | 6 | All Maps","name_short":"frk-6","host":"frk-1.de.uncletopia.com","port":27065,"enabled":true,"region":"eu","cc":"de","latitude":50.110924,"longitude":8.682127,"reserved":0,"last_update":"0001-01-01T00:00:00Z","name_a2s":"Uncletopia | Frankfurt | 6 | All Maps","protocol":17,"map":"pl_upward","folder":"tf","game":"Team Fortress","app_id":440,"player_count":24,"max_players":24,"Bots":0,"server_type":"Dedicated","server_os":"Linux","password":true,"vac":true,"version":"7961495","steam_id":85568392924504278,"keywords":["nocrits","nodmgspread","payload","uncletopia"],"game_id":440,"stv_port":27066,"stv_name":"Uncletopia | Frankfurt | 6 | All Maps | STV","players":[{"user_id":361,"name":"LaZe","steam_id":76561198202191400,"connected_time":4454000000000,"state":"active","ping":60},{"user_id":354,"name":"NoMaD994","steam_id":76561198051908201,"connected_time":4979000000000,"state":"active","ping":90},{"user_id":405,"name":"open player celebrity","steam_id":76561198343328308,"connected_time":1470000000000,"state":"active","ping":58},{"user_id":340,"name":"john fortress","steam_id":76561198013237629,"connected_time":6331000000000,"state":"active","ping":111},{"user_id":396,"name":"1995 Lexus LS400 II XF20 1UZ-FE","steam_id":76561199036420464,"connected_time":1870000000000,"state":"active","ping":71},{"user_id":334,"name":"gamerkiddo","steam_id":76561198047380360,"connected_time":6904000000000,"state":"active","ping":49},{"user_id":402,"name":"Vlach Shepherd","steam_id":76561199206064576,"connected_time":1720000000000,"state":"active","ping":86},{"user_id":377,"name":"Venenakki","steam_id":76561198311526482,"connected_time":4023000000000,"state":"active","ping":64},{"user_id":404,"name":"Slimeby","steam_id":76561198353438688,"connected_time":1478000000000,"state":"active","ping":72},{"user_id":390,"name":"Bullet magnet (FIN)","steam_id":76561197975715220,"connected_time":2864000000000,"state":"active","ping":77},{"user_id":388,"name":"grahn","steam_id":76561197965784238,"connected_time":2965000000000,"state":"active","ping":69},{"user_id":399,"name":"Abdul2091","steam_id":76561198073781577,"connected_time":1804000000000,"state":"active","ping":62},{"user_id":412,"name":"freeze9","steam_id":76561198062856371,"connected_time":376000000000,"state":"active","ping":86},{"user_id":411,"name":"\u003e\u003c\u003e","steam_id":76561198152392309,"connected_time":500000000000,"state":"active","ping":46},{"user_id":379,"name":"Mury","steam_id":76561198069743049,"connected_time":3580000000000,"state":"active","ping":161},{"user_id":410,"name":"Mr Lemon","steam_id":76561198054685254,"connected_time":1006000000000,"state":"active","ping":81},{"user_id":353,"name":"The One (and only)","steam_id":76561198827193499,"connected_time":4986000000000,"state":"active","ping":65},{"user_id":413,"name":"Kahvi","steam_id":76561198723244199,"connected_time":329000000000,"state":"active","ping":89},{"user_id":401,"name":"will toledo","steam_id":76561198111134021,"connected_time":1753000000000,"state":"active","ping":84},{"user_id":395,"name":"Lyell","steam_id":76561198350329389,"connected_time":2097000000000,"state":"active","ping":86},{"user_id":373,"name":"KlomboFan","steam_id":76561198108851389,"connected_time":4095000000000,"state":"active","ping":70},{"user_id":344,"name":"Fat Pigeon","steam_id":76561198817940142,"connected_time":6157000000000,"state":"active","ping":50},{"user_id":300,"name":"Plushy Freeman","steam_id":76561198004935560,"connected_time":10176000000000,"state":"active","ping":68},{"user_id":374,"name":"Master Of Noob","steam_id":76561198217926783,"connected_time":4090000000000,"state":"active","ping":66}]},{"server_id":23,"name":"Uncletopia | Frankfurt | 7 | Stopwatch","name_short":"frk-7","host":"frk-1.de.uncletopia.com","port":27075,"enabled":true,"region":"eu","cc":"de","latitude":50.110924,"longitude":8.682127,"reserved":0,"last_update":"0001-01-01T00:00:00Z","name_a2s":"Uncletopia | Frankfurt | 7 | Stopwatch","protocol":17,"map":"workshop/cp_process_f12.ugc2302948105","folder":"tf","game":"Team Fortress","app_id":440,"player_count":2,"max_players":24,"Bots":0,"server_type":"Dedicated","server_os":"Linux","password":true,"vac":true,"version":"7961495","steam_id":85568392924742827,"keywords":["cp","nocrits","nodmgspread","uncletopia"],"game_id":440,"stv_port":27076,"stv_name":"Uncletopia | Frankfurt | 7 | Stopwatch | STV","players":[{"user_id":9,"name":"haralds.vishnevskis","steam_id":76561199262720486,"connected_time":4019000000000,"state":"active","ping":68},{"user_id":16,"name":"LeDrop James","steam_id":76561198074706076,"connected_time":2383000000000,"state":"active","ping":78}]},{"server_id":24,"name":"Uncletopia | Frankfurt | 8 | Community","name_short":"frk-8","host":"frk-1.de.uncletopia.com","port":27085,"enabled":true,"region":"eu","cc":"de","latitude":50.110924,"longitude":8.682127,"reserved":0,"last_update":"0001-01-01T00:00:00Z","name_a2s":"Uncletopia | Frankfurt | 8 | Community","protocol":17,"map":"workshop/pl_boundary_final1.ugc456799153","folder":"tf","game":"Team Fortress","app_id":440,"player_count":0,"max_players":24,"Bots":0,"server_type":"Dedicated","server_os":"Linux","password":true,"vac":true,"version":"7961495","steam_id":85568392924742828,"keywords":["nocrits","nodmgspread","payload","uncletopia"],"game_id":440,"stv_port":27086,"stv_name":"Uncletopia | Frankfurt | 8 | Community | STV","players":null},{"server_id":202,"name":"Uncletopia | Hong Kong | 1 | All Maps","name_short":"hgk-1","host":"hgk-1.hk.uncletopia.com","port":27015,"enabled":true,"region":"asia","cc":"hk","latitude":22.302711,"longitude":114.177216,"reserved":0,"last_update":"0001-01-01T00:00:00Z","name_a2s":"Uncletopia | Hong Kong | 1 | All Maps","protocol":17,"map":"cp_sunshine","folder":"tf","game":"Team Fortress","app_id":440,"player_count":4,"max_players":24,"Bots":0,"server_type":"Dedicated","server_os":"Linux","password":true,"vac":true,"version":"7961495","steam_id":85568392924494504,"keywords":["cp","nocrits","nodmgspread","uncletopia"],"game_id":440,"stv_port":27016,"stv_name":"Uncletopia | Hong Kong | 1 | All Maps | STV","players":[{"user_id":568,"name":"Flagbearer","steam_id":76561198197890458,"connected_time":112000000000,"state":"active","ping":236},{"user_id":558,"name":"Kanna (th)","steam_id":76561199213469914,"connected_time":1000000000000,"state":"active","ping":114},{"user_id":490,"name":"no vc no c","steam_id":76561197989503095,"connected_time":6753000000000,"state":"active","ping":80},{"user_id":470,"name":"Milf (The fan O'Milk)","steam_id":76561198213031155,"connected_time":9594000000000,"state":"active","ping":88}]},{"server_id":1,"name":"Uncletopia | Los Angeles | 1 | All Maps","name_short":"lax-1","host":"lax-1.us.uncletopia.com","port":27015,"enabled":true,"region":"us-west","cc":"us","latitude":33.94279,"longitude":-118.41004,"reserved":0,"last_update":"0001-01-01T00:00:00Z","name_a2s":"Uncletopia | Los Angeles | 1 | All Maps","protocol":17,"map":"pl_snowycoast","folder":"tf","game":"Team Fortress","app_id":440,"player_count":0,"max_players":24,"Bots":0,"server_type":"Dedicated","server_os":"Linux","password":true,"vac":true,"version":"7961495","steam_id":85568392924469991,"keywords":["nocrits","nodmgspread","payload","uncletopia"],"game_id":440,"stv_port":27016,"stv_name":"Uncletopia | Los Angeles | 1 | All Maps | STV","players":null},{"server_id":112,"name":"Uncletopia | Los Angeles | 2 | All Maps","name_short":"lax-2","host":"lax-1.us.uncletopia.com","port":27025,"enabled":true,"region":"us-west","cc":"us","latitude":33.94279,"longitude":-118.41004,"reserved":0,"last_update":"0001-01-01T00:00:00Z","name_a2s":"Uncletopia | Los Angeles | 2 | All Maps","protocol":17,"map":"cp_altitude","folder":"tf","game":"Team Fortress","app_id":440,"player_count":0,"max_players":24,"Bots":0,"server_type":"Dedicated","server_os":"Linux","password":true,"vac":true,"version":"7961495","steam_id":85568392924469992,"keywords":["cp","nocrits","nodmgspread","uncletopia"],"game_id":440,"stv_port":27026,"stv_name":"Uncletopia | Los Angeles | 2 | All Maps | STV","players":null},{"server_id":324,"name":"Uncletopia | Los Angeles | 3 | All Maps","name_short":"lax-3","host":"lax-1.us.uncletopia.com","port":27035,"enabled":true,"region":"us-west","cc":"us","latitude":33.94279,"longitude":-118.41004,"reserved":0,"last_update":"0001-01-01T00:00:00Z","name_a2s":"Uncletopia | Los Angeles | 3 | All Maps","protocol":17,"map":"pl_frontier_final","folder":"tf","game":"Team Fortress","app_id":440,"player_count":0,"max_players":24,"Bots":0,"server_type":"Dedicated","server_os":"Linux","password":true,"vac":true,"version":"7961495","steam_id":85568392924510198,"keywords":["nocrits","nodmgspread","payload","uncletopia"],"game_id":440,"stv_port":27036,"stv_name":"Uncletopia | Los Angeles | 3 | All Maps | STV","players":null},{"server_id":25,"name":"Uncletopia | Los Angeles | 4 | Stopwatch","name_short":"lax-4","host":"lax-1.us.uncletopia.com","port":27045,"enabled":true,"region":"us-west","cc":"us","latitude":33.94279,"longitude":-118.41004,"reserved":0,"last_update":"0001-01-01T00:00:00Z","name_a2s":"Uncletopia | Los Angeles | 4 | Stopwatch","protocol":17,"map":"pl_barnblitz","folder":"tf","game":"Team Fortress","app_id":440,"player_count":0,"max_players":24,"Bots":0,"server_type":"Dedicated","server_os":"Linux","password":true,"vac":true,"version":"7961495","steam_id":85568392924510199,"keywords":["nocrits","nodmgspread","payload","uncletopia"],"game_id":440,"stv_port":27046,"stv_name":"Uncletopia | Los Angeles | 4 | Stopwatch | STV","players":null},{"server_id":11,"name":"Uncletopia | London | 1 | All Maps","name_short":"lon-1","host":"lon-1.uk.uncletopia.com","port":27015,"enabled":true,"region":"eu","cc":"gb","latitude":51.509865,"longitude":-0.118092,"reserved":0,"last_update":"0001-01-01T00:00:00Z","name_a2s":"Uncletopia | London | 1 | All Maps","protocol":17,"map":"cp_mountainlab","folder":"tf","game":"Team Fortress","app_id":440,"player_count":24,"max_players":24,"Bots":0,"server_type":"Dedicated","server_os":"Linux","password":true,"vac":true,"version":"7961495","steam_id":85568392924367362,"keywords":["cp","nocrits","nodmgspread","uncletopia"],"game_id":440,"stv_port":27016,"stv_name":"Uncletopia | London | 1 | All Maps | STV","players":[{"user_id":556,"name":"jona3838","steam_id":76561199097658195,"connected_time":3873000000000,"state":"active","ping":101},{"user_id":545,"name":"Lartsa","steam_id":76561198275690230,"connected_time":4816000000000,"state":"active","ping":101},{"user_id":593,"name":"Fatmagic Mukbang ASMR","steam_id":76561198063492110,"connected_time":439000000000,"state":"active","ping":84},{"user_id":591,"name":"Burpman","steam_id":76561198022897937,"connected_time":570000000000,"state":"active","ping":46},{"user_id":539,"name":"Finkaksu Devourer of Sour Candy","steam_id":76561198201389163,"connected_time":5372000000000,"state":"active","ping":67},{"user_id":576,"name":"M√©bh √ìg MacT√≠re","steam_id":76561198346399624,"connected_time":1100000000000,"state":"active","ping":81},{"user_id":557,"name":"lvl. 50 honkler","steam_id":76561198061688660,"connected_time":3853000000000,"state":"active","ping":114},{"user_id":564,"name":"-RRAZALAS","steam_id":76561198043604364,"connected_time":3133000000000,"state":"active","ping":68},{"user_id":577,"name":"Clown :o)","steam_id":76561198074657015,"connected_time":1099000000000,"state":"active","ping":72},{"user_id":585,"name":"golyama ma√Ømuna","steam_id":76561198111807532,"connected_time":813000000000,"state":"active","ping":58},{"user_id":578,"name":"Laryssa","steam_id":76561198271084076,"connected_time":1082000000000,"state":"active","ping":89},{"user_id":595,"name":"Croy","steam_id":76561197972552579,"connected_time":352000000000,"state":"active","ping":45},{"user_id":594,"name":"Sgorbio09","steam_id":76561199081364164,"connected_time":406000000000,"state":"active","ping":88},{"user_id":565,"name":"im jelqing","steam_id":76561198236015392,"connected_time":2653000000000,"state":"active","ping":117},{"user_id":587,"name":"Dolcelatte","steam_id":76561198038501770,"connected_time":746000000000,"state":"active","ping":62},{"user_id":588,"name":"ediheelo","steam_id":76561198363615045,"connected_time":676000000000,"state":"active","ping":44},{"user_id":566,"name":"jermany (not jerma)","steam_id":76561198126599355,"connected_time":2611000000000,"state":"active","ping":63},{"user_id":571,"name":"Tre3","steam_id":76561198054795379,"connected_time":2061000000000,"state":"active","ping":63},{"user_id":589,"name":"Kimer193","steam_id":76561198926759376,"connected_time":637000000000,"state":"active","ping":61},{"user_id":583,"name":"jeezo","steam_id":76561198123592400,"connected_time":847000000000,"state":"active","ping":96},{"user_id":584,"name":"bebed bedba bedda","steam_id":76561198277943630,"connected_time":831000000000,"state":"active","ping":80},{"user_id":572,"name":"Fake Name","steam_id":76561199084041004,"connected_time":1931000000000,"state":"active","ping":38},{"user_id":558,"name":"Minus-Abinus","steam_id":76561199383437138,"connected_time":3658000000000,"state":"active","ping":118},{"user_id":568,"name":"Testy","steam_id":76561198169996602,"connected_time":2448000000000,"state":"active","ping":58}]},{"server_id":114,"name":"Uncletopia | London | 2 | All Maps","name_short":"lon-2","host":"lon-1.uk.uncletopia.com","port":27025,"enabled":true,"region":"eu","cc":"gb","latitude":51.509865,"longitude":-0.118092,"reserved":0,"last_update":"0001-01-01T00:00:00Z","name_a2s":"Uncletopia | London | 2 | All Maps","protocol":17,"map":"pl_barnblitz","folder":"tf","game":"Team Fortress","app_id":440,"player_count":24,"max_players":24,"Bots":0,"server_type":"Dedicated","server_os":"Linux","password":true,"vac":true,"version":"7961495","steam_id":85568392924470941,"keywords":["nocrits","nodmgspread","payload","uncletopia"],"game_id":440,"stv_port":27026,"stv_name":"Uncletopia | London | 2 | All Maps | STV","players":[{"user_id":223,"name":"The Governor","steam_id":76561199206563942,"connected_time":1724000000000,"state":"active","ping":181},{"user_id":211,"name":"Marisa","steam_id":76561198447333379,"connected_time":2189000000000,"state":"active","ping":43},{"user_id":206,"name":"AleXandriX","steam_id":76561198035203950,"connected_time":2568000000000,"state":"active","ping":63},{"user_id":126,"name":"Citromfa","steam_id":76561198427549600,"connected_time":7453000000000,"state":"active","ping":89},{"user_id":234,"name":"Prox","steam_id":76561198351490981,"connected_time":767000000000,"state":"active","ping":39},{"user_id":172,"name":"oiooio","steam_id":76561198444424053,"connected_time":4449000000000,"state":"active","ping":79},{"user_id":192,"name":"Beta Fish","steam_id":76561198073504861,"connected_time":3201000000000,"state":"active","ping":136},{"user_id":185,"name":"Jahlil D'armequanius Finglenut","steam_id":76561198855897385,"connected_time":4108000000000,"state":"active","ping":60},{"user_id":209,"name":"Panda","steam_id":76561198176342325,"connected_time":2438000000000,"state":"active","ping":100},{"user_id":141,"name":"Micha≈Ç","steam_id":76561198320346362,"connected_time":6849000000000,"state":"active","ping":68},{"user_id":228,"name":"Emray","steam_id":76561198012084328,"connected_time":1445000000000,"state":"active","ping":94},{"user_id":204,"name":"Jergu","steam_id":76561198023457541,"connected_time":2610000000000,"state":"active","ping":73},{"user_id":227,"name":"Chish n' Fips","steam_id":76561198012300440,"connected_time":1565000000000,"state":"active","ping":46},{"user_id":179,"name":"Fintinbin","steam_id":76561198055362839,"connected_time":4395000000000,"state":"active","ping":58},{"user_id":231,"name":"horrors within my comprehension","steam_id":76561198363841749,"connected_time":1340000000000,"state":"active","ping":87},{"user_id":224,"name":"hyvakii705","steam_id":76561198086630552,"connected_time":1689000000000,"state":"active","ping":76},{"user_id":236,"name":"Star Throne","steam_id":76561198132171027,"connected_time":301000000000,"state":"active","ping":57},{"user_id":225,"name":"blackstone_o","steam_id":76561199324934485,"connected_time":1653000000000,"state":"active","ping":94},{"user_id":216,"name":"KaasKrans","steam_id":76561198240451972,"connected_time":1890000000000,"state":"active","ping":57},{"user_id":233,"name":"Fabric","steam_id":76561198118742661,"connected_time":825000000000,"state":"active","ping":89},{"user_id":230,"name":"Adam","steam_id":76561198259467867,"connected_time":1394000000000,"state":"active","ping":92},{"user_id":235,"name":"Lockstep","steam_id":76561198010427926,"connected_time":612000000000,"state":"active","ping":129},{"user_id":197,"name":"Glw","steam_id":76561198012410589,"connected_time":2948000000000,"state":"active","ping":44},{"user_id":199,"name":"Purple Soup :D","steam_id":76561198985100366,"connected_time":2863000000000,"state":"active","ping":97}]},{"server_id":320,"name":"Uncletopia | London | 3 | All Maps","name_short":"lon-3","host":"lon-1.uk.uncletopia.com","port":27035,"enabled":true,"region":"eu","cc":"gb","latitude":51.509865,"longitude":-0.118092,"reserved":0,"last_update":"0001-01-01T00:00:00Z","name_a2s":"Uncletopia | London | 3 | All Maps","protocol":17,"map":"pl_borneo","folder":"tf","game":"Team Fortress","app_id":440,"player_count":24,"max_players":24,"Bots":0,"server_type":"Dedicated","server_os":"Linux","password":true,"vac":true,"version":"7961495","steam_id":85568392924510192,"keywords":["nocrits","nodmgspread","payload","uncletopia"],"game_id":440,"stv_port":27036,"stv_name":"Uncletopia | London | 3 | All Maps | STV","players":[{"user_id":78,"name":"AlfonsoM","steam_id":76561198138832894,"connected_time":262000000000,"state":"active","ping":91},{"user_id":80,"name":"Zonts","steam_id":76561198850176432,"connected_time":88000000000,"state":"active","ping":81},{"user_id":65,"name":"barker","steam_id":76561198128319767,"connected_time":583000000000,"state":"active","ping":41},{"user_id":66,"name":"A Red Brick","steam_id":76561198317522580,"connected_time":580000000000,"state":"active","ping":85},{"user_id":17,"name":"Miloleopard","steam_id":76561199196616680,"connected_time":2349000000000,"state":"active","ping":67},{"user_id":62,"name":"Maks","steam_id":76561198315278876,"connected_time":715000000000,"state":"active","ping":57},{"user_id":19,"name":"Tomo","steam_id":76561199015097595,"connected_time":2255000000000,"state":"active","ping":45},{"user_id":73,"name":"Guwop","steam_id":76561197970425737,"connected_time":401000000000,"state":"active","ping":153},{"user_id":21,"name":"kbourbery","steam_id":76561198109943492,"connected_time":2217000000000,"state":"active","ping":50},{"user_id":58,"name":"Eric Catman","steam_id":76561198802117294,"connected_time":1155000000000,"state":"active","ping":63},{"user_id":68,"name":"Liza–Ødl–ß","steam_id":76561198176750238,"connected_time":540000000000,"state":"active","ping":74},{"user_id":64,"name":"Sore Ass","steam_id":76561199367182571,"connected_time":693000000000,"state":"active","ping":73},{"user_id":61,"name":"Joe12000","steam_id":76561198160817969,"connected_time":848000000000,"state":"active","ping":75},{"user_id":69,"name":"Islamo-gauchiste privilegi√©","steam_id":76561198799097492,"connected_time":538000000000,"state":"active","ping":45},{"user_id":75,"name":"Fissure","steam_id":76561198272595481,"connected_time":321000000000,"state":"active","ping":82},{"user_id":29,"name":"Yeetstuf","steam_id":76561199240598000,"connected_time":2039000000000,"state":"active","ping":67},{"user_id":70,"name":"weaj","steam_id":76561198053628243,"connected_time":507000000000,"state":"active","ping":45},{"user_id":34,"name":"Disco Detective","steam_id":76561198008422397,"connected_time":1908000000000,"state":"active","ping":85},{"user_id":71,"name":"Someone named David","steam_id":76561199257522511,"connected_time":502000000000,"state":"active","ping":53},{"user_id":81,"name":"wares merchant","steam_id":76561198166595986,"connected_time":85000000000,"state":"active","ping":66},{"user_id":76,"name":"LOBZIK","steam_id":76561198114830120,"connected_time":308000000000,"state":"active","ping":83},{"user_id":77,"name":"Flak","steam_id":76561198353259508,"connected_time":299000000000,"state":"active","ping":58},{"user_id":82,"name":"SpilledMilk","steam_id":76561198174123971,"connected_time":84000000000,"state":"active","ping":70},{"user_id":51,"name":"Abakum","steam_id":76561198413243475,"connected_time":1549000000000,"state":"active","ping":92}]},{"server_id":321,"name":"Uncletopia | London | 4 | All Maps","name_short":"lon-4","host":"lon-1.uk.uncletopia.com","port":27045,"enabled":true,"region":"eu","cc":"gb","latitude":51.509865,"longitude":-0.118092,"reserved":0,"last_update":"0001-01-01T00:00:00Z","name_a2s":"Uncletopia | London | 4 | All Maps","protocol":17,"map":"pl_upward","folder":"tf","game":"Team Fortress","app_id":440,"player_count":5,"max_players":24,"Bots":0,"server_type":"Dedicated","server_os":"Linux","password":true,"vac":true,"version":"7961495","steam_id":85568392924510193,"keywords":["nocrits","nodmgspread","payload","uncletopia"],"game_id":440,"stv_port":27046,"stv_name":"Uncletopia | London | 4 | All Maps | STV","players":[{"user_id":7,"name":"bp","steam_id":76561198353083018,"connected_time":1503000000000,"state":"active","ping":59},{"user_id":12,"name":"Cash Converters","steam_id":76561199472182973,"connected_time":765000000000,"state":"active","ping":34},{"user_id":13,"name":"EpicMario","steam_id":76561199126779645,"connected_time":702000000000,"state":"active","ping":55},{"user_id":14,"name":"Curls","steam_id":76561198079039937,"connected_time":450000000000,"state":"active","ping":63},{"user_id":16,"name":"G.w","steam_id":76561199107153564,"connected_time":267000000000,"state":"active","ping":54}]},{"server_id":21,"name":"Uncletopia | London | 5 | All Maps","name_short":"lon-5","host":"lon-1.uk.uncletopia.com","port":27055,"enabled":true,"region":"eu","cc":"gb","latitude":51.509865,"longitude":-0.118092,"reserved":0,"last_update":"0001-01-01T00:00:00Z","name_a2s":"Uncletopia | London | 5 | All Maps","protocol":17,"map":"koth_lakeside_final","folder":"tf","game":"Team Fortress","app_id":440,"player_count":0,"max_players":24,"Bots":0,"server_type":"Dedicated","server_os":"Linux","password":true,"vac":true,"version":"7961495","steam_id":85568392924742829,"keywords":["cp","nocrits","nodmgspread","uncletopia"],"game_id":440,"stv_port":27056,"stv_name":"Uncletopia | London | 5 | All Maps | STV","players":null},{"server_id":22,"name":"Uncletopia | London | 6 | All Maps","name_short":"lon-6","host":"lon-1.uk.uncletopia.com","port":27065,"enabled":true,"region":"eu","cc":"gb","latitude":51.509865,"longitude":-0.118092,"reserved":0,"last_update":"0001-01-01T00:00:00Z","name_a2s":"Uncletopia | London | 6 | All Maps","protocol":17,"map":"pl_borneo","folder":"tf","game":"Team Fortress","app_id":440,"player_count":5,"max_players":24,"Bots":0,"server_type":"Dedicated","server_os":"Linux","password":true,"vac":true,"version":"7961495","steam_id":85568392924742830,"keywords":["nocrits","nodmgspread","payload","uncletopia"],"game_id":440,"stv_port":27066,"stv_name":"Uncletopia | London | 6 | All Maps | STV","players":[{"user_id":23,"name":"Dubious Armored Crab","steam_id":76561199195765767,"connected_time":1806000000000,"state":"active","ping":134},{"user_id":29,"name":"WHUSSKEY","steam_id":76561198137827441,"connected_time":33000000000,"state":"active","ping":86},{"user_id":20,"name":"AhYesItsLarry","steam_id":76561198113895325,"connected_time":2468000000000,"state":"active","ping":77},{"user_id":27,"name":"Ralsei","steam_id":76561199351767640,"connected_time":933000000000,"state":"active","ping":61},{"user_id":28,"name":"SaSSolino","steam_id":76561198011308018,"connected_time":624000000000,"state":"active","ping":60}]},{"server_id":40,"name":"Uncletopia | London | 7 | Stopwatch","name_short":"lon-7","host":"lon-1.uk.uncletopia.com","port":27075,"enabled":true,"region":"eu","cc":"gb","latitude":51.509865,"longitude":-0.118092,"reserved":0,"last_update":"0001-01-01T00:00:00Z","name_a2s":"Uncletopia | London | 7 | Stopwatch","protocol":17,"map":"koth_lakeside_final","folder":"tf","game":"Team Fortress","app_id":440,"player_count":0,"max_players":24,"Bots":0,"server_type":"Dedicated","server_os":"Linux","password":true,"vac":true,"version":"7961495","steam_id":85568392924964314,"keywords":["cp","nocrits","nodmgspread","uncletopia"],"game_id":440,"stv_port":27076,"stv_name":"Uncletopia | London | 7 | Stopwatch | STV","players":null},{"server_id":41,"name":"Uncletopia | London | 8 | Community","name_short":"lon-8","host":"lon-1.uk.uncletopia.com","port":27085,"enabled":true,"region":"eu","cc":"gb","latitude":51.509865,"longitude":-0.118092,"reserved":0,"last_update":"0001-01-01T00:00:00Z","name_a2s":"Uncletopia | London | 8 | Community","protocol":17,"map":"workshop/koth_slaughter_rc1.ugc1712845210","folder":"tf","game":"Team Fortress","app_id":440,"player_count":24,"max_players":24,"Bots":0,"server_type":"Dedicated","server_os":"Linux","password":true,"vac":true,"version":"7961495","steam_id":85568392924964315,"keywords":["cp","nocrits","nodmgspread","uncletopia"],"game_id":440,"stv_port":27086,"stv_name":"Uncletopia | London | 8 | Community | STV","players":[{"user_id":241,"name":"Greyhunter","steam_id":76561197960884202,"connected_time":456000000000,"state":"active","ping":42},{"user_id":227,"name":"Aeinzalot","steam_id":76561198195288449,"connected_time":818000000000,"state":"active","ping":45},{"user_id":202,"name":"Skatnaset","steam_id":76561198298457353,"connected_time":2531000000000,"state":"active","ping":80},{"user_id":244,"name":"RayTrain","steam_id":76561198874299515,"connected_time":332000000000,"state":"active","ping":92},{"user_id":169,"name":"milo","steam_id":76561198119016918,"connected_time":5246000000000,"state":"active","ping":61},{"user_id":217,"name":"Asfedia","steam_id":76561199386836351,"connected_time":1885000000000,"state":"active","ping":59},{"user_id":212,"name":"Wir suchen dich!","steam_id":76561198307613521,"connected_time":2008000000000,"state":"active","ping":59},{"user_id":194,"name":"mo","steam_id":76561198109591939,"connected_time":3119000000000,"state":"active","ping":32},{"user_id":178,"name":"Silvr [She/Her]","steam_id":76561198069368377,"connected_time":4756000000000,"state":"active","ping":123},{"user_id":234,"name":"rets_","steam_id":76561198061551392,"connected_time":578000000000,"state":"active","ping":62},{"user_id":181,"name":"Virgil","steam_id":76561198248786778,"connected_time":4679000000000,"state":"active","ping":109},{"user_id":230,"name":"group fortification the second","steam_id":76561198986754793,"connected_time":801000000000,"state":"active","ping":54},{"user_id":222,"name":"Rion Akao ‚òò","steam_id":76561198105207050,"connected_time":1600000000000,"state":"active","ping":54},{"user_id":133,"name":"Supercoxylac","steam_id":76561198376300138,"connected_time":7118000000000,"state":"active","ping":69},{"user_id":157,"name":"Rodia","steam_id":76561197968293161,"connected_time":5966000000000,"state":"active","ping":74},{"user_id":220,"name":"Moondrop","steam_id":76561199421181719,"connected_time":1832000000000,"state":"active","ping":79},{"user_id":198,"name":"Dr Zoidcrab","steam_id":76561198023709882,"connected_time":3066000000000,"state":"active","ping":42},{"user_id":216,"name":"Lukas","steam_id":76561198009118452,"connected_time":1906000000000,"state":"active","ping":72},{"user_id":242,"name":"Locke","steam_id":76561198339408300,"connected_time":412000000000,"state":"active","ping":68},{"user_id":223,"name":"noah","steam_id":76561198099457089,"connected_time":1354000000000,"state":"active","ping":75},{"user_id":175,"name":"c1v","steam_id":76561199085624224,"connected_time":5142000000000,"state":"active","ping":63},{"user_id":224,"name":"quack","steam_id":76561198121003465,"connected_time":1159000000000,"state":"active","ping":50},{"user_id":243,"name":"waffle toaster","steam_id":76561198799089628,"connected_time":367000000000,"state":"active","ping":45},{"user_id":236,"name":"CaPTAIN_EglOO","steam_id":76561199492497672,"connected_time":538000000000,"state":"active","ping":66}]},{"server_id":300,"name":"Uncletopia | Montr√©al | 1 | One Thousand Uncles","name_short":"mtl-1","host":"mtl-1.ca.uncletopia.com","port":27015,"enabled":true,"region":"us-east","cc":"ca","latitude":45.50889,"longitude":-73.56167,"reserved":0,"last_update":"0001-01-01T00:00:00Z","name_a2s":"","protocol":0,"map":"","folder":"","game":"","app_id":0,"player_count":0,"max_players":0,"Bots":0,"server_type":"","server_os":"","password":false,"vac":false,"version":"","steam_id":0,"keywords":null,"game_id":0,"stv_port":0,"stv_name":"","players":null},{"server_id":301,"name":"Uncletopia | Montr√©al | 2 | One Thousand Uncles","name_short":"mtl-2","host":"mtl-1.ca.uncletopia.com","port":27025,"enabled":true,"region":"us-east","cc":"ca","latitude":45.50889,"longitude":-73.56167,"reserved":0,"last_update":"0001-01-01T00:00:00Z","name_a2s":"","protocol":0,"map":"","folder":"","game":"","app_id":0,"player_count":5,"max_players":0,"Bots":0,"server_type":"","server_os":"","password":false,"vac":false,"version":"","steam_id":0,"keywords":null,"game_id":0,"stv_port":0,"stv_name":"","players":[{"user_id":5,"name":"cheios demiose","steam_id":76561199050528128,"connected_time":3343000000000,"state":"active","ping":85},{"user_id":23,"name":"bakkhertz","steam_id":76561198046745579,"connected_time":1573000000000,"state":"active","ping":69},{"user_id":24,"name":"BlinkEdward","steam_id":76561199059523184,"connected_time":1408000000000,"state":"active","ping":92},{"user_id":25,"name":"Mr.Kingboo","steam_id":76561198141543180,"connected_time":760000000000,"state":"active","ping":66},{"user_id":42,"name":"setmarks","steam_id":76561198053954297,"connected_time":386000000000,"state":"active","ping":64}]},{"server_id":302,"name":"Uncletopia | Montr√©al | 3 | One Thousand Uncles","name_short":"mtl-3","host":"mtl-1.ca.uncletopia.com","port":27035,"enabled":true,"region":"us-east","cc":"ca","latitude":45.50889,"longitude":-73.56167,"reserved":0,"last_update":"0001-01-01T00:00:00Z","name_a2s":"","protocol":0,"map":"","folder":"","game":"","app_id":0,"player_count":0,"max_players":0,"Bots":0,"server_type":"","server_os":"","password":false,"vac":false,"version":"","steam_id":0,"keywords":null,"game_id":0,"stv_port":0,"stv_name":"","players":null},{"server_id":13,"name":"Uncletopia | New York City | 1 | All Maps","name_short":"nyc-1","host":"nyc-1.us.uncletopia.com","port":27015,"enabled":true,"region":"us-east","cc":"us","latitude":40.73061,"longitude":-73.93524,"reserved":0,"last_update":"0001-01-01T00:00:00Z","name_a2s":"Uncletopia | New York City | 1 | All Maps","protocol":17,"map":"pl_barnblitz","folder":"tf","game":"Team Fortress","app_id":440,"player_count":22,"max_players":24,"Bots":0,"server_type":"Dedicated","server_os":"Linux","password":true,"vac":true,"version":"7961495","steam_id":85568392924469993,"keywords":["nocrits","nodmgspread","payload","uncletopia"],"game_id":440,"stv_port":27016,"stv_name":"Uncletopia | New York City | 1 | All Maps | STV","players":[{"user_id":329,"name":"Duke Nukem","steam_id":76561198925514486,"connected_time":353000000000,"state":"active","ping":59},{"user_id":284,"name":"::INVEST IN SKYNET::","steam_id":76561198144436132,"connected_time":3979000000000,"state":"active","ping":79},{"user_id":323,"name":"Raine","steam_id":76561198055761141,"connected_time":841000000000,"state":"active","ping":75},{"user_id":318,"name":"Ceige LFT","steam_id":76561198068538473,"connected_time":1064000000000,"state":"active","ping":96},{"user_id":325,"name":"rumidog","steam_id":76561198046896005,"connected_time":476000000000,"state":"active","ping":56},{"user_id":224,"name":"Naffu","steam_id":76561198036945403,"connected_time":10307000000000,"state":"active","ping":54},{"user_id":287,"name":"Nuclear Diarrhea","steam_id":76561198044278802,"connected_time":3475000000000,"state":"active","ping":49},{"user_id":295,"name":"Sooch","steam_id":76561198007043697,"connected_time":3234000000000,"state":"active","ping":55},{"user_id":322,"name":"Shooter of Walls","steam_id":76561197988105207,"connected_time":952000000000,"state":"active","ping":53},{"user_id":288,"name":"Size 18 Zebra Midge","steam_id":76561198078886351,"connected_time":3445000000000,"state":"active","ping":63},{"user_id":247,"name":"Kantamoe","steam_id":76561198046661611,"connected_time":7319000000000,"state":"active","ping":79},{"user_id":324,"name":"CrushforceX","steam_id":76561198367985723,"connected_time":509000000000,"state":"active","ping":77},{"user_id":299,"name":"DUGEN","steam_id":76561198049829542,"connected_time":2780000000000,"state":"active","ping":84},{"user_id":319,"name":"floppy muppet","steam_id":76561198003076261,"connected_time":1053000000000,"state":"active","ping":84},{"user_id":304,"name":"Fluffeline","steam_id":76561198352909489,"connected_time":2318000000000,"state":"active","ping":150},{"user_id":276,"name":"Ejaculation Zach","steam_id":76561198203765200,"connected_time":4713000000000,"state":"active","ping":71},{"user_id":328,"name":"juanjoesc","steam_id":76561198186368430,"connected_time":375000000000,"state":"active","ping":124},{"user_id":315,"name":"1000 Gigglebytes of clown girls","steam_id":76561198290719848,"connected_time":1168000000000,"state":"active","ping":86},{"user_id":306,"name":"BiggFoot","steam_id":76561197998605599,"connected_time":2286000000000,"state":"active","ping":70},{"user_id":321,"name":"Bother","steam_id":76561198336750909,"connected_time":1043000000000,"state":"active","ping":45},{"user_id":309,"name":"Sentry Gun Main Man","steam_id":76561198327938247,"connected_time":1768000000000,"state":"active","ping":93},{"user_id":312,"name":"Sickduck Mcgee","steam_id":76561198028577159,"connected_time":1553000000000,"state":"active","ping":61}]},{"server_id":14,"name":"Uncletopia | New York City | 2 | All Maps","name_short":"nyc-2","host":"nyc-1.us.uncletopia.com","port":27025,"enabled":true,"region":"us-east","cc":"us","latitude":40.73061,"longitude":-73.93524,"reserved":0,"last_update":"0001-01-01T00:00:00Z","name_a2s":"Uncletopia | New York City | 2 | All Maps","protocol":17,"map":"pl_snowycoast","folder":"tf","game":"Team Fortress","app_id":440,"player_count":0,"max_players":24,"Bots":0,"server_type":"Dedicated","server_os":"Linux","password":true,"vac":true,"version":"7961495","steam_id":85568392924469994,"keywords":["nocrits","nodmgspread","payload","uncletopia"],"game_id":440,"stv_port":27026,"stv_name":"Uncletopia | New York City | 2 | All Maps | STV","players":null},{"server_id":15,"name":"Uncletopia | New York City | 3 | Stopwatch","name_short":"nyc-3","host":"nyc-1.us.uncletopia.com","port":27035,"enabled":true,"region":"us-east","cc":"us","latitude":40.73061,"longitude":-73.93524,"reserved":0,"last_update":"0001-01-01T00:00:00Z","name_a2s":"Uncletopia | New York City | 3 | Stopwatch","protocol":17,"map":"workshop/koth_bagel_rc6.ugc2514036946","folder":"tf","game":"Team Fortress","app_id":440,"player_count":0,"max_players":24,"Bots":0,"server_type":"Dedicated","server_os":"Linux","password":true,"vac":true,"version":"7961495","steam_id":85568392924742820,"keywords":["cp","nocrits","nodmgspread","uncletopia"],"game_id":440,"stv_port":27036,"stv_name":"Uncletopia | New York City | 3 | Stopwatch | STV","players":null},{"server_id":16,"name":"Uncletopia | New York City | 4 | Community","name_short":"nyc-4","host":"nyc-1.us.uncletopia.com","port":27045,"enabled":true,"region":"us-east","cc":"us","latitude":40.73061,"longitude":-73.93524,"reserved":0,"last_update":"0001-01-01T00:00:00Z","name_a2s":"Uncletopia | New York City | 4 | Community","protocol":17,"map":"cp_altitude","folder":"tf","game":"Team Fortress","app_id":440,"player_count":0,"max_players":24,"Bots":0,"server_type":"Dedicated","server_os":"Linux","password":true,"vac":true,"version":"7961495","steam_id":85568392924742821,"keywords":["cp","nocrits","nodmgspread","uncletopia"],"game_id":440,"stv_port":27046,"stv_name":"Uncletopia | New York City | 4 | Community | STV","players":null},{"server_id":142,"name":"Uncletopia | S√£o Paulo | 1 | All Maps","name_short":"sao-1","host":"sao-1.br.uncletopia.com","port":27015,"enabled":true,"region":"sa","cc":"br","latitude":-23.533773,"longitude":-46.62529,"reserved":0,"last_update":"0001-01-01T00:00:00Z","name_a2s":"Uncletopia | S√£o Paulo | 1 | All Maps","protocol":17,"map":"pl_swiftwater_final1","folder":"tf","game":"Team Fortress","app_id":440,"player_count":1,"max_players":24,"Bots":0,"server_type":"Dedicated","server_os":"Linux","password":true,"vac":true,"version":"7961495","steam_id":85568392924469996,"keywords":["nocrits","nodmgspread","payload","uncletopia"],"game_id":440,"stv_port":27016,"stv_name":"Uncletopia | S√£o Paulo | 1 | All Maps | STV","players":[{"user_id":5,"name":"el girasol peruano come palomas","steam_id":76561199073916370,"connected_time":66000000000,"state":"spawning","ping":90}]},{"server_id":143,"name":"Uncletopia | S√£o Paulo | 2 | Community","name_short":"sao-2","host":"sao-2.br.uncletopia.com","port":27015,"enabled":true,"region":"sa","cc":"br","latitude":-23.533773,"longitude":-46.62529,"reserved":0,"last_update":"0001-01-01T00:00:00Z","name_a2s":"Uncletopia | S√£o Paulo | 2 | Community","protocol":17,"map":"workshop/koth_synthetic_rc6a.ugc1549817316","folder":"tf","game":"Team Fortress","app_id":440,"player_count":0,"max_players":24,"Bots":0,"server_type":"Dedicated","server_os":"Linux","password":true,"vac":true,"version":"7961495","steam_id":85568392924485349,"keywords":["cp","nocrits","nodmgspread","uncletopia"],"game_id":440,"stv_port":27016,"stv_name":"Uncletopia | S√£o Paulo | 2 | Community | STV","players":null},{"server_id":7,"name":"Uncletopia | Seattle | 1 | All Maps","name_short":"sea-1","host":"sea-1.us.uncletopia.com","port":27015,"enabled":true,"region":"us-west","cc":"us","latitude":47.608013,"longitude":-122.33517,"reserved":0,"last_update":"0001-01-01T00:00:00Z","name_a2s":"Uncletopia | Seattle | 1 | All Maps","protocol":17,"map":"pl_badwater","folder":"tf","game":"Team Fortress","app_id":440,"player_count":24,"max_players":24,"Bots":0,"server_type":"Dedicated","server_os":"Linux","password":true,"vac":true,"version":"7961495","steam_id":85568392924469997,"keywords":["nocrits","nodmgspread","payload","uncletopia"],"game_id":440,"stv_port":27016,"stv_name":"Uncletopia | Seattle | 1 | All Maps | STV","players":[{"user_id":171,"name":"Nom Skirrett","steam_id":76561198014600788,"connected_time":4710000000000,"state":"active","ping":60},{"user_id":192,"name":"exile ace","steam_id":76561198058814369,"connected_time":2189000000000,"state":"active","ping":95},{"user_id":207,"name":"fish","steam_id":76561198194508197,"connected_time":532000000000,"state":"active","ping":72},{"user_id":209,"name":"ISimpForShinomiya","steam_id":76561198998311855,"connected_time":22000000000,"state":"active","ping":89},{"user_id":205,"name":"lorient","steam_id":76561198150831438,"connected_time":769000000000,"state":"active","ping":75},{"user_id":186,"name":"owl","steam_id":76561198088403016,"connected_time":3386000000000,"state":"active","ping":150},{"user_id":136,"name":"NeptuneÀñ‚Å∫ÔΩ°Àö‚ãÜÀô‚ô•","steam_id":76561199054203198,"connected_time":6915000000000,"state":"active","ping":134},{"user_id":195,"name":"Jazpy","steam_id":76561198036872545,"connected_time":1936000000000,"state":"active","ping":92},{"user_id":201,"name":"Flavortown Thanos","steam_id":76561198004853966,"connected_time":827000000000,"state":"active","ping":32},{"user_id":188,"name":"Whimsy!","steam_id":76561197989578836,"connected_time":2768000000000,"state":"active","ping":69},{"user_id":176,"name":"spider","steam_id":76561198130032444,"connected_time":3854000000000,"state":"active","ping":46},{"user_id":147,"name":"Nescio","steam_id":76561198119526760,"connected_time":6505000000000,"state":"active","ping":102},{"user_id":183,"name":"Ahzain","steam_id":76561198035894333,"connected_time":3485000000000,"state":"active","ping":75},{"user_id":206,"name":"lukamine","steam_id":76561198166827208,"connected_time":644000000000,"state":"active","ping":45},{"user_id":145,"name":"Kc","steam_id":76561198210734407,"connected_time":6626000000000,"state":"active","ping":109},{"user_id":198,"name":"Oldengie","steam_id":76561199074712665,"connected_time":1663000000000,"state":"active","ping":73},{"user_id":204,"name":"Canuck","steam_id":76561197999152255,"connected_time":809000000000,"state":"active","ping":53},{"user_id":197,"name":"Skabbety","steam_id":76561198168044257,"connected_time":1699000000000,"state":"active","ping":40},{"user_id":172,"name":"TacoMan","steam_id":76561198049405741,"connected_time":4351000000000,"state":"active","ping":134},{"user_id":160,"name":"Zee‚úû","steam_id":76561198274550638,"connected_time":5649000000000,"state":"active","ping":106},{"user_id":196,"name":"Dr. Medicine","steam_id":76561198165309820,"connected_time":1765000000000,"state":"active","ping":78},{"user_id":157,"name":"Wayan","steam_id":76561198354695464,"connected_time":5840000000000,"state":"active","ping":104},{"user_id":208,"name":"TheBrocklobster","steam_id":76561198039682984,"connected_time":63000000000,"state":"active","ping":89},{"user_id":190,"name":"H.A.Z.E","steam_id":76561199247095754,"connected_time":2764000000000,"state":"active","ping":59}]},{"server_id":119,"name":"Uncletopia | Seattle | 2 | All Maps","name_short":"sea-2","host":"sea-1.us.uncletopia.com","port":27025,"enabled":true,"region":"us-west","cc":"us","latitude":47.608013,"longitude":-122.33517,"reserved":0,"last_update":"0001-01-01T00:00:00Z","name_a2s":"Uncletopia | Seattle | 2 | All Maps","protocol":17,"map":"pl_barnblitz","folder":"tf","game":"Team Fortress","app_id":440,"player_count":0,"max_players":24,"Bots":0,"server_type":"Dedicated","server_os":"Linux","password":true,"vac":true,"version":"7961495","steam_id":85568392924469998,"keywords":["nocrits","nodmgspread","payload","uncletopia"],"game_id":440,"stv_port":27026,"stv_name":"Uncletopia | Seattle | 2 | All Maps | STV","players":null},{"server_id":406,"name":"Uncletopia | Seattle | 3 | Stopwatch","name_short":"sea-3","host":"sea-1.us.uncletopia.com","port":27035,"enabled":true,"region":"us-west","cc":"us","latitude":47.608013,"longitude":-122.33517,"reserved":0,"last_update":"0001-01-01T00:00:00Z","name_a2s":"Uncletopia | Seattle | 3 | Stopwatch","protocol":17,"map":"pl_pier","folder":"tf","game":"Team Fortress","app_id":440,"player_count":0,"max_players":24,"Bots":0,"server_type":"Dedicated","server_os":"Linux","password":true,"vac":true,"version":"7961495","steam_id":85568392924515217,"keywords":["nocrits","nodmgspread","payload","uncletopia"],"game_id":440,"stv_port":27036,"stv_name":"Uncletopia | Seattle | 3 | Stopwatch | STV","players":null},{"server_id":17,"name":"Uncletopia | San Francisco | 1 | All Maps","name_short":"sfo-1","host":"sfo-1.us.uncletopia.com","port":27015,"enabled":true,"region":"us-west","cc":"us","latitude":37.77397,"longitude":-122.4313,"reserved":0,"last_update":"0001-01-01T00:00:00Z","name_a2s":"Uncletopia | San Francisco | 1 | All Maps","protocol":17,"map":"cp_sunshine","folder":"tf","game":"Team Fortress","app_id":440,"player_count":24,"max_players":24,"Bots":0,"server_type":"Dedicated","server_os":"Linux","password":true,"vac":true,"version":"7961495","steam_id":85568392924469999,"keywords":["cp","nocrits","nodmgspread","uncletopia"],"game_id":440,"stv_port":27016,"stv_name":"Uncletopia | San Francisco | 1 | All Maps | STV","players":[{"user_id":56,"name":"Rakash","steam_id":76561198081811224,"connected_time":2773000000000,"state":"active","ping":76},{"user_id":80,"name":"genner","steam_id":76561197966055862,"connected_time":810000000000,"state":"active","ping":150},{"user_id":86,"name":"enhanced with disney's FastPlay","steam_id":76561198164134387,"connected_time":249000000000,"state":"active","ping":75},{"user_id":53,"name":"GH578","steam_id":76561199493262585,"connected_time":3292000000000,"state":"active","ping":53},{"user_id":30,"name":"Aggressive Menace","steam_id":76561198249138216,"connected_time":5487000000000,"state":"active","ping":77},{"user_id":54,"name":"JesusDicks","steam_id":76561198066393631,"connected_time":3200000000000,"state":"active","ping":124},{"user_id":49,"name":"NavyDinosaur","steam_id":76561198088459962,"connected_time":3587000000000,"state":"active","ping":58},{"user_id":60,"name":"Couldron","steam_id":76561198242842394,"connected_time":2025000000000,"state":"active","ping":79},{"user_id":84,"name":"hamilton","steam_id":76561198034096096,"connected_time":593000000000,"state":"active","ping":127},{"user_id":61,"name":"Looka","steam_id":76561199048565831,"connected_time":1844000000000,"state":"active","ping":152},{"user_id":62,"name":"Oktayey","steam_id":76561198143213426,"connected_time":1765000000000,"state":"active","ping":46},{"user_id":68,"name":"lexx","steam_id":76561199238923581,"connected_time":1315000000000,"state":"active","ping":165},{"user_id":66,"name":"Cartoon","steam_id":76561198054660931,"connected_time":1423000000000,"state":"active","ping":71},{"user_id":81,"name":"Grave Accent","steam_id":76561198044330523,"connected_time":789000000000,"state":"active","ping":77},{"user_id":70,"name":"jeff_fan","steam_id":76561198086420687,"connected_time":1213000000000,"state":"active","ping":92},{"user_id":71,"name":"Bearegard","steam_id":76561198061926542,"connected_time":1163000000000,"state":"active","ping":120},{"user_id":85,"name":"Exidy","steam_id":76561198036216584,"connected_time":406000000000,"state":"active","ping":111},{"user_id":73,"name":"Sicko Mode (Chris Pratt Cover)","steam_id":76561198315786174,"connected_time":1109000000000,"state":"active","ping":123},{"user_id":88,"name":"Vlone","steam_id":76561199119064542,"connected_time":18000000000,"state":"spawning","ping":58},{"user_id":75,"name":"TeriyakiDynamite","steam_id":76561198050049346,"connected_time":1066000000000,"state":"active","ping":71},{"user_id":76,"name":"Firedust19","steam_id":76561198153238631,"connected_time":1052000000000,"state":"active","ping":74},{"user_id":82,"name":"Eden","steam_id":76561198081284664,"connected_time":732000000000,"state":"active","ping":60},{"user_id":78,"name":"Doughbouy","steam_id":76561198033321318,"connected_time":1012000000000,"state":"active","ping":96},{"user_id":79,"name":"Ulrich Stern","steam_id":76561198101739682,"connected_time":960000000000,"state":"active","ping":108}]},{"server_id":18,"name":"Uncletopia | San Francisco | 2 | All Maps","name_short":"sfo-2","host":"sfo-1.us.uncletopia.com","port":27025,"enabled":true,"region":"us-west","cc":"us","latitude":37.77397,"longitude":-122.4313,"reserved":0,"last_update":"0001-01-01T00:00:00Z","name_a2s":"Uncletopia | San Francisco | 2 | All Maps","protocol":17,"map":"pl_upward","folder":"tf","game":"Team Fortress","app_id":440,"player_count":0,"max_players":24,"Bots":0,"server_type":"Dedicated","server_os":"Linux","password":true,"vac":true,"version":"7961495","steam_id":85568392924470000,"keywords":["nocrits","nodmgspread","payload","uncletopia"],"game_id":440,"stv_port":27026,"stv_name":"Uncletopia | San Francisco | 2 | All Maps | STV","players":null},{"server_id":19,"name":"Uncletopia | San Francisco | 3 | Stopwatch","name_short":"sfo-3","host":"sfo-1.us.uncletopia.com","port":27035,"enabled":true,"region":"us-west","cc":"us","latitude":37.77397,"longitude":-122.4313,"reserved":0,"last_update":"0001-01-01T00:00:00Z","name_a2s":"Uncletopia | San Francisco | 3 | Stopwatch","protocol":17,"map":"pl_pier","folder":"tf","game":"Team Fortress","app_id":440,"player_count":0,"max_players":24,"Bots":0,"server_type":"Dedicated","server_os":"Linux","password":true,"vac":true,"version":"7961495","steam_id":85568392924742824,"keywords":["nocrits","nodmgspread","payload","uncletopia"],"game_id":440,"stv_port":27036,"stv_name":"Uncletopia | San Francisco | 3 | Stopwatch | STV","players":null},{"server_id":20,"name":"Uncletopia | San Francisco | 4 | Community","name_short":"sfo-4","host":"sfo-1.us.uncletopia.com","port":27045,"enabled":true,"region":"us-west","cc":"us","latitude":37.77397,"longitude":-122.4313,"reserved":0,"last_update":"0001-01-01T00:00:00Z","name_a2s":"Uncletopia | San Francisco | 4 | Community","protocol":17,"map":"pl_pier","folder":"tf","game":"Team Fortress","app_id":440,"player_count":0,"max_players":24,"Bots":0,"server_type":"Dedicated","server_os":"Linux","password":true,"vac":true,"version":"7961495","steam_id":85568392924742826,"keywords":["nocrits","nodmgspread","payload","uncletopia"],"game_id":440,"stv_port":27046,"stv_name":"Uncletopia | San Francisco | 4 | Community | STV","players":null},{"server_id":141,"name":"Uncletopia | Sydney | 1 | All Maps","name_short":"syd-1","host":"syd-1.au.uncletopia.com","port":27015,"enabled":true,"region":"au","cc":"au","latitude":-33.865143,"longitude":151.2099,"reserved":0,"last_update":"0001-01-01T00:00:00Z","name_a2s":"Uncletopia | Sydney | 1 | All Maps","protocol":17,"map":"ctf_2fort","folder":"tf","game":"Team Fortress","app_id":440,"player_count":0,"max_players":24,"Bots":0,"server_type":"Dedicated","server_os":"Linux","password":true,"vac":true,"version":"7961495","steam_id":85568392924470001,"keywords":["ctf","nocrits","nodmgspread","uncletopia"],"game_id":440,"stv_port":27016,"stv_name":"Uncletopia | Sydney | 1 | All Maps | STV","players":null},{"server_id":123,"name":"Uncletopia | Sydney | 2 | All Maps","name_short":"syd-2","host":"syd-1.au.uncletopia.com","port":27025,"enabled":true,"region":"au","cc":"au","latitude":-33.865143,"longitude":151.2099,"reserved":0,"last_update":"0001-01-01T00:00:00Z","name_a2s":"Uncletopia | Sydney | 2 | All Maps","protocol":17,"map":"koth_lakeside_final","folder":"tf","game":"Team Fortress","app_id":440,"player_count":0,"max_players":24,"Bots":0,"server_type":"Dedicated","server_os":"Linux","password":true,"vac":true,"version":"7961495","steam_id":85568392924470002,"keywords":["cp","nocrits","nodmgspread","uncletopia"],"game_id":440,"stv_port":27026,"stv_name":"Uncletopia | Sydney | 2 | All Maps | STV","players":null},{"server_id":395,"name":"Uncletopia | Sydney | 3 | All Maps","name_short":"syd-3","host":"syd-1.au.uncletopia.com","port":27035,"enabled":true,"region":"au","cc":"au","latitude":-33.865143,"longitude":151.2099,"reserved":0,"last_update":"0001-01-01T00:00:00Z","name_a2s":"Uncletopia | Sydney | 3 | All Maps","protocol":17,"map":"pl_frontier_final","folder":"tf","game":"Team Fortress","app_id":440,"player_count":0,"max_players":24,"Bots":0,"server_type":"Dedicated","server_os":"Linux","password":true,"vac":true,"version":"7961495","steam_id":85568392925194467,"keywords":["nocrits","nodmgspread","payload","uncletopia"],"game_id":440,"stv_port":27036,"stv_name":"Uncletopia | Sydney | 3 | All Maps | STV","players":null},{"server_id":396,"name":"Uncletopia | Sydney | 4 | All Maps","name_short":"syd-4","host":"syd-1.au.uncletopia.com","port":27045,"enabled":true,"region":"au","cc":"au","latitude":-33.865143,"longitude":151.2099,"reserved":0,"last_update":"0001-01-01T00:00:00Z","name_a2s":"Uncletopia | Sydney | 4 | All Maps","protocol":17,"map":"koth_lakeside_final","folder":"tf","game":"Team Fortress","app_id":440,"player_count":0,"max_players":24,"Bots":0,"server_type":"Dedicated","server_os":"Linux","password":true,"vac":true,"version":"7961495","steam_id":85568392925397958,"keywords":["cp","nocrits","nodmgspread","uncletopia"],"game_id":440,"stv_port":27046,"stv_name":"Uncletopia | Sydney | 4 | All Maps | STV","players":null},{"server_id":58,"name":"Uncletopia | Sydney | 5 | Stopwatch","name_short":"syd-5","host":"syd-1.au.uncletopia.com","port":27055,"enabled":true,"region":"au","cc":"au","latitude":-33.865143,"longitude":151.2099,"reserved":0,"last_update":"0001-01-01T00:00:00Z","name_a2s":"Uncletopia | Sydney | 5 | Stopwatch","protocol":17,"map":"pl_swiftwater_final1","folder":"tf","game":"Team Fortress","app_id":440,"player_count":0,"max_players":24,"Bots":0,"server_type":"Dedicated","server_os":"Linux","password":true,"vac":true,"version":"7961495","steam_id":85568392925397959,"keywords":["nocrits","nodmgspread","payload","uncletopia"],"game_id":440,"stv_port":27056,"stv_name":"Uncletopia | Sydney | 5 | Stopwatch | STV","players":null},{"server_id":59,"name":"Uncletopia | Sydney | 6 | Community","name_short":"syd-6","host":"syd-1.au.uncletopia.com","port":27065,"enabled":true,"region":"au","cc":"au","latitude":-33.865143,"longitude":151.2099,"reserved":0,"last_update":"0001-01-01T00:00:00Z","name_a2s":"Uncletopia | Sydney | 6 | Community","protocol":17,"map":"workshop/pl_corrode_rc2.ugc546577989","folder":"tf","game":"Team Fortress","app_id":440,"player_count":0,"max_players":24,"Bots":0,"server_type":"Dedicated","server_os":"Linux","password":true,"vac":true,"version":"7961495","steam_id":85568392925397960,"keywords":["nocrits","nodmgspread","payload","uncletopia"],"game_id":440,"stv_port":27066,"stv_name":"Uncletopia | Sydney | 6 | Community | STV","players":null},{"server_id":49,"name":"Uncletopia | Warsaw | 1 | One Thousand Uncles","name_short":"waw-1","host":"waw-1.pl.uncletopia.com","port":27015,"enabled":true,"region":"eu","cc":"pl","latitude":52.2297,"longitude":21.017532,"reserved":0,"last_update":"0001-01-01T00:00:00Z","name_a2s":"Uncletopia | Warsaw | 1 | One Thousand Uncles","protocol":17,"map":"cp_mercenarypark","folder":"tf","game":"Team Fortress","app_id":440,"player_count":32,"max_players":32,"Bots":16,"server_type":"Dedicated","server_os":"Linux","password":true,"vac":true,"version":"7961495","steam_id":85568392925397850,"keywords":["alltalk","bots","cp","danepve","increased_maxplayers","nocrits","norespawntime","uncletopia"],"game_id":440,"stv_port":0,"stv_name":"","players":[{"user_id":350,"name":"Graphite","steam_id":76561198166840867,"connected_time":1659000000000,"state":"active","ping":124},{"user_id":341,"name":"Meat Dragon","steam_id":76561198120319256,"connected_time":2624000000000,"state":"active","ping":162},{"user_id":377,"name":"Tomaszek","steam_id":76561199170300352,"connected_time":486000000000,"state":"active","ping":125},{"user_id":311,"name":"‚ô¶Deutsche Maschine‚ô¶","steam_id":76561199240841303,"connected_time":5432000000000,"state":"active","ping":58},{"user_id":298,"name":"Not confused Spinda","steam_id":76561198144048067,"connected_time":7016000000000,"state":"active","ping":81},{"user_id":352,"name":"photonbinding","steam_id":76561198250996330,"connected_time":1417000000000,"state":"active","ping":172},{"user_id":360,"name":"Caspsa","steam_id":76561198840570501,"connected_time":744000000000,"state":"active","ping":109},{"user_id":358,"name":"Hoflett","steam_id":76561198873156806,"connected_time":868000000000,"state":"active","ping":88},{"user_id":359,"name":"Dark Wizart","steam_id":76561198377689439,"connected_time":816000000000,"state":"active","ping":57},{"user_id":353,"name":"JoeFalco","steam_id":76561198064005012,"connected_time":1319000000000,"state":"active","ping":183},{"user_id":356,"name":"who_dis?","steam_id":76561199156798560,"connected_time":1157000000000,"state":"active","ping":159},{"user_id":378,"name":"alexx","steam_id":76561198156394629,"connected_time":371000000000,"state":"active","ping":70},{"user_id":379,"name":"Kafelka","steam_id":76561199049044189,"connected_time":263000000000,"state":"active","ping":55},{"user_id":380,"name":"the one","steam_id":76561198037977091,"connected_time":88000000000,"state":"active","ping":136},{"user_id":381,"name":"marrutkis","steam_id":76561199226525404,"connected_time":35000000000,"state":"spawning","ping":55},{"user_id":382,"name":"stopydapbip","steam_id":76561198332245230,"connected_time":18000000000,"state":"spawning","ping":119}]},{"server_id":50,"name":"Uncletopia | Warsaw | 2 | One Thousand Uncles","name_short":"waw-2","host":"waw-1.pl.uncletopia.com","port":27025,"enabled":true,"region":"eu","cc":"pl","latitude":52.2297,"longitude":21.017532,"reserved":0,"last_update":"0001-01-01T00:00:00Z","name_a2s":"Uncletopia | Warsaw | 2 | One Thousand Uncles","protocol":17,"map":"pl_pier","folder":"tf","game":"Team Fortress","app_id":440,"player_count":1,"max_players":32,"Bots":0,"server_type":"Dedicated","server_os":"Linux","password":true,"vac":true,"version":"7961495","steam_id":85568392925397851,"keywords":["alltalk","danepve","increased_maxplayers","nocrits","norespawntime","payload","uncletopia"],"game_id":440,"stv_port":0,"stv_name":"","players":[{"user_id":353,"name":"Enot","steam_id":76561199486734166,"connected_time":8000000000,"state":"spawning","ping":89}]},{"server_id":51,"name":"Uncletopia | Warsaw | 3 | All Maps","name_short":"waw-3","host":"waw-1.pl.uncletopia.com","port":27035,"enabled":true,"region":"eu","cc":"pl","latitude":52.2297,"longitude":21.017532,"reserved":0,"last_update":"0001-01-01T00:00:00Z","name_a2s":"Uncletopia | Warsaw | 3 | All Maps","protocol":17,"map":"plr_pipeline","folder":"tf","game":"Team Fortress","app_id":440,"player_count":0,"max_players":24,"Bots":0,"server_type":"Dedicated","server_os":"Linux","password":true,"vac":true,"version":"7961495","steam_id":85568392925397852,"keywords":["nocrits","nodmgspread","payload","uncletopia"],"game_id":440,"stv_port":27036,"stv_name":"Uncletopia | Warsaw | 3 | All Maps | STV","players":null},{"server_id":52,"name":"Uncletopia | Warsaw | 4 | All Maps","name_short":"waw-4","host":"waw-1.pl.uncletopia.com","port":27045,"enabled":true,"region":"eu","cc":"pl","latitude":52.2297,"longitude":21.017532,"reserved":0,"last_update":"0001-01-01T00:00:00Z","name_a2s":"Uncletopia | Warsaw | 4 | All Maps","protocol":17,"map":"cp_coldfront","folder":"tf","game":"Team Fortress","app_id":440,"player_count":0,"max_players":24,"Bots":0,"server_type":"Dedicated","server_os":"Linux","password":true,"vac":true,"version":"7961495","steam_id":85568392925397853,"keywords":["cp","nocrits","nodmgspread","uncletopia"],"game_id":440,"stv_port":27046,"stv_name":"Uncletopia | Warsaw | 4 | All Maps | STV","players":null},{"server_id":53,"name":"Uncletopia | Warsaw | 5 | Stopwatch","name_short":"waw-5","host":"waw-1.pl.uncletopia.com","port":27055,"enabled":true,"region":"eu","cc":"pl","latitude":52.2297,"longitude":21.017532,"reserved":0,"last_update":"0001-01-01T00:00:00Z","name_a2s":"Uncletopia | Warsaw | 5 | Stopwatch","protocol":17,"map":"koth_lakeside_final","folder":"tf","game":"Team Fortress","app_id":440,"player_count":0,"max_players":24,"Bots":0,"server_type":"Dedicated","server_os":"Linux","password":true,"vac":true,"version":"7961495","steam_id":85568392925397854,"keywords":["cp","nocrits","nodmgspread","uncletopia"],"game_id":440,"stv_port":27056,"stv_name":"Uncletopia | Warsaw | 5 | Stopwatch | STV","players":null},{"server_id":54,"name":"Uncletopia | Warsaw | 6 | Community","name_short":"waw-6","host":"waw-1.pl.uncletopia.com","port":27065,"enabled":true,"region":"eu","cc":"pl","latitude":52.2297,"longitude":21.017532,"reserved":0,"last_update":"0001-01-01T00:00:00Z","name_a2s":"Uncletopia | Warsaw | 6 | Community","protocol":17,"map":"workshop/koth_ashville_final.ugc2130459942","folder":"tf","game":"Team Fortress","app_id":440,"player_count":0,"max_players":24,"Bots":0,"server_type":"Dedicated","server_os":"Linux","password":true,"vac":true,"version":"7961495","steam_id":85568392925397856,"keywords":["cp","nocrits","nodmgspread","uncletopia"],"game_id":440,"stv_port":27066,"stv_name":"Uncletopia | Warsaw | 6 | Community | STV","players":null}]}