{"status":true,"message":"","result":[{"server_id":9,"name":"Uncletopia | Atlanta | 1 | All Maps","name_short":"atl-1","host":"atl-1.us.uncletopia.com","port":27015,"enabled":true,"region":"us-east","cc":"us","latitude":33.753746,"longitude":-84.38633,"reserved":0,"last_update":"0001-01-01T00:00:00Z","name_a2s":"Uncletopia | Atlanta | 1 | All Maps","protocol":17,"map":"cp_mountainlab","folder":"tf","game":"Team Fortress","app_id":440,"player_count":24,"max_players":24,"Bots":0,"server_type":"Dedicated","server_os":"Linux","password":true,"vac":true,"version":"7961495","steam_id":85568392924469982,"keywords":["cp","nocrits","nodmgspread","uncletopia"],"game_id":440,"stv_port":27016,"stv_name":"Uncletopia | Atlanta | 1 | All Maps | STV","players":null},{"server_id":104,"name":"Uncletopia | Atlanta | 2 | All Maps","name_short":"atl-2","host":"atl-1.us.uncletopia.com","port":27025,"enabled":true,"region":"us-east","cc":"us","latitude":33.753746,"longitude":-84.38633,"reserved":0,"last_update":"0001-01-01T00:00:00Z","name_a2s":"Uncletopia | Atlanta | 2 | All Maps","protocol":17,"map":"pl_barnblitz","folder":"tf","game":"Team Fortress","app_id":440,"player_count":23,"max_players":24,"Bots":0,"server_type":"Dedicated","server_os":"Linux","password":true,"vac":true,"version":"7961495","steam_id":85568392924469983,"keywords":["nocrits","nodmgspread","payload","uncletopia"],"game_id":440,"stv_port":27026,"stv_name":"Uncletopia | Atlanta | 2 | All Maps | STV","players":null},{"server_id":400,"name":"Uncletopia | Atlanta | 3 | Stopwatch","name_short":"atl-3","host":"atl-1.us.uncletopia.com","port":27035,"enabled":true,"region":"us-east","cc":"us","latitude":33.753746,"longitude":-84.38633,"reserved":0,"last_update":"0001-01-01T00:00:00Z","name_a2s":"Uncletopia | Atlanta | 3 | Stopwatch","protocol":17,"map":"cp_granary","folder":"tf","game":"Team Fortress","app_id":440,"player_count":23,"max_players":24,"Bots":0,"server_type":"Dedicated","server_os":"Linux","password":true,"vac":true,"version":"7961495","steam_id":85568392924515187,"keywords":["cp","nocrits","nodmgspread","uncletopia"],"game_id":440,"stv_port":27036,"stv_name":"Uncletopia | Atlanta | 3 | Stopwatch | STV","players":null},{"server_id":401,"name":"Uncletopia | Atlanta | 4 | Community","name_short":"atl-4","host":"atl-1.us.uncletopia.com","port":27045,"enabled":true,"region":"us-east","cc":"us","latitude":33.753746,"longitude":-84.38633,"reserved":0,"last_update":"0001-01-01T00:00:00Z","name_a2s":"Uncletopia | Atlanta | 4 | Community","protocol":17,"map":"koth_product_final","folder":"tf","game":"Team Fortress","app_id":440,"player_count":0,"max_players":24,"Bots":0,"server_type":"Dedicated","server_os":"Linux","password":true,"vac":true,"version":"7961495","steam_id":85568392924515188,"keywords":["cp","nocrits","nodmgspread","uncletopia"],"game_id":440,"stv_port":27046,"stv_name":"Uncletopia | Atlanta | 4 | Community | STV","players":null},{"server_id":2,"name":"Uncletopia | Chicago | 1 | All Maps","name_short":"chi-1","host":"chi-1.us.uncletopia.com","port":27015,"enabled":true,"region":"us-central","cc":"us","latitude":41.881832,"longitude":-87.62318,"reserved":0,"last_update":"0001-01-01T00:00:00Z","name_a2s":"Uncletopia | Chicago | 1 | All Maps","protocol":17,"map":"pl_goldrush","folder":"tf","game":"Team Fortress","app_id":440,"player_count":24,"max_players":24,"Bots":0,"server_type":"Dedicated","server_os":"Linux","password":true,"vac":true,"version":"7961495","steam_id":85568392924469984,"keywords":["nocrits","nodmgspread","payload","uncletopia"],"game_id":440,"stv_port":27016,"stv_name":"Uncletopia | Chicago | 1 | All Maps | STV","players":[{"user_id":524,"name":"King's Disease","steam_id":76561198076639682,"connected_time":5238000000000,"state":"active","ping":74},{"user_id":578,"name":"Ras","steam_id":76561198123546775,"connected_time":1128000000000,"state":"active","ping":63},{"user_id":585,"name":"Beggar's Bagooka","steam_id":76561198297778412,"connected_time":774000000000,"state":"active","ping":86},{"user_id":565,"name":"Comfy!","steam_id":76561198008818346,"connected_time":2408000000000,"state":"active","ping":70},{"user_id":573,"name":"smooth brain","steam_id":76561198049253541,"connected_time":2016000000000,"state":"active","ping":60},{"user_id":574,"name":"fish ●","steam_id":76561198999217575,"connected_time":1885000000000,"state":"active","ping":70},{"user_id":557,"name":"Snom","steam_id":76561198333827920,"connected_time":2728000000000,"state":"active","ping":86},{"user_id":558,"name":"NukaTheRabbit {Fur}","steam_id":76561198058692928,"connected_time":2711000000000,"state":"active","ping":50},{"user_id":579,"name":"Doctor Emerald(Bison king)","steam_id":76561199123003872,"connected_time":951000000000,"state":"active","ping":97},{"user_id":580,"name":"Ace Attorney","steam_id":76561198133011705,"connected_time":947000000000,"state":"active","ping":62},{"user_id":551,"name":"Your Local Queer Librarian","steam_id":76561198013077080,"connected_time":3138000000000,"state":"active","ping":57},{"user_id":586,"name":"Minmit__","steam_id":76561198218417512,"connected_time":695000000000,"state":"active","ping":99},{"user_id":587,"name":"R33se","steam_id":76561198296531992,"connected_time":690000000000,"state":"active","ping":70},{"user_id":590,"name":"SandHanitizer","steam_id":76561198234676500,"connected_time":264000000000,"state":"active","ping":78},{"user_id":552,"name":"Praise_to_the_Flashlight!","steam_id":76561199001728789,"connected_time":3130000000000,"state":"active","ping":66},{"user_id":569,"name":"SpongedSocks","steam_id":76561198374009086,"connected_time":2278000000000,"state":"active","ping":70},{"user_id":591,"name":"KATSURB","steam_id":76561199172118456,"connected_time":256000000000,"state":"active","ping":59},{"user_id":582,"name":"Melody","steam_id":76561198407789232,"connected_time":833000000000,"state":"active","ping":121},{"user_id":589,"name":"Harpua","steam_id":76561197988020228,"connected_time":602000000000,"state":"active","ping":63},{"user_id":583,"name":"Swash","steam_id":76561197969421355,"connected_time":830000000000,"state":"active","ping":59},{"user_id":588,"name":"warp","steam_id":76561198190417719,"connected_time":687000000000,"state":"active","ping":39},{"user_id":532,"name":"Architect","steam_id":76561198015242016,"connected_time":4707000000000,"state":"active","ping":43},{"user_id":584,"name":"Nightman","steam_id":76561198089513762,"connected_time":829000000000,"state":"active","ping":94},{"user_id":592,"name":"KingXxX711","steam_id":76561199367911817,"connected_time":72000000000,"state":"active","ping":121}]},{"server_id":106,"name":"Uncletopia | Chicago | 2 | All Maps","name_short":"chi-2","host":"chi-1.us.uncletopia.com","port":27025,"enabled":true,"region":"us-central","cc":"us","latitude":41.881832,"longitude":-87.62318,"reserved":0,"last_update":"0001-01-01T00:00:00Z","name_a2s":"Uncletopia | Chicago | 2 | All Maps","protocol":17,"map":"cp_process_final","folder":"tf","game":"Team Fortress","app_id":440,"player_count":24,"max_players":24,"Bots":0,"server_type":"Dedicated","server_os":"Linux","password":true,"vac":true,"version":"7961495","steam_id":85568392924469985,"keywords":["cp","nocrits","nodmgspread","uncletopia"],"game_id":440,"stv_port":27026,"stv_name":"Uncletopia | Chicago | 2 | All Maps | STV","players":[{"user_id":695,"name":"Spookmaster","steam_id":76561198170041861,"connected_time":258000000000,"state":"active","ping":30},{"user_id":696,"name":"RexCreeper456","steam_id":76561199319578396,"connected_time":246000000000,"state":"active","ping":62},{"user_id":685,"name":"Deathpill","steam_id":76561197994404793,"connected_time":1156000000000,"state":"active","ping":73},{"user_id":704,"name":"Squiliam","steam_id":76561198025278006,"connected_time":57000000000,"state":"active","ping":84},{"user_id":692,"name":"roast pig with apple in mouth","steam_id":76561198051353647,"connected_time":893000000000,"state":"active","ping":61},{"user_id":637,"name":"deucemoosevvm","steam_id":76561198054348764,"connected_time":4572000000000,"state":"active","ping":74},{"user_id":686,"name":"Toottoot","steam_id":76561197992404836,"connected_time":1132000000000,"state":"active","ping":48},{"user_id":676,"name":"Festive Conch Shell","steam_id":76561198042072993,"connected_time":1971000000000,"state":"active","ping":60},{"user_id":694,"name":"wack","steam_id":76561198095697330,"connected_time":664000000000,"state":"active","ping":103},{"user_id":699,"name":"Pyuku","steam_id":76561198811554257,"connected_time":167000000000,"state":"active","ping":56},{"user_id":700,"name":"uzr","steam_id":76561198799343084,"connected_time":147000000000,"state":"active","ping":103},{"user_id":688,"name":"onion","steam_id":76561198242311084,"connected_time":1107000000000,"state":"active","ping":58},{"user_id":672,"name":"๖ۣۜMagic","steam_id":76561199272962550,"connected_time":2355000000000,"state":"active","ping":53},{"user_id":687,"name":"Ghoulenoir","steam_id":76561198074314573,"connected_time":1125000000000,"state":"active","ping":45},{"user_id":670,"name":"Daehypeels","steam_id":76561198268981599,"connected_time":2437000000000,"state":"active","ping":74},{"user_id":701,"name":"OneTrueCorvid","steam_id":76561199012953221,"connected_time":141000000000,"state":"active","ping":74},{"user_id":705,"name":"strctfsh","steam_id":76561198083619784,"connected_time":49000000000,"state":"active","ping":45},{"user_id":702,"name":"Gerald Jay Sussman","steam_id":76561198114515026,"connected_time":82000000000,"state":"active","ping":53},{"user_id":703,"name":"ivy","steam_id":76561198031474906,"connected_time":75000000000,"state":"active","ping":62},{"user_id":706,"name":"malarkeyman","steam_id":76561198844473584,"connected_time":47000000000,"state":"active","ping":61},{"user_id":693,"name":"churchhill","steam_id":76561198207881077,"connected_time":840000000000,"state":"active","ping":89},{"user_id":660,"name":"YummerBummer","steam_id":76561198094773987,"connected_time":2879000000000,"state":"active","ping":79},{"user_id":708,"name":"Im High","steam_id":76561198049954886,"connected_time":36000000000,"state":"active","ping":63},{"user_id":691,"name":"CherriKat","steam_id":76561198821297512,"connected_time":972000000000,"state":"active","ping":97}]},{"server_id":402,"name":"Uncletopia | Chicago | 3 | All Maps","name_short":"chi-3","host":"chi-1.us.uncletopia.com","port":27035,"enabled":true,"region":"us-central","cc":"us","latitude":41.881832,"longitude":-87.62318,"reserved":0,"last_update":"0001-01-01T00:00:00Z","name_a2s":"Uncletopia | Chicago | 3 | All Maps","protocol":17,"map":"cp_sunshine","folder":"tf","game":"Team Fortress","app_id":440,"player_count":24,"max_players":24,"Bots":0,"server_type":"Dedicated","server_os":"Linux","password":true,"vac":true,"version":"7961495","steam_id":85568392924515191,"keywords":["cp","nocrits","nodmgspread","uncletopia"],"game_id":440,"stv_port":27036,"stv_name":"Uncletopia | Chicago | 3 | All Maps | STV","players":[{"user_id":269,"name":"MR. BEEEEEEEEEEEEEAAAAAAAAAAST","steam_id":76561198205346760,"connected_time":2329000000000,"state":"active","ping":46},{"user_id":279,"name":"mush","steam_id":76561198310089797,"connected_time":786000000000,"state":"active","ping":60},{"user_id":212,"name":".JIFF","steam_id":76561198045181760,"connected_time":7838000000000,"state":"active","ping":61},{"user_id":272,"name":"SpunkyNuggs","steam_id":76561198046401833,"connected_time":1864000000000,"state":"active","ping":62},{"user_id":267,"name":"Amoxicilina","steam_id":76561198168486429,"connected_time":2607000000000,"state":"active","ping":125},{"user_id":263,"name":"Mazel Tov to the Gang","steam_id":76561198106055104,"connected_time":2851000000000,"state":"active","ping":61},{"user_id":225,"name":"RusticCarp42989","steam_id":76561198361151865,"connected_time":6721000000000,"state":"active","ping":118},{"user_id":275,"name":"uhhh","steam_id":76561198894548454,"connected_time":965000000000,"state":"active","ping":62},{"user_id":241,"name":"hart","steam_id":76561198094780633,"connected_time":4997000000000,"state":"active","ping":51},{"user_id":277,"name":"rickyrickyricky","steam_id":76561198041765918,"connected_time":945000000000,"state":"active","ping":83},{"user_id":213,"name":"We Go Crazy","steam_id":76561198209641359,"connected_time":7821000000000,"state":"active","ping":58},{"user_id":271,"name":"SwaggerEggs","steam_id":76561199057357191,"connected_time":2145000000000,"state":"active","ping":117},{"user_id":278,"name":"money-swagmodity","steam_id":76561198072179483,"connected_time":817000000000,"state":"active","ping":91},{"user_id":255,"name":"Gaiduk","steam_id":76561198112323877,"connected_time":3140000000000,"state":"active","ping":85},{"user_id":227,"name":"♥Bunny♥Slut♥","steam_id":76561198206376851,"connected_time":6559000000000,"state":"active","ping":113},{"user_id":268,"name":"Knuckles","steam_id":76561198000704259,"connected_time":2536000000000,"state":"active","ping":60},{"user_id":274,"name":"Rein | Comms  Open","steam_id":76561198300340427,"connected_time":978000000000,"state":"active","ping":64},{"user_id":276,"name":"Moofins","steam_id":76561198050291949,"connected_time":961000000000,"state":"active","ping":86},{"user_id":280,"name":"The local hobo","steam_id":76561198289650060,"connected_time":747000000000,"state":"active","ping":84},{"user_id":133,"name":"TheOneZoot","steam_id":76561198121944243,"connected_time":13908000000000,"state":"active","ping":85},{"user_id":273,"name":"Thundermonkey (SMOKE)","steam_id":76561198017631728,"connected_time":1444000000000,"state":"active","ping":56},{"user_id":234,"name":"mollusk_obliteration","steam_id":76561198085388962,"connected_time":5669000000000,"state":"active","ping":54},{"user_id":281,"name":"Kol","steam_id":76561199151398882,"connected_time":712000000000,"state":"active","ping":92},{"user_id":216,"name":"SiltyStar85","steam_id":76561198309175923,"connected_time":7345000000000,"state":"active","ping":106}]},{"server_id":403,"name":"Uncletopia | Chicago | 4 | All Maps","name_short":"chi-4","host":"chi-1.us.uncletopia.com","port":27045,"enabled":true,"region":"us-central","cc":"us","latitude":41.881832,"longitude":-87.62318,"reserved":0,"last_update":"0001-01-01T00:00:00Z","name_a2s":"Uncletopia | Chicago | 4 | All Maps","protocol":17,"map":"cp_dustbowl","folder":"tf","game":"Team Fortress","app_id":440,"player_count":24,"max_players":24,"Bots":0,"server_type":"Dedicated","server_os":"Linux","password":true,"vac":true,"version":"7961495","steam_id":85568392924515193,"keywords":["cp","nocrits","nodmgspread","uncletopia"],"game_id":440,"stv_port":27046,"stv_name":"Uncletopia | Chicago | 4 | All Maps | STV","players":[{"user_id":673,"name":"canadian birds","steam_id":76561198059466588,"connected_time":1321000000000,"state":"active","ping":70},{"user_id":676,"name":"DEA Agent Hank Schrader","steam_id":76561198061014043,"connected_time":1027000000000,"state":"active","ping":44},{"user_id":684,"name":"The Piss Warrior","steam_id":76561198151927029,"connected_time":505000000000,"state":"active","ping":96},{"user_id":686,"name":"stick","steam_id":76561198049489094,"connected_time":485000000000,"state":"active","ping":56},{"user_id":685,"name":"Acro","steam_id":76561198092451804,"connected_time":497000000000,"state":"active","ping":71},{"user_id":675,"name":"Chevlanae","steam_id":76561198038180603,"connected_time":1157000000000,"state":"active","ping":60},{"user_id":691,"name":"he munch","steam_id":76561198339644583,"connected_time":235000000000,"state":"active","ping":57},{"user_id":687,"name":"I hate names","steam_id":76561198805930937,"connected_time":477000000000,"state":"active","ping":68},{"user_id":641,"name":"stuffedidiot","steam_id":76561199181513019,"connected_time":3130000000000,"state":"active","ping":103},{"user_id":682,"name":"Orca?","steam_id":76561198164341099,"connected_time":691000000000,"state":"active","ping":81},{"user_id":635,"name":"RandomRainbow","steam_id":76561199107573588,"connected_time":3387000000000,"state":"active","ping":49},{"user_id":644,"name":"ethanf","steam_id":76561198103930234,"connected_time":3051000000000,"state":"active","ping":52},{"user_id":645,"name":"Sky","steam_id":76561198002451234,"connected_time":3001000000000,"state":"active","ping":90},{"user_id":681,"name":"1289hs","steam_id":76561198117667711,"connected_time":748000000000,"state":"active","ping":153},{"user_id":678,"name":"Big Smegma","steam_id":76561198111957349,"connected_time":942000000000,"state":"active","ping":70},{"user_id":647,"name":"Spicy Chicken","steam_id":76561198074209737,"connected_time":2980000000000,"state":"active","ping":60},{"user_id":669,"name":"igotmail","steam_id":76561198070631899,"connected_time":1797000000000,"state":"active","ping":62},{"user_id":630,"name":"Trevor_Hoppin","steam_id":76561199080420666,"connected_time":3853000000000,"state":"active","ping":73},{"user_id":672,"name":"ICE","steam_id":76561198312526898,"connected_time":1436000000000,"state":"active","ping":101},{"user_id":688,"name":"gaming gerald","steam_id":76561198011707083,"connected_time":462000000000,"state":"active","ping":61},{"user_id":649,"name":"DroidFreak36","steam_id":76561198028681032,"connected_time":2974000000000,"state":"active","ping":55},{"user_id":650,"name":"AMistake","steam_id":76561199379196708,"connected_time":2952000000000,"state":"active","ping":67},{"user_id":657,"name":"Local Skeleton Pirate Captain","steam_id":76561199387783793,"connected_time":2523000000000,"state":"active","ping":99},{"user_id":689,"name":"totoro","steam_id":76561198210420871,"connected_time":451000000000,"state":"active","ping":45}]},{"server_id":36,"name":"Uncletopia | Chicago | 5 | All Maps","name_short":"chi-5","host":"chi-2.us.uncletopia.com","port":27015,"enabled":true,"region":"us-central","cc":"us","latitude":41.881832,"longitude":-87.62318,"reserved":0,"last_update":"0001-01-01T00:00:00Z","name_a2s":"Uncletopia | Chicago | 5 | All Maps","protocol":17,"map":"pl_pier","folder":"tf","game":"Team Fortress","app_id":440,"player_count":24,"max_players":24,"Bots":0,"server_type":"Dedicated","server_os":"Linux","password":true,"vac":true,"version":"7961495","steam_id":85568392924866362,"keywords":["nocrits","nodmgspread","payload","uncletopia"],"game_id":440,"stv_port":27016,"stv_name":"Uncletopia | Chicago | 5 | All Maps | STV","players":[{"user_id":123,"name":"Dieu-Sama","steam_id":76561198002075862,"connected_time":1747000000000,"state":"active","ping":95},{"user_id":107,"name":"seedy iris","steam_id":76561198164420174,"connected_time":2943000000000,"state":"active","ping":45},{"user_id":97,"name":"Yung Settings","steam_id":76561198233126064,"connected_time":3880000000000,"state":"active","ping":72},{"user_id":90,"name":"hypergamer3500","steam_id":76561199038393500,"connected_time":4889000000000,"state":"active","ping":69},{"user_id":134,"name":"Autism creacher⛧","steam_id":76561198319992602,"connected_time":693000000000,"state":"active","ping":77},{"user_id":66,"name":"Aku+","steam_id":76561198813782795,"connected_time":6362000000000,"state":"active","ping":162},{"user_id":133,"name":"ThePatheticMedic","steam_id":76561198873083105,"connected_time":727000000000,"state":"active","ping":55},{"user_id":139,"name":"Adawnby","steam_id":76561198103057295,"connected_time":439000000000,"state":"active","ping":79},{"user_id":116,"name":"Un_Zipped","steam_id":76561197990111649,"connected_time":2734000000000,"state":"active","ping":71},{"user_id":112,"name":"Rex","steam_id":76561198138365053,"connected_time":2895000000000,"state":"active","ping":130},{"user_id":136,"name":"Gwuf","steam_id":76561198091503282,"connected_time":669000000000,"state":"active","ping":127},{"user_id":119,"name":"oppenheimer style","steam_id":76561198026664629,"connected_time":2456000000000,"state":"active","ping":54},{"user_id":125,"name":"󠁳 ⁧Argo","steam_id":76561198353725622,"connected_time":1645000000000,"state":"active","ping":79},{"user_id":108,"name":"Notorious Criminal Prawo Jazdy","steam_id":76561198339011254,"connected_time":2942000000000,"state":"active","ping":89},{"user_id":131,"name":"ruffneckbiscuitfan.2009","steam_id":76561198061636618,"connected_time":994000000000,"state":"active","ping":65},{"user_id":135,"name":"ThatFrog","steam_id":76561198437198904,"connected_time":683000000000,"state":"active","ping":108},{"user_id":130,"name":"Dart Monkey","steam_id":76561198319637730,"connected_time":1164000000000,"state":"active","ping":62},{"user_id":113,"name":"schnedwob","steam_id":76561197999146588,"connected_time":2874000000000,"state":"active","ping":76},{"user_id":138,"name":"Goose","steam_id":76561198328998533,"connected_time":594000000000,"state":"active","ping":55},{"user_id":122,"name":"LocaKola","steam_id":76561198173435430,"connected_time":1899000000000,"state":"active","ping":75},{"user_id":103,"name":"yes daddy","steam_id":76561198166100997,"connected_time":3561000000000,"state":"active","ping":65},{"user_id":137,"name":"Psionara","steam_id":76561198211684263,"connected_time":651000000000,"state":"active","ping":112},{"user_id":85,"name":"Killbasa","steam_id":76561198064868400,"connected_time":5043000000000,"state":"active","ping":74},{"user_id":128,"name":"Wilhelmktx","steam_id":76561198158102295,"connected_time":1401000000000,"state":"active","ping":48}]},{"server_id":37,"name":"Uncletopia | Chicago | 6 | All Maps","name_short":"chi-6","host":"chi-2.us.uncletopia.com","port":27025,"enabled":true,"region":"us-central","cc":"us","latitude":41.881832,"longitude":-87.62318,"reserved":0,"last_update":"0001-01-01T00:00:00Z","name_a2s":"Uncletopia | Chicago | 6 | All Maps","protocol":17,"map":"pl_swiftwater_final1","folder":"tf","game":"Team Fortress","app_id":440,"player_count":24,"max_players":24,"Bots":0,"server_type":"Dedicated","server_os":"Linux","password":true,"vac":true,"version":"7961495","steam_id":85568392924866363,"keywords":["nocrits","nodmgspread","payload","uncletopia"],"game_id":440,"stv_port":27026,"stv_name":"Uncletopia | Chicago | 6 | All Maps | STV","players":[{"user_id":383,"name":"Pandora Nyx","steam_id":76561198093475054,"connected_time":3085000000000,"state":"active","ping":68},{"user_id":416,"name":"JellyParrot","steam_id":76561199190990163,"connected_time":1128000000000,"state":"active","ping":70},{"user_id":384,"name":"Homvel","steam_id":76561198000848413,"connected_time":3077000000000,"state":"active","ping":54},{"user_id":385,"name":"meo ♥","steam_id":76561197992719272,"connected_time":2983000000000,"state":"active","ping":49},{"user_id":405,"name":"Chagalicious","steam_id":76561198044128240,"connected_time":1748000000000,"state":"active","ping":81},{"user_id":413,"name":"Ninjoth","steam_id":76561198038611753,"connected_time":1350000000000,"state":"active","ping":86},{"user_id":434,"name":"Flowers","steam_id":76561198031669899,"connected_time":144000000000,"state":"active","ping":88},{"user_id":348,"name":"Thella Making","steam_id":76561198125828837,"connected_time":5051000000000,"state":"active","ping":66},{"user_id":398,"name":"chuckles","steam_id":76561198210963545,"connected_time":2843000000000,"state":"active","ping":65},{"user_id":321,"name":"Fatal Top Deficiency","steam_id":76561198141738612,"connected_time":7139000000000,"state":"active","ping":75},{"user_id":427,"name":"Heathcliff","steam_id":76561198044288534,"connected_time":404000000000,"state":"active","ping":97},{"user_id":431,"name":"Squeeky Clean","steam_id":76561198231132788,"connected_time":337000000000,"state":"active","ping":141},{"user_id":430,"name":"Terry Bogard's beefin 12 inch","steam_id":76561198371133385,"connected_time":358000000000,"state":"active","ping":76},{"user_id":420,"name":"rumidog","steam_id":76561198046896005,"connected_time":954000000000,"state":"active","ping":142},{"user_id":410,"name":"Rijjka","steam_id":76561198008532763,"connected_time":1707000000000,"state":"active","ping":80},{"user_id":323,"name":"N U T T","steam_id":76561198139661511,"connected_time":7132000000000,"state":"active","ping":70},{"user_id":408,"name":"bigdaddy69","steam_id":76561198253180071,"connected_time":1729000000000,"state":"active","ping":165},{"user_id":432,"name":"lucwasa14","steam_id":76561199025617634,"connected_time":303000000000,"state":"active","ping":68},{"user_id":422,"name":"CHIEF_JUSTICE_FUCKASS","steam_id":76561199261675844,"connected_time":662000000000,"state":"active","ping":105},{"user_id":359,"name":"Carpet enthusiast","steam_id":76561198024040142,"connected_time":4666000000000,"state":"active","ping":100},{"user_id":394,"name":"Hend","steam_id":76561198035258280,"connected_time":2905000000000,"state":"active","ping":55},{"user_id":402,"name":"Hepo","steam_id":76561198341191596,"connected_time":1968000000000,"state":"active","ping":80},{"user_id":433,"name":"FrostStorm","steam_id":76561198142685151,"connected_time":260000000000,"state":"active","ping":70},{"user_id":418,"name":"MrMacMundy","steam_id":76561198835230572,"connected_time":1055000000000,"state":"active","ping":65}]},{"server_id":38,"name":"Uncletopia | Chicago | 7 | Stopwatch","name_short":"chi-7","host":"chi-2.us.uncletopia.com","port":27035,"enabled":true,"region":"us-central","cc":"us","latitude":41.881832,"longitude":-87.62318,"reserved":0,"last_update":"0001-01-01T00:00:00Z","name_a2s":"Uncletopia | Chicago | 7 | Stopwatch","protocol":17,"map":"workshop/koth_product_final.ugc454272353","folder":"tf","game":"Team Fortress","app_id":440,"player_count":4,"max_players":24,"Bots":0,"server_type":"Dedicated","server_os":"Linux","password":true,"vac":true,"version":"7961495","steam_id":85568392924866364,"keywords":["cp","nocrits","nodmgspread","uncletopia"],"game_id":440,"stv_port":27036,"stv_name":"Uncletopia | Chicago | 7 | Stopwatch | STV","players":[{"user_id":10,"name":"Steev Stanman","steam_id":76561198048417796,"connected_time":536000000000,"state":"active","ping":32},{"user_id":11,"name":"Nivet Fox","steam_id":76561198135362867,"connected_time":527000000000,"state":"active","ping":44},{"user_id":12,"name":"mr_random_mr","steam_id":76561199485678347,"connected_time":511000000000,"state":"active","ping":57},{"user_id":13,"name":"JACOB","steam_id":76561198211874895,"connected_time":387000000000,"state":"active","ping":70}]},{"server_id":39,"name":"Uncletopia | Chicago | 8 | Community","name_short":"chi-8","host":"chi-2.us.uncletopia.com","port":27045,"enabled":true,"region":"us-central","cc":"us","latitude":41.881832,"longitude":-87.62318,"reserved":0,"last_update":"0001-01-01T00:00:00Z","name_a2s":"Uncletopia | Chicago | 8 | Community","protocol":17,"map":"workshop/koth_kemptown_rc1.ugc767410655","folder":"tf","game":"Team Fortress","app_id":440,"player_count":0,"max_players":24,"Bots":0,"server_type":"Dedicated","server_os":"Linux","password":true,"vac":true,"version":"7961495","steam_id":85568392924866365,"keywords":["cp","nocrits","nodmgspread","uncletopia"],"game_id":440,"stv_port":27046,"stv_name":"Uncletopia | Chicago | 8 | Community | STV","players":null},{"server_id":8,"name":"Uncletopia | Dallas | 1 | All Maps","name_short":"dal-1","host":"dal-1.us.uncletopia.com","port":27015,"enabled":true,"region":"us-central","cc":"us","latitude":32.779167,"longitude":-96.80889,"reserved":0,"last_update":"0001-01-01T00:00:00Z","name_a2s":"Uncletopia | Dallas | 1 | All Maps","protocol":17,"map":"pl_badwater","folder":"tf","game":"Team Fortress","app_id":440,"player_count":23,"max_players":24,"Bots":0,"server_type":"Dedicated","server_os":"Linux","password":true,"vac":true,"version":"7961495","steam_id":85568392924469986,"keywords":["nocrits","nodmgspread","payload","uncletopia"],"game_id":440,"stv_port":27016,"stv_name":"Uncletopia | Dallas | 1 | All Maps | STV","players":[{"user_id":531,"name":"fluffy","steam_id":76561199388445966,"connected_time":63000000000,"state":"active","ping":86},{"user_id":527,"name":"_cza","steam_id":76561198079793576,"connected_time":437000000000,"state":"active","ping":105},{"user_id":529,"name":"TechnoBear2099","steam_id":76561198238863596,"connected_time":175000000000,"state":"active","ping":46},{"user_id":530,"name":"truck freak","steam_id":76561198062712676,"connected_time":132000000000,"state":"active","ping":111},{"user_id":513,"name":"Call me the sleeps","steam_id":76561198121245586,"connected_time":1323000000000,"state":"active","ping":104},{"user_id":532,"name":"Jimbobumbag","steam_id":76561198037179391,"connected_time":51000000000,"state":"active","ping":100},{"user_id":485,"name":"Tommy Provolone","steam_id":76561198170062377,"connected_time":3203000000000,"state":"active","ping":66},{"user_id":501,"name":"Daddy’s Special Boy!","steam_id":76561198152454725,"connected_time":2622000000000,"state":"active","ping":124},{"user_id":533,"name":"Genius Meme","steam_id":76561198162911254,"connected_time":44000000000,"state":"active","ping":86},{"user_id":534,"name":"Rin \"Hindwing\" Redtail","steam_id":76561199074865638,"connected_time":43000000000,"state":"active","ping":63},{"user_id":521,"name":"Drapph","steam_id":76561199384213314,"connected_time":633000000000,"state":"active","ping":82},{"user_id":535,"name":"NGsterson","steam_id":76561198162108154,"connected_time":42000000000,"state":"active","ping":97},{"user_id":536,"name":"Vv","steam_id":76561199052196750,"connected_time":38000000000,"state":"spawning","ping":43},{"user_id":499,"name":"tsz","steam_id":76561199246231090,"connected_time":2797000000000,"state":"active","ping":77},{"user_id":504,"name":"THRONGLER","steam_id":76561198198563466,"connected_time":1694000000000,"state":"active","ping":41},{"user_id":537,"name":"MrActionJaxon","steam_id":76561198093549908,"connected_time":27000000000,"state":"spawning","ping":68},{"user_id":519,"name":"hrdurdur","steam_id":76561199204815638,"connected_time":722000000000,"state":"active","ping":98},{"user_id":481,"name":"LampMan","steam_id":76561198079857527,"connected_time":3561000000000,"state":"active","ping":59},{"user_id":538,"name":"enigmaticOnion","steam_id":76561198305767884,"connected_time":2000000000,"state":"spawning","ping":77},{"user_id":505,"name":"rocketspires","steam_id":76561198800386026,"connected_time":1397000000000,"state":"active","ping":108},{"user_id":514,"name":"John16Mark","steam_id":76561198119445407,"connected_time":1311000000000,"state":"active","ping":68},{"user_id":525,"name":"Lavender","steam_id":76561198142770666,"connected_time":600000000000,"state":"active","ping":71},{"user_id":518,"name":"DudeBergs","steam_id":76561198399777833,"connected_time":968000000000,"state":"active","ping":73}]},{"server_id":108,"name":"Uncletopia | Dallas | 2 | All Maps","name_short":"dal-2","host":"dal-1.us.uncletopia.com","port":27025,"enabled":true,"region":"us-central","cc":"us","latitude":32.779167,"longitude":-96.80889,"reserved":0,"last_update":"0001-01-01T00:00:00Z","name_a2s":"Uncletopia | Dallas | 2 | All Maps","protocol":17,"map":"pl_borneo","folder":"tf","game":"Team Fortress","app_id":440,"player_count":23,"max_players":24,"Bots":0,"server_type":"Dedicated","server_os":"Linux","password":true,"vac":true,"version":"7961495","steam_id":85568392924469988,"keywords":["nocrits","nodmgspread","payload","uncletopia"],"game_id":440,"stv_port":27026,"stv_name":"Uncletopia | Dallas | 2 | All Maps | STV","players":[{"user_id":407,"name":"ReDiculous22","steam_id":76561198038391383,"connected_time":2334000000000,"state":"active","ping":42},{"user_id":414,"name":"Kirbo","steam_id":76561199185303303,"connected_time":1090000000000,"state":"active","ping":88},{"user_id":425,"name":"Abysa.","steam_id":76561198424398862,"connected_time":289000000000,"state":"active","ping":164},{"user_id":366,"name":"pablo.rodriguez2006","steam_id":76561198059740184,"connected_time":4697000000000,"state":"active","ping":76},{"user_id":403,"name":"reko","steam_id":76561198278020887,"connected_time":2365000000000,"state":"active","ping":55},{"user_id":422,"name":"Dr_Cecil","steam_id":76561198873862113,"connected_time":568000000000,"state":"active","ping":78},{"user_id":410,"name":"BRoon","steam_id":76561198026210004,"connected_time":1899000000000,"state":"active","ping":101},{"user_id":419,"name":"Goldy","steam_id":76561198386274766,"connected_time":863000000000,"state":"active","ping":69},{"user_id":355,"name":"spirit","steam_id":76561198102040731,"connected_time":5236000000000,"state":"active","ping":72},{"user_id":396,"name":"dailydiamond","steam_id":76561199123582502,"connected_time":2933000000000,"state":"active","ping":96},{"user_id":399,"name":"A Straw","steam_id":76561199367935846,"connected_time":2712000000000,"state":"active","ping":69},{"user_id":413,"name":"Cosmic Soup","steam_id":76561198448801117,"connected_time":1173000000000,"state":"active","ping":82},{"user_id":415,"name":"the keebler","steam_id":76561199486326945,"connected_time":1068000000000,"state":"active","ping":76},{"user_id":427,"name":"hapi bananuh","steam_id":76561198091547092,"connected_time":55000000000,"state":"active","ping":88},{"user_id":381,"name":"BurritoCat","steam_id":76561198059822805,"connected_time":3983000000000,"state":"active","ping":88},{"user_id":389,"name":"jubanya","steam_id":76561198830921046,"connected_time":3422000000000,"state":"active","ping":86},{"user_id":400,"name":"Argon","steam_id":76561199254804349,"connected_time":2699000000000,"state":"active","ping":85},{"user_id":420,"name":"amberenix","steam_id":76561198805110908,"connected_time":852000000000,"state":"active","ping":68},{"user_id":417,"name":"Joshy","steam_id":76561198061405421,"connected_time":925000000000,"state":"active","ping":92},{"user_id":423,"name":"wanderer","steam_id":76561197962607364,"connected_time":551000000000,"state":"active","ping":67},{"user_id":401,"name":"cheesebro","steam_id":76561198002072852,"connected_time":2561000000000,"state":"active","ping":78},{"user_id":418,"name":"Jonatello","steam_id":76561198045699189,"connected_time":902000000000,"state":"active","ping":111},{"user_id":424,"name":"[S]Mr. X [No Monitor]","steam_id":76561197963746035,"connected_time":540000000000,"state":"active","ping":146}]},{"server_id":404,"name":"Uncletopia | Dallas | 3 | All Maps","name_short":"dal-3","host":"dal-1.us.uncletopia.com","port":27035,"enabled":true,"region":"us-central","cc":"us","latitude":32.779167,"longitude":-96.80889,"reserved":0,"last_update":"0001-01-01T00:00:00Z","name_a2s":"Uncletopia | Dallas | 3 | All Maps","protocol":17,"map":"cp_steel","folder":"tf","game":"Team Fortress","app_id":440,"player_count":21,"max_players":24,"Bots":0,"server_type":"Dedicated","server_os":"Linux","password":true,"vac":true,"version":"7961495","steam_id":85568392924515219,"keywords":["cp","nocrits","nodmgspread","uncletopia"],"game_id":440,"stv_port":27036,"stv_name":"Uncletopia | Dallas | 3 | All Maps | STV","players":[{"user_id":173,"name":"Eris.","steam_id":76561198938073286,"connected_time":1000000000000,"state":"active","ping":90},{"user_id":117,"name":"webaline  =＾● ⋏ ●＾=","steam_id":76561199052450127,"connected_time":5388000000000,"state":"active","ping":81},{"user_id":163,"name":"GLG.Liz","steam_id":76561198021957956,"connected_time":2089000000000,"state":"active","ping":57},{"user_id":167,"name":"Corn Musk","steam_id":76561198041639848,"connected_time":1199000000000,"state":"active","ping":88},{"user_id":131,"name":"Arrogance","steam_id":76561198242842394,"connected_time":4083000000000,"state":"active","ping":55},{"user_id":149,"name":"YunKoツ","steam_id":76561199107366261,"connected_time":3069000000000,"state":"active","ping":108},{"user_id":161,"name":"Feesh","steam_id":76561198817024734,"connected_time":2245000000000,"state":"active","ping":87},{"user_id":139,"name":"VerrucktMedic","steam_id":76561198093144226,"connected_time":3336000000000,"state":"active","ping":105},{"user_id":177,"name":"Engideer","steam_id":76561198145733164,"connected_time":508000000000,"state":"active","ping":47},{"user_id":73,"name":"Holol","steam_id":76561198010179474,"connected_time":7491000000000,"state":"active","ping":117},{"user_id":169,"name":"uheye whuant moy ehmdeevee","steam_id":76561198028981154,"connected_time":1187000000000,"state":"active","ping":87},{"user_id":180,"name":"Coach McFish","steam_id":76561198210456405,"connected_time":22000000000,"state":"active","ping":97},{"user_id":34,"name":"CeLeb144","steam_id":76561199089907740,"connected_time":10083000000000,"state":"active","ping":90},{"user_id":178,"name":"Tater Thot","steam_id":76561198156437343,"connected_time":407000000000,"state":"active","ping":54},{"user_id":142,"name":"Squid","steam_id":76561198371891344,"connected_time":3278000000000,"state":"active","ping":68},{"user_id":175,"name":"MegaBitmap","steam_id":76561198086027059,"connected_time":837000000000,"state":"active","ping":105},{"user_id":176,"name":"Allotrope","steam_id":76561197998450103,"connected_time":807000000000,"state":"active","ping":61},{"user_id":165,"name":"chad","steam_id":76561198216109017,"connected_time":1553000000000,"state":"active","ping":60},{"user_id":91,"name":"leesh","steam_id":76561198079603938,"connected_time":6238000000000,"state":"active","ping":84},{"user_id":136,"name":"anidiot","steam_id":76561199001600288,"connected_time":3481000000000,"state":"active","ping":81},{"user_id":123,"name":"jizz gaming","steam_id":76561198984762462,"connected_time":5329000000000,"state":"active","ping":101}]},{"server_id":405,"name":"Uncletopia | Dallas | 4 | Community","name_short":"dal-4","host":"dal-1.us.uncletopia.com","port":27045,"enabled":true,"region":"us-central","cc":"us","latitude":32.779167,"longitude":-96.80889,"reserved":0,"last_update":"0001-01-01T00:00:00Z","name_a2s":"Uncletopia | Dallas | 4 | Community","protocol":17,"map":"workshop/koth_ashville_final.ugc2130459942","folder":"tf","game":"Team Fortress","app_id":440,"player_count":0,"max_players":24,"Bots":0,"server_type":"Dedicated","server_os":"Linux","password":true,"vac":true,"version":"7961495","steam_id":85568392924515220,"keywords":["cp","nocrits","nodmgspread","uncletopia"],"game_id":440,"stv_port":27046,"stv_name":"Uncletopia | Dallas | 4 | Community | STV","players":null},{"server_id":5,"name":"Uncletopia | Frankfurt | 1 | All Maps","name_short":"frk-1","host":"frk-1.de.uncletopia.com","port":27015,"enabled":true,"region":"eu","cc":"de","latitude":50.110924,"longitude":8.682127,"reserved":0,"last_update":"0001-01-01T00:00:00Z","name_a2s":"Uncletopia | Frankfurt | 1 | All Maps","protocol":17,"map":"pl_swiftwater_final1","folder":"tf","game":"Team Fortress","app_id":440,"player_count":0,"max_players":24,"Bots":0,"server_type":"Dedicated","server_os":"Linux","password":true,"vac":true,"version":"7961495","steam_id":85568392924469989,"keywords":["nocrits","nodmgspread","payload","uncletopia"],"game_id":440,"stv_port":27016,"stv_name":"Uncletopia | Frankfurt | 1 | All Maps | STV","players":null},{"server_id":110,"name":"Uncletopia | Frankfurt | 2 | All Maps","name_short":"frk-2","host":"frk-1.de.uncletopia.com","port":27025,"enabled":true,"region":"eu","cc":"de","latitude":50.110924,"longitude":8.682127,"reserved":0,"last_update":"0001-01-01T00:00:00Z","name_a2s":"Uncletopia | Frankfurt | 2 | All Maps","protocol":17,"map":"koth_highpass","folder":"tf","game":"Team Fortress","app_id":440,"player_count":0,"max_players":24,"Bots":0,"server_type":"Dedicated","server_os":"Linux","password":true,"vac":true,"version":"7961495","steam_id":85568392924469990,"keywords":["cp","nocrits","nodmgspread","uncletopia"],"game_id":440,"stv_port":27026,"stv_name":"Uncletopia | Frankfurt | 2 | All Maps | STV","players":null},{"server_id":308,"name":"Uncletopia | Frankfurt | 3 | All Maps","name_short":"frk-3","host":"frk-1.de.uncletopia.com","port":27035,"enabled":true,"region":"eu","cc":"de","latitude":50.110924,"longitude":8.682127,"reserved":0,"last_update":"0001-01-01T00:00:00Z","name_a2s":"Uncletopia | Frankfurt | 3 | All Maps","protocol":17,"map":"koth_lakeside_final","folder":"tf","game":"Team Fortress","app_id":440,"player_count":0,"max_players":24,"Bots":0,"server_type":"Dedicated","server_os":"Linux","password":true,"vac":true,"version":"7961495","steam_id":85568392924504274,"keywords":["cp","nocrits","nodmgspread","uncletopia"],"game_id":440,"stv_port":27036,"stv_name":"Uncletopia | Frankfurt | 3 | All Maps | STV","players":null},{"server_id":309,"name":"Uncletopia | Frankfurt | 4 | All Maps","name_short":"frk-4","host":"frk-1.de.uncletopia.com","port":27045,"enabled":true,"region":"eu","cc":"de","latitude":50.110924,"longitude":8.682127,"reserved":0,"last_update":"0001-01-01T00:00:00Z","name_a2s":"Uncletopia | Frankfurt | 4 | All Maps","protocol":17,"map":"koth_cascade","folder":"tf","game":"Team Fortress","app_id":440,"player_count":0,"max_players":24,"Bots":0,"server_type":"Dedicated","server_os":"Linux","password":true,"vac":true,"version":"7961495","steam_id":85568392924504275,"keywords":["cp","nocrits","nodmgspread","uncletopia"],"game_id":440,"stv_port":27046,"stv_name":"Uncletopia | Frankfurt | 4 | All Maps | STV","players":null},{"server_id":310,"name":"Uncletopia | Frankfurt | 5 | All Maps","name_short":"frk-5","host":"frk-1.de.uncletopia.com","port":27055,"enabled":true,"region":"eu","cc":"de","latitude":50.110924,"longitude":8.682127,"reserved":0,"last_update":"0001-01-01T00:00:00Z","name_a2s":"Uncletopia | Frankfurt | 5 | All Maps","protocol":17,"map":"koth_viaduct","folder":"tf","game":"Team Fortress","app_id":440,"player_count":0,"max_players":24,"Bots":0,"server_type":"Dedicated","server_os":"Linux","password":true,"vac":true,"version":"7961495","steam_id":85568392924504277,"keywords":["cp","nocrits","nodmgspread","uncletopia"],"game_id":440,"stv_port":27056,"stv_name":"Uncletopia | Frankfurt | 5 | All Maps | STV","players":null},{"server_id":311,"name":"Uncletopia | Frankfurt | 6 | All Maps","name_short":"frk-6","host":"frk-1.de.uncletopia.com","port":27065,"enabled":true,"region":"eu","cc":"de","latitude":50.110924,"longitude":8.682127,"reserved":0,"last_update":"0001-01-01T00:00:00Z","name_a2s":"Uncletopia | Frankfurt | 6 | All Maps","protocol":17,"map":"koth_viaduct","folder":"tf","game":"Team Fortress","app_id":440,"player_count":0,"max_players":24,"Bots":0,"server_type":"Dedicated","server_os":"Linux","password":true,"vac":true,"version":"7961495","steam_id":85568392924504278,"keywords":["cp","nocrits","nodmgspread","uncletopia"],"game_id":440,"stv_port":27066,"stv_name":"Uncletopia | Frankfurt | 6 | All Maps | STV","players":null},{"server_id":23,"name":"Uncletopia | Frankfurt | 7 | Stopwatch","name_short":"frk-7","host":"frk-1.de.uncletopia.com","port":27075,"enabled":true,"region":"eu","cc":"de","latitude":50.110924,"longitude":8.682127,"reserved":0,"last_update":"0001-01-01T00:00:00Z","name_a2s":"Uncletopia | Frankfurt | 7 | Stopwatch","protocol":17,"map":"workshop/koth_product_final.ugc454272353","folder":"tf","game":"Team Fortress","app_id":440,"player_count":0,"max_players":24,"Bots":0,"server_type":"Dedicated","server_os":"Linux","password":true,"vac":true,"version":"7961495","steam_id":85568392924742827,"keywords":["cp","nocrits","nodmgspread","uncletopia"],"game_id":440,"stv_port":27076,"stv_name":"Uncletopia | Frankfurt | 7 | Stopwatch | STV","players":null},{"server_id":24,"name":"Uncletopia | Frankfurt | 8 | Community","name_short":"frk-8","host":"frk-1.de.uncletopia.com","port":27085,"enabled":true,"region":"eu","cc":"de","latitude":50.110924,"longitude":8.682127,"reserved":0,"last_update":"0001-01-01T00:00:00Z","name_a2s":"Uncletopia | Frankfurt | 8 | Community","protocol":17,"map":"workshop/koth_trenchfoot_b1a.ugc731436616","folder":"tf","game":"Team Fortress","app_id":440,"player_count":0,"max_players":24,"Bots":0,"server_type":"Dedicated","server_os":"Linux","password":true,"vac":true,"version":"7961495","steam_id":85568392924742828,"keywords":["cp","nocrits","nodmgspread","uncletopia"],"game_id":440,"stv_port":27086,"stv_name":"Uncletopia | Frankfurt | 8 | Community | STV","players":null},{"server_id":202,"name":"Uncletopia | Hong Kong | 1 | All Maps","name_short":"hgk-1","host":"hgk-1.hk.uncletopia.com","port":27015,"enabled":true,"region":"asia","cc":"hk","latitude":22.302711,"longitude":114.177216,"reserved":0,"last_update":"0001-01-01T00:00:00Z","name_a2s":"Uncletopia | Hong Kong | 1 | All Maps","protocol":17,"map":"cp_snakewater_final1","folder":"tf","game":"Team Fortress","app_id":440,"player_count":4,"max_players":24,"Bots":0,"server_type":"Dedicated","server_os":"Linux","password":true,"vac":true,"version":"7961495","steam_id":85568392924494504,"keywords":["cp","nocrits","nodmgspread","uncletopia"],"game_id":440,"stv_port":27016,"stv_name":"Uncletopia | Hong Kong | 1 | All Maps | STV","players":[{"user_id":13,"name":"SilentT","steam_id":76561198150806507,"connected_time":473000000000,"state":"active","ping":46},{"user_id":15,"name":"jichael mordan","steam_id":76561198355272977,"connected_time":121000000000,"state":"active","ping":173},{"user_id":12,"name":"grass","steam_id":76561199278143293,"connected_time":536000000000,"state":"active","ping":105},{"user_id":14,"name":"Niko F2P","steam_id":76561199079307895,"connected_time":471000000000,"state":"active","ping":57}]},{"server_id":1,"name":"Uncletopia | Los Angeles | 1 | All Maps","name_short":"lax-1","host":"lax-1.us.uncletopia.com","port":27015,"enabled":true,"region":"us-west","cc":"us","latitude":33.94279,"longitude":-118.41004,"reserved":0,"last_update":"0001-01-01T00:00:00Z","name_a2s":"Uncletopia | Los Angeles | 1 | All Maps","protocol":17,"map":"pl_frontier_final","folder":"tf","game":"Team Fortress","app_id":440,"player_count":23,"max_players":24,"Bots":0,"server_type":"Dedicated","server_os":"Linux","password":true,"vac":true,"version":"7961495","steam_id":85568392924469991,"keywords":["nocrits","nodmgspread","payload","uncletopia"],"game_id":440,"stv_port":27016,"stv_name":"Uncletopia | Los Angeles | 1 | All Maps | STV","players":[{"user_id":261,"name":"clanker","steam_id":76561198880773196,"connected_time":352000000000,"state":"active","ping":92},{"user_id":262,"name":"Taco+Taco=Burrito","steam_id":76561198063128663,"connected_time":348000000000,"state":"active","ping":49},{"user_id":269,"name":"BoomFiendت","steam_id":76561199223831021,"connected_time":5000000000,"state":"spawning","ping":53},{"user_id":270,"name":"Wan Shi Tong","steam_id":76561198076441225,"connected_time":1000000000,"state":"spawning","ping":80},{"user_id":247,"name":"usedhalfcart","steam_id":76561198072621852,"connected_time":1516000000000,"state":"active","ping":75},{"user_id":265,"name":"(TPT) Ghost","steam_id":76561198123262873,"connected_time":296000000000,"state":"active","ping":61},{"user_id":184,"name":"Sad Tony","steam_id":76561198053849851,"connected_time":5757000000000,"state":"active","ping":60},{"user_id":237,"name":"sixauto0706","steam_id":76561198126443610,"connected_time":2288000000000,"state":"active","ping":67},{"user_id":219,"name":"Trotsky Gaming","steam_id":76561199101638460,"connected_time":3584000000000,"state":"active","ping":75},{"user_id":254,"name":"KickButtNess","steam_id":76561198093986236,"connected_time":1058000000000,"state":"active","ping":47},{"user_id":251,"name":"Kenny","steam_id":76561198031540741,"connected_time":1399000000000,"state":"active","ping":57},{"user_id":241,"name":"RIP Bashar Jackson","steam_id":76561198062940197,"connected_time":2237000000000,"state":"active","ping":82},{"user_id":259,"name":"Jubtice","steam_id":76561198995538396,"connected_time":445000000000,"state":"active","ping":48},{"user_id":238,"name":"the pizza","steam_id":76561198221331476,"connected_time":2276000000000,"state":"active","ping":53},{"user_id":260,"name":"holiday-sized update","steam_id":76561198023324513,"connected_time":402000000000,"state":"active","ping":73},{"user_id":176,"name":"Schnitz","steam_id":76561198265484253,"connected_time":6557000000000,"state":"active","ping":59},{"user_id":266,"name":"organsblue","steam_id":76561199050461421,"connected_time":288000000000,"state":"active","ping":72},{"user_id":258,"name":"Vivid","steam_id":76561198045199590,"connected_time":483000000000,"state":"active","ping":67},{"user_id":268,"name":"momo","steam_id":76561198099061153,"connected_time":203000000000,"state":"active","ping":45},{"user_id":267,"name":"turnip","steam_id":76561197999375941,"connected_time":259000000000,"state":"active","ping":90},{"user_id":240,"name":"gulch","steam_id":76561199227946025,"connected_time":2247000000000,"state":"active","ping":98},{"user_id":253,"name":"Lycan","steam_id":76561198151499868,"connected_time":1244000000000,"state":"active","ping":48},{"user_id":257,"name":"Exusiai","steam_id":76561198348354629,"connected_time":588000000000,"state":"active","ping":52}]},{"server_id":112,"name":"Uncletopia | Los Angeles | 2 | All Maps","name_short":"lax-2","host":"lax-1.us.uncletopia.com","port":27025,"enabled":true,"region":"us-west","cc":"us","latitude":33.94279,"longitude":-118.41004,"reserved":0,"last_update":"0001-01-01T00:00:00Z","name_a2s":"Uncletopia | Los Angeles | 2 | All Maps","protocol":17,"map":"koth_cascade","folder":"tf","game":"Team Fortress","app_id":440,"player_count":0,"max_players":24,"Bots":0,"server_type":"Dedicated","server_os":"Linux","password":true,"vac":true,"version":"7961495","steam_id":85568392924469992,"keywords":["cp","nocrits","nodmgspread","uncletopia"],"game_id":440,"stv_port":27026,"stv_name":"Uncletopia | Los Angeles | 2 | All Maps | STV","players":null},{"server_id":324,"name":"Uncletopia | Los Angeles | 3 | All Maps","name_short":"lax-3","host":"lax-1.us.uncletopia.com","port":27035,"enabled":true,"region":"us-west","cc":"us","latitude":33.94279,"longitude":-118.41004,"reserved":0,"last_update":"0001-01-01T00:00:00Z","name_a2s":"Uncletopia | Los Angeles | 3 | All Maps","protocol":17,"map":"pl_badwater","folder":"tf","game":"Team Fortress","app_id":440,"player_count":24,"max_players":24,"Bots":0,"server_type":"Dedicated","server_os":"Linux","password":true,"vac":true,"version":"7961495","steam_id":85568392924510198,"keywords":["nocrits","nodmgspread","payload","uncletopia"],"game_id":440,"stv_port":27036,"stv_name":"Uncletopia | Los Angeles | 3 | All Maps | STV","players":[{"user_id":98,"name":"JtsRes","steam_id":76561197994809241,"connected_time":4025000000000,"state":"active","ping":90},{"user_id":142,"name":"the booger butt (expert)","steam_id":76561198134301249,"connected_time":495000000000,"state":"active","ping":69},{"user_id":123,"name":"john.","steam_id":76561198982939658,"connected_time":2231000000000,"state":"active","ping":60},{"user_id":104,"name":"Red hoodie","steam_id":76561198317820055,"connected_time":3763000000000,"state":"active","ping":69},{"user_id":93,"name":"Whiskey","steam_id":76561198858154667,"connected_time":5005000000000,"state":"active","ping":47},{"user_id":44,"name":"wheresgeorge","steam_id":76561198986281248,"connected_time":10000000000000,"state":"active","ping":113},{"user_id":16,"name":"Grassman (Cc)","steam_id":76561198026488532,"connected_time":11524000000000,"state":"active","ping":60},{"user_id":139,"name":"Robert Legendary","steam_id":76561199146847458,"connected_time":1598000000000,"state":"active","ping":94},{"user_id":145,"name":"ix.","steam_id":76561198162715742,"connected_time":120000000000,"state":"active","ping":38},{"user_id":140,"name":"Thunder","steam_id":76561198097721532,"connected_time":1586000000000,"state":"active","ping":46},{"user_id":127,"name":"Coup de Grass","steam_id":76561198011643226,"connected_time":2136000000000,"state":"active","ping":124},{"user_id":105,"name":"self sufficient kitten","steam_id":76561197960592612,"connected_time":3757000000000,"state":"active","ping":76},{"user_id":124,"name":"NubNub21","steam_id":76561197995743317,"connected_time":2231000000000,"state":"active","ping":107},{"user_id":64,"name":"Spare(8)Ball","steam_id":76561197982432995,"connected_time":7915000000000,"state":"active","ping":61},{"user_id":116,"name":"BurningKev","steam_id":76561198057688837,"connected_time":2878000000000,"state":"active","ping":75},{"user_id":133,"name":"Žinâlyga","steam_id":76561198067803679,"connected_time":2025000000000,"state":"active","ping":75},{"user_id":144,"name":"bottom pride burger","steam_id":76561198322247602,"connected_time":206000000000,"state":"active","ping":78},{"user_id":95,"name":"❤ Ashley ❤","steam_id":76561198056428303,"connected_time":4523000000000,"state":"active","ping":53},{"user_id":130,"name":"Rally","steam_id":76561198004485218,"connected_time":2113000000000,"state":"active","ping":62},{"user_id":137,"name":"for eel? on cod? no carp?","steam_id":76561198095121758,"connected_time":1837000000000,"state":"active","ping":60},{"user_id":107,"name":"laughs bigman","steam_id":76561198067714032,"connected_time":3740000000000,"state":"active","ping":53},{"user_id":132,"name":"Don Quixote","steam_id":76561197975071752,"connected_time":2106000000000,"state":"active","ping":89},{"user_id":70,"name":"[DATS➡] Sugar Meowth","steam_id":76561197995251793,"connected_time":7151000000000,"state":"active","ping":75},{"user_id":122,"name":"Goku","steam_id":76561199085137300,"connected_time":2514000000000,"state":"active","ping":114}]},{"server_id":25,"name":"Uncletopia | Los Angeles | 4 | Stopwatch","name_short":"lax-4","host":"lax-1.us.uncletopia.com","port":27045,"enabled":true,"region":"us-west","cc":"us","latitude":33.94279,"longitude":-118.41004,"reserved":0,"last_update":"0001-01-01T00:00:00Z","name_a2s":"Uncletopia | Los Angeles | 4 | Stopwatch","protocol":17,"map":"cp_process_final","folder":"tf","game":"Team Fortress","app_id":440,"player_count":0,"max_players":24,"Bots":0,"server_type":"Dedicated","server_os":"Linux","password":true,"vac":true,"version":"7961495","steam_id":85568392924510199,"keywords":["cp","nocrits","nodmgspread","uncletopia"],"game_id":440,"stv_port":27046,"stv_name":"Uncletopia | Los Angeles | 4 | Stopwatch | STV","players":null},{"server_id":11,"name":"Uncletopia | London | 1 | All Maps","name_short":"lon-1","host":"lon-1.uk.uncletopia.com","port":27015,"enabled":true,"region":"eu","cc":"gb","latitude":51.509865,"longitude":-0.118092,"reserved":0,"last_update":"0001-01-01T00:00:00Z","name_a2s":"Uncletopia | London | 1 | All Maps","protocol":17,"map":"pl_borneo","folder":"tf","game":"Team Fortress","app_id":440,"player_count":23,"max_players":24,"Bots":0,"server_type":"Dedicated","server_os":"Linux","password":true,"vac":true,"version":"7961495","steam_id":85568392924367362,"keywords":["nocrits","nodmgspread","payload","uncletopia"],"game_id":440,"stv_port":27016,"stv_name":"Uncletopia | London | 1 | All Maps | STV","players":[{"user_id":786,"name":"Personano","steam_id":76561198994355577,"connected_time":1162000000000,"state":"active","ping":61},{"user_id":758,"name":"noseb","steam_id":76561199480942903,"connected_time":2680000000000,"state":"active","ping":74},{"user_id":780,"name":"Blar","steam_id":76561198042438229,"connected_time":1601000000000,"state":"active","ping":57},{"user_id":785,"name":"Venkids","steam_id":76561198086518702,"connected_time":1183000000000,"state":"active","ping":58},{"user_id":796,"name":"Dino","steam_id":76561198119538475,"connected_time":109000000000,"state":"active","ping":92},{"user_id":745,"name":"trans werewolf","steam_id":76561198107235989,"connected_time":3514000000000,"state":"active","ping":66},{"user_id":744,"name":"☁ Lou1smeister ☁","steam_id":76561198004032968,"connected_time":3586000000000,"state":"active","ping":61},{"user_id":755,"name":"tommy","steam_id":76561198195628823,"connected_time":2706000000000,"state":"active","ping":52},{"user_id":782,"name":"starlightartist","steam_id":76561198050608456,"connected_time":1257000000000,"state":"active","ping":33},{"user_id":791,"name":"Erebe","steam_id":76561197998206563,"connected_time":1128000000000,"state":"active","ping":69},{"user_id":742,"name":"snowycoast","steam_id":76561198346638308,"connected_time":3773000000000,"state":"active","ping":60},{"user_id":792,"name":"Mammut","steam_id":76561198056773933,"connected_time":659000000000,"state":"active","ping":54},{"user_id":781,"name":"♥Stephanie♥","steam_id":76561199042560808,"connected_time":1361000000000,"state":"active","ping":86},{"user_id":770,"name":"Ran33","steam_id":76561197991474499,"connected_time":1745000000000,"state":"active","ping":85},{"user_id":747,"name":"Lewylow","steam_id":76561198005425686,"connected_time":2963000000000,"state":"active","ping":52},{"user_id":756,"name":"CptNeverLucky","steam_id":76561197963052427,"connected_time":2704000000000,"state":"active","ping":50},{"user_id":704,"name":"Prime Minister Rishi Sunak","steam_id":76561198846784757,"connected_time":7278000000000,"state":"active","ping":58},{"user_id":732,"name":"Christmas Ham","steam_id":76561198119601623,"connected_time":4427000000000,"state":"active","ping":59},{"user_id":783,"name":"you can go anywhere","steam_id":76561199085984801,"connected_time":1195000000000,"state":"active","ping":60},{"user_id":730,"name":"Vap","steam_id":76561197999702200,"connected_time":5033000000000,"state":"active","ping":45},{"user_id":789,"name":"Jouppi","steam_id":76561198063725468,"connected_time":1133000000000,"state":"active","ping":93},{"user_id":793,"name":"Dude Time","steam_id":76561198092991160,"connected_time":327000000000,"state":"active","ping":165},{"user_id":795,"name":"le grip","steam_id":76561198105978107,"connected_time":146000000000,"state":"active","ping":89}]},{"server_id":114,"name":"Uncletopia | London | 2 | All Maps","name_short":"lon-2","host":"lon-1.uk.uncletopia.com","port":27025,"enabled":true,"region":"eu","cc":"gb","latitude":51.509865,"longitude":-0.118092,"reserved":0,"last_update":"0001-01-01T00:00:00Z","name_a2s":"Uncletopia | London | 2 | All Maps","protocol":17,"map":"koth_cascade","folder":"tf","game":"Team Fortress","app_id":440,"player_count":0,"max_players":24,"Bots":0,"server_type":"Dedicated","server_os":"Linux","password":true,"vac":true,"version":"7961495","steam_id":85568392924470941,"keywords":["cp","nocrits","nodmgspread","uncletopia"],"game_id":440,"stv_port":27026,"stv_name":"Uncletopia | London | 2 | All Maps | STV","players":null},{"server_id":320,"name":"Uncletopia | London | 3 | All Maps","name_short":"lon-3","host":"lon-1.uk.uncletopia.com","port":27035,"enabled":true,"region":"eu","cc":"gb","latitude":51.509865,"longitude":-0.118092,"reserved":0,"last_update":"0001-01-01T00:00:00Z","name_a2s":"Uncletopia | London | 3 | All Maps","protocol":17,"map":"koth_cascade","folder":"tf","game":"Team Fortress","app_id":440,"player_count":0,"max_players":24,"Bots":0,"server_type":"Dedicated","server_os":"Linux","password":true,"vac":true,"version":"7961495","steam_id":85568392924510192,"keywords":["cp","nocrits","nodmgspread","uncletopia"],"game_id":440,"stv_port":27036,"stv_name":"Uncletopia | London | 3 | All Maps | STV","players":null},{"server_id":321,"name":"Uncletopia | London | 4 | All Maps","name_short":"lon-4","host":"lon-1.uk.uncletopia.com","port":27045,"enabled":true,"region":"eu","cc":"gb","latitude":51.509865,"longitude":-0.118092,"reserved":0,"last_update":"0001-01-01T00:00:00Z","name_a2s":"Uncletopia | London | 4 | All Maps","protocol":17,"map":"pl_barnblitz","folder":"tf","game":"Team Fortress","app_id":440,"player_count":0,"max_players":24,"Bots":0,"server_type":"Dedicated","server_os":"Linux","password":true,"vac":true,"version":"7961495","steam_id":85568392924510193,"keywords":["nocrits","nodmgspread","payload","uncletopia"],"game_id":440,"stv_port":27046,"stv_name":"Uncletopia | London | 4 | All Maps | STV","players":null},{"server_id":21,"name":"Uncletopia | London | 5 | All Maps","name_short":"lon-5","host":"lon-1.uk.uncletopia.com","port":27055,"enabled":true,"region":"eu","cc":"gb","latitude":51.509865,"longitude":-0.118092,"reserved":0,"last_update":"0001-01-01T00:00:00Z","name_a2s":"Uncletopia | London | 5 | All Maps","protocol":17,"map":"koth_highpass","folder":"tf","game":"Team Fortress","app_id":440,"player_count":0,"max_players":24,"Bots":0,"server_type":"Dedicated","server_os":"Linux","password":true,"vac":true,"version":"7961495","steam_id":85568392924742829,"keywords":["cp","nocrits","nodmgspread","uncletopia"],"game_id":440,"stv_port":27056,"stv_name":"Uncletopia | London | 5 | All Maps | STV","players":null},{"server_id":22,"name":"Uncletopia | London | 6 | All Maps","name_short":"lon-6","host":"lon-1.uk.uncletopia.com","port":27065,"enabled":true,"region":"eu","cc":"gb","latitude":51.509865,"longitude":-0.118092,"reserved":0,"last_update":"0001-01-01T00:00:00Z","name_a2s":"Uncletopia | London | 6 | All Maps","protocol":17,"map":"pl_barnblitz","folder":"tf","game":"Team Fortress","app_id":440,"player_count":0,"max_players":24,"Bots":0,"server_type":"Dedicated","server_os":"Linux","password":true,"vac":true,"version":"7961495","steam_id":85568392924742830,"keywords":["nocrits","nodmgspread","payload","uncletopia"],"game_id":440,"stv_port":27066,"stv_name":"Uncletopia | London | 6 | All Maps | STV","players":null},{"server_id":40,"name":"Uncletopia | London | 7 | Stopwatch","name_short":"lon-7","host":"lon-1.uk.uncletopia.com","port":27075,"enabled":true,"region":"eu","cc":"gb","latitude":51.509865,"longitude":-0.118092,"reserved":0,"last_update":"0001-01-01T00:00:00Z","name_a2s":"Uncletopia | London | 7 | Stopwatch","protocol":17,"map":"workshop/koth_bagel_rc6.ugc2514036946","folder":"tf","game":"Team Fortress","app_id":440,"player_count":0,"max_players":24,"Bots":0,"server_type":"Dedicated","server_os":"Linux","password":true,"vac":true,"version":"7961495","steam_id":85568392924964314,"keywords":["cp","nocrits","nodmgspread","uncletopia"],"game_id":440,"stv_port":27076,"stv_name":"Uncletopia | London | 7 | Stopwatch | STV","players":null},{"server_id":41,"name":"Uncletopia | London | 8 | Community","name_short":"lon-8","host":"lon-1.uk.uncletopia.com","port":27085,"enabled":true,"region":"eu","cc":"gb","latitude":51.509865,"longitude":-0.118092,"reserved":0,"last_update":"0001-01-01T00:00:00Z","name_a2s":"Uncletopia | London | 8 | Community","protocol":17,"map":"workshop/cp_propaganda_b18.ugc1603743849","folder":"tf","game":"Team Fortress","app_id":440,"player_count":0,"max_players":24,"Bots":0,"server_type":"Dedicated","server_os":"Linux","password":true,"vac":true,"version":"7961495","steam_id":85568392924964315,"keywords":["cp","nocrits","nodmgspread","uncletopia"],"game_id":440,"stv_port":27086,"stv_name":"Uncletopia | London | 8 | Community | STV","players":null},{"server_id":300,"name":"Uncletopia | Montréal | 1 | One Thousand Uncles","name_short":"mtl-1","host":"mtl-1.ca.uncletopia.com","port":27015,"enabled":true,"region":"us-east","cc":"ca","latitude":45.50889,"longitude":-73.56167,"reserved":0,"last_update":"0001-01-01T00:00:00Z","name_a2s":"","protocol":0,"map":"","folder":"","game":"","app_id":0,"player_count":15,"max_players":0,"Bots":0,"server_type":"","server_os":"","password":false,"vac":false,"version":"","steam_id":0,"keywords":null,"game_id":0,"stv_port":0,"stv_name":"","players":[{"user_id":19,"name":"groot","steam_id":76561198057999536,"connected_time":5384000000000,"state":"active","ping":114},{"user_id":131,"name":"BrotchaDoor","steam_id":76561198317474583,"connected_time":379000000000,"state":"active","ping":72},{"user_id":85,"name":"ุ","steam_id":76561198084134025,"connected_time":2066000000000,"state":"active","ping":87},{"user_id":57,"name":"h20verdrive","steam_id":76561198115957085,"connected_time":4242000000000,"state":"active","ping":118},{"user_id":133,"name":"manbearswineflu","steam_id":76561198083945137,"connected_time":93000000000,"state":"active","ping":72},{"user_id":64,"name":"rhulk's right leg","steam_id":76561198159933043,"connected_time":3106000000000,"state":"active","ping":245},{"user_id":91,"name":"A KNIFE!","steam_id":76561198160390701,"connected_time":1724000000000,"state":"active","ping":305},{"user_id":88,"name":"Kenku","steam_id":76561199086762926,"connected_time":1892000000000,"state":"active","ping":83},{"user_id":45,"name":"Ping","steam_id":76561199206514106,"connected_time":4553000000000,"state":"active","ping":68},{"user_id":54,"name":"jimbo","steam_id":76561198067867292,"connected_time":4331000000000,"state":"active","ping":113},{"user_id":48,"name":"Tom Dude","steam_id":76561198093913484,"connected_time":4503000000000,"state":"active","ping":128},{"user_id":83,"name":"chunkysquare","steam_id":76561199076468383,"connected_time":2765000000000,"state":"active","ping":100},{"user_id":56,"name":"Pohnut","steam_id":76561198087831690,"connected_time":4276000000000,"state":"active","ping":129},{"user_id":82,"name":"Dr. Professor PJ, Ph.D","steam_id":76561198004429398,"connected_time":3030000000000,"state":"active","ping":66},{"user_id":87,"name":"Huey","steam_id":76561198972816386,"connected_time":1960000000000,"state":"active","ping":87}]},{"server_id":301,"name":"Uncletopia | Montréal | 2 | One Thousand Uncles","name_short":"mtl-2","host":"mtl-1.ca.uncletopia.com","port":27025,"enabled":true,"region":"us-east","cc":"ca","latitude":45.50889,"longitude":-73.56167,"reserved":0,"last_update":"0001-01-01T00:00:00Z","name_a2s":"","protocol":0,"map":"","folder":"","game":"","app_id":0,"player_count":16,"max_players":0,"Bots":0,"server_type":"","server_os":"","password":false,"vac":false,"version":"","steam_id":0,"keywords":null,"game_id":0,"stv_port":0,"stv_name":"","players":[{"user_id":110,"name":"Khaki","steam_id":76561197991523078,"connected_time":378000000000,"state":"active","ping":102},{"user_id":95,"name":"Wide (X ˵ l ◡ l ˵ X)","steam_id":76561198213130899,"connected_time":1858000000000,"state":"active","ping":76},{"user_id":74,"name":"larguu","steam_id":76561197994336210,"connected_time":2672000000000,"state":"active","ping":50},{"user_id":27,"name":"1-800-GHOST-DANCE","steam_id":76561198835430429,"connected_time":6589000000000,"state":"active","ping":79},{"user_id":68,"name":"Little Shuriken","steam_id":76561199020477560,"connected_time":3020000000000,"state":"active","ping":110},{"user_id":106,"name":"ุReshy","steam_id":76561198004436202,"connected_time":986000000000,"state":"active","ping":111},{"user_id":102,"name":"penishaha","steam_id":76561198262856703,"connected_time":1425000000000,"state":"active","ping":120},{"user_id":114,"name":"HoneyOTU","steam_id":76561198200366607,"connected_time":80000000000,"state":"active","ping":60},{"user_id":71,"name":"Aegis","steam_id":76561198272052750,"connected_time":2781000000000,"state":"active","ping":97},{"user_id":109,"name":"feliser","steam_id":76561198084336096,"connected_time":660000000000,"state":"active","ping":43},{"user_id":113,"name":"Robocrate007","steam_id":76561198085096788,"connected_time":174000000000,"state":"active","ping":78},{"user_id":56,"name":"wife (wife)","steam_id":76561198975527343,"connected_time":4182000000000,"state":"active","ping":65},{"user_id":57,"name":"TimeWarper","steam_id":76561198307258839,"connected_time":4155000000000,"state":"active","ping":42},{"user_id":100,"name":"cheetaz","steam_id":76561198224614084,"connected_time":1787000000000,"state":"active","ping":76},{"user_id":70,"name":"Error 4 Oh Four","steam_id":76561198121637567,"connected_time":2870000000000,"state":"active","ping":83},{"user_id":63,"name":"Hoxton","steam_id":76561198129209505,"connected_time":3725000000000,"state":"active","ping":154}]},{"server_id":302,"name":"Uncletopia | Montréal | 3 | One Thousand Uncles","name_short":"mtl-3","host":"mtl-1.ca.uncletopia.com","port":27035,"enabled":true,"region":"us-east","cc":"ca","latitude":45.50889,"longitude":-73.56167,"reserved":0,"last_update":"0001-01-01T00:00:00Z","name_a2s":"","protocol":0,"map":"","folder":"","game":"","app_id":0,"player_count":11,"max_players":0,"Bots":0,"server_type":"","server_os":"","password":false,"vac":false,"version":"","steam_id":0,"keywords":null,"game_id":0,"stv_port":0,"stv_name":"","players":[{"user_id":119,"name":"Titar Industries","steam_id":76561198143078476,"connected_time":2163000000000,"state":"active","ping":41},{"user_id":99,"name":"Amy Roxwell","steam_id":76561198303391830,"connected_time":2448000000000,"state":"active","ping":146},{"user_id":126,"name":"your local forecast","steam_id":76561198042243083,"connected_time":1265000000000,"state":"active","ping":59},{"user_id":117,"name":"NotTony69","steam_id":76561199122717140,"connected_time":2236000000000,"state":"active","ping":102},{"user_id":118,"name":"ʕ•ᴥ•ʔ the bear","steam_id":76561197989591976,"connected_time":2171000000000,"state":"active","ping":51},{"user_id":120,"name":"disc0rd","steam_id":76561197985965776,"connected_time":1941000000000,"state":"active","ping":111},{"user_id":134,"name":"exx","steam_id":76561198090552145,"connected_time":85000000000,"state":"active","ping":119},{"user_id":123,"name":"gimpy terry","steam_id":76561198940368888,"connected_time":1743000000000,"state":"active","ping":65},{"user_id":124,"name":"c00kie","steam_id":76561198418178297,"connected_time":1736000000000,"state":"active","ping":55},{"user_id":127,"name":"squoing","steam_id":76561199259430159,"connected_time":1230000000000,"state":"active","ping":143},{"user_id":133,"name":"cometgm","steam_id":76561198054201515,"connected_time":258000000000,"state":"active","ping":114}]},{"server_id":13,"name":"Uncletopia | New York City | 1 | All Maps","name_short":"nyc-1","host":"nyc-1.us.uncletopia.com","port":27015,"enabled":true,"region":"us-east","cc":"us","latitude":40.73061,"longitude":-73.93524,"reserved":0,"last_update":"0001-01-01T00:00:00Z","name_a2s":"Uncletopia | New York City | 1 | All Maps","protocol":17,"map":"plr_hightower","folder":"tf","game":"Team Fortress","app_id":440,"player_count":24,"max_players":24,"Bots":0,"server_type":"Dedicated","server_os":"Linux","password":true,"vac":true,"version":"7961495","steam_id":85568392924469993,"keywords":["nocrits","nodmgspread","payload","uncletopia"],"game_id":440,"stv_port":27016,"stv_name":"Uncletopia | New York City | 1 | All Maps | STV","players":[{"user_id":285,"name":"Joy","steam_id":76561198073690173,"connected_time":3791000000000,"state":"active","ping":55},{"user_id":261,"name":"A Puppy","steam_id":76561198828184456,"connected_time":6828000000000,"state":"active","ping":46},{"user_id":329,"name":"Scoob","steam_id":76561198078633301,"connected_time":876000000000,"state":"active","ping":50},{"user_id":319,"name":"neet","steam_id":76561197968115168,"connected_time":1476000000000,"state":"active","ping":48},{"user_id":312,"name":"Duck","steam_id":76561198061652621,"connected_time":1764000000000,"state":"active","ping":59},{"user_id":341,"name":"saurhead","steam_id":76561198132937722,"connected_time":141000000000,"state":"active","ping":45},{"user_id":215,"name":"SpaceSanctum","steam_id":76561198805242305,"connected_time":9836000000000,"state":"active","ping":42},{"user_id":216,"name":"googa","steam_id":76561198133130452,"connected_time":9834000000000,"state":"active","ping":45},{"user_id":324,"name":"GreatTimBones","steam_id":76561198409145748,"connected_time":1342000000000,"state":"active","ping":70},{"user_id":333,"name":"ApertureCity","steam_id":76561198004153607,"connected_time":499000000000,"state":"active","ping":75},{"user_id":338,"name":"Unnecessary Toxicity","steam_id":76561198249397292,"connected_time":370000000000,"state":"active","ping":57},{"user_id":330,"name":"dcqwerty","steam_id":76561198964101426,"connected_time":812000000000,"state":"active","ping":38},{"user_id":321,"name":"TwelvePackofSaltyBones","steam_id":76561198224764664,"connected_time":1405000000000,"state":"active","ping":75},{"user_id":322,"name":"bluebluepickles","steam_id":76561198119503953,"connected_time":1398000000000,"state":"active","ping":79},{"user_id":339,"name":"Jason Todd","steam_id":76561198272002640,"connected_time":317000000000,"state":"active","ping":112},{"user_id":317,"name":"BOO HAWND","steam_id":76561198141617142,"connected_time":1558000000000,"state":"active","ping":82},{"user_id":327,"name":"onion connoisseur","steam_id":76561198065266282,"connected_time":1153000000000,"state":"active","ping":58},{"user_id":340,"name":"milk","steam_id":76561198813251405,"connected_time":289000000000,"state":"active","ping":54},{"user_id":336,"name":"Zaid","steam_id":76561199142840666,"connected_time":439000000000,"state":"active","ping":155},{"user_id":307,"name":"pipebombrater","steam_id":76561199029030831,"connected_time":1963000000000,"state":"active","ping":73},{"user_id":310,"name":"toritora","steam_id":76561198023859737,"connected_time":1858000000000,"state":"active","ping":60},{"user_id":273,"name":"CRAZY engineer","steam_id":76561198887937902,"connected_time":5205000000000,"state":"active","ping":49},{"user_id":323,"name":"xfinitycablebox","steam_id":76561198317433700,"connected_time":1388000000000,"state":"active","ping":75},{"user_id":306,"name":"JoCaleb02","steam_id":76561198272389829,"connected_time":2045000000000,"state":"active","ping":55}]},{"server_id":14,"name":"Uncletopia | New York City | 2 | All Maps","name_short":"nyc-2","host":"nyc-1.us.uncletopia.com","port":27025,"enabled":true,"region":"us-east","cc":"us","latitude":40.73061,"longitude":-73.93524,"reserved":0,"last_update":"0001-01-01T00:00:00Z","name_a2s":"Uncletopia | New York City | 2 | All Maps","protocol":17,"map":"plr_pipeline","folder":"tf","game":"Team Fortress","app_id":440,"player_count":24,"max_players":24,"Bots":0,"server_type":"Dedicated","server_os":"Linux","password":true,"vac":true,"version":"7961495","steam_id":85568392924469994,"keywords":["nocrits","nodmgspread","payload","uncletopia"],"game_id":440,"stv_port":27026,"stv_name":"Uncletopia | New York City | 2 | All Maps | STV","players":[{"user_id":597,"name":"He Who Dared Say \"SuS\"","steam_id":76561198123441203,"connected_time":5827000000000,"state":"active","ping":75},{"user_id":657,"name":"Luther_51","steam_id":76561198042994473,"connected_time":2030000000000,"state":"active","ping":72},{"user_id":618,"name":"Coop","steam_id":76561198042839356,"connected_time":4599000000000,"state":"active","ping":69},{"user_id":665,"name":"dudeer733","steam_id":76561198030319392,"connected_time":1202000000000,"state":"active","ping":75},{"user_id":675,"name":"lopyz","steam_id":76561198046396310,"connected_time":783000000000,"state":"active","ping":132},{"user_id":670,"name":"cakgamin","steam_id":76561199088909749,"connected_time":916000000000,"state":"active","ping":74},{"user_id":668,"name":"femtofarad™","steam_id":76561198308583053,"connected_time":964000000000,"state":"active","ping":59},{"user_id":647,"name":"Sergeant Joker #savetf2","steam_id":76561198854616604,"connected_time":3324000000000,"state":"active","ping":60},{"user_id":667,"name":"bozer2005","steam_id":76561199013526896,"connected_time":1108000000000,"state":"active","ping":79},{"user_id":669,"name":"LazyKoala99","steam_id":76561199183623672,"connected_time":963000000000,"state":"active","ping":55},{"user_id":660,"name":"fucked-up electronic punk.","steam_id":76561198294013916,"connected_time":1771000000000,"state":"active","ping":45},{"user_id":663,"name":"Punsequence64","steam_id":76561199201885917,"connected_time":1584000000000,"state":"active","ping":83},{"user_id":662,"name":"JJames","steam_id":76561198055687973,"connected_time":1622000000000,"state":"active","ping":71},{"user_id":671,"name":"BallofBandages","steam_id":76561198089817918,"connected_time":865000000000,"state":"active","ping":60},{"user_id":649,"name":"Ballistic","steam_id":76561197992355477,"connected_time":3251000000000,"state":"active","ping":54},{"user_id":672,"name":"wals","steam_id":76561199166474769,"connected_time":860000000000,"state":"active","ping":157},{"user_id":648,"name":"Bostonstapler","steam_id":76561197996334971,"connected_time":3324000000000,"state":"active","ping":90},{"user_id":626,"name":"Bad Medic Buddy","steam_id":76561198093222632,"connected_time":4401000000000,"state":"active","ping":78},{"user_id":627,"name":"The Hose on Upward","steam_id":76561197965092192,"connected_time":4401000000000,"state":"active","ping":76},{"user_id":630,"name":"Terror-Billy #SaveTF2","steam_id":76561198328141870,"connected_time":4203000000000,"state":"active","ping":70},{"user_id":673,"name":"Mr. Morton, CEO of Caber Corp\ufffd\ufffd","steam_id":76561198092130334,"connected_time":858000000000,"state":"active","ping":88},{"user_id":654,"name":"MothBoi","steam_id":76561198311422010,"connected_time":2693000000000,"state":"active","ping":87},{"user_id":676,"name":"Antwan","steam_id":76561198246200638,"connected_time":586000000000,"state":"active","ping":92}]},{"server_id":15,"name":"Uncletopia | New York City | 3 | Stopwatch","name_short":"nyc-3","host":"nyc-1.us.uncletopia.com","port":27035,"enabled":true,"region":"us-east","cc":"us","latitude":40.73061,"longitude":-73.93524,"reserved":0,"last_update":"0001-01-01T00:00:00Z","name_a2s":"Uncletopia | New York City | 3 | Stopwatch","protocol":17,"map":"workshop/pl_badwater_pro_v12.ugc2142942074","folder":"tf","game":"Team Fortress","app_id":440,"player_count":24,"max_players":24,"Bots":0,"server_type":"Dedicated","server_os":"Linux","password":true,"vac":true,"version":"7961495","steam_id":85568392924742820,"keywords":["nocrits","nodmgspread","payload","uncletopia"],"game_id":440,"stv_port":27036,"stv_name":"Uncletopia | New York City | 3 | Stopwatch | STV","players":[{"user_id":254,"name":"EvilsConscience","steam_id":76561198073451760,"connected_time":1695000000000,"state":"active","ping":76},{"user_id":271,"name":"Icaras","steam_id":76561198416724843,"connected_time":330000000000,"state":"active","ping":113},{"user_id":257,"name":"NerdyEnforcement","steam_id":76561198437710820,"connected_time":1548000000000,"state":"active","ping":87},{"user_id":238,"name":"Im Probably Black","steam_id":76561198425418597,"connected_time":2838000000000,"state":"active","ping":79},{"user_id":266,"name":"¿skitt1eS?","steam_id":76561198330093211,"connected_time":1036000000000,"state":"active","ping":62},{"user_id":230,"name":"The_atom_bomb","steam_id":76561198139944683,"connected_time":3716000000000,"state":"active","ping":70},{"user_id":224,"name":"Egg","steam_id":76561198028157625,"connected_time":3903000000000,"state":"active","ping":85},{"user_id":262,"name":"Crabo Stabbo","steam_id":76561198061227228,"connected_time":1389000000000,"state":"active","ping":77},{"user_id":270,"name":"CREE","steam_id":76561198392539722,"connected_time":359000000000,"state":"active","ping":79},{"user_id":272,"name":"the cum man","steam_id":76561198327035610,"connected_time":246000000000,"state":"active","ping":109},{"user_id":239,"name":"SoundslikeJustice","steam_id":76561198963640645,"connected_time":2835000000000,"state":"active","ping":60},{"user_id":260,"name":"cyberas","steam_id":76561198257092290,"connected_time":1467000000000,"state":"active","ping":64},{"user_id":273,"name":"boo_thefeared","steam_id":76561198127967685,"connected_time":186000000000,"state":"active","ping":133},{"user_id":274,"name":"jolo","steam_id":76561198042831480,"connected_time":184000000000,"state":"active","ping":80},{"user_id":267,"name":"BERBLOAF","steam_id":76561199149877675,"connected_time":939000000000,"state":"active","ping":53},{"user_id":251,"name":"LW | [wrd]HaloLagann","steam_id":76561198047561568,"connected_time":2154000000000,"state":"active","ping":52},{"user_id":151,"name":"Bat Georgi","steam_id":76561198361144342,"connected_time":7401000000000,"state":"active","ping":161},{"user_id":234,"name":"Gustavo Fring","steam_id":76561198132807405,"connected_time":3022000000000,"state":"active","ping":86},{"user_id":246,"name":"practising adonitologist","steam_id":76561198120124007,"connected_time":2526000000000,"state":"active","ping":74},{"user_id":227,"name":"xLeoparrd","steam_id":76561198940657194,"connected_time":3814000000000,"state":"active","ping":82},{"user_id":275,"name":"the zoo","steam_id":76561198013732450,"connected_time":180000000000,"state":"active","ping":66},{"user_id":264,"name":"Tyr","steam_id":76561198015381712,"connected_time":1332000000000,"state":"active","ping":57},{"user_id":235,"name":"Takeover","steam_id":76561197996081461,"connected_time":2935000000000,"state":"active","ping":45},{"user_id":248,"name":"pnut","steam_id":76561198043862737,"connected_time":2174000000000,"state":"active","ping":41}]},{"server_id":16,"name":"Uncletopia | New York City | 4 | Community","name_short":"nyc-4","host":"nyc-1.us.uncletopia.com","port":27045,"enabled":true,"region":"us-east","cc":"us","latitude":40.73061,"longitude":-73.93524,"reserved":0,"last_update":"0001-01-01T00:00:00Z","name_a2s":"Uncletopia | New York City | 4 | Community","protocol":17,"map":"workshop/pl_vigil_rc10.ugc1266210012","folder":"tf","game":"Team Fortress","app_id":440,"player_count":18,"max_players":24,"Bots":0,"server_type":"Dedicated","server_os":"Linux","password":true,"vac":true,"version":"7961495","steam_id":85568392924742821,"keywords":["nocrits","nodmgspread","payload","uncletopia"],"game_id":440,"stv_port":27046,"stv_name":"Uncletopia | New York City | 4 | Community | STV","players":[{"user_id":177,"name":"tntkiller","steam_id":76561198067401676,"connected_time":599000000000,"state":"active","ping":53},{"user_id":155,"name":"A Future US Army Soldier","steam_id":76561198008263869,"connected_time":1683000000000,"state":"active","ping":59},{"user_id":176,"name":"Virtual Insanity","steam_id":76561198095245223,"connected_time":605000000000,"state":"active","ping":52},{"user_id":178,"name":"Jetty","steam_id":76561198004885583,"connected_time":558000000000,"state":"active","ping":90},{"user_id":179,"name":"shoxidizer","steam_id":76561198981983698,"connected_time":514000000000,"state":"active","ping":68},{"user_id":187,"name":"Yo Yo Bobby Joe","steam_id":76561198374930532,"connected_time":25000000000,"state":"active","ping":63},{"user_id":111,"name":"Captain Chicken","steam_id":76561198047767530,"connected_time":4342000000000,"state":"active","ping":109},{"user_id":180,"name":"JohnsBriefcase","steam_id":76561198117657002,"connected_time":469000000000,"state":"active","ping":53},{"user_id":110,"name":"DoggyDogWhirl","steam_id":76561198042841344,"connected_time":4343000000000,"state":"active","ping":70},{"user_id":183,"name":"stampdawg","steam_id":76561198050500060,"connected_time":263000000000,"state":"active","ping":79},{"user_id":125,"name":"Froyo Ding Dong","steam_id":76561198379421700,"connected_time":3463000000000,"state":"active","ping":50},{"user_id":165,"name":"Zinx","steam_id":76561198150134209,"connected_time":1250000000000,"state":"active","ping":50},{"user_id":161,"name":"CaioXDD5","steam_id":76561198323025785,"connected_time":1529000000000,"state":"active","ping":179},{"user_id":139,"name":"coob","steam_id":76561198171047087,"connected_time":2606000000000,"state":"active","ping":64},{"user_id":169,"name":"zootdestroyer911","steam_id":76561198046754534,"connected_time":1139000000000,"state":"active","ping":158},{"user_id":140,"name":"Cheeki","steam_id":76561198024375176,"connected_time":2581000000000,"state":"active","ping":43},{"user_id":160,"name":"songcreator","steam_id":76561198076822464,"connected_time":1609000000000,"state":"active","ping":67},{"user_id":174,"name":"hayes","steam_id":76561198057101042,"connected_time":654000000000,"state":"active","ping":89}]},{"server_id":142,"name":"Uncletopia | São Paulo | 1 | All Maps","name_short":"sao-1","host":"sao-1.br.uncletopia.com","port":27015,"enabled":true,"region":"sa","cc":"br","latitude":-23.533773,"longitude":-46.62529,"reserved":0,"last_update":"0001-01-01T00:00:00Z","name_a2s":"Uncletopia | São Paulo | 1 | All Maps","protocol":17,"map":"cp_sunshine","folder":"tf","game":"Team Fortress","app_id":440,"player_count":0,"max_players":24,"Bots":0,"server_type":"Dedicated","server_os":"Linux","password":true,"vac":true,"version":"7961495","steam_id":85568392924469996,"keywords":["cp","nocrits","nodmgspread","uncletopia"],"game_id":440,"stv_port":27016,"stv_name":"Uncletopia | São Paulo | 1 | All Maps | STV","players":null},{"server_id":143,"name":"Uncletopia | São Paulo | 2 | Community","name_short":"sao-2","host":"sao-2.br.uncletopia.com","port":27015,"enabled":true,"region":"sa","cc":"br","latitude":-23.533773,"longitude":-46.62529,"reserved":0,"last_update":"0001-01-01T00:00:00Z","name_a2s":"Uncletopia | São Paulo | 2 | Community","protocol":17,"map":"workshop/pl_boundary_final1.ugc456799153","folder":"tf","game":"Team Fortress","app_id":440,"player_count":5,"max_players":24,"Bots":0,"server_type":"Dedicated","server_os":"Linux","password":true,"vac":true,"version":"7961495","steam_id":85568392924485349,"keywords":["nocrits","nodmgspread","payload","uncletopia"],"game_id":440,"stv_port":27016,"stv_name":"Uncletopia | São Paulo | 2 | Community | STV","players":[{"user_id":14,"name":"Otaah","steam_id":76561199072374071,"connected_time":4107000000000,"state":"active","ping":45},{"user_id":15,"name":"Seleste","steam_id":76561199099945745,"connected_time":2976000000000,"state":"active","ping":79},{"user_id":16,"name":"fernandohll59","steam_id":76561199120728007,"connected_time":1794000000000,"state":"active","ping":133},{"user_id":17,"name":"CHABLAU","steam_id":76561198808436182,"connected_time":1754000000000,"state":"active","ping":149},{"user_id":19,"name":"omrboo061","steam_id":76561199443653759,"connected_time":927000000000,"state":"active","ping":85}]},{"server_id":7,"name":"Uncletopia | Seattle | 1 | All Maps","name_short":"sea-1","host":"sea-1.us.uncletopia.com","port":27015,"enabled":true,"region":"us-west","cc":"us","latitude":47.608013,"longitude":-122.33517,"reserved":0,"last_update":"0001-01-01T00:00:00Z","name_a2s":"Uncletopia | Seattle | 1 | All Maps","protocol":17,"map":"cp_steel","folder":"tf","game":"Team Fortress","app_id":440,"player_count":24,"max_players":24,"Bots":0,"server_type":"Dedicated","server_os":"Linux","password":true,"vac":true,"version":"7961495","steam_id":85568392924469997,"keywords":["cp","nocrits","nodmgspread","uncletopia"],"game_id":440,"stv_port":27016,"stv_name":"Uncletopia | Seattle | 1 | All Maps | STV","players":[{"user_id":437,"name":"rat gets the cheese","steam_id":76561198031234032,"connected_time":4850000000000,"state":"active","ping":96},{"user_id":487,"name":"Wren","steam_id":76561198012067451,"connected_time":652000000000,"state":"active","ping":119},{"user_id":438,"name":"dillpickle","steam_id":76561198156957191,"connected_time":4846000000000,"state":"active","ping":96},{"user_id":477,"name":"Greskrendtregk","steam_id":76561197969553142,"connected_time":1754000000000,"state":"active","ping":52},{"user_id":455,"name":"remanedur","steam_id":76561198059459507,"connected_time":4330000000000,"state":"active","ping":127},{"user_id":453,"name":"tr","steam_id":76561198046944222,"connected_time":4482000000000,"state":"active","ping":45},{"user_id":490,"name":"fountain Mann","steam_id":76561198834350355,"connected_time":418000000000,"state":"active","ping":73},{"user_id":452,"name":"scallop pigeon","steam_id":76561199488457138,"connected_time":4580000000000,"state":"active","ping":59},{"user_id":489,"name":"jayeskae","steam_id":76561198144220801,"connected_time":496000000000,"state":"active","ping":46},{"user_id":491,"name":"ilun","steam_id":76561198042913843,"connected_time":375000000000,"state":"active","ping":60},{"user_id":469,"name":"Gregg Rulz ok","steam_id":76561199027131213,"connected_time":2517000000000,"state":"active","ping":50},{"user_id":484,"name":"Walter White","steam_id":76561199102963294,"connected_time":727000000000,"state":"active","ping":61},{"user_id":473,"name":"Skabbety","steam_id":76561198168044257,"connected_time":2088000000000,"state":"active","ping":43},{"user_id":482,"name":"Mitchell","steam_id":76561197972922328,"connected_time":1068000000000,"state":"active","ping":146},{"user_id":458,"name":"Dimple #TF2Center","steam_id":76561198980324190,"connected_time":4039000000000,"state":"active","ping":49},{"user_id":481,"name":"Karg","steam_id":76561198091387866,"connected_time":1391000000000,"state":"active","ping":65},{"user_id":474,"name":"Cyberpunk McDonald's Play Place","steam_id":76561198063512035,"connected_time":1806000000000,"state":"active","ping":124},{"user_id":459,"name":"Ashanti Clan","steam_id":76561198032651105,"connected_time":3966000000000,"state":"active","ping":58},{"user_id":434,"name":"Sudsen","steam_id":76561198370603787,"connected_time":4860000000000,"state":"active","ping":93},{"user_id":475,"name":"Mr. Pirate","steam_id":76561199247095754,"connected_time":1795000000000,"state":"active","ping":89},{"user_id":470,"name":"dust | it/she","steam_id":76561198045218909,"connected_time":2481000000000,"state":"active","ping":43},{"user_id":435,"name":"Arg0","steam_id":76561198074858755,"connected_time":4859000000000,"state":"active","ping":67},{"user_id":483,"name":"Crake","steam_id":76561198001959071,"connected_time":1067000000000,"state":"active","ping":48},{"user_id":472,"name":"KinglyGhost","steam_id":76561198072254064,"connected_time":2348000000000,"state":"active","ping":55}]},{"server_id":119,"name":"Uncletopia | Seattle | 2 | All Maps","name_short":"sea-2","host":"sea-1.us.uncletopia.com","port":27025,"enabled":true,"region":"us-west","cc":"us","latitude":47.608013,"longitude":-122.33517,"reserved":0,"last_update":"0001-01-01T00:00:00Z","name_a2s":"Uncletopia | Seattle | 2 | All Maps","protocol":17,"map":"pl_borneo","folder":"tf","game":"Team Fortress","app_id":440,"player_count":23,"max_players":24,"Bots":0,"server_type":"Dedicated","server_os":"Linux","password":true,"vac":true,"version":"7961495","steam_id":85568392924469998,"keywords":["nocrits","nodmgspread","payload","uncletopia"],"game_id":440,"stv_port":27026,"stv_name":"Uncletopia | Seattle | 2 | All Maps | STV","players":[{"user_id":23,"name":"Nyx","steam_id":76561199010550945,"connected_time":2881000000000,"state":"active","ping":48},{"user_id":78,"name":"Yakashama","steam_id":76561198204869719,"connected_time":5000000000,"state":"spawning","ping":40},{"user_id":74,"name":"Interrobang","steam_id":76561198385044529,"connected_time":401000000000,"state":"active","ping":121},{"user_id":20,"name":"yowhatupitk","steam_id":76561199224530901,"connected_time":3153000000000,"state":"active","ping":45},{"user_id":21,"name":"EpicCoolGuy793","steam_id":76561198145769767,"connected_time":3122000000000,"state":"active","ping":55},{"user_id":77,"name":"Bocchi the Rock Johnson","steam_id":76561198216017952,"connected_time":59000000000,"state":"active","ping":71},{"user_id":24,"name":"CCPodz","steam_id":76561199143506502,"connected_time":2880000000000,"state":"active","ping":110},{"user_id":31,"name":"Hats","steam_id":76561198037171009,"connected_time":2543000000000,"state":"active","ping":143},{"user_id":53,"name":"Urbanzpinapple","steam_id":76561198115426938,"connected_time":1614000000000,"state":"active","ping":137},{"user_id":28,"name":"Bolbi","steam_id":76561198051811597,"connected_time":2729000000000,"state":"active","ping":72},{"user_id":75,"name":"SandyMany","steam_id":76561198183098099,"connected_time":376000000000,"state":"active","ping":45},{"user_id":51,"name":"Feldspaten","steam_id":76561199122059102,"connected_time":1774000000000,"state":"active","ping":79},{"user_id":32,"name":"Hous Bous","steam_id":76561198413390003,"connected_time":2537000000000,"state":"active","ping":132},{"user_id":49,"name":"Jaydyn","steam_id":76561198140326797,"connected_time":2105000000000,"state":"active","ping":123},{"user_id":76,"name":"Goose","steam_id":76561198036774894,"connected_time":205000000000,"state":"active","ping":59},{"user_id":60,"name":"Texas guy","steam_id":76561198082315370,"connected_time":1210000000000,"state":"active","ping":66},{"user_id":63,"name":"pat","steam_id":76561198040595468,"connected_time":1033000000000,"state":"active","ping":78},{"user_id":39,"name":"Tr1pleA","steam_id":76561198028848587,"connected_time":2429000000000,"state":"active","ping":120},{"user_id":54,"name":"Colonel Chikara","steam_id":76561198010021087,"connected_time":1575000000000,"state":"active","ping":59},{"user_id":41,"name":"Tommy Salami","steam_id":76561198210206347,"connected_time":2424000000000,"state":"active","ping":121},{"user_id":64,"name":"Jerry Bee","steam_id":76561198170444711,"connected_time":1028000000000,"state":"active","ping":36},{"user_id":47,"name":"MonteJT","steam_id":76561198055409360,"connected_time":2343000000000,"state":"active","ping":37},{"user_id":72,"name":"keithykeithers","steam_id":76561197995552615,"connected_time":641000000000,"state":"active","ping":50}]},{"server_id":406,"name":"Uncletopia | Seattle | 3 | Stopwatch","name_short":"sea-3","host":"sea-1.us.uncletopia.com","port":27035,"enabled":true,"region":"us-west","cc":"us","latitude":47.608013,"longitude":-122.33517,"reserved":0,"last_update":"0001-01-01T00:00:00Z","name_a2s":"Uncletopia | Seattle | 3 | Stopwatch","protocol":17,"map":"workshop/pl_badwater_pro_v12.ugc2142942074","folder":"tf","game":"Team Fortress","app_id":440,"player_count":0,"max_players":24,"Bots":0,"server_type":"Dedicated","server_os":"Linux","password":true,"vac":true,"version":"7961495","steam_id":85568392924515217,"keywords":["nocrits","nodmgspread","payload","uncletopia"],"game_id":440,"stv_port":27036,"stv_name":"Uncletopia | Seattle | 3 | Stopwatch | STV","players":null},{"server_id":17,"name":"Uncletopia | San Francisco | 1 | All Maps","name_short":"sfo-1","host":"sfo-1.us.uncletopia.com","port":27015,"enabled":true,"region":"us-west","cc":"us","latitude":37.77397,"longitude":-122.4313,"reserved":0,"last_update":"0001-01-01T00:00:00Z","name_a2s":"Uncletopia | San Francisco | 1 | All Maps","protocol":17,"map":"pl_badwater","folder":"tf","game":"Team Fortress","app_id":440,"player_count":8,"max_players":24,"Bots":0,"server_type":"Dedicated","server_os":"Linux","password":true,"vac":true,"version":"7961495","steam_id":85568392924469999,"keywords":["nocrits","nodmgspread","payload","uncletopia"],"game_id":440,"stv_port":27016,"stv_name":"Uncletopia | San Francisco | 1 | All Maps | STV","players":[{"user_id":7,"name":"Siev","steam_id":76561198000518937,"connected_time":2083000000000,"state":"active","ping":55},{"user_id":10,"name":"wG dogmeat","steam_id":76561198964002142,"connected_time":1588000000000,"state":"active","ping":69},{"user_id":14,"name":"billycop32","steam_id":76561198035702422,"connected_time":897000000000,"state":"active","ping":69},{"user_id":18,"name":"mrthugpug1732","steam_id":76561198881200768,"connected_time":242000000000,"state":"active","ping":70},{"user_id":16,"name":"Doomeister","steam_id":76561198070277587,"connected_time":640000000000,"state":"active","ping":67},{"user_id":20,"name":"NASA PEEPO","steam_id":76561198024982267,"connected_time":139000000000,"state":"active","ping":47},{"user_id":21,"name":"Chaptain","steam_id":76561198452725739,"connected_time":99000000000,"state":"active","ping":64},{"user_id":22,"name":"Scorpianswag","steam_id":76561198260651036,"connected_time":98000000000,"state":"active","ping":41}]},{"server_id":18,"name":"Uncletopia | San Francisco | 2 | All Maps","name_short":"sfo-2","host":"sfo-1.us.uncletopia.com","port":27025,"enabled":true,"region":"us-west","cc":"us","latitude":37.77397,"longitude":-122.4313,"reserved":0,"last_update":"0001-01-01T00:00:00Z","name_a2s":"Uncletopia | San Francisco | 2 | All Maps","protocol":17,"map":"cp_sunshine","folder":"tf","game":"Team Fortress","app_id":440,"player_count":24,"max_players":24,"Bots":0,"server_type":"Dedicated","server_os":"Linux","password":true,"vac":true,"version":"7961495","steam_id":85568392924470000,"keywords":["cp","nocrits","nodmgspread","uncletopia"],"game_id":440,"stv_port":27026,"stv_name":"Uncletopia | San Francisco | 2 | All Maps | STV","players":[{"user_id":72,"name":"「 E A S Y  G A M E ! ! ! 」","steam_id":76561198014847059,"connected_time":159000000000,"state":"active","ping":51},{"user_id":12,"name":"Noxus","steam_id":76561199009820852,"connected_time":4565000000000,"state":"active","ping":71},{"user_id":13,"name":"Nibotshooter","steam_id":76561199284825579,"connected_time":4505000000000,"state":"active","ping":66},{"user_id":59,"name":"[ibb™]Shadow20X6-ENGI","steam_id":76561198019292755,"connected_time":1609000000000,"state":"active","ping":66},{"user_id":56,"name":"Caspian","steam_id":76561199041466962,"connected_time":1708000000000,"state":"active","ping":41},{"user_id":54,"name":"Thequirka (trackpad enthusiast)","steam_id":76561198968058652,"connected_time":2201000000000,"state":"active","ping":77},{"user_id":19,"name":"Renz","steam_id":76561198118995036,"connected_time":4178000000000,"state":"active","ping":70},{"user_id":60,"name":"TaruTwist","steam_id":76561198831359905,"connected_time":1531000000000,"state":"active","ping":75},{"user_id":76,"name":"no vc no c","steam_id":76561197989503095,"connected_time":4000000000,"state":"spawning","ping":148},{"user_id":68,"name":"Funky 3GG","steam_id":76561199181214507,"connected_time":482000000000,"state":"active","ping":63},{"user_id":38,"name":"vvitch","steam_id":76561198279661941,"connected_time":3256000000000,"state":"active","ping":55},{"user_id":69,"name":"Shirm","steam_id":76561198068455981,"connected_time":481000000000,"state":"active","ping":75},{"user_id":65,"name":"Mocha Josie","steam_id":76561198066452726,"connected_time":763000000000,"state":"active","ping":63},{"user_id":39,"name":"poopslapper33","steam_id":76561198294813506,"connected_time":3158000000000,"state":"active","ping":43},{"user_id":67,"name":"Boxcars","steam_id":76561198120978767,"connected_time":628000000000,"state":"active","ping":76},{"user_id":64,"name":"Burnsasaurous","steam_id":76561198003315964,"connected_time":1133000000000,"state":"active","ping":64},{"user_id":70,"name":"Charles Barley","steam_id":76561198397072609,"connected_time":368000000000,"state":"active","ping":80},{"user_id":34,"name":"♦Benji♦","steam_id":76561198313529973,"connected_time":3405000000000,"state":"active","ping":56},{"user_id":75,"name":"dramboney","steam_id":76561199068500959,"connected_time":45000000000,"state":"spawning","ping":101},{"user_id":50,"name":"Beef Wellington","steam_id":76561197995635241,"connected_time":2830000000000,"state":"active","ping":165},{"user_id":62,"name":"Gerbias","steam_id":76561198001002427,"connected_time":1465000000000,"state":"active","ping":62},{"user_id":63,"name":"1998 Mazda b2500","steam_id":76561198883172857,"connected_time":1288000000000,"state":"active","ping":65},{"user_id":73,"name":"crispy","steam_id":76561198971106376,"connected_time":96000000000,"state":"active","ping":82},{"user_id":45,"name":"Princess Bloom","steam_id":76561198107492237,"connected_time":2971000000000,"state":"active","ping":56}]},{"server_id":19,"name":"Uncletopia | San Francisco | 3 | Stopwatch","name_short":"sfo-3","host":"sfo-1.us.uncletopia.com","port":27035,"enabled":true,"region":"us-west","cc":"us","latitude":37.77397,"longitude":-122.4313,"reserved":0,"last_update":"0001-01-01T00:00:00Z","name_a2s":"Uncletopia | San Francisco | 3 | Stopwatch","protocol":17,"map":"pl_pier","folder":"tf","game":"Team Fortress","app_id":440,"player_count":0,"max_players":24,"Bots":0,"server_type":"Dedicated","server_os":"Linux","password":true,"vac":true,"version":"7961495","steam_id":85568392924742824,"keywords":["nocrits","nodmgspread","payload","uncletopia"],"game_id":440,"stv_port":27036,"stv_name":"Uncletopia | San Francisco | 3 | Stopwatch | STV","players":null},{"server_id":20,"name":"Uncletopia | San Francisco | 4 | Community","name_short":"sfo-4","host":"sfo-1.us.uncletopia.com","port":27045,"enabled":true,"region":"us-west","cc":"us","latitude":37.77397,"longitude":-122.4313,"reserved":0,"last_update":"0001-01-01T00:00:00Z","name_a2s":"Uncletopia | San Francisco | 4 | Community","protocol":17,"map":"workshop/pl_boundary_final1.ugc456799153","folder":"tf","game":"Team Fortress","app_id":440,"player_count":0,"max_players":24,"Bots":0,"server_type":"Dedicated","server_os":"Linux","password":true,"vac":true,"version":"7961495","steam_id":85568392924742826,"keywords":["nocrits","nodmgspread","payload","uncletopia"],"game_id":440,"stv_port":27046,"stv_name":"Uncletopia | San Francisco | 4 | Community | STV","players":null},{"server_id":141,"name":"Uncletopia | Sydney | 1 | All Maps","name_short":"syd-1","host":"syd-1.au.uncletopia.com","port":27015,"enabled":true,"region":"au","cc":"au","latitude":-33.865143,"longitude":151.2099,"reserved":0,"last_update":"0001-01-01T00:00:00Z","name_a2s":"Uncletopia | Sydney | 1 | All Maps","protocol":17,"map":"pl_pier","folder":"tf","game":"Team Fortress","app_id":440,"player_count":0,"max_players":24,"Bots":0,"server_type":"Dedicated","server_os":"Linux","password":true,"vac":true,"version":"7961495","steam_id":85568392924470001,"keywords":["nocrits","nodmgspread","payload","uncletopia"],"game_id":440,"stv_port":27016,"stv_name":"Uncletopia | Sydney | 1 | All Maps | STV","players":null},{"server_id":123,"name":"Uncletopia | Sydney | 2 | All Maps","name_short":"syd-2","host":"syd-1.au.uncletopia.com","port":27025,"enabled":true,"region":"au","cc":"au","latitude":-33.865143,"longitude":151.2099,"reserved":0,"last_update":"0001-01-01T00:00:00Z","name_a2s":"Uncletopia | Sydney | 2 | All Maps","protocol":17,"map":"koth_lakeside_final","folder":"tf","game":"Team Fortress","app_id":440,"player_count":0,"max_players":24,"Bots":0,"server_type":"Dedicated","server_os":"Linux","password":true,"vac":true,"version":"7961495","steam_id":85568392924470002,"keywords":["cp","nocrits","nodmgspread","uncletopia"],"game_id":440,"stv_port":27026,"stv_name":"Uncletopia | Sydney | 2 | All Maps | STV","players":null},{"server_id":395,"name":"Uncletopia | Sydney | 3 | All Maps","name_short":"syd-3","host":"syd-1.au.uncletopia.com","port":27035,"enabled":true,"region":"au","cc":"au","latitude":-33.865143,"longitude":151.2099,"reserved":0,"last_update":"0001-01-01T00:00:00Z","name_a2s":"Uncletopia | Sydney | 3 | All Maps","protocol":17,"map":"pl_frontier_final","folder":"tf","game":"Team Fortress","app_id":440,"player_count":0,"max_players":24,"Bots":0,"server_type":"Dedicated","server_os":"Linux","password":true,"vac":true,"version":"7961495","steam_id":85568392925194467,"keywords":["nocrits","nodmgspread","payload","uncletopia"],"game_id":440,"stv_port":27036,"stv_name":"Uncletopia | Sydney | 3 | All Maps | STV","players":null},{"server_id":396,"name":"Uncletopia | Sydney | 4 | All Maps","name_short":"syd-4","host":"syd-1.au.uncletopia.com","port":27045,"enabled":true,"region":"au","cc":"au","latitude":-33.865143,"longitude":151.2099,"reserved":0,"last_update":"0001-01-01T00:00:00Z","name_a2s":"Uncletopia | Sydney | 4 | All Maps","protocol":17,"map":"pl_upward","folder":"tf","game":"Team Fortress","app_id":440,"player_count":0,"max_players":24,"Bots":0,"server_type":"Dedicated","server_os":"Linux","password":true,"vac":true,"version":"7961495","steam_id":85568392925397958,"keywords":["nocrits","nodmgspread","payload","uncletopia"],"game_id":440,"stv_port":27046,"stv_name":"Uncletopia | Sydney | 4 | All Maps | STV","players":null},{"server_id":58,"name":"Uncletopia | Sydney | 5 | Stopwatch","name_short":"syd-5","host":"syd-1.au.uncletopia.com","port":27055,"enabled":true,"region":"au","cc":"au","latitude":-33.865143,"longitude":151.2099,"reserved":0,"last_update":"0001-01-01T00:00:00Z","name_a2s":"Uncletopia | Sydney | 5 | Stopwatch","protocol":17,"map":"pl_frontier_final","folder":"tf","game":"Team Fortress","app_id":440,"player_count":1,"max_players":24,"Bots":0,"server_type":"Dedicated","server_os":"Linux","password":true,"vac":true,"version":"7961495","steam_id":85568392925397959,"keywords":["nocrits","nodmgspread","payload","uncletopia"],"game_id":440,"stv_port":27056,"stv_name":"Uncletopia | Sydney | 5 | Stopwatch | STV","players":[{"user_id":4,"name":"Wampy","steam_id":76561199211235248,"connected_time":520000000000,"state":"active","ping":54}]},{"server_id":59,"name":"Uncletopia | Sydney | 6 | Community","name_short":"syd-6","host":"syd-1.au.uncletopia.com","port":27065,"enabled":true,"region":"au","cc":"au","latitude":-33.865143,"longitude":151.2099,"reserved":0,"last_update":"0001-01-01T00:00:00Z","name_a2s":"Uncletopia | Sydney | 6 | Community","protocol":17,"map":"cp_sunshine","folder":"tf","game":"Team Fortress","app_id":440,"player_count":0,"max_players":24,"Bots":0,"server_type":"Dedicated","server_os":"Linux","password":true,"vac":true,"version":"7961495","steam_id":85568392925397960,"keywords":["cp","nocrits","nodmgspread","uncletopia"],"game_id":440,"stv_port":27066,"stv_name":"Uncletopia | Sydney | 6 | Community | STV","players":null},{"server_id":49,"name":"Uncletopia | Warsaw | 1 | One Thousand Uncles","name_short":"waw-1","host":"waw-1.pl.uncletopia.com","port":27015,"enabled":true,"region":"eu","cc":"pl","latitude":52.2297,"longitude":21.017532,"reserved":0,"last_update":"0001-01-01T00:00:00Z","name_a2s":"Uncletopia | Warsaw | 1 | One Thousand Uncles","protocol":17,"map":"pl_badwater","folder":"tf","game":"Team Fortress","app_id":440,"player_count":0,"max_players":32,"Bots":0,"server_type":"Dedicated","server_os":"Linux","password":true,"vac":true,"version":"7961495","steam_id":85568392925397850,"keywords":["alltalk","danepve","increased_maxplayers","nocrits","norespawntime","payload","uncletopia"],"game_id":440,"stv_port":0,"stv_name":"","players":null},{"server_id":50,"name":"Uncletopia | Warsaw | 2 | One Thousand Uncles","name_short":"waw-2","host":"waw-1.pl.uncletopia.com","port":27025,"enabled":true,"region":"eu","cc":"pl","latitude":52.2297,"longitude":21.017532,"reserved":0,"last_update":"0001-01-01T00:00:00Z","name_a2s":"Uncletopia | Warsaw | 2 | One Thousand Uncles","protocol":17,"map":"cp_dustbowl","folder":"tf","game":"Team Fortress","app_id":440,"player_count":19,"max_players":32,"Bots":16,"server_type":"Dedicated","server_os":"Linux","password":true,"vac":true,"version":"7961495","steam_id":85568392925397851,"keywords":["alltalk","bots","cp","danepve","increased_maxplayers","nocrits","norespawntime","uncletopia"],"game_id":440,"stv_port":0,"stv_name":"","players":[{"user_id":38,"name":"THE Grapist","steam_id":76561198069648668,"connected_time":1328000000000,"state":"active","ping":160},{"user_id":55,"name":"ShadowWasUhOh","steam_id":76561198400361935,"connected_time":997000000000,"state":"active","ping":163},{"user_id":56,"name":"mothsprings","steam_id":76561198928604937,"connected_time":300000000000,"state":"active","ping":152}]},{"server_id":51,"name":"Uncletopia | Warsaw | 3 | All Maps","name_short":"waw-3","host":"waw-1.pl.uncletopia.com","port":27035,"enabled":true,"region":"eu","cc":"pl","latitude":52.2297,"longitude":21.017532,"reserved":0,"last_update":"0001-01-01T00:00:00Z","name_a2s":"Uncletopia | Warsaw | 3 | All Maps","protocol":17,"map":"cp_gorge","folder":"tf","game":"Team Fortress","app_id":440,"player_count":0,"max_players":24,"Bots":0,"server_type":"Dedicated","server_os":"Linux","password":true,"vac":true,"version":"7961495","steam_id":85568392925397852,"keywords":["cp","nocrits","nodmgspread","uncletopia"],"game_id":440,"stv_port":27036,"stv_name":"Uncletopia | Warsaw | 3 | All Maps | STV","players":null},{"server_id":52,"name":"Uncletopia | Warsaw | 4 | All Maps","name_short":"waw-4","host":"waw-1.pl.uncletopia.com","port":27045,"enabled":true,"region":"eu","cc":"pl","latitude":52.2297,"longitude":21.017532,"reserved":0,"last_update":"0001-01-01T00:00:00Z","name_a2s":"Uncletopia | Warsaw | 4 | All Maps","protocol":17,"map":"koth_sawmill","folder":"tf","game":"Team Fortress","app_id":440,"player_count":0,"max_players":24,"Bots":0,"server_type":"Dedicated","server_os":"Linux","password":true,"vac":true,"version":"7961495","steam_id":85568392925397853,"keywords":["cp","nocrits","nodmgspread","uncletopia"],"game_id":440,"stv_port":27046,"stv_name":"Uncletopia | Warsaw | 4 | All Maps | STV","players":null},{"server_id":53,"name":"Uncletopia | Warsaw | 5 | Stopwatch","name_short":"waw-5","host":"waw-1.pl.uncletopia.com","port":27055,"enabled":true,"region":"eu","cc":"pl","latitude":52.2297,"longitude":21.017532,"reserved":0,"last_update":"0001-01-01T00:00:00Z","name_a2s":"Uncletopia | Warsaw | 5 | Stopwatch","protocol":17,"map":"cp_metalworks","folder":"tf","game":"Team Fortress","app_id":440,"player_count":0,"max_players":24,"Bots":0,"server_type":"Dedicated","server_os":"Linux","password":true,"vac":true,"version":"7961495","steam_id":85568392925397854,"keywords":["cp","nocrits","nodmgspread","uncletopia"],"game_id":440,"stv_port":27056,"stv_name":"Uncletopia | Warsaw | 5 | Stopwatch | STV","players":null},{"server_id":54,"name":"Uncletopia | Warsaw | 6 | Community","name_short":"waw-6","host":"waw-1.pl.uncletopia.com","port":27065,"enabled":true,"region":"eu","cc":"pl","latitude":52.2297,"longitude":21.017532,"reserved":0,"last_update":"0001-01-01T00:00:00Z","name_a2s":"Uncletopia | Warsaw | 6 | Community","protocol":17,"map":"workshop/pl_corrode_rc2.ugc546577989","folder":"tf","game":"Team Fortress","app_id":440,"player_count":0,"max_players":24,"Bots":0,"server_type":"Dedicated","server_os":"Linux","password":true,"vac":true,"version":"7961495","steam_id":85568392925397856,"keywords":["nocrits","nodmgspread","payload","uncletopia"],"game_id":440,"stv_port":27066,"stv_name":"Uncletopia | Warsaw | 6 | Community | STV","players":null}]}