{"status":true,"message":"","result":[{"server_id":9,"name":"Uncletopia | Atlanta | 1 | All Maps","name_short":"atl-1","host":"atl-1.us.uncletopia.com","port":27015,"enabled":true,"region":"us-east","cc":"us","latitude":33.753746,"longitude":-84.38633,"reserved":0,"last_update":"0001-01-01T00:00:00Z","name_a2s":"Uncletopia | Atlanta | 1 | All Maps","protocol":17,"map":"pl_swiftwater_final1","folder":"tf","game":"Team Fortress","app_id":440,"player_count":0,"max_players":24,"Bots":0,"server_type":"Dedicated","server_os":"Linux","password":true,"vac":true,"version":"7961495","steam_id":85568392924469982,"keywords":["nocrits","nodmgspread","payload","uncletopia"],"game_id":440,"stv_port":27016,"stv_name":"Uncletopia | Atlanta | 1 | All Maps | STV","players":null},{"server_id":104,"name":"Uncletopia | Atlanta | 2 | All Maps","name_short":"atl-2","host":"atl-1.us.uncletopia.com","port":27025,"enabled":true,"region":"us-east","cc":"us","latitude":33.753746,"longitude":-84.38633,"reserved":0,"last_update":"0001-01-01T00:00:00Z","name_a2s":"Uncletopia | Atlanta | 2 | All Maps","protocol":17,"map":"pl_swiftwater_final1","folder":"tf","game":"Team Fortress","app_id":440,"player_count":0,"max_players":24,"Bots":0,"server_type":"Dedicated","server_os":"Linux","password":true,"vac":true,"version":"7961495","steam_id":85568392924469983,"keywords":["nocrits","nodmgspread","payload","uncletopia"],"game_id":440,"stv_port":27026,"stv_name":"Uncletopia | Atlanta | 2 | All Maps | STV","players":null},{"server_id":400,"name":"Uncletopia | Atlanta | 3 | All Maps","name_short":"atl-3","host":"atl-1.us.uncletopia.com","port":27035,"enabled":true,"region":"us-east","cc":"us","latitude":33.753746,"longitude":-84.38633,"reserved":0,"last_update":"0001-01-01T00:00:00Z","name_a2s":"Uncletopia | Atlanta | 3 | All Maps","protocol":17,"map":"koth_lakeside_final","folder":"tf","game":"Team Fortress","app_id":440,"player_count":0,"max_players":24,"Bots":0,"server_type":"Dedicated","server_os":"Linux","password":true,"vac":true,"version":"7961495","steam_id":85568392924515187,"keywords":["cp","nocrits","nodmgspread","uncletopia"],"game_id":440,"stv_port":27036,"stv_name":"Uncletopia | Atlanta | 3 | All Maps | STV","players":null},{"server_id":401,"name":"Uncletopia | Atlanta | 4 | Community","name_short":"atl-4","host":"atl-1.us.uncletopia.com","port":27045,"enabled":true,"region":"us-east","cc":"us","latitude":33.753746,"longitude":-84.38633,"reserved":0,"last_update":"0001-01-01T00:00:00Z","name_a2s":"Uncletopia | Atlanta | 4 | Community","protocol":17,"map":"cp_dustbowl","folder":"tf","game":"Team Fortress","app_id":440,"player_count":0,"max_players":24,"Bots":0,"server_type":"Dedicated","server_os":"Linux","password":true,"vac":true,"version":"7961495","steam_id":85568392924515188,"keywords":["cp","nocrits","nodmgspread","uncletopia"],"game_id":440,"stv_port":27046,"stv_name":"Uncletopia | Atlanta | 4 | Community | STV","players":null},{"server_id":2,"name":"Uncletopia | Chicago | 1 | All Maps","name_short":"chi-1","host":"chi-1.us.uncletopia.com","port":27015,"enabled":true,"region":"us-central","cc":"us","latitude":41.881832,"longitude":-87.62318,"reserved":0,"last_update":"0001-01-01T00:00:00Z","name_a2s":"Uncletopia | Chicago | 1 | All Maps","protocol":17,"map":"pl_frontier_final","folder":"tf","game":"Team Fortress","app_id":440,"player_count":24,"max_players":24,"Bots":0,"server_type":"Dedicated","server_os":"Linux","password":true,"vac":true,"version":"7961495","steam_id":85568392924469984,"keywords":["nocrits","nodmgspread","payload","uncletopia"],"game_id":440,"stv_port":27016,"stv_name":"Uncletopia | Chicago | 1 | All Maps | STV","players":[{"user_id":309,"name":"fedorapaul","steam_id":76561198044005780,"connected_time":1268000000000,"state":"active","ping":76},{"user_id":287,"name":"Goober Gaming","steam_id":76561198095550617,"connected_time":2156000000000,"state":"active","ping":64},{"user_id":314,"name":"Bryguy","steam_id":76561198092096120,"connected_time":239000000000,"state":"active","ping":42},{"user_id":292,"name":"Rohi Mig","steam_id":76561198113623627,"connected_time":2017000000000,"state":"active","ping":72},{"user_id":311,"name":"evil mikshak","steam_id":76561198003294581,"connected_time":1054000000000,"state":"active","ping":60},{"user_id":310,"name":"Ket","steam_id":76561198241951244,"connected_time":1262000000000,"state":"active","ping":61},{"user_id":304,"name":"Captain S. Forrest","steam_id":76561198062463029,"connected_time":1667000000000,"state":"active","ping":72},{"user_id":317,"name":"Final_MarioXD","steam_id":76561199184862419,"connected_time":168000000000,"state":"active","ping":95},{"user_id":283,"name":"Schteb","steam_id":76561198957428101,"connected_time":2737000000000,"state":"active","ping":54},{"user_id":279,"name":"ROGUE-PLANET","steam_id":76561198116023052,"connected_time":3478000000000,"state":"active","ping":82},{"user_id":302,"name":"pupil ;)","steam_id":76561198047293356,"connected_time":1778000000000,"state":"active","ping":69},{"user_id":313,"name":"Boboblin:)","steam_id":76561199030131717,"connected_time":284000000000,"state":"active","ping":90},{"user_id":295,"name":"Buzz","steam_id":76561198065130960,"connected_time":1992000000000,"state":"active","ping":60},{"user_id":315,"name":"alN","steam_id":76561198329171346,"connected_time":233000000000,"state":"active","ping":48},{"user_id":316,"name":"Nuwrox1","steam_id":76561198406951007,"connected_time":217000000000,"state":"active","ping":63},{"user_id":285,"name":"DuckKey","steam_id":76561198904477889,"connected_time":2529000000000,"state":"active","ping":60},{"user_id":257,"name":"Obelisk","steam_id":76561198049416866,"connected_time":4932000000000,"state":"active","ping":91},{"user_id":305,"name":"Raccoon Wizard","steam_id":76561198072562591,"connected_time":1420000000000,"state":"active","ping":91},{"user_id":318,"name":"Fancyassasin","steam_id":76561198331864258,"connected_time":57000000000,"state":"active","ping":41},{"user_id":303,"name":"boffo","steam_id":76561198096978718,"connected_time":1733000000000,"state":"active","ping":88},{"user_id":312,"name":"Cdesmondd","steam_id":76561198072774462,"connected_time":553000000000,"state":"active","ping":62},{"user_id":290,"name":"eat Pant","steam_id":76561197974965536,"connected_time":2125000000000,"state":"active","ping":69},{"user_id":284,"name":"loser","steam_id":76561198259380127,"connected_time":2555000000000,"state":"active","ping":90},{"user_id":273,"name":"NvAka","steam_id":76561199044781490,"connected_time":4065000000000,"state":"active","ping":69}]},{"server_id":106,"name":"Uncletopia | Chicago | 2 | All Maps","name_short":"chi-2","host":"chi-1.us.uncletopia.com","port":27025,"enabled":true,"region":"us-central","cc":"us","latitude":41.881832,"longitude":-87.62318,"reserved":0,"last_update":"0001-01-01T00:00:00Z","name_a2s":"Uncletopia | Chicago | 2 | All Maps","protocol":17,"map":"cp_snakewater_final1","folder":"tf","game":"Team Fortress","app_id":440,"player_count":24,"max_players":24,"Bots":0,"server_type":"Dedicated","server_os":"Linux","password":true,"vac":true,"version":"7961495","steam_id":85568392924469985,"keywords":["cp","nocrits","nodmgspread","uncletopia"],"game_id":440,"stv_port":27026,"stv_name":"Uncletopia | Chicago | 2 | All Maps | STV","players":[{"user_id":264,"name":"KBoneski ‚ô°","steam_id":76561198307409065,"connected_time":1104000000000,"state":"active","ping":92},{"user_id":287,"name":"Delicious Mayonnaise","steam_id":76561198031406237,"connected_time":339000000000,"state":"active","ping":61},{"user_id":286,"name":"mwee machine","steam_id":76561198047126327,"connected_time":372000000000,"state":"active","ping":75},{"user_id":268,"name":"girlpeen supreme","steam_id":76561198031242903,"connected_time":898000000000,"state":"active","ping":67},{"user_id":285,"name":"FloydianSystem","steam_id":76561198081987191,"connected_time":383000000000,"state":"active","ping":87},{"user_id":288,"name":"Jaguar lft/ring","steam_id":76561197971152439,"connected_time":335000000000,"state":"active","ping":61},{"user_id":260,"name":"FenderBender","steam_id":76561198106379456,"connected_time":1950000000000,"state":"active","ping":117},{"user_id":214,"name":"Pango","steam_id":76561198069811545,"connected_time":7830000000000,"state":"active","ping":67},{"user_id":276,"name":"Pistol Packin' Mama","steam_id":76561198255807459,"connected_time":680000000000,"state":"active","ping":70},{"user_id":263,"name":"Strange Festive Femboy","steam_id":76561198050385093,"connected_time":1116000000000,"state":"active","ping":79},{"user_id":270,"name":"wolt","steam_id":76561198144142906,"connected_time":894000000000,"state":"active","ping":137},{"user_id":253,"name":"Just PYE","steam_id":76561199439622967,"connected_time":2598000000000,"state":"active","ping":92},{"user_id":272,"name":"rmmr","steam_id":76561198069909083,"connected_time":837000000000,"state":"active","ping":75},{"user_id":289,"name":"I SEXED THE PUMPKIN","steam_id":76561198152641397,"connected_time":296000000000,"state":"active","ping":45},{"user_id":282,"name":"bbqyay","steam_id":76561198976782660,"connected_time":509000000000,"state":"active","ping":71},{"user_id":290,"name":"Gaming-Sentinel","steam_id":76561198115896873,"connected_time":267000000000,"state":"active","ping":133},{"user_id":265,"name":"aphexjh","steam_id":76561197985854658,"connected_time":1002000000000,"state":"active","ping":56},{"user_id":278,"name":"josh","steam_id":76561198077902438,"connected_time":650000000000,"state":"active","ping":75},{"user_id":238,"name":"Kirbs","steam_id":76561198970654800,"connected_time":5126000000000,"state":"active","ping":64},{"user_id":279,"name":"dogface","steam_id":76561198074407897,"connected_time":649000000000,"state":"active","ping":70},{"user_id":252,"name":"40K","steam_id":76561198070599668,"connected_time":2685000000000,"state":"active","ping":81},{"user_id":291,"name":"HalfDead","steam_id":76561198049700226,"connected_time":257000000000,"state":"active","ping":84},{"user_id":258,"name":"NovaSc6ut","steam_id":76561198277163301,"connected_time":2264000000000,"state":"active","ping":68},{"user_id":275,"name":"PageBoiSkull","steam_id":76561198237353578,"connected_time":808000000000,"state":"active","ping":113}]},{"server_id":402,"name":"Uncletopia | Chicago | 3 | All Maps","name_short":"chi-3","host":"chi-1.us.uncletopia.com","port":27035,"enabled":true,"region":"us-central","cc":"us","latitude":41.881832,"longitude":-87.62318,"reserved":0,"last_update":"0001-01-01T00:00:00Z","name_a2s":"Uncletopia | Chicago | 3 | All Maps","protocol":17,"map":"koth_cascade","folder":"tf","game":"Team Fortress","app_id":440,"player_count":24,"max_players":24,"Bots":0,"server_type":"Dedicated","server_os":"Linux","password":true,"vac":true,"version":"7961495","steam_id":85568392924515191,"keywords":["cp","nocrits","nodmgspread","uncletopia"],"game_id":440,"stv_port":27036,"stv_name":"Uncletopia | Chicago | 3 | All Maps | STV","players":[{"user_id":264,"name":"momo","steam_id":76561198099061153,"connected_time":503000000000,"state":"active","ping":103},{"user_id":260,"name":"Zamich","steam_id":76561198170659337,"connected_time":1114000000000,"state":"active","ping":68},{"user_id":233,"name":"subdromeda","steam_id":76561198884351860,"connected_time":3303000000000,"state":"active","ping":64},{"user_id":213,"name":"Funkadilla","steam_id":76561198420639264,"connected_time":5606000000000,"state":"active","ping":79},{"user_id":263,"name":"Shystie","steam_id":76561198025371440,"connected_time":506000000000,"state":"active","ping":88},{"user_id":253,"name":"Hydroxianchaos","steam_id":76561198043786828,"connected_time":1985000000000,"state":"active","ping":85},{"user_id":225,"name":"CORGI.EXE","steam_id":76561198077093432,"connected_time":4497000000000,"state":"active","ping":66},{"user_id":270,"name":"Colin102004","steam_id":76561198202384334,"connected_time":91000000000,"state":"active","ping":48},{"user_id":246,"name":"UNCLE RUCKUS","steam_id":76561199380604147,"connected_time":2163000000000,"state":"active","ping":62},{"user_id":265,"name":"millie","steam_id":76561198008366811,"connected_time":486000000000,"state":"active","ping":59},{"user_id":215,"name":"mario,","steam_id":76561198068947832,"connected_time":5594000000000,"state":"active","ping":69},{"user_id":268,"name":"eryn üó∫","steam_id":76561198004433070,"connected_time":437000000000,"state":"active","ping":80},{"user_id":143,"name":"Makina","steam_id":76561198057475567,"connected_time":11895000000000,"state":"active","ping":70},{"user_id":250,"name":"Who's Mutzy?","steam_id":76561198085858203,"connected_time":2098000000000,"state":"active","ping":89},{"user_id":251,"name":"Muffin","steam_id":76561198050715053,"connected_time":2071000000000,"state":"active","ping":76},{"user_id":252,"name":"kiv","steam_id":76561198838223023,"connected_time":2029000000000,"state":"active","ping":48},{"user_id":221,"name":"a small patch of brown liquid","steam_id":76561198091172158,"connected_time":4887000000000,"state":"active","ping":43},{"user_id":166,"name":"REAL LAOZI","steam_id":76561198326944980,"connected_time":10219000000000,"state":"active","ping":79},{"user_id":254,"name":"Poobastank","steam_id":76561198298649714,"connected_time":1663000000000,"state":"active","ping":87},{"user_id":230,"name":"Lifial","steam_id":76561198271885819,"connected_time":3963000000000,"state":"active","ping":76},{"user_id":269,"name":"Zesty Zucchini Ziti","steam_id":76561198092494136,"connected_time":431000000000,"state":"active","ping":70},{"user_id":238,"name":"AJTarcza","steam_id":76561198070800190,"connected_time":2740000000000,"state":"active","ping":88},{"user_id":237,"name":"Flowers","steam_id":76561198031669899,"connected_time":2973000000000,"state":"active","ping":86},{"user_id":267,"name":"TruffShuff","steam_id":76561198055869160,"connected_time":477000000000,"state":"active","ping":46}]},{"server_id":403,"name":"Uncletopia | Chicago | 4 | All Maps","name_short":"chi-4","host":"chi-1.us.uncletopia.com","port":27045,"enabled":true,"region":"us-central","cc":"us","latitude":41.881832,"longitude":-87.62318,"reserved":0,"last_update":"0001-01-01T00:00:00Z","name_a2s":"Uncletopia | Chicago | 4 | All Maps","protocol":17,"map":"pl_badwater","folder":"tf","game":"Team Fortress","app_id":440,"player_count":17,"max_players":24,"Bots":0,"server_type":"Dedicated","server_os":"Linux","password":true,"vac":true,"version":"7961495","steam_id":85568392924515193,"keywords":["nocrits","nodmgspread","payload","uncletopia"],"game_id":440,"stv_port":27046,"stv_name":"Uncletopia | Chicago | 4 | All Maps | STV","players":[{"user_id":316,"name":"Poyo Boyo","steam_id":76561198010201227,"connected_time":2107000000000,"state":"active","ping":73},{"user_id":347,"name":"slowdance","steam_id":76561198097427947,"connected_time":659000000000,"state":"active","ping":170},{"user_id":317,"name":"Female Gamer","steam_id":76561199366482682,"connected_time":2106000000000,"state":"active","ping":102},{"user_id":285,"name":"King of Ping","steam_id":76561198278737470,"connected_time":4450000000000,"state":"active","ping":70},{"user_id":342,"name":"npc energy","steam_id":76561198035342207,"connected_time":796000000000,"state":"active","ping":45},{"user_id":337,"name":"Smuggley","steam_id":76561198078130271,"connected_time":1119000000000,"state":"active","ping":94},{"user_id":352,"name":"Moss","steam_id":76561199122200727,"connected_time":99000000000,"state":"active","ping":74},{"user_id":338,"name":"OrangeSodaMachine","steam_id":76561198079230156,"connected_time":1104000000000,"state":"active","ping":73},{"user_id":326,"name":"Elle oh Elle OMG","steam_id":76561198019334904,"connected_time":1824000000000,"state":"active","ping":72},{"user_id":331,"name":"ben","steam_id":76561199061380038,"connected_time":1584000000000,"state":"active","ping":60},{"user_id":332,"name":"femboy on hrt","steam_id":76561198204075083,"connected_time":1574000000000,"state":"active","ping":79},{"user_id":345,"name":"Viktir","steam_id":76561198127898517,"connected_time":761000000000,"state":"active","ping":71},{"user_id":343,"name":"Sgt. Pepper","steam_id":76561198063674627,"connected_time":786000000000,"state":"active","ping":76},{"user_id":327,"name":"laddie","steam_id":76561198063029230,"connected_time":1812000000000,"state":"active","ping":66},{"user_id":278,"name":"Dr Oshawott","steam_id":76561198042021629,"connected_time":4978000000000,"state":"active","ping":66},{"user_id":341,"name":"ATL1 Lavender","steam_id":76561198825997674,"connected_time":1016000000000,"state":"active","ping":75},{"user_id":329,"name":"Banned from Goodwill","steam_id":76561198408159536,"connected_time":1725000000000,"state":"active","ping":45}]},{"server_id":36,"name":"Uncletopia | Chicago | 5 | All Maps","name_short":"chi-5","host":"chi-2.us.uncletopia.com","port":27015,"enabled":true,"region":"us-central","cc":"us","latitude":41.881832,"longitude":-87.62318,"reserved":0,"last_update":"0001-01-01T00:00:00Z","name_a2s":"Uncletopia | Chicago | 5 | All Maps","protocol":17,"map":"ctf_2fort","folder":"tf","game":"Team Fortress","app_id":440,"player_count":4,"max_players":24,"Bots":0,"server_type":"Dedicated","server_os":"Linux","password":true,"vac":true,"version":"7961495","steam_id":85568392924866362,"keywords":["ctf","nocrits","nodmgspread","uncletopia"],"game_id":440,"stv_port":27016,"stv_name":"Uncletopia | Chicago | 5 | All Maps | STV","players":[{"user_id":274,"name":"HiddenEgg","steam_id":76561199045105518,"connected_time":285000000000,"state":"active","ping":103},{"user_id":249,"name":"Kuddly Kay (She/Her)","steam_id":76561198353432576,"connected_time":2808000000000,"state":"active","ping":59},{"user_id":229,"name":"malon milk","steam_id":76561198042558913,"connected_time":3292000000000,"state":"active","ping":69},{"user_id":226,"name":"kimchy101","steam_id":76561198202721584,"connected_time":3388000000000,"state":"active","ping":42}]},{"server_id":37,"name":"Uncletopia | Chicago | 6 | All Maps","name_short":"chi-6","host":"chi-2.us.uncletopia.com","port":27025,"enabled":true,"region":"us-central","cc":"us","latitude":41.881832,"longitude":-87.62318,"reserved":0,"last_update":"0001-01-01T00:00:00Z","name_a2s":"Uncletopia | Chicago | 6 | All Maps","protocol":17,"map":"pl_badwater","folder":"tf","game":"Team Fortress","app_id":440,"player_count":22,"max_players":24,"Bots":0,"server_type":"Dedicated","server_os":"Linux","password":true,"vac":true,"version":"7961495","steam_id":85568392924866363,"keywords":["nocrits","nodmgspread","payload","uncletopia"],"game_id":440,"stv_port":27026,"stv_name":"Uncletopia | Chicago | 6 | All Maps | STV","players":[{"user_id":328,"name":"Herdez Hot Salsa","steam_id":76561197991740906,"connected_time":38000000000,"state":"active","ping":58},{"user_id":330,"name":"Acheo","steam_id":76561198068228498,"connected_time":22000000000,"state":"spawning","ping":66},{"user_id":327,"name":"88","steam_id":76561198165212575,"connected_time":48000000000,"state":"active","ping":72},{"user_id":286,"name":"Cinabun","steam_id":76561198169144061,"connected_time":3285000000000,"state":"active","ping":78},{"user_id":293,"name":"welder mask","steam_id":76561198207881077,"connected_time":2689000000000,"state":"active","ping":75},{"user_id":329,"name":"Splat","steam_id":76561198139764274,"connected_time":33000000000,"state":"active","ping":82},{"user_id":319,"name":"sentry food","steam_id":76561198042926224,"connected_time":411000000000,"state":"active","ping":92},{"user_id":320,"name":"El G√ºey","steam_id":76561197970450546,"connected_time":388000000000,"state":"active","ping":114},{"user_id":315,"name":"Madrox Who?","steam_id":76561197988859134,"connected_time":577000000000,"state":"active","ping":71},{"user_id":322,"name":"leaving lunar orbit","steam_id":76561199085974120,"connected_time":332000000000,"state":"active","ping":77},{"user_id":331,"name":"DrunkerThanFunk","steam_id":76561198062970548,"connected_time":16000000000,"state":"active","ping":297},{"user_id":308,"name":"Spud \u003c3","steam_id":76561198208657333,"connected_time":1802000000000,"state":"active","ping":48},{"user_id":275,"name":"WitheringLeo","steam_id":76561198046722918,"connected_time":4739000000000,"state":"active","ping":88},{"user_id":295,"name":"Smooth, Refreshing Bleach‚Ñ¢","steam_id":76561197981060504,"connected_time":2646000000000,"state":"active","ping":46},{"user_id":326,"name":"Magoose","steam_id":76561197964357893,"connected_time":141000000000,"state":"active","ping":121},{"user_id":323,"name":"ms. capgras","steam_id":76561199080209996,"connected_time":294000000000,"state":"active","ping":52},{"user_id":312,"name":"God's Drunkest Driver","steam_id":76561199174579733,"connected_time":1027000000000,"state":"active","ping":80},{"user_id":314,"name":"Ludcmorais","steam_id":76561198359217809,"connected_time":716000000000,"state":"active","ping":187},{"user_id":301,"name":"GruntRule","steam_id":76561198039987143,"connected_time":2520000000000,"state":"active","ping":78},{"user_id":324,"name":"Natsuki the Scunt","steam_id":76561199175922684,"connected_time":277000000000,"state":"active","ping":85},{"user_id":310,"name":"space creep","steam_id":76561198025668545,"connected_time":1460000000000,"state":"active","ping":61},{"user_id":316,"name":"Amy Roxwell","steam_id":76561198303391830,"connected_time":566000000000,"state":"active","ping":131}]},{"server_id":38,"name":"Uncletopia | Chicago | 7 | Stopwatch Beta","name_short":"chi-7","host":"chi-2.us.uncletopia.com","port":27035,"enabled":true,"region":"us-central","cc":"us","latitude":41.881832,"longitude":-87.62318,"reserved":0,"last_update":"0001-01-01T00:00:00Z","name_a2s":"Uncletopia | Chicago | 7 | Stopwatch Beta","protocol":17,"map":"workshop/pl_vigil_rc9.ugc1266210012","folder":"tf","game":"Team Fortress","app_id":440,"player_count":0,"max_players":24,"Bots":0,"server_type":"Dedicated","server_os":"Linux","password":true,"vac":true,"version":"7961495","steam_id":85568392924866364,"keywords":["nocrits","nodmgspread","payload","uncletopia"],"game_id":440,"stv_port":27036,"stv_name":"Uncletopia | Chicago | 7 | Stopwatch Beta | STV","players":null},{"server_id":39,"name":"Uncletopia | Chicago | 8 | Community","name_short":"chi-8","host":"chi-2.us.uncletopia.com","port":27045,"enabled":true,"region":"us-central","cc":"us","latitude":41.881832,"longitude":-87.62318,"reserved":0,"last_update":"0001-01-01T00:00:00Z","name_a2s":"Uncletopia | Chicago | 8 | Community","protocol":17,"map":"workshop/pl_eruption_b9a.ugc2807898013","folder":"tf","game":"Team Fortress","app_id":440,"player_count":24,"max_players":24,"Bots":0,"server_type":"Dedicated","server_os":"Linux","password":true,"vac":true,"version":"7961495","steam_id":85568392924866365,"keywords":["nocrits","nodmgspread","payload","uncletopia"],"game_id":440,"stv_port":27046,"stv_name":"Uncletopia | Chicago | 8 | Community | STV","players":[{"user_id":234,"name":"OnlyPaws.com","steam_id":76561198045184085,"connected_time":4443000000000,"state":"active","ping":82},{"user_id":232,"name":"Kal","steam_id":76561198006148792,"connected_time":4532000000000,"state":"active","ping":117},{"user_id":279,"name":"Noah","steam_id":76561198059048749,"connected_time":1408000000000,"state":"active","ping":106},{"user_id":254,"name":"ShadowDragon0125","steam_id":76561198343849022,"connected_time":2981000000000,"state":"active","ping":74},{"user_id":290,"name":"ghost voices","steam_id":76561198057884377,"connected_time":637000000000,"state":"active","ping":46},{"user_id":282,"name":"Animal Slices","steam_id":76561198137545511,"connected_time":909000000000,"state":"spawning","ping":220},{"user_id":297,"name":"Gruncle PUXXY's Man Milkers","steam_id":76561197995465137,"connected_time":77000000000,"state":"active","ping":100},{"user_id":298,"name":"Medic Bag","steam_id":76561198403209900,"connected_time":46000000000,"state":"spawning","ping":55},{"user_id":257,"name":"majorbobfunction","steam_id":76561198042464632,"connected_time":2715000000000,"state":"active","ping":49},{"user_id":299,"name":"spurious george","steam_id":76561198043558709,"connected_time":33000000000,"state":"active","ping":105},{"user_id":260,"name":"BreakfastTacos","steam_id":76561198847620442,"connected_time":2435000000000,"state":"active","ping":93},{"user_id":261,"name":"No.21 - Feral Scent","steam_id":76561198045844070,"connected_time":2423000000000,"state":"active","ping":80},{"user_id":295,"name":"bagel cream cheese","steam_id":76561198017954785,"connected_time":295000000000,"state":"active","ping":69},{"user_id":300,"name":"lana_del_Rei.com","steam_id":76561198172447621,"connected_time":25000000000,"state":"spawning","ping":129},{"user_id":278,"name":"Persona404","steam_id":76561198109635077,"connected_time":1508000000000,"state":"active","ping":92},{"user_id":301,"name":"Lethal","steam_id":76561198055545714,"connected_time":24000000000,"state":"spawning","ping":216},{"user_id":274,"name":"dewey.","steam_id":76561198138325039,"connected_time":1839000000000,"state":"active","ping":108},{"user_id":289,"name":"ColdTooth","steam_id":76561197994963901,"connected_time":680000000000,"state":"active","ping":76},{"user_id":275,"name":"bird bro","steam_id":76561198021492413,"connected_time":1836000000000,"state":"active","ping":157},{"user_id":270,"name":"MT_","steam_id":76561199052865451,"connected_time":1945000000000,"state":"active","ping":76},{"user_id":271,"name":"Prot4g","steam_id":76561198036164393,"connected_time":1895000000000,"state":"active","ping":67},{"user_id":277,"name":"Griffers","steam_id":76561198040782561,"connected_time":1784000000000,"state":"spawning","ping":240},{"user_id":272,"name":"FIREPOW","steam_id":76561198111259720,"connected_time":1889000000000,"state":"active","ping":77},{"user_id":273,"name":"ethanf","steam_id":76561198103930234,"connected_time":1883000000000,"state":"active","ping":53}]},{"server_id":8,"name":"Uncletopia | Dallas | 1 | All Maps","name_short":"dal-1","host":"dal-1.us.uncletopia.com","port":27015,"enabled":true,"region":"us-central","cc":"us","latitude":32.779167,"longitude":-96.80889,"reserved":0,"last_update":"0001-01-01T00:00:00Z","name_a2s":"Uncletopia | Dallas | 1 | All Maps","protocol":17,"map":"cp_dustbowl","folder":"tf","game":"Team Fortress","app_id":440,"player_count":24,"max_players":24,"Bots":0,"server_type":"Dedicated","server_os":"Linux","password":true,"vac":true,"version":"7961495","steam_id":85568392924469986,"keywords":["cp","nocrits","nodmgspread","uncletopia"],"game_id":440,"stv_port":27016,"stv_name":"Uncletopia | Dallas | 1 | All Maps | STV","players":[{"user_id":299,"name":"damiankiller1243","steam_id":76561198868885090,"connected_time":1228000000000,"state":"active","ping":59},{"user_id":292,"name":"Rowdyshark101","steam_id":76561199019123695,"connected_time":2079000000000,"state":"active","ping":64},{"user_id":297,"name":"MyBallsAreInFire","steam_id":76561199249298504,"connected_time":1299000000000,"state":"active","ping":118},{"user_id":298,"name":"Juke","steam_id":76561198990031600,"connected_time":1285000000000,"state":"active","ping":80},{"user_id":321,"name":"AKA-1NC","steam_id":76561199397330767,"connected_time":6000000000,"state":"spawning","ping":44},{"user_id":252,"name":"Whyamidoingthisaaaa","steam_id":76561199168837342,"connected_time":4674000000000,"state":"active","ping":87},{"user_id":309,"name":"breathing meat donut","steam_id":76561198123566649,"connected_time":955000000000,"state":"active","ping":55},{"user_id":300,"name":"I Can't Hear You","steam_id":76561198163777749,"connected_time":1168000000000,"state":"active","ping":89},{"user_id":322,"name":"minecraft","steam_id":76561198104345201,"connected_time":2000000000,"state":"spawning","ping":53},{"user_id":265,"name":"Engineer","steam_id":76561198029265697,"connected_time":3791000000000,"state":"active","ping":72},{"user_id":310,"name":"Alejandro","steam_id":76561197970051493,"connected_time":880000000000,"state":"active","ping":171},{"user_id":303,"name":"flippercurve","steam_id":76561199238295034,"connected_time":1110000000000,"state":"active","ping":71},{"user_id":267,"name":"WarMace","steam_id":76561198395937853,"connected_time":3779000000000,"state":"active","ping":94},{"user_id":296,"name":"Chilis 2 for 20","steam_id":76561198121544531,"connected_time":1395000000000,"state":"active","ping":75},{"user_id":304,"name":"tres","steam_id":76561198067500833,"connected_time":1079000000000,"state":"active","ping":55},{"user_id":248,"name":"Fightin Cow","steam_id":76561198080941486,"connected_time":4836000000000,"state":"active","ping":58},{"user_id":315,"name":"TF2C | fac -AA-","steam_id":76561198009818412,"connected_time":679000000000,"state":"active","ping":60},{"user_id":318,"name":"Greg Boberton 2012","steam_id":76561198983566026,"connected_time":138000000000,"state":"active","ping":87},{"user_id":305,"name":"storyboard","steam_id":76561199088496817,"connected_time":1072000000000,"state":"active","ping":62},{"user_id":311,"name":"Frontier Psychiatrist","steam_id":76561198038689088,"connected_time":861000000000,"state":"active","ping":90},{"user_id":316,"name":"McDonald's Chicken Big Mac","steam_id":76561198254991505,"connected_time":677000000000,"state":"active","ping":86},{"user_id":312,"name":"Hoofuyu","steam_id":76561199022142345,"connected_time":823000000000,"state":"active","ping":86},{"user_id":313,"name":"Ghandi","steam_id":76561198046702733,"connected_time":811000000000,"state":"active","ping":62},{"user_id":317,"name":"JJ","steam_id":76561199200296010,"connected_time":552000000000,"state":"active","ping":58}]},{"server_id":108,"name":"Uncletopia | Dallas | 2 | All Maps","name_short":"dal-2","host":"dal-1.us.uncletopia.com","port":27025,"enabled":true,"region":"us-central","cc":"us","latitude":32.779167,"longitude":-96.80889,"reserved":0,"last_update":"0001-01-01T00:00:00Z","name_a2s":"Uncletopia | Dallas | 2 | All Maps","protocol":17,"map":"koth_harvest_final","folder":"tf","game":"Team Fortress","app_id":440,"player_count":24,"max_players":24,"Bots":0,"server_type":"Dedicated","server_os":"Linux","password":true,"vac":true,"version":"7961495","steam_id":85568392924469988,"keywords":["cp","nocrits","nodmgspread","uncletopia"],"game_id":440,"stv_port":27026,"stv_name":"Uncletopia | Dallas | 2 | All Maps | STV","players":[{"user_id":314,"name":"Draakool","steam_id":76561198037003189,"connected_time":302000000000,"state":"active","ping":54},{"user_id":313,"name":"»ªŒª∆¶≈°‚¶ø·æî Ôø¶…®∆∂Œª∆¶√ê","steam_id":76561198079348598,"connected_time":373000000000,"state":"active","ping":73},{"user_id":288,"name":"H2OBourne","steam_id":76561198396293109,"connected_time":2461000000000,"state":"active","ping":69},{"user_id":218,"name":"Fried Water?!","steam_id":76561198053164815,"connected_time":6374000000000,"state":"active","ping":88},{"user_id":292,"name":"TF2 on the Deck is hard","steam_id":76561199001811226,"connected_time":1673000000000,"state":"active","ping":48},{"user_id":315,"name":"Stillkill","steam_id":76561198065069057,"connected_time":252000000000,"state":"active","ping":31},{"user_id":306,"name":"bleh :p","steam_id":76561198880268129,"connected_time":531000000000,"state":"active","ping":97},{"user_id":265,"name":"DSGR (F2P)","steam_id":76561199038076856,"connected_time":2875000000000,"state":"active","ping":82},{"user_id":301,"name":"troubless","steam_id":76561198335431391,"connected_time":942000000000,"state":"active","ping":62},{"user_id":221,"name":"Goldfire","steam_id":76561198061999410,"connected_time":6329000000000,"state":"active","ping":87},{"user_id":307,"name":"Gibler","steam_id":76561198091997881,"connected_time":507000000000,"state":"active","ping":65},{"user_id":308,"name":"stickg","steam_id":76561199193020423,"connected_time":500000000000,"state":"active","ping":91},{"user_id":321,"name":"Chad","steam_id":76561198222313772,"connected_time":74000000000,"state":"active","ping":98},{"user_id":270,"name":"reko","steam_id":76561198278020887,"connected_time":2813000000000,"state":"active","ping":59},{"user_id":294,"name":"U œâ U","steam_id":76561198118802562,"connected_time":1564000000000,"state":"active","ping":89},{"user_id":310,"name":"mepes","steam_id":76561198080430008,"connected_time":469000000000,"state":"active","ping":45},{"user_id":312,"name":"Renota","steam_id":76561198058224488,"connected_time":439000000000,"state":"active","ping":85},{"user_id":316,"name":"Mr. Tako","steam_id":76561199212603905,"connected_time":219000000000,"state":"active","ping":68},{"user_id":317,"name":"Tots","steam_id":76561198027485007,"connected_time":218000000000,"state":"active","ping":60},{"user_id":318,"name":"Plasma_Effect","steam_id":76561199379707969,"connected_time":182000000000,"state":"active","ping":131},{"user_id":319,"name":"JayRawgTV","steam_id":76561198044402840,"connected_time":156000000000,"state":"active","ping":45},{"user_id":320,"name":"cilo","steam_id":76561198046163502,"connected_time":134000000000,"state":"active","ping":65},{"user_id":325,"name":"DAD","steam_id":76561198143033762,"connected_time":12000000000,"state":"spawning","ping":123},{"user_id":324,"name":"SpicyTacoMan","steam_id":76561198335699828,"connected_time":57000000000,"state":"active","ping":100}]},{"server_id":404,"name":"Uncletopia | Dallas | 3 | All Maps","name_short":"dal-3","host":"dal-1.us.uncletopia.com","port":27035,"enabled":true,"region":"us-central","cc":"us","latitude":32.779167,"longitude":-96.80889,"reserved":0,"last_update":"0001-01-01T00:00:00Z","name_a2s":"Uncletopia | Dallas | 3 | All Maps","protocol":17,"map":"pl_frontier_final","folder":"tf","game":"Team Fortress","app_id":440,"player_count":24,"max_players":24,"Bots":0,"server_type":"Dedicated","server_os":"Linux","password":true,"vac":true,"version":"7961495","steam_id":85568392924515219,"keywords":["nocrits","nodmgspread","payload","uncletopia"],"game_id":440,"stv_port":27036,"stv_name":"Uncletopia | Dallas | 3 | All Maps | STV","players":[{"user_id":232,"name":"Rin \"Hindwing\" Redtail","steam_id":76561199074865638,"connected_time":2414000000000,"state":"active","ping":54},{"user_id":194,"name":"TheMightyGod","steam_id":76561198220055968,"connected_time":4891000000000,"state":"active","ping":59},{"user_id":203,"name":"dweamy","steam_id":76561198119181880,"connected_time":4520000000000,"state":"active","ping":62},{"user_id":240,"name":"winneryay","steam_id":76561198078731479,"connected_time":2061000000000,"state":"active","ping":76},{"user_id":218,"name":"tiredfisherman69","steam_id":76561199228963816,"connected_time":3470000000000,"state":"active","ping":83},{"user_id":228,"name":"D r e a d ‚ò¢üíØ","steam_id":76561198059216451,"connected_time":3234000000000,"state":"active","ping":83},{"user_id":251,"name":"‚Ü±yate‚Ü≤","steam_id":76561198311004039,"connected_time":1106000000000,"state":"active","ping":86},{"user_id":198,"name":"Tommy Provolone","steam_id":76561198170062377,"connected_time":4804000000000,"state":"active","ping":73},{"user_id":258,"name":"barker bill","steam_id":76561198018451994,"connected_time":359000000000,"state":"active","ping":63},{"user_id":152,"name":"Dameon","steam_id":76561198008258584,"connected_time":6810000000000,"state":"active","ping":88},{"user_id":249,"name":"reighyay","steam_id":76561198090337076,"connected_time":1423000000000,"state":"active","ping":35},{"user_id":248,"name":"oh god i'm gonna CHUM","steam_id":76561198019210187,"connected_time":1452000000000,"state":"active","ping":48},{"user_id":242,"name":"Stick","steam_id":76561198987222560,"connected_time":2021000000000,"state":"active","ping":72},{"user_id":257,"name":"moe","steam_id":76561198929586245,"connected_time":751000000000,"state":"active","ping":69},{"user_id":252,"name":"biblically accurate angel","steam_id":76561198095121758,"connected_time":1048000000000,"state":"active","ping":88},{"user_id":239,"name":"pajaro","steam_id":76561198065040540,"connected_time":2233000000000,"state":"active","ping":90},{"user_id":214,"name":"ArcangelxGT","steam_id":76561198167946091,"connected_time":3848000000000,"state":"active","ping":71},{"user_id":253,"name":"MantisToboggan","steam_id":76561197969447887,"connected_time":978000000000,"state":"active","ping":148},{"user_id":254,"name":"BL√òRG","steam_id":76561198036126673,"connected_time":974000000000,"state":"active","ping":76},{"user_id":255,"name":"lightning","steam_id":76561199214359565,"connected_time":939000000000,"state":"active","ping":130},{"user_id":256,"name":"Smittywerbenjager-manjenson","steam_id":76561198067060742,"connected_time":934000000000,"state":"active","ping":63},{"user_id":226,"name":"Garth","steam_id":76561198170173453,"connected_time":3266000000000,"state":"active","ping":83},{"user_id":243,"name":"0.9 kg of Tannerite","steam_id":76561198079470136,"connected_time":1976000000000,"state":"active","ping":95},{"user_id":138,"name":"Da Policia","steam_id":76561198012762789,"connected_time":8750000000000,"state":"active","ping":46}]},{"server_id":405,"name":"Uncletopia | Dallas | 4 | Community","name_short":"dal-4","host":"dal-1.us.uncletopia.com","port":27045,"enabled":true,"region":"us-central","cc":"us","latitude":32.779167,"longitude":-96.80889,"reserved":0,"last_update":"0001-01-01T00:00:00Z","name_a2s":"Uncletopia | Dallas | 4 | Community","protocol":17,"map":"workshop/pl_shoreleave_rc2.ugc1238849347","folder":"tf","game":"Team Fortress","app_id":440,"player_count":24,"max_players":24,"Bots":0,"server_type":"Dedicated","server_os":"Linux","password":true,"vac":true,"version":"7961495","steam_id":85568392924515220,"keywords":["nocrits","nodmgspread","payload","uncletopia"],"game_id":440,"stv_port":27046,"stv_name":"Uncletopia | Dallas | 4 | Community | STV","players":[{"user_id":121,"name":"Nortel Network Telephone T7316","steam_id":76561198399261089,"connected_time":1099000000000,"state":"active","ping":77},{"user_id":85,"name":"pp","steam_id":76561198396247454,"connected_time":3512000000000,"state":"active","ping":77},{"user_id":136,"name":"merlin","steam_id":76561198334511480,"connected_time":323000000000,"state":"active","ping":71},{"user_id":118,"name":"Fargo","steam_id":76561198044703931,"connected_time":1340000000000,"state":"active","ping":67},{"user_id":130,"name":"fun","steam_id":76561199469712812,"connected_time":626000000000,"state":"active","ping":110},{"user_id":96,"name":"Vaporwave","steam_id":76561198174013991,"connected_time":2674000000000,"state":"active","ping":112},{"user_id":111,"name":"Gluppo","steam_id":76561198379320087,"connected_time":1728000000000,"state":"active","ping":77},{"user_id":97,"name":"KUMA","steam_id":76561198045831196,"connected_time":2610000000000,"state":"active","ping":85},{"user_id":128,"name":"LeopoldVR","steam_id":76561198041597869,"connected_time":714000000000,"state":"active","ping":60},{"user_id":120,"name":"janitor","steam_id":76561198149788863,"connected_time":1225000000000,"state":"active","ping":80},{"user_id":98,"name":"FangisCat","steam_id":76561198957301047,"connected_time":2572000000000,"state":"active","ping":84},{"user_id":99,"name":"espeneche","steam_id":76561198166632959,"connected_time":2567000000000,"state":"active","ping":90},{"user_id":102,"name":"uuoohhhh","steam_id":76561198362114317,"connected_time":2468000000000,"state":"active","ping":88},{"user_id":75,"name":"non_ai","steam_id":76561198270951938,"connected_time":4003000000000,"state":"active","ping":79},{"user_id":116,"name":"Grease Magician","steam_id":76561198285410854,"connected_time":1372000000000,"state":"active","ping":87},{"user_id":58,"name":"Tcmano","steam_id":76561198057233847,"connected_time":5045000000000,"state":"active","ping":102},{"user_id":105,"name":"green bean","steam_id":76561198113099204,"connected_time":2211000000000,"state":"active","ping":155},{"user_id":122,"name":"Lezabel","steam_id":76561198970753261,"connected_time":1014000000000,"state":"active","ping":93},{"user_id":60,"name":"Jomdac","steam_id":76561198150447896,"connected_time":5016000000000,"state":"active","ping":89},{"user_id":117,"name":"Sewer Wizard","steam_id":76561199061404496,"connected_time":1348000000000,"state":"active","ping":96},{"user_id":126,"name":"SawyerSaur","steam_id":76561198872835142,"connected_time":747000000000,"state":"active","ping":98},{"user_id":139,"name":"MrFantasticccc","steam_id":76561198996583137,"connected_time":75000000000,"state":"active","ping":84},{"user_id":129,"name":"Ziggy Stardust","steam_id":76561198226531404,"connected_time":714000000000,"state":"active","ping":81},{"user_id":138,"name":"Cyndaquil Fan","steam_id":76561198799205521,"connected_time":140000000000,"state":"active","ping":84}]},{"server_id":5,"name":"Uncletopia | Frankfurt | 1 | All Maps","name_short":"frk-1","host":"frk-1.de.uncletopia.com","port":27015,"enabled":true,"region":"eu","cc":"de","latitude":50.110924,"longitude":8.682127,"reserved":0,"last_update":"0001-01-01T00:00:00Z","name_a2s":"Uncletopia | Frankfurt | 1 | All Maps","protocol":17,"map":"pl_upward","folder":"tf","game":"Team Fortress","app_id":440,"player_count":0,"max_players":24,"Bots":0,"server_type":"Dedicated","server_os":"Linux","password":true,"vac":true,"version":"7961495","steam_id":85568392924469989,"keywords":["nocrits","nodmgspread","payload","uncletopia"],"game_id":440,"stv_port":27016,"stv_name":"Uncletopia | Frankfurt | 1 | All Maps | STV","players":null},{"server_id":110,"name":"Uncletopia | Frankfurt | 2 | All Maps","name_short":"frk-2","host":"frk-1.de.uncletopia.com","port":27025,"enabled":true,"region":"eu","cc":"de","latitude":50.110924,"longitude":8.682127,"reserved":0,"last_update":"0001-01-01T00:00:00Z","name_a2s":"Uncletopia | Frankfurt | 2 | All Maps","protocol":17,"map":"pl_frontier_final","folder":"tf","game":"Team Fortress","app_id":440,"player_count":0,"max_players":24,"Bots":0,"server_type":"Dedicated","server_os":"Linux","password":true,"vac":true,"version":"7961495","steam_id":85568392924469990,"keywords":["nocrits","nodmgspread","payload","uncletopia"],"game_id":440,"stv_port":27026,"stv_name":"Uncletopia | Frankfurt | 2 | All Maps | STV","players":null},{"server_id":308,"name":"Uncletopia | Frankfurt | 3 | All Maps","name_short":"frk-3","host":"frk-1.de.uncletopia.com","port":27035,"enabled":true,"region":"eu","cc":"de","latitude":50.110924,"longitude":8.682127,"reserved":0,"last_update":"0001-01-01T00:00:00Z","name_a2s":"Uncletopia | Frankfurt | 3 | All Maps","protocol":17,"map":"koth_viaduct","folder":"tf","game":"Team Fortress","app_id":440,"player_count":0,"max_players":24,"Bots":0,"server_type":"Dedicated","server_os":"Linux","password":true,"vac":true,"version":"7961495","steam_id":85568392924504274,"keywords":["cp","nocrits","nodmgspread","uncletopia"],"game_id":440,"stv_port":27036,"stv_name":"Uncletopia | Frankfurt | 3 | All Maps | STV","players":null},{"server_id":309,"name":"Uncletopia | Frankfurt | 4 | All Maps","name_short":"frk-4","host":"frk-1.de.uncletopia.com","port":27045,"enabled":true,"region":"eu","cc":"de","latitude":50.110924,"longitude":8.682127,"reserved":0,"last_update":"0001-01-01T00:00:00Z","name_a2s":"Uncletopia | Frankfurt | 4 | All Maps","protocol":17,"map":"pl_frontier_final","folder":"tf","game":"Team Fortress","app_id":440,"player_count":0,"max_players":24,"Bots":0,"server_type":"Dedicated","server_os":"Linux","password":true,"vac":true,"version":"7961495","steam_id":85568392924504275,"keywords":["nocrits","nodmgspread","payload","uncletopia"],"game_id":440,"stv_port":27046,"stv_name":"Uncletopia | Frankfurt | 4 | All Maps | STV","players":null},{"server_id":310,"name":"Uncletopia | Frankfurt | 5 | All Maps","name_short":"frk-5","host":"frk-1.de.uncletopia.com","port":27055,"enabled":true,"region":"eu","cc":"de","latitude":50.110924,"longitude":8.682127,"reserved":0,"last_update":"0001-01-01T00:00:00Z","name_a2s":"Uncletopia | Frankfurt | 5 | All Maps","protocol":17,"map":"pl_swiftwater_final1","folder":"tf","game":"Team Fortress","app_id":440,"player_count":0,"max_players":24,"Bots":0,"server_type":"Dedicated","server_os":"Linux","password":true,"vac":true,"version":"7961495","steam_id":85568392924504277,"keywords":["nocrits","nodmgspread","payload","uncletopia"],"game_id":440,"stv_port":27056,"stv_name":"Uncletopia | Frankfurt | 5 | All Maps | STV","players":null},{"server_id":311,"name":"Uncletopia | Frankfurt | 6 | All Maps","name_short":"frk-6","host":"frk-1.de.uncletopia.com","port":27065,"enabled":true,"region":"eu","cc":"de","latitude":50.110924,"longitude":8.682127,"reserved":0,"last_update":"0001-01-01T00:00:00Z","name_a2s":"Uncletopia | Frankfurt | 6 | All Maps","protocol":17,"map":"pl_badwater","folder":"tf","game":"Team Fortress","app_id":440,"player_count":0,"max_players":24,"Bots":0,"server_type":"Dedicated","server_os":"Linux","password":true,"vac":true,"version":"7961495","steam_id":85568392924504278,"keywords":["nocrits","nodmgspread","payload","uncletopia"],"game_id":440,"stv_port":27066,"stv_name":"Uncletopia | Frankfurt | 6 | All Maps | STV","players":null},{"server_id":23,"name":"Uncletopia | Frankfurt | 7 | Stopwatch Beta","name_short":"frk-7","host":"frk-1.de.uncletopia.com","port":27075,"enabled":true,"region":"eu","cc":"de","latitude":50.110924,"longitude":8.682127,"reserved":0,"last_update":"0001-01-01T00:00:00Z","name_a2s":"Uncletopia | Frankfurt | 7 | Stopwatch Beta","protocol":17,"map":"pl_frontier_final","folder":"tf","game":"Team Fortress","app_id":440,"player_count":0,"max_players":24,"Bots":0,"server_type":"Dedicated","server_os":"Linux","password":true,"vac":true,"version":"7961495","steam_id":85568392924742827,"keywords":["nocrits","nodmgspread","payload","uncletopia"],"game_id":440,"stv_port":27076,"stv_name":"Uncletopia | Frankfurt | 7 | Stopwatch Beta | STV","players":null},{"server_id":24,"name":"Uncletopia | Frankfurt | 8 | Community","name_short":"frk-8","host":"frk-1.de.uncletopia.com","port":27085,"enabled":true,"region":"eu","cc":"de","latitude":50.110924,"longitude":8.682127,"reserved":0,"last_update":"0001-01-01T00:00:00Z","name_a2s":"Uncletopia | Frankfurt | 8 | Community","protocol":17,"map":"koth_highpass","folder":"tf","game":"Team Fortress","app_id":440,"player_count":0,"max_players":24,"Bots":0,"server_type":"Dedicated","server_os":"Linux","password":true,"vac":true,"version":"7961495","steam_id":85568392924742828,"keywords":["cp","nocrits","nodmgspread","uncletopia"],"game_id":440,"stv_port":27086,"stv_name":"Uncletopia | Frankfurt | 8 | Community | STV","players":null},{"server_id":202,"name":"Uncletopia | Hong Kong | 1 | All Maps","name_short":"hgk-1","host":"hgk-1.hk.uncletopia.com","port":27015,"enabled":true,"region":"asia","cc":"hk","latitude":22.302711,"longitude":114.177216,"reserved":0,"last_update":"0001-01-01T00:00:00Z","name_a2s":"Uncletopia | Hong Kong | 1 | All Maps","protocol":17,"map":"koth_harvest_final","folder":"tf","game":"Team Fortress","app_id":440,"player_count":10,"max_players":24,"Bots":0,"server_type":"Dedicated","server_os":"Linux","password":true,"vac":true,"version":"7961495","steam_id":85568392924494504,"keywords":["cp","nocrits","nodmgspread","uncletopia"],"game_id":440,"stv_port":27016,"stv_name":"Uncletopia | Hong Kong | 1 | All Maps | STV","players":[{"user_id":37,"name":"?","steam_id":76561199206075827,"connected_time":3271000000000,"state":"active","ping":78},{"user_id":38,"name":"ThunderMoutaingame2011","steam_id":76561199187380315,"connected_time":3200000000000,"state":"active","ping":41},{"user_id":39,"name":"23rd","steam_id":76561199014675406,"connected_time":2451000000000,"state":"active","ping":115},{"user_id":41,"name":"e","steam_id":76561199120787394,"connected_time":1273000000000,"state":"active","ping":116},{"user_id":42,"name":"villy","steam_id":76561198169263597,"connected_time":1241000000000,"state":"active","ping":36},{"user_id":43,"name":"Dire-Wolf","steam_id":76561198267622248,"connected_time":913000000000,"state":"active","ping":106},{"user_id":32,"name":"Byaa Bhom","steam_id":76561198831043368,"connected_time":5734000000000,"state":"active","ping":75},{"user_id":46,"name":"aisha","steam_id":76561198132172320,"connected_time":486000000000,"state":"active","ping":67},{"user_id":45,"name":"tortiglioni","steam_id":76561199131857098,"connected_time":535000000000,"state":"active","ping":63},{"user_id":47,"name":"bozedomovwarface","steam_id":76561199493629802,"connected_time":133000000000,"state":"active","ping":156}]},{"server_id":1,"name":"Uncletopia | Los Angeles | 1 | All Maps","name_short":"lax-1","host":"lax-1.us.uncletopia.com","port":27015,"enabled":true,"region":"us-west","cc":"us","latitude":33.94279,"longitude":-118.41004,"reserved":0,"last_update":"0001-01-01T00:00:00Z","name_a2s":"Uncletopia | Los Angeles | 1 | All Maps","protocol":17,"map":"cp_gravelpit","folder":"tf","game":"Team Fortress","app_id":440,"player_count":24,"max_players":24,"Bots":0,"server_type":"Dedicated","server_os":"Linux","password":true,"vac":true,"version":"7961495","steam_id":85568392924469991,"keywords":["cp","nocrits","nodmgspread","uncletopia"],"game_id":440,"stv_port":27016,"stv_name":"Uncletopia | Los Angeles | 1 | All Maps | STV","players":[{"user_id":266,"name":"cielael","steam_id":76561198043971956,"connected_time":2558000000000,"state":"active","ping":46},{"user_id":243,"name":"The Smell of Jazz","steam_id":76561198005860388,"connected_time":4417000000000,"state":"active","ping":68},{"user_id":279,"name":"ejschild745","steam_id":76561199013388867,"connected_time":1356000000000,"state":"active","ping":111},{"user_id":288,"name":"Fitsy1011","steam_id":76561198128359385,"connected_time":265000000000,"state":"active","ping":71},{"user_id":267,"name":"DesertFroggo","steam_id":76561198015607829,"connected_time":2368000000000,"state":"active","ping":120},{"user_id":258,"name":"SoundKitKiller","steam_id":76561198053535873,"connected_time":3604000000000,"state":"active","ping":122},{"user_id":276,"name":"Zizen","steam_id":76561199011832069,"connected_time":1592000000000,"state":"active","ping":69},{"user_id":285,"name":"adapt","steam_id":76561198156181017,"connected_time":382000000000,"state":"active","ping":55},{"user_id":198,"name":"Your Favorite Fearless Hero","steam_id":76561199127590316,"connected_time":8108000000000,"state":"active","ping":64},{"user_id":284,"name":"Optimore","steam_id":76561198047662990,"connected_time":415000000000,"state":"active","ping":45},{"user_id":278,"name":"Gabe","steam_id":76561198081153719,"connected_time":1525000000000,"state":"active","ping":69},{"user_id":104,"name":"Big Jack","steam_id":76561198132755619,"connected_time":15779000000000,"state":"active","ping":42},{"user_id":270,"name":"Ian","steam_id":76561198159334435,"connected_time":1958000000000,"state":"active","ping":170},{"user_id":241,"name":"Joseph Stalin","steam_id":76561198382398935,"connected_time":4709000000000,"state":"active","ping":88},{"user_id":249,"name":"McDonald","steam_id":76561199028533497,"connected_time":4221000000000,"state":"active","ping":51},{"user_id":286,"name":"FriskyDemon","steam_id":76561198043684646,"connected_time":363000000000,"state":"active","ping":123},{"user_id":290,"name":"Andrew Tate's Third Nipple","steam_id":76561198066142119,"connected_time":106000000000,"state":"active","ping":66},{"user_id":277,"name":"Luna_Blossom","steam_id":76561198816384987,"connected_time":1587000000000,"state":"active","ping":116},{"user_id":280,"name":"Michu_","steam_id":76561199076405865,"connected_time":723000000000,"state":"active","ping":86},{"user_id":273,"name":"Whisper!","steam_id":76561198119609795,"connected_time":1921000000000,"state":"active","ping":50},{"user_id":289,"name":"exx","steam_id":76561198090552145,"connected_time":192000000000,"state":"active","ping":49},{"user_id":265,"name":"Weakforanimebitches","steam_id":76561198217663016,"connected_time":2816000000000,"state":"active","ping":52},{"user_id":283,"name":"type \"bad med\" to kick","steam_id":76561198076402476,"connected_time":430000000000,"state":"active","ping":66},{"user_id":274,"name":"Sloppy Toppy Tom","steam_id":76561198321550138,"connected_time":1858000000000,"state":"active","ping":101}]},{"server_id":112,"name":"Uncletopia | Los Angeles | 2 | All Maps","name_short":"lax-2","host":"lax-1.us.uncletopia.com","port":27025,"enabled":true,"region":"us-west","cc":"us","latitude":33.94279,"longitude":-118.41004,"reserved":0,"last_update":"0001-01-01T00:00:00Z","name_a2s":"Uncletopia | Los Angeles | 2 | All Maps","protocol":17,"map":"pl_barnblitz","folder":"tf","game":"Team Fortress","app_id":440,"player_count":24,"max_players":24,"Bots":0,"server_type":"Dedicated","server_os":"Linux","password":true,"vac":true,"version":"7961495","steam_id":85568392924469992,"keywords":["nocrits","nodmgspread","payload","uncletopia"],"game_id":440,"stv_port":27026,"stv_name":"Uncletopia | Los Angeles | 2 | All Maps | STV","players":[{"user_id":195,"name":"FROYO b4nny","steam_id":76561197970669109,"connected_time":2404000000000,"state":"active","ping":48},{"user_id":216,"name":"sola venereum","steam_id":76561198368179166,"connected_time":626000000000,"state":"active","ping":63},{"user_id":209,"name":"Dusk","steam_id":76561198156245067,"connected_time":1827000000000,"state":"active","ping":40},{"user_id":203,"name":"Redspot","steam_id":76561199047876159,"connected_time":1979000000000,"state":"active","ping":63},{"user_id":204,"name":":D","steam_id":76561198049258493,"connected_time":1915000000000,"state":"active","ping":90},{"user_id":212,"name":"bobby","steam_id":76561198050767193,"connected_time":1639000000000,"state":"active","ping":51},{"user_id":184,"name":"PinguEnjoyer6","steam_id":76561199186723516,"connected_time":2890000000000,"state":"active","ping":34},{"user_id":214,"name":"hog cranker","steam_id":76561198073587145,"connected_time":810000000000,"state":"active","ping":85},{"user_id":197,"name":"sweep57","steam_id":76561198158478685,"connected_time":2329000000000,"state":"active","ping":75},{"user_id":198,"name":"bootybuttboy","steam_id":76561199116025035,"connected_time":2272000000000,"state":"active","ping":70},{"user_id":217,"name":"juju","steam_id":76561199473801131,"connected_time":588000000000,"state":"active","ping":131},{"user_id":213,"name":"Soda","steam_id":76561198219209367,"connected_time":1515000000000,"state":"active","ping":52},{"user_id":153,"name":"Ralph Kramden (Slim Charles)","steam_id":76561197981687895,"connected_time":5535000000000,"state":"active","ping":62},{"user_id":169,"name":"crankshaft","steam_id":76561197992798282,"connected_time":3603000000000,"state":"active","ping":46},{"user_id":218,"name":"connormorris2017","steam_id":76561199072962806,"connected_time":568000000000,"state":"active","ping":115},{"user_id":170,"name":"walrooos","steam_id":76561198024521839,"connected_time":3588000000000,"state":"active","ping":51},{"user_id":215,"name":"plutonium isotope","steam_id":76561198319442494,"connected_time":717000000000,"state":"active","ping":54},{"user_id":211,"name":"`o2","steam_id":76561197992030936,"connected_time":1770000000000,"state":"active","ping":104},{"user_id":172,"name":"Texas","steam_id":76561198053276976,"connected_time":3553000000000,"state":"active","ping":72},{"user_id":173,"name":"„Äé cyill „Äè","steam_id":76561198157626135,"connected_time":3537000000000,"state":"active","ping":105},{"user_id":196,"name":"Sol","steam_id":76561198121500201,"connected_time":2370000000000,"state":"active","ping":35},{"user_id":199,"name":"RUF","steam_id":76561198062315805,"connected_time":2248000000000,"state":"active","ping":60},{"user_id":163,"name":"Princess?","steam_id":76561198080963759,"connected_time":4401000000000,"state":"active","ping":74},{"user_id":202,"name":"Levin","steam_id":76561198410302974,"connected_time":2000000000000,"state":"active","ping":106}]},{"server_id":324,"name":"Uncletopia | Los Angeles | 3 | All Maps","name_short":"lax-3","host":"lax-1.us.uncletopia.com","port":27035,"enabled":true,"region":"us-west","cc":"us","latitude":33.94279,"longitude":-118.41004,"reserved":0,"last_update":"0001-01-01T00:00:00Z","name_a2s":"Uncletopia | Los Angeles | 3 | All Maps","protocol":17,"map":"koth_viaduct","folder":"tf","game":"Team Fortress","app_id":440,"player_count":0,"max_players":24,"Bots":0,"server_type":"Dedicated","server_os":"Linux","password":true,"vac":true,"version":"7961495","steam_id":85568392924510198,"keywords":["cp","nocrits","nodmgspread","uncletopia"],"game_id":440,"stv_port":27036,"stv_name":"Uncletopia | Los Angeles | 3 | All Maps | STV","players":null},{"server_id":25,"name":"Uncletopia | Los Angeles | 4 | Stopwatch","name_short":"lax-4","host":"lax-1.us.uncletopia.com","port":27045,"enabled":true,"region":"us-west","cc":"us","latitude":33.94279,"longitude":-118.41004,"reserved":0,"last_update":"0001-01-01T00:00:00Z","name_a2s":"Uncletopia | Los Angeles | 4 | Stopwatch","protocol":17,"map":"workshop/pl_barnblitz_pro7.ugc582280235","folder":"tf","game":"Team Fortress","app_id":440,"player_count":0,"max_players":24,"Bots":0,"server_type":"Dedicated","server_os":"Linux","password":true,"vac":true,"version":"7961495","steam_id":85568392924510199,"keywords":["nocrits","nodmgspread","payload","uncletopia"],"game_id":440,"stv_port":27046,"stv_name":"Uncletopia | Los Angeles | 4 | Stopwatch | STV","players":null},{"server_id":11,"name":"Uncletopia | London | 1 | All Maps","name_short":"lon-1","host":"lon-1.uk.uncletopia.com","port":27015,"enabled":true,"region":"eu","cc":"gb","latitude":51.509865,"longitude":-0.118092,"reserved":0,"last_update":"0001-01-01T00:00:00Z","name_a2s":"Uncletopia | London | 1 | All Maps","protocol":17,"map":"plr_bananabay","folder":"tf","game":"Team Fortress","app_id":440,"player_count":1,"max_players":24,"Bots":0,"server_type":"Dedicated","server_os":"Linux","password":true,"vac":true,"version":"7961495","steam_id":85568392924367362,"keywords":["nocrits","nodmgspread","payload","uncletopia"],"game_id":440,"stv_port":27016,"stv_name":"Uncletopia | London | 1 | All Maps | STV","players":[{"user_id":139,"name":"shooer!","steam_id":76561198110531281,"connected_time":1881000000000,"state":"active","ping":56}]},{"server_id":114,"name":"Uncletopia | London | 2 | All Maps","name_short":"lon-2","host":"lon-1.uk.uncletopia.com","port":27025,"enabled":true,"region":"eu","cc":"gb","latitude":51.509865,"longitude":-0.118092,"reserved":0,"last_update":"0001-01-01T00:00:00Z","name_a2s":"Uncletopia | London | 2 | All Maps","protocol":17,"map":"cp_dustbowl","folder":"tf","game":"Team Fortress","app_id":440,"player_count":0,"max_players":24,"Bots":0,"server_type":"Dedicated","server_os":"Linux","password":true,"vac":true,"version":"7961495","steam_id":85568392924470941,"keywords":["cp","nocrits","nodmgspread","uncletopia"],"game_id":440,"stv_port":27026,"stv_name":"Uncletopia | London | 2 | All Maps | STV","players":null},{"server_id":320,"name":"Uncletopia | London | 3 | All Maps","name_short":"lon-3","host":"lon-1.uk.uncletopia.com","port":27035,"enabled":true,"region":"eu","cc":"gb","latitude":51.509865,"longitude":-0.118092,"reserved":0,"last_update":"0001-01-01T00:00:00Z","name_a2s":"Uncletopia | London | 3 | All Maps","protocol":17,"map":"pl_pier","folder":"tf","game":"Team Fortress","app_id":440,"player_count":0,"max_players":24,"Bots":0,"server_type":"Dedicated","server_os":"Linux","password":true,"vac":true,"version":"7961495","steam_id":85568392924510192,"keywords":["nocrits","nodmgspread","payload","uncletopia"],"game_id":440,"stv_port":27036,"stv_name":"Uncletopia | London | 3 | All Maps | STV","players":null},{"server_id":321,"name":"Uncletopia | London | 4 | All Maps","name_short":"lon-4","host":"lon-1.uk.uncletopia.com","port":27045,"enabled":true,"region":"eu","cc":"gb","latitude":51.509865,"longitude":-0.118092,"reserved":0,"last_update":"0001-01-01T00:00:00Z","name_a2s":"Uncletopia | London | 4 | All Maps","protocol":17,"map":"pl_badwater","folder":"tf","game":"Team Fortress","app_id":440,"player_count":21,"max_players":24,"Bots":0,"server_type":"Dedicated","server_os":"Linux","password":true,"vac":true,"version":"7961495","steam_id":85568392924510193,"keywords":["nocrits","nodmgspread","payload","uncletopia"],"game_id":440,"stv_port":27046,"stv_name":"Uncletopia | London | 4 | All Maps | STV","players":[{"user_id":300,"name":"N5LH","steam_id":76561199112528775,"connected_time":321000000000,"state":"active","ping":122},{"user_id":260,"name":"Psyche","steam_id":76561198091662001,"connected_time":4559000000000,"state":"active","ping":61},{"user_id":231,"name":"Theleomaster","steam_id":76561198342580499,"connected_time":7319000000000,"state":"active","ping":100},{"user_id":280,"name":"The Somberlain","steam_id":76561198167909795,"connected_time":2651000000000,"state":"active","ping":88},{"user_id":301,"name":"Dead Kitten","steam_id":76561198152132092,"connected_time":267000000000,"state":"active","ping":89},{"user_id":306,"name":"Randolf","steam_id":76561198093009729,"connected_time":23000000000,"state":"active","ping":76},{"user_id":302,"name":"Limber","steam_id":76561198406320611,"connected_time":257000000000,"state":"active","ping":60},{"user_id":273,"name":"Zerwee","steam_id":76561198181368101,"connected_time":2920000000000,"state":"active","ping":60},{"user_id":303,"name":"Sh3ba Spaniel","steam_id":76561198047412394,"connected_time":88000000000,"state":"active","ping":159},{"user_id":304,"name":"Qdarks","steam_id":76561198013391340,"connected_time":38000000000,"state":"active","ping":143},{"user_id":274,"name":"Tattletails","steam_id":76561198055690341,"connected_time":2872000000000,"state":"active","ping":60},{"user_id":251,"name":"UglyTwinYgor","steam_id":76561198132718039,"connected_time":5278000000000,"state":"active","ping":85},{"user_id":268,"name":"Rip Van Winkle","steam_id":76561198055788070,"connected_time":3492000000000,"state":"active","ping":61},{"user_id":305,"name":"jonbob","steam_id":76561197963506620,"connected_time":34000000000,"state":"active","ping":54},{"user_id":256,"name":"Big John","steam_id":76561199083156893,"connected_time":4972000000000,"state":"active","ping":71},{"user_id":281,"name":"CandyFloss","steam_id":76561199083644331,"connected_time":2625000000000,"state":"active","ping":73},{"user_id":284,"name":"grant...","steam_id":76561198056152479,"connected_time":1955000000000,"state":"active","ping":44},{"user_id":257,"name":"Hat Wearing Man","steam_id":76561198811245922,"connected_time":4965000000000,"state":"active","ping":79},{"user_id":290,"name":"m909","steam_id":76561198279621400,"connected_time":1704000000000,"state":"active","ping":86},{"user_id":292,"name":"collin","steam_id":76561198067030681,"connected_time":1685000000000,"state":"active","ping":46},{"user_id":296,"name":"Vivas","steam_id":76561199118814729,"connected_time":1146000000000,"state":"active","ping":63}]},{"server_id":21,"name":"Uncletopia | London | 5 | All Maps","name_short":"lon-5","host":"lon-1.uk.uncletopia.com","port":27055,"enabled":true,"region":"eu","cc":"gb","latitude":51.509865,"longitude":-0.118092,"reserved":0,"last_update":"0001-01-01T00:00:00Z","name_a2s":"Uncletopia | London | 5 | All Maps","protocol":17,"map":"plr_hightower","folder":"tf","game":"Team Fortress","app_id":440,"player_count":0,"max_players":24,"Bots":0,"server_type":"Dedicated","server_os":"Linux","password":true,"vac":true,"version":"7961495","steam_id":85568392924742829,"keywords":["nocrits","nodmgspread","payload","uncletopia"],"game_id":440,"stv_port":27056,"stv_name":"Uncletopia | London | 5 | All Maps | STV","players":null},{"server_id":22,"name":"Uncletopia | London | 6 | All Maps","name_short":"lon-6","host":"lon-1.uk.uncletopia.com","port":27065,"enabled":true,"region":"eu","cc":"gb","latitude":51.509865,"longitude":-0.118092,"reserved":0,"last_update":"0001-01-01T00:00:00Z","name_a2s":"Uncletopia | London | 6 | All Maps","protocol":17,"map":"koth_lakeside_final","folder":"tf","game":"Team Fortress","app_id":440,"player_count":0,"max_players":24,"Bots":0,"server_type":"Dedicated","server_os":"Linux","password":true,"vac":true,"version":"7961495","steam_id":85568392924742830,"keywords":["cp","nocrits","nodmgspread","uncletopia"],"game_id":440,"stv_port":27066,"stv_name":"Uncletopia | London | 6 | All Maps | STV","players":null},{"server_id":40,"name":"Uncletopia | London | 7 | No Payload","name_short":"lon-7","host":"lon-1.uk.uncletopia.com","port":27075,"enabled":true,"region":"eu","cc":"gb","latitude":51.509865,"longitude":-0.118092,"reserved":0,"last_update":"0001-01-01T00:00:00Z","name_a2s":"Uncletopia | London | 7 | No Payload","protocol":17,"map":"cp_altitude","folder":"tf","game":"Team Fortress","app_id":440,"player_count":0,"max_players":24,"Bots":0,"server_type":"Dedicated","server_os":"Linux","password":true,"vac":true,"version":"7961495","steam_id":85568392924964314,"keywords":["cp","nocrits","nodmgspread","uncletopia"],"game_id":440,"stv_port":27076,"stv_name":"Uncletopia | London | 7 | No Payload | STV","players":null},{"server_id":41,"name":"Uncletopia | London | 8 | Community","name_short":"lon-8","host":"lon-1.uk.uncletopia.com","port":27085,"enabled":true,"region":"eu","cc":"gb","latitude":51.509865,"longitude":-0.118092,"reserved":0,"last_update":"0001-01-01T00:00:00Z","name_a2s":"Uncletopia | London | 8 | Community","protocol":17,"map":"workshop/pl_emerge_rc2.ugc888027758","folder":"tf","game":"Team Fortress","app_id":440,"player_count":0,"max_players":24,"Bots":0,"server_type":"Dedicated","server_os":"Linux","password":true,"vac":true,"version":"7961495","steam_id":85568392924964315,"keywords":["nocrits","nodmgspread","payload","uncletopia"],"game_id":440,"stv_port":27086,"stv_name":"Uncletopia | London | 8 | Community | STV","players":null},{"server_id":300,"name":"Uncletopia | Montr√©al | 1 | All Maps","name_short":"mtl-1","host":"mtl-1.ca.uncletopia.com","port":27015,"enabled":true,"region":"us-east","cc":"ca","latitude":45.50889,"longitude":-73.56167,"reserved":0,"last_update":"0001-01-01T00:00:00Z","name_a2s":"","protocol":0,"map":"","folder":"","game":"","app_id":0,"player_count":0,"max_players":0,"Bots":0,"server_type":"","server_os":"","password":false,"vac":false,"version":"","steam_id":0,"keywords":null,"game_id":0,"stv_port":0,"stv_name":"","players":null},{"server_id":301,"name":"Uncletopia | Montr√©al | 2 | All Maps","name_short":"mtl-2","host":"mtl-1.ca.uncletopia.com","port":27025,"enabled":true,"region":"us-east","cc":"ca","latitude":45.50889,"longitude":-73.56167,"reserved":0,"last_update":"0001-01-01T00:00:00Z","name_a2s":"","protocol":0,"map":"","folder":"","game":"","app_id":0,"player_count":0,"max_players":0,"Bots":0,"server_type":"","server_os":"","password":false,"vac":false,"version":"","steam_id":0,"keywords":null,"game_id":0,"stv_port":0,"stv_name":"","players":null},{"server_id":302,"name":"Uncletopia | Montr√©al | 3 | All Maps","name_short":"mtl-3","host":"mtl-1.ca.uncletopia.com","port":27035,"enabled":true,"region":"us-east","cc":"ca","latitude":45.50889,"longitude":-73.56167,"reserved":0,"last_update":"0001-01-01T00:00:00Z","name_a2s":"","protocol":0,"map":"","folder":"","game":"","app_id":0,"player_count":0,"max_players":0,"Bots":0,"server_type":"","server_os":"","password":false,"vac":false,"version":"","steam_id":0,"keywords":null,"game_id":0,"stv_port":0,"stv_name":"","players":null},{"server_id":303,"name":"Uncletopia | Montr√©al | 4 | No Payload","name_short":"mtl-4","host":"mtl-1.ca.uncletopia.com","port":27045,"enabled":true,"region":"us-east","cc":"ca","latitude":45.50889,"longitude":-73.56167,"reserved":0,"last_update":"0001-01-01T00:00:00Z","name_a2s":"","protocol":0,"map":"","folder":"","game":"","app_id":0,"player_count":0,"max_players":0,"Bots":0,"server_type":"","server_os":"","password":false,"vac":false,"version":"","steam_id":0,"keywords":null,"game_id":0,"stv_port":0,"stv_name":"","players":null},{"server_id":13,"name":"Uncletopia | New York City | 1 | All Maps","name_short":"nyc-1","host":"nyc-1.us.uncletopia.com","port":27015,"enabled":true,"region":"us-east","cc":"us","latitude":40.73061,"longitude":-73.93524,"reserved":0,"last_update":"0001-01-01T00:00:00Z","name_a2s":"Uncletopia | New York City | 1 | All Maps","protocol":17,"map":"pl_swiftwater_final1","folder":"tf","game":"Team Fortress","app_id":440,"player_count":24,"max_players":24,"Bots":0,"server_type":"Dedicated","server_os":"Linux","password":true,"vac":true,"version":"7961495","steam_id":85568392924469993,"keywords":["nocrits","nodmgspread","payload","uncletopia"],"game_id":440,"stv_port":27016,"stv_name":"Uncletopia | New York City | 1 | All Maps | STV","players":[{"user_id":264,"name":"CheesyPoofs","steam_id":76561197998650617,"connected_time":3730000000000,"state":"active","ping":123},{"user_id":267,"name":"ndvr","steam_id":76561199379200102,"connected_time":3606000000000,"state":"active","ping":50},{"user_id":306,"name":"Thatco","steam_id":76561198029709329,"connected_time":132000000000,"state":"active","ping":74},{"user_id":296,"name":"Zaid","steam_id":76561199142840666,"connected_time":1353000000000,"state":"active","ping":157},{"user_id":293,"name":"lingulata","steam_id":76561198076208960,"connected_time":1430000000000,"state":"active","ping":73},{"user_id":274,"name":"galacticdragonlord","steam_id":76561198119755801,"connected_time":3388000000000,"state":"active","ping":81},{"user_id":305,"name":"oof aim small brain","steam_id":76561198079925551,"connected_time":380000000000,"state":"active","ping":53},{"user_id":303,"name":"Comic Relief Fat Guy","steam_id":76561199031172409,"connected_time":1058000000000,"state":"active","ping":81},{"user_id":307,"name":"my name jeff","steam_id":76561198179816898,"connected_time":132000000000,"state":"active","ping":83},{"user_id":294,"name":"Indigolake","steam_id":76561198202215807,"connected_time":1417000000000,"state":"active","ping":70},{"user_id":297,"name":"Markus Velafi","steam_id":76561198063193924,"connected_time":1313000000000,"state":"active","ping":62},{"user_id":233,"name":"Bewen","steam_id":76561198325334261,"connected_time":6087000000000,"state":"active","ping":41},{"user_id":298,"name":"enzowolf10","steam_id":76561198028696728,"connected_time":1279000000000,"state":"active","ping":52},{"user_id":300,"name":"Teanna Trump","steam_id":76561198059476610,"connected_time":1222000000000,"state":"active","ping":49},{"user_id":301,"name":"swaglord1738420litty","steam_id":76561198062870880,"connected_time":1219000000000,"state":"active","ping":114},{"user_id":279,"name":"gefilte fisherman","steam_id":76561198001781616,"connected_time":2940000000000,"state":"active","ping":46},{"user_id":273,"name":"Vynil","steam_id":76561198190004550,"connected_time":3449000000000,"state":"active","ping":65},{"user_id":299,"name":"not a good idea","steam_id":76561198032259680,"connected_time":1275000000000,"state":"active","ping":61},{"user_id":284,"name":"Rudy","steam_id":76561198013456828,"connected_time":2712000000000,"state":"active","ping":56},{"user_id":205,"name":"That Sentry Is A Spy!","steam_id":76561198069395625,"connected_time":7702000000000,"state":"active","ping":63},{"user_id":302,"name":"Bobby Ray","steam_id":76561198044131188,"connected_time":1193000000000,"state":"active","ping":105},{"user_id":277,"name":"Miss Star","steam_id":76561199106587693,"connected_time":3314000000000,"state":"active","ping":85},{"user_id":286,"name":"MiniDrish","steam_id":76561198994995144,"connected_time":2664000000000,"state":"active","ping":175},{"user_id":282,"name":"cyberas","steam_id":76561198257092290,"connected_time":2754000000000,"state":"active","ping":69}]},{"server_id":14,"name":"Uncletopia | New York City | 2 | All Maps","name_short":"nyc-2","host":"nyc-1.us.uncletopia.com","port":27025,"enabled":true,"region":"us-east","cc":"us","latitude":40.73061,"longitude":-73.93524,"reserved":0,"last_update":"0001-01-01T00:00:00Z","name_a2s":"Uncletopia | New York City | 2 | All Maps","protocol":17,"map":"pl_frontier_final","folder":"tf","game":"Team Fortress","app_id":440,"player_count":24,"max_players":24,"Bots":0,"server_type":"Dedicated","server_os":"Linux","password":true,"vac":true,"version":"7961495","steam_id":85568392924469994,"keywords":["nocrits","nodmgspread","payload","uncletopia"],"game_id":440,"stv_port":27026,"stv_name":"Uncletopia | New York City | 2 | All Maps | STV","players":[{"user_id":235,"name":"rattlin' bog","steam_id":76561198224551028,"connected_time":5322000000000,"state":"active","ping":56},{"user_id":205,"name":"goldenfreddyrock1987","steam_id":76561198047403448,"connected_time":7735000000000,"state":"active","ping":45},{"user_id":250,"name":"Taco","steam_id":76561198185185694,"connected_time":4044000000000,"state":"active","ping":101},{"user_id":302,"name":"Nica's Dream","steam_id":76561198028617381,"connected_time":470000000000,"state":"active","ping":68},{"user_id":301,"name":"ùíÜùíóùíäùíçArnoldGamingÔæ†","steam_id":76561198040140247,"connected_time":622000000000,"state":"active","ping":96},{"user_id":298,"name":"ThePlagueDucktor","steam_id":76561198155884968,"connected_time":875000000000,"state":"active","ping":66},{"user_id":252,"name":"poopass","steam_id":76561198105374054,"connected_time":3683000000000,"state":"active","ping":126},{"user_id":303,"name":"Relare","steam_id":76561198004059718,"connected_time":279000000000,"state":"active","ping":73},{"user_id":282,"name":"MR.BURRITO","steam_id":76561198192583090,"connected_time":2085000000000,"state":"active","ping":167},{"user_id":296,"name":"Lord Boaretheus","steam_id":76561198963410515,"connected_time":917000000000,"state":"active","ping":59},{"user_id":294,"name":"Vee (very cool)","steam_id":76561198330432889,"connected_time":956000000000,"state":"active","ping":78},{"user_id":258,"name":"CTRLZ0Y","steam_id":76561198183346187,"connected_time":3499000000000,"state":"active","ping":58},{"user_id":261,"name":"chev chelios","steam_id":76561198117914922,"connected_time":3335000000000,"state":"active","ping":60},{"user_id":288,"name":"FlameWear (part 2)","steam_id":76561198965198292,"connected_time":1857000000000,"state":"active","ping":87},{"user_id":262,"name":"Ectomonkey","steam_id":76561198125417062,"connected_time":3263000000000,"state":"active","ping":125},{"user_id":274,"name":"granola","steam_id":76561198349359281,"connected_time":2787000000000,"state":"active","ping":80},{"user_id":284,"name":"BroBama","steam_id":76561198203732587,"connected_time":2041000000000,"state":"active","ping":85},{"user_id":264,"name":"Moonadoo","steam_id":76561198133377546,"connected_time":3220000000000,"state":"active","ping":90},{"user_id":297,"name":"HIDEN","steam_id":76561199024853268,"connected_time":915000000000,"state":"active","ping":122},{"user_id":268,"name":"Mimikyulex","steam_id":76561198304578431,"connected_time":3162000000000,"state":"active","ping":78},{"user_id":267,"name":"Kommandant Silent","steam_id":76561197971983179,"connected_time":3168000000000,"state":"active","ping":71},{"user_id":270,"name":"trunq","steam_id":76561198293187871,"connected_time":3142000000000,"state":"active","ping":101},{"user_id":238,"name":"shnowshner","steam_id":76561198066450438,"connected_time":5288000000000,"state":"active","ping":81},{"user_id":272,"name":"Walmart Employee","steam_id":76561198840373909,"connected_time":2939000000000,"state":"active","ping":94}]},{"server_id":15,"name":"Uncletopia | New York City | 3 | Stopwatch Beta","name_short":"nyc-3","host":"nyc-1.us.uncletopia.com","port":27035,"enabled":true,"region":"us-east","cc":"us","latitude":40.73061,"longitude":-73.93524,"reserved":0,"last_update":"0001-01-01T00:00:00Z","name_a2s":"Uncletopia | New York City | 3 | Stopwatch Beta","protocol":17,"map":"workshop/pl_summercoast_rc8e.ugc1761528829","folder":"tf","game":"Team Fortress","app_id":440,"player_count":9,"max_players":24,"Bots":0,"server_type":"Dedicated","server_os":"Linux","password":true,"vac":true,"version":"7961495","steam_id":85568392924742820,"keywords":["nocrits","nodmgspread","payload","uncletopia"],"game_id":440,"stv_port":27036,"stv_name":"Uncletopia | New York City | 3 | Stopwatch Beta | STV","players":[{"user_id":156,"name":"luisxavierxd","steam_id":76561199088395057,"connected_time":2449000000000,"state":"active","ping":147},{"user_id":190,"name":"Like a seal üòè","steam_id":76561198180951431,"connected_time":61000000000,"state":"active","ping":45},{"user_id":189,"name":"Baleaf","steam_id":76561199193980999,"connected_time":70000000000,"state":"spawning","ping":209},{"user_id":178,"name":"7thelden","steam_id":76561198297428761,"connected_time":1039000000000,"state":"active","ping":76},{"user_id":138,"name":"GrahamisGood","steam_id":76561198988396980,"connected_time":3993000000000,"state":"active","ping":53},{"user_id":158,"name":"lil meat","steam_id":76561198071391507,"connected_time":2380000000000,"state":"active","ping":96},{"user_id":169,"name":"Perpul","steam_id":76561198075458738,"connected_time":1471000000000,"state":"active","ping":63},{"user_id":187,"name":"GoldtoothFour","steam_id":76561198055529332,"connected_time":183000000000,"state":"active","ping":59},{"user_id":143,"name":"truezyoungblood","steam_id":76561198044589114,"connected_time":3571000000000,"state":"active","ping":45}]},{"server_id":16,"name":"Uncletopia | New York City | 4 | Community","name_short":"nyc-4","host":"nyc-1.us.uncletopia.com","port":27045,"enabled":true,"region":"us-east","cc":"us","latitude":40.73061,"longitude":-73.93524,"reserved":0,"last_update":"0001-01-01T00:00:00Z","name_a2s":"Uncletopia | New York City | 4 | Community","protocol":17,"map":"workshop/cp_fulgur_rc2a.ugc2068252300","folder":"tf","game":"Team Fortress","app_id":440,"player_count":0,"max_players":24,"Bots":0,"server_type":"Dedicated","server_os":"Linux","password":true,"vac":true,"version":"7961495","steam_id":85568392924742821,"keywords":["cp","nocrits","nodmgspread","uncletopia"],"game_id":440,"stv_port":27046,"stv_name":"Uncletopia | New York City | 4 | Community | STV","players":null},{"server_id":142,"name":"Uncletopia | S√£o Paulo | 1 | All Maps","name_short":"sao-1","host":"sao-1.br.uncletopia.com","port":27015,"enabled":true,"region":"sa","cc":"br","latitude":-23.533773,"longitude":-46.62529,"reserved":0,"last_update":"0001-01-01T00:00:00Z","name_a2s":"Uncletopia | S√£o Paulo | 1 | All Maps","protocol":17,"map":"koth_highpass","folder":"tf","game":"Team Fortress","app_id":440,"player_count":0,"max_players":24,"Bots":0,"server_type":"Dedicated","server_os":"Linux","password":true,"vac":true,"version":"7961495","steam_id":85568392924469996,"keywords":["cp","nocrits","nodmgspread","uncletopia"],"game_id":440,"stv_port":27016,"stv_name":"Uncletopia | S√£o Paulo | 1 | All Maps | STV","players":null},{"server_id":143,"name":"Uncletopia | S√£o Paulo | 2 | Community","name_short":"sao-2","host":"sao-2.br.uncletopia.com","port":27015,"enabled":true,"region":"sa","cc":"br","latitude":-23.533773,"longitude":-46.62529,"reserved":0,"last_update":"0001-01-01T00:00:00Z","name_a2s":"Uncletopia | S√£o Paulo | 2 | Community","protocol":17,"map":"workshop/cp_bruhstbowl_b6.ugc2878604990","folder":"tf","game":"Team Fortress","app_id":440,"player_count":0,"max_players":24,"Bots":0,"server_type":"Dedicated","server_os":"Linux","password":true,"vac":true,"version":"7961495","steam_id":85568392924485349,"keywords":["cp","nocrits","nodmgspread","uncletopia"],"game_id":440,"stv_port":27016,"stv_name":"Uncletopia | S√£o Paulo | 2 | Community | STV","players":null},{"server_id":7,"name":"Uncletopia | Seattle | 1 | All Maps","name_short":"sea-1","host":"sea-1.us.uncletopia.com","port":27015,"enabled":true,"region":"us-west","cc":"us","latitude":47.608013,"longitude":-122.33517,"reserved":0,"last_update":"0001-01-01T00:00:00Z","name_a2s":"Uncletopia | Seattle | 1 | All Maps","protocol":17,"map":"pl_borneo","folder":"tf","game":"Team Fortress","app_id":440,"player_count":24,"max_players":24,"Bots":0,"server_type":"Dedicated","server_os":"Linux","password":true,"vac":true,"version":"7961495","steam_id":85568392924469997,"keywords":["nocrits","nodmgspread","payload","uncletopia"],"game_id":440,"stv_port":27016,"stv_name":"Uncletopia | Seattle | 1 | All Maps | STV","players":[{"user_id":255,"name":"IcarusIsBestGirl","steam_id":76561198998625008,"connected_time":3514000000000,"state":"active","ping":70},{"user_id":244,"name":"exephur","steam_id":76561198135763234,"connected_time":4289000000000,"state":"active","ping":63},{"user_id":256,"name":"Big Cat","steam_id":76561198115695203,"connected_time":3512000000000,"state":"active","ping":101},{"user_id":190,"name":"pepe warlord","steam_id":76561198080819197,"connected_time":8798000000000,"state":"active","ping":90},{"user_id":195,"name":"Doofenshmirtz Evil Inc.","steam_id":76561198439793697,"connected_time":8717000000000,"state":"active","ping":130},{"user_id":232,"name":"Apollo","steam_id":76561198162364702,"connected_time":5234000000000,"state":"active","ping":46},{"user_id":187,"name":"MegumiTame","steam_id":76561198450280686,"connected_time":8836000000000,"state":"active","ping":49},{"user_id":258,"name":"Yack Skag","steam_id":76561198068251493,"connected_time":3425000000000,"state":"active","ping":68},{"user_id":270,"name":"NEBULA","steam_id":76561198086878595,"connected_time":1405000000000,"state":"active","ping":72},{"user_id":271,"name":"Metalogic","steam_id":76561198049469629,"connected_time":1402000000000,"state":"active","ping":69},{"user_id":250,"name":"Inflight","steam_id":76561198920049475,"connected_time":3782000000000,"state":"active","ping":109},{"user_id":276,"name":"Peppino","steam_id":76561199139504199,"connected_time":117000000000,"state":"active","ping":87},{"user_id":248,"name":"Domopon","steam_id":76561199080347686,"connected_time":3918000000000,"state":"active","ping":61},{"user_id":212,"name":"PepperPotPete","steam_id":76561198251267326,"connected_time":6988000000000,"state":"active","ping":47},{"user_id":264,"name":"Mr. DeLarge","steam_id":76561198336820066,"connected_time":2261000000000,"state":"active","ping":63},{"user_id":261,"name":"William P. Ennis","steam_id":76561198073464877,"connected_time":2842000000000,"state":"active","ping":88},{"user_id":272,"name":"CLB","steam_id":76561198057971005,"connected_time":1399000000000,"state":"active","ping":38},{"user_id":274,"name":"rorywashere /·ê† - Àï -„Éû ‚≥ä","steam_id":76561198065825165,"connected_time":489000000000,"state":"active","ping":137},{"user_id":263,"name":"[TTV]slendermansmoom","steam_id":76561199053946374,"connected_time":2273000000000,"state":"active","ping":68},{"user_id":267,"name":"spenca","steam_id":76561198025371154,"connected_time":1429000000000,"state":"active","ping":75},{"user_id":252,"name":"Ping","steam_id":76561199206514106,"connected_time":3649000000000,"state":"active","ping":118},{"user_id":268,"name":"blozet","steam_id":76561199120161035,"connected_time":1425000000000,"state":"active","ping":130},{"user_id":269,"name":"lasky","steam_id":76561198017030029,"connected_time":1423000000000,"state":"active","ping":71},{"user_id":254,"name":"louise sneeze","steam_id":76561198062451648,"connected_time":3534000000000,"state":"active","ping":91}]},{"server_id":119,"name":"Uncletopia | Seattle | 2 | All Maps","name_short":"sea-2","host":"sea-1.us.uncletopia.com","port":27025,"enabled":true,"region":"us-west","cc":"us","latitude":47.608013,"longitude":-122.33517,"reserved":0,"last_update":"0001-01-01T00:00:00Z","name_a2s":"Uncletopia | Seattle | 2 | All Maps","protocol":17,"map":"pl_upward","folder":"tf","game":"Team Fortress","app_id":440,"player_count":19,"max_players":24,"Bots":0,"server_type":"Dedicated","server_os":"Linux","password":true,"vac":true,"version":"7961495","steam_id":85568392924469998,"keywords":["nocrits","nodmgspread","payload","uncletopia"],"game_id":440,"stv_port":27026,"stv_name":"Uncletopia | Seattle | 2 | All Maps | STV","players":[{"user_id":297,"name":"myunicorn","steam_id":76561199391478575,"connected_time":23000000000,"state":"active","ping":68},{"user_id":270,"name":"Skabbety","steam_id":76561198168044257,"connected_time":2736000000000,"state":"active","ping":44},{"user_id":247,"name":"General Fisticuffs","steam_id":76561198255721392,"connected_time":5407000000000,"state":"active","ping":129},{"user_id":298,"name":"One Horned Bitch Destroyer","steam_id":76561198045810191,"connected_time":9000000000,"state":"spawning","ping":40},{"user_id":266,"name":"Loser","steam_id":76561198260540499,"connected_time":3970000000000,"state":"active","ping":148},{"user_id":276,"name":"Karl Gerat2015","steam_id":76561199061625972,"connected_time":2561000000000,"state":"active","ping":92},{"user_id":283,"name":"squart guy","steam_id":76561199411560141,"connected_time":1336000000000,"state":"active","ping":47},{"user_id":245,"name":"dust | she/it","steam_id":76561198045218909,"connected_time":5444000000000,"state":"active","ping":44},{"user_id":296,"name":"J√§ttelik","steam_id":76561199217014360,"connected_time":258000000000,"state":"active","ping":83},{"user_id":70,"name":"cool beans","steam_id":76561198045758072,"connected_time":18335000000000,"state":"active","ping":60},{"user_id":282,"name":"IceCream_axolotl","steam_id":76561199195617432,"connected_time":2160000000000,"state":"active","ping":80},{"user_id":256,"name":"Ashanti Clan","steam_id":76561198032651105,"connected_time":4477000000000,"state":"active","ping":54},{"user_id":280,"name":"Boofus McDoofus","steam_id":76561198858989566,"connected_time":2207000000000,"state":"active","ping":116},{"user_id":257,"name":"Keamy","steam_id":76561199471434875,"connected_time":4474000000000,"state":"active","ping":40},{"user_id":275,"name":"The_Pacific_gamer","steam_id":76561198089491446,"connected_time":2613000000000,"state":"active","ping":46},{"user_id":249,"name":"MyMonkeyBaby","steam_id":76561198046896670,"connected_time":5389000000000,"state":"active","ping":55},{"user_id":233,"name":"silly jester","steam_id":76561198079609974,"connected_time":6368000000000,"state":"active","ping":85},{"user_id":292,"name":"Wso1123","steam_id":76561198048040111,"connected_time":848000000000,"state":"active","ping":56},{"user_id":287,"name":"mudunit","steam_id":76561198811544015,"connected_time":969000000000,"state":"active","ping":54}]},{"server_id":406,"name":"Uncletopia | Seattle | 3 | Stopwatch","name_short":"sea-3","host":"sea-1.us.uncletopia.com","port":27035,"enabled":true,"region":"us-west","cc":"us","latitude":47.608013,"longitude":-122.33517,"reserved":0,"last_update":"0001-01-01T00:00:00Z","name_a2s":"Uncletopia | Seattle | 3 | Stopwatch","protocol":17,"map":"workshop/koth_product_final.ugc454272353","folder":"tf","game":"Team Fortress","app_id":440,"player_count":1,"max_players":24,"Bots":0,"server_type":"Dedicated","server_os":"Linux","password":true,"vac":true,"version":"7961495","steam_id":85568392924515217,"keywords":["cp","nocrits","nodmgspread","uncletopia"],"game_id":440,"stv_port":27036,"stv_name":"Uncletopia | Seattle | 3 | Stopwatch | STV","players":[{"user_id":21,"name":"StrayGuitarist","steam_id":76561198091315714,"connected_time":3171000000000,"state":"active","ping":54}]},{"server_id":17,"name":"Uncletopia | San Francisco | 1 | All Maps","name_short":"sfo-1","host":"sfo-1.us.uncletopia.com","port":27015,"enabled":true,"region":"us-west","cc":"us","latitude":37.77397,"longitude":-122.4313,"reserved":0,"last_update":"0001-01-01T00:00:00Z","name_a2s":"Uncletopia | San Francisco | 1 | All Maps","protocol":17,"map":"pl_borneo","folder":"tf","game":"Team Fortress","app_id":440,"player_count":22,"max_players":24,"Bots":0,"server_type":"Dedicated","server_os":"Linux","password":true,"vac":true,"version":"7961495","steam_id":85568392924469999,"keywords":["nocrits","nodmgspread","payload","uncletopia"],"game_id":440,"stv_port":27016,"stv_name":"Uncletopia | San Francisco | 1 | All Maps | STV","players":[{"user_id":309,"name":"Stapler","steam_id":76561198099295077,"connected_time":891000000000,"state":"active","ping":46},{"user_id":315,"name":"MayKaye","steam_id":76561199016092265,"connected_time":318000000000,"state":"active","ping":69},{"user_id":316,"name":"Howard","steam_id":76561198198900365,"connected_time":313000000000,"state":"active","ping":56},{"user_id":268,"name":"ORANGE","steam_id":76561198000401769,"connected_time":4226000000000,"state":"active","ping":74},{"user_id":314,"name":"Sage of Nothing","steam_id":76561199196591062,"connected_time":365000000000,"state":"active","ping":69},{"user_id":317,"name":"Lore","steam_id":76561198098407538,"connected_time":268000000000,"state":"active","ping":99},{"user_id":293,"name":"nae nae goblin68","steam_id":76561199115259028,"connected_time":1803000000000,"state":"active","ping":80},{"user_id":304,"name":"Dabois","steam_id":76561199147193419,"connected_time":1425000000000,"state":"active","ping":72},{"user_id":324,"name":"FI LO","steam_id":76561198976530881,"connected_time":75000000000,"state":"active","ping":44},{"user_id":292,"name":"Delta","steam_id":76561198021957971,"connected_time":1841000000000,"state":"active","ping":56},{"user_id":323,"name":"Soulja Boy","steam_id":76561198066091050,"connected_time":90000000000,"state":"active","ping":60},{"user_id":295,"name":"level 7 firemancer","steam_id":76561198209571677,"connected_time":1769000000000,"state":"active","ping":103},{"user_id":277,"name":"Catherine","steam_id":76561198125233120,"connected_time":3756000000000,"state":"active","ping":48},{"user_id":318,"name":"intek","steam_id":76561198052705291,"connected_time":256000000000,"state":"active","ping":99},{"user_id":296,"name":"HeHedron","steam_id":76561199199667164,"connected_time":1761000000000,"state":"active","ping":77},{"user_id":311,"name":"Spaceman","steam_id":76561198349305249,"connected_time":756000000000,"state":"active","ping":83},{"user_id":301,"name":"Higuma","steam_id":76561198375229012,"connected_time":1503000000000,"state":"active","ping":58},{"user_id":306,"name":"bcizzo","steam_id":76561197994399953,"connected_time":1249000000000,"state":"active","ping":51},{"user_id":298,"name":"R5-D4","steam_id":76561198025196439,"connected_time":1720000000000,"state":"active","ping":69},{"user_id":257,"name":"Diesel","steam_id":76561198448815852,"connected_time":5222000000000,"state":"active","ping":63},{"user_id":320,"name":"yolginmo","steam_id":76561198157985901,"connected_time":133000000000,"state":"active","ping":69},{"user_id":321,"name":"TwoBit","steam_id":76561198062437559,"connected_time":129000000000,"state":"active","ping":140}]},{"server_id":18,"name":"Uncletopia | San Francisco | 2 | All Maps","name_short":"sfo-2","host":"sfo-1.us.uncletopia.com","port":27025,"enabled":true,"region":"us-west","cc":"us","latitude":37.77397,"longitude":-122.4313,"reserved":0,"last_update":"0001-01-01T00:00:00Z","name_a2s":"Uncletopia | San Francisco | 2 | All Maps","protocol":17,"map":"cp_powerhouse","folder":"tf","game":"Team Fortress","app_id":440,"player_count":24,"max_players":24,"Bots":0,"server_type":"Dedicated","server_os":"Linux","password":true,"vac":true,"version":"7961495","steam_id":85568392924470000,"keywords":["cp","nocrits","nodmgspread","uncletopia"],"game_id":440,"stv_port":27026,"stv_name":"Uncletopia | San Francisco | 2 | All Maps | STV","players":[{"user_id":309,"name":"MERCHANT","steam_id":76561198210010549,"connected_time":1911000000000,"state":"active","ping":98},{"user_id":321,"name":"Ninjalion245","steam_id":76561198376605350,"connected_time":867000000000,"state":"active","ping":154},{"user_id":326,"name":"RedRam","steam_id":76561198376857682,"connected_time":770000000000,"state":"active","ping":53},{"user_id":330,"name":"Frogninja","steam_id":76561198051418374,"connected_time":275000000000,"state":"active","ping":71},{"user_id":323,"name":"Ajax","steam_id":76561198071310833,"connected_time":783000000000,"state":"active","ping":83},{"user_id":260,"name":"Blake","steam_id":76561198884871311,"connected_time":4766000000000,"state":"active","ping":89},{"user_id":331,"name":"Wallewii‚Ñ¢","steam_id":76561198312178063,"connected_time":274000000000,"state":"active","ping":54},{"user_id":282,"name":"Snorflex","steam_id":76561198141862965,"connected_time":3032000000000,"state":"active","ping":44},{"user_id":280,"name":"Lavalace","steam_id":76561198073757592,"connected_time":3515000000000,"state":"active","ping":79},{"user_id":285,"name":"SkywellGames","steam_id":76561198058851234,"connected_time":2946000000000,"state":"active","ping":84},{"user_id":312,"name":"copper","steam_id":76561198146250533,"connected_time":1789000000000,"state":"active","ping":52},{"user_id":329,"name":"St. Michael","steam_id":76561198037611052,"connected_time":369000000000,"state":"active","ping":83},{"user_id":287,"name":"NASA PEEPO","steam_id":76561198024982267,"connected_time":2892000000000,"state":"active","ping":56},{"user_id":322,"name":"vvitch","steam_id":76561198279661941,"connected_time":844000000000,"state":"active","ping":53},{"user_id":279,"name":"Culprit Shy","steam_id":76561198206506481,"connected_time":3648000000000,"state":"active","ping":44},{"user_id":324,"name":"HuckleBerrySpinn","steam_id":76561198125651806,"connected_time":780000000000,"state":"active","ping":64},{"user_id":294,"name":"yahweh","steam_id":76561198347225801,"connected_time":2381000000000,"state":"active","ping":73},{"user_id":267,"name":"Slylonewolf47","steam_id":76561198866163330,"connected_time":4531000000000,"state":"active","ping":52},{"user_id":325,"name":"EpicSurfer12","steam_id":76561198827103794,"connected_time":779000000000,"state":"active","ping":69},{"user_id":328,"name":"Sir Nope (TSS)","steam_id":76561198035935649,"connected_time":398000000000,"state":"active","ping":69},{"user_id":281,"name":"Giga","steam_id":76561198057351539,"connected_time":3509000000000,"state":"active","ping":73},{"user_id":319,"name":"A mach one helicopter","steam_id":76561199093882521,"connected_time":1268000000000,"state":"active","ping":62},{"user_id":332,"name":"Sinn","steam_id":76561199013434543,"connected_time":83000000000,"state":"active","ping":60},{"user_id":305,"name":"Blanke","steam_id":76561198064100364,"connected_time":2098000000000,"state":"active","ping":112}]},{"server_id":19,"name":"Uncletopia | San Francisco | 3 | Stopwatch","name_short":"sfo-3","host":"sfo-1.us.uncletopia.com","port":27035,"enabled":true,"region":"us-west","cc":"us","latitude":37.77397,"longitude":-122.4313,"reserved":0,"last_update":"0001-01-01T00:00:00Z","name_a2s":"Uncletopia | San Francisco | 3 | Stopwatch","protocol":17,"map":"cp_snakewater_final1","folder":"tf","game":"Team Fortress","app_id":440,"player_count":2,"max_players":24,"Bots":0,"server_type":"Dedicated","server_os":"Linux","password":true,"vac":true,"version":"7961495","steam_id":85568392924742824,"keywords":["cp","nocrits","nodmgspread","uncletopia"],"game_id":440,"stv_port":27036,"stv_name":"Uncletopia | San Francisco | 3 | Stopwatch | STV","players":[{"user_id":199,"name":"ZOOM","steam_id":76561198968058652,"connected_time":449000000000,"state":"active","ping":66},{"user_id":196,"name":"bobletoob","steam_id":76561199184464900,"connected_time":1793000000000,"state":"active","ping":74}]},{"server_id":20,"name":"Uncletopia | San Francisco | 4 | Community","name_short":"sfo-4","host":"sfo-1.us.uncletopia.com","port":27045,"enabled":true,"region":"us-west","cc":"us","latitude":37.77397,"longitude":-122.4313,"reserved":0,"last_update":"0001-01-01T00:00:00Z","name_a2s":"Uncletopia | San Francisco | 4 | Community","protocol":17,"map":"cp_snakewater_final1","folder":"tf","game":"Team Fortress","app_id":440,"player_count":0,"max_players":24,"Bots":0,"server_type":"Dedicated","server_os":"Linux","password":true,"vac":true,"version":"7961495","steam_id":85568392924742826,"keywords":["cp","nocrits","nodmgspread","uncletopia"],"game_id":440,"stv_port":27046,"stv_name":"Uncletopia | San Francisco | 4 | Community | STV","players":null},{"server_id":141,"name":"Uncletopia | Sydney | 1 | All Maps","name_short":"syd-1","host":"syd-1.au.uncletopia.com","port":27015,"enabled":true,"region":"au","cc":"au","latitude":-33.865143,"longitude":151.2099,"reserved":0,"last_update":"0001-01-01T00:00:00Z","name_a2s":"Uncletopia | Sydney | 1 | All Maps","protocol":17,"map":"pl_upward","folder":"tf","game":"Team Fortress","app_id":440,"player_count":25,"max_players":24,"Bots":0,"server_type":"Dedicated","server_os":"Linux","password":true,"vac":true,"version":"7961495","steam_id":85568392924470001,"keywords":["nocrits","nodmgspread","payload","uncletopia"],"game_id":440,"stv_port":27016,"stv_name":"Uncletopia | Sydney | 1 | All Maps | STV","players":[{"user_id":85,"name":"Rodan","steam_id":76561198038401873,"connected_time":960000000000,"state":"active","ping":88},{"user_id":70,"name":"whiteshaq","steam_id":76561198131988811,"connected_time":2425000000000,"state":"active","ping":79},{"user_id":91,"name":"Zeppy","steam_id":76561198074766231,"connected_time":123000000000,"state":"active","ping":69},{"user_id":92,"name":"Noid","steam_id":76561198045934965,"connected_time":0,"state":"spawning","ping":18},{"user_id":87,"name":"Trotter","steam_id":76561198343965263,"connected_time":935000000000,"state":"active","ping":62},{"user_id":59,"name":"FlashyChips","steam_id":76561198071342589,"connected_time":2897000000000,"state":"active","ping":58},{"user_id":75,"name":"lofty","steam_id":76561198380588357,"connected_time":2028000000000,"state":"active","ping":60},{"user_id":19,"name":"Galaxywee","steam_id":76561198257501357,"connected_time":5907000000000,"state":"active","ping":152},{"user_id":47,"name":"Qwertles","steam_id":76561198033779273,"connected_time":3587000000000,"state":"active","ping":54},{"user_id":83,"name":"MrSpooder","steam_id":76561199029919742,"connected_time":1105000000000,"state":"active","ping":44},{"user_id":41,"name":"Jiggles","steam_id":76561198043939682,"connected_time":3999000000000,"state":"active","ping":42},{"user_id":34,"name":"Honey I hit the kids","steam_id":76561198318135663,"connected_time":4473000000000,"state":"active","ping":59},{"user_id":86,"name":"Glockenspe (She/Her)","steam_id":76561199184115241,"connected_time":957000000000,"state":"active","ping":54},{"user_id":73,"name":"Rappers","steam_id":76561198199847073,"connected_time":2199000000000,"state":"active","ping":60},{"user_id":48,"name":"Svet","steam_id":76561198152210509,"connected_time":3571000000000,"state":"active","ping":42},{"user_id":77,"name":"Witchus Bitchus","steam_id":76561198068655726,"connected_time":1534000000000,"state":"active","ping":108},{"user_id":93,"name":"pissmaster","steam_id":76561197990537324,"connected_time":0,"state":"spawning","ping":0},{"user_id":76,"name":"Wario","steam_id":76561198188708730,"connected_time":1812000000000,"state":"active","ping":61},{"user_id":63,"name":"kayajam","steam_id":76561198828481105,"connected_time":2765000000000,"state":"active","ping":129},{"user_id":60,"name":"HostileMustache","steam_id":76561198152173068,"connected_time":2888000000000,"state":"active","ping":55},{"user_id":64,"name":"Hedlosa","steam_id":76561198170475071,"connected_time":2744000000000,"state":"active","ping":54},{"user_id":65,"name":"Theducktube","steam_id":76561198137265224,"connected_time":2732000000000,"state":"active","ping":171},{"user_id":71,"name":"Pompadouraus","steam_id":76561198327530525,"connected_time":2336000000000,"state":"active","ping":75},{"user_id":78,"name":"Owlenstein‚Ñ¢","steam_id":76561198093983826,"connected_time":1348000000000,"state":"active","ping":118},{"user_id":79,"name":"Pickled Cow","steam_id":76561198292517991,"connected_time":1348000000000,"state":"active","ping":44}]},{"server_id":123,"name":"Uncletopia | Sydney | 2 | All Maps","name_short":"syd-2","host":"syd-1.au.uncletopia.com","port":27025,"enabled":true,"region":"au","cc":"au","latitude":-33.865143,"longitude":151.2099,"reserved":0,"last_update":"0001-01-01T00:00:00Z","name_a2s":"Uncletopia | Sydney | 2 | All Maps","protocol":17,"map":"koth_viaduct","folder":"tf","game":"Team Fortress","app_id":440,"player_count":0,"max_players":24,"Bots":0,"server_type":"Dedicated","server_os":"Linux","password":true,"vac":true,"version":"7961495","steam_id":85568392924470002,"keywords":["cp","nocrits","nodmgspread","uncletopia"],"game_id":440,"stv_port":27026,"stv_name":"Uncletopia | Sydney | 2 | All Maps | STV","players":null},{"server_id":395,"name":"Uncletopia | Sydney | 3 | All Maps","name_short":"syd-3","host":"syd-1.au.uncletopia.com","port":27035,"enabled":true,"region":"au","cc":"au","latitude":-33.865143,"longitude":151.2099,"reserved":0,"last_update":"0001-01-01T00:00:00Z","name_a2s":"Uncletopia | Sydney | 3 | All Maps","protocol":17,"map":"pl_borneo","folder":"tf","game":"Team Fortress","app_id":440,"player_count":0,"max_players":24,"Bots":0,"server_type":"Dedicated","server_os":"Linux","password":true,"vac":true,"version":"7961495","steam_id":85568392925194467,"keywords":["nocrits","nodmgspread","payload","uncletopia"],"game_id":440,"stv_port":27036,"stv_name":"Uncletopia | Sydney | 3 | All Maps | STV","players":null},{"server_id":396,"name":"Uncletopia | Sydney | 4 | All Maps","name_short":"syd-4","host":"syd-1.au.uncletopia.com","port":27045,"enabled":true,"region":"au","cc":"au","latitude":-33.865143,"longitude":151.2099,"reserved":0,"last_update":"0001-01-01T00:00:00Z","name_a2s":"Uncletopia | Sydney | 4 | All Maps","protocol":17,"map":"pl_barnblitz","folder":"tf","game":"Team Fortress","app_id":440,"player_count":0,"max_players":24,"Bots":0,"server_type":"Dedicated","server_os":"Linux","password":true,"vac":true,"version":"7961495","steam_id":85568392925397958,"keywords":["nocrits","nodmgspread","payload","uncletopia"],"game_id":440,"stv_port":27046,"stv_name":"Uncletopia | Sydney | 4 | All Maps | STV","players":null},{"server_id":58,"name":"Uncletopia | Sydney | 5 | Stopwatch Beta","name_short":"syd-5","host":"syd-1.au.uncletopia.com","port":27055,"enabled":true,"region":"au","cc":"au","latitude":-33.865143,"longitude":151.2099,"reserved":0,"last_update":"0001-01-01T00:00:00Z","name_a2s":"Uncletopia | Sydney | 5 | Stopwatch Beta","protocol":17,"map":"cp_snakewater_final1","folder":"tf","game":"Team Fortress","app_id":440,"player_count":0,"max_players":24,"Bots":0,"server_type":"Dedicated","server_os":"Linux","password":true,"vac":true,"version":"7961495","steam_id":85568392925397959,"keywords":["cp","nocrits","nodmgspread","uncletopia"],"game_id":440,"stv_port":27056,"stv_name":"Uncletopia | Sydney | 5 | Stopwatch Beta | STV","players":null},{"server_id":59,"name":"Uncletopia | Sydney | 6 | Community","name_short":"syd-6","host":"syd-1.au.uncletopia.com","port":27065,"enabled":true,"region":"au","cc":"au","latitude":-33.865143,"longitude":151.2099,"reserved":0,"last_update":"0001-01-01T00:00:00Z","name_a2s":"Uncletopia | Sydney | 6 | Community","protocol":17,"map":"workshop/cp_bruhstbowl_b6.ugc2878604990","folder":"tf","game":"Team Fortress","app_id":440,"player_count":0,"max_players":24,"Bots":0,"server_type":"Dedicated","server_os":"Linux","password":true,"vac":true,"version":"7961495","steam_id":85568392925397960,"keywords":["cp","nocrits","nodmgspread","uncletopia"],"game_id":440,"stv_port":27066,"stv_name":"Uncletopia | Sydney | 6 | Community | STV","players":null},{"server_id":49,"name":"Uncletopia | Warsaw | 1 | All Maps","name_short":"waw-1","host":"waw-1.pl.uncletopia.com","port":27015,"enabled":true,"region":"eu","cc":"pl","latitude":52.2297,"longitude":21.017532,"reserved":0,"last_update":"0001-01-01T00:00:00Z","name_a2s":"Uncletopia | Warsaw | 1 | All Maps","protocol":17,"map":"pl_upward","folder":"tf","game":"Team Fortress","app_id":440,"player_count":0,"max_players":24,"Bots":0,"server_type":"Dedicated","server_os":"Linux","password":true,"vac":true,"version":"7961495","steam_id":85568392925397850,"keywords":["nocrits","nodmgspread","payload","uncletopia"],"game_id":440,"stv_port":27016,"stv_name":"Uncletopia | Warsaw | 1 | All Maps | STV","players":null},{"server_id":50,"name":"Uncletopia | Warsaw | 2 | All Maps","name_short":"waw-2","host":"waw-1.pl.uncletopia.com","port":27025,"enabled":true,"region":"eu","cc":"pl","latitude":52.2297,"longitude":21.017532,"reserved":0,"last_update":"0001-01-01T00:00:00Z","name_a2s":"Uncletopia | Warsaw | 2 | All Maps","protocol":17,"map":"pl_badwater","folder":"tf","game":"Team Fortress","app_id":440,"player_count":0,"max_players":24,"Bots":0,"server_type":"Dedicated","server_os":"Linux","password":true,"vac":true,"version":"7961495","steam_id":85568392925397851,"keywords":["nocrits","nodmgspread","payload","uncletopia"],"game_id":440,"stv_port":27026,"stv_name":"Uncletopia | Warsaw | 2 | All Maps | STV","players":null},{"server_id":51,"name":"Uncletopia | Warsaw | 3 | All Maps","name_short":"waw-3","host":"waw-1.pl.uncletopia.com","port":27035,"enabled":true,"region":"eu","cc":"pl","latitude":52.2297,"longitude":21.017532,"reserved":0,"last_update":"0001-01-01T00:00:00Z","name_a2s":"Uncletopia | Warsaw | 3 | All Maps","protocol":17,"map":"cp_process_final","folder":"tf","game":"Team Fortress","app_id":440,"player_count":0,"max_players":24,"Bots":0,"server_type":"Dedicated","server_os":"Linux","password":true,"vac":true,"version":"7961495","steam_id":85568392925397852,"keywords":["cp","nocrits","nodmgspread","uncletopia"],"game_id":440,"stv_port":27036,"stv_name":"Uncletopia | Warsaw | 3 | All Maps | STV","players":null},{"server_id":52,"name":"Uncletopia | Warsaw | 4 | All Maps","name_short":"waw-4","host":"waw-1.pl.uncletopia.com","port":27045,"enabled":true,"region":"eu","cc":"pl","latitude":52.2297,"longitude":21.017532,"reserved":0,"last_update":"0001-01-01T00:00:00Z","name_a2s":"Uncletopia | Warsaw | 4 | All Maps","protocol":17,"map":"pl_badwater","folder":"tf","game":"Team Fortress","app_id":440,"player_count":0,"max_players":24,"Bots":0,"server_type":"Dedicated","server_os":"Linux","password":true,"vac":true,"version":"7961495","steam_id":85568392925397853,"keywords":["nocrits","nodmgspread","payload","uncletopia"],"game_id":440,"stv_port":27046,"stv_name":"Uncletopia | Warsaw | 4 | All Maps | STV","players":null},{"server_id":53,"name":"Uncletopia | Warsaw | 5 | Stopwatch Beta","name_short":"waw-5","host":"waw-1.pl.uncletopia.com","port":27055,"enabled":true,"region":"eu","cc":"pl","latitude":52.2297,"longitude":21.017532,"reserved":0,"last_update":"0001-01-01T00:00:00Z","name_a2s":"Uncletopia | Warsaw | 5 | Stopwatch Beta","protocol":17,"map":"pl_snowycoast","folder":"tf","game":"Team Fortress","app_id":440,"player_count":0,"max_players":24,"Bots":0,"server_type":"Dedicated","server_os":"Linux","password":true,"vac":true,"version":"7961495","steam_id":85568392925397854,"keywords":["nocrits","nodmgspread","payload","uncletopia"],"game_id":440,"stv_port":27056,"stv_name":"Uncletopia | Warsaw | 5 | Stopwatch Beta | STV","players":null},{"server_id":54,"name":"Uncletopia | Warsaw | 6 | Community","name_short":"waw-6","host":"waw-1.pl.uncletopia.com","port":27065,"enabled":true,"region":"eu","cc":"pl","latitude":52.2297,"longitude":21.017532,"reserved":0,"last_update":"0001-01-01T00:00:00Z","name_a2s":"Uncletopia | Warsaw | 6 | Community","protocol":17,"map":"pl_borneo","folder":"tf","game":"Team Fortress","app_id":440,"player_count":0,"max_players":24,"Bots":0,"server_type":"Dedicated","server_os":"Linux","password":true,"vac":true,"version":"7961495","steam_id":85568392925397856,"keywords":["nocrits","nodmgspread","payload","uncletopia"],"game_id":440,"stv_port":27066,"stv_name":"Uncletopia | Warsaw | 6 | Community | STV","players":null}]}