{"status":true,"message":"","result":[{"server_id":9,"name":"Uncletopia | Atlanta | 1 | All Maps","name_short":"atl-1","host":"atl-1.us.uncletopia.com","port":27015,"enabled":true,"region":"us-east","cc":"us","latitude":33.753746,"longitude":-84.38633,"reserved":0,"last_update":"0001-01-01T00:00:00Z","name_a2s":"Uncletopia | Atlanta | 1 | All Maps","protocol":17,"map":"pl_badwater","folder":"tf","game":"Team Fortress","app_id":440,"player_count":19,"max_players":24,"Bots":0,"server_type":"Dedicated","server_os":"Linux","password":true,"vac":true,"version":"7882260","steam_id":85568392924469982,"keywords":["nocrits","nodmgspread","payload","uncletopia"],"game_id":440,"stv_port":27016,"stv_name":"Uncletopia | Atlanta | 1 | All Maps | STV","players":[{"user_id":706,"name":"Fever Dreams","steam_id":76561198116614620,"connected_time":264000000000,"state":"active","ping":89},{"user_id":707,"name":"Denzel McFlurry","steam_id":76561199231296521,"connected_time":237000000000,"state":"active","ping":90},{"user_id":715,"name":"nomad","steam_id":76561197998740399,"connected_time":40000000000,"state":"active","ping":91},{"user_id":606,"name":"Hydrochlorination","steam_id":76561198369241423,"connected_time":2891000000000,"state":"active","ping":74},{"user_id":705,"name":"1TheExterminator","steam_id":76561198972879727,"connected_time":382000000000,"state":"active","ping":89},{"user_id":694,"name":"Mobius","steam_id":76561199121973450,"connected_time":802000000000,"state":"active","ping":81},{"user_id":709,"name":"StarManMatt","steam_id":76561198125513574,"connected_time":156000000000,"state":"active","ping":106},{"user_id":314,"name":"Tree45","steam_id":76561198143698408,"connected_time":9595000000000,"state":"active","ping":100},{"user_id":710,"name":"LeeMFDagger","steam_id":76561198177572257,"connected_time":127000000000,"state":"active","ping":125},{"user_id":674,"name":"not an A319","steam_id":76561198872440595,"connected_time":1244000000000,"state":"active","ping":101},{"user_id":669,"name":"The Sydney Sleeper Itself","steam_id":76561198180251763,"connected_time":1350000000000,"state":"active","ping":92},{"user_id":711,"name":"–í–∞—Å—è —Ñ–æ–Ω –ë–∏—Å–º–∞—Ä–∫","steam_id":76561199068947724,"connected_time":121000000000,"state":"active","ping":230},{"user_id":712,"name":"PaD_Ding","steam_id":76561198831202965,"connected_time":91000000000,"state":"spawning","ping":307},{"user_id":713,"name":"sawrik","steam_id":76561198018808213,"connected_time":60000000000,"state":"active","ping":105},{"user_id":537,"name":"TOYSIPO2","steam_id":76561198042183304,"connected_time":5397000000000,"state":"active","ping":88},{"user_id":714,"name":"Sophie","steam_id":76561198170408057,"connected_time":56000000000,"state":"active","ping":78},{"user_id":716,"name":"Wan Shi Tong","steam_id":76561198076441225,"connected_time":26000000000,"state":"active","ping":88},{"user_id":704,"name":"Cubicle Gestapo","steam_id":76561198066671254,"connected_time":391000000000,"state":"active","ping":104},{"user_id":691,"name":"Master Maoh","steam_id":76561198080961606,"connected_time":920000000000,"state":"active","ping":109}]},{"server_id":104,"name":"Uncletopia | Atlanta | 2 | All Maps","name_short":"atl-2","host":"atl-1.us.uncletopia.com","port":27025,"enabled":true,"region":"us-east","cc":"us","latitude":33.753746,"longitude":-84.38633,"reserved":0,"last_update":"0001-01-01T00:00:00Z","name_a2s":"Uncletopia | Atlanta | 2 | All Maps","protocol":17,"map":"pl_frontier_final","folder":"tf","game":"Team Fortress","app_id":440,"player_count":3,"max_players":24,"Bots":0,"server_type":"Dedicated","server_os":"Linux","password":true,"vac":true,"version":"7882260","steam_id":85568392924469983,"keywords":["ctf","nocrits","nodmgspread","uncletopia"],"game_id":440,"stv_port":27026,"stv_name":"Uncletopia | Atlanta | 2 | All Maps | STV","players":[{"user_id":490,"name":"Zen56","steam_id":76561198074554894,"connected_time":180000000000,"state":"spawning","ping":147},{"user_id":484,"name":"Hope","steam_id":76561199201900779,"connected_time":445000000000,"state":"spawning","ping":106}]},{"server_id":400,"name":"Uncletopia | Atlanta | 3 | Community","name_short":"atl-3","host":"atl-1.us.uncletopia.com","port":27035,"enabled":true,"region":"us-east","cc":"us","latitude":33.753746,"longitude":-84.38633,"reserved":0,"last_update":"0001-01-01T00:00:00Z","name_a2s":"Uncletopia | Atlanta | 3 | Community","protocol":17,"map":"workshop/pl_fifthcurve_rc1.ugc648227046","folder":"tf","game":"Team Fortress","app_id":440,"player_count":0,"max_players":24,"Bots":0,"server_type":"Dedicated","server_os":"Linux","password":true,"vac":true,"version":"7882260","steam_id":85568392924515187,"keywords":["nocrits","nodmgspread","payload","uncletopia"],"game_id":440,"stv_port":27036,"stv_name":"Uncletopia | Atlanta | 3 | Community | STV","players":null},{"server_id":401,"name":"Uncletopia | Atlanta | 4 | No Payload","name_short":"atl-4","host":"atl-1.us.uncletopia.com","port":27045,"enabled":true,"region":"us-east","cc":"us","latitude":33.753746,"longitude":-84.38633,"reserved":0,"last_update":"0001-01-01T00:00:00Z","name_a2s":"","protocol":0,"map":"","folder":"","game":"","app_id":0,"player_count":0,"max_players":0,"Bots":0,"server_type":"","server_os":"","password":false,"vac":false,"version":"","steam_id":0,"keywords":null,"game_id":0,"stv_port":0,"stv_name":"","players":null},{"server_id":2,"name":"Uncletopia | Chicago | 1 | All Maps","name_short":"chi-1","host":"chi-1.us.uncletopia.com","port":27015,"enabled":true,"region":"us-central","cc":"us","latitude":41.881832,"longitude":-87.62318,"reserved":0,"last_update":"0001-01-01T00:00:00Z","name_a2s":"Uncletopia | Chicago | 1 | All Maps","protocol":17,"map":"cp_gullywash_final1","folder":"tf","game":"Team Fortress","app_id":440,"player_count":24,"max_players":24,"Bots":0,"server_type":"Dedicated","server_os":"Linux","password":true,"vac":true,"version":"7882260","steam_id":85568392924469984,"keywords":["cp","nocrits","nodmgspread","uncletopia"],"game_id":440,"stv_port":27016,"stv_name":"Uncletopia | Chicago | 1 | All Maps | STV","players":[{"user_id":646,"name":"Luna","steam_id":76561198082944789,"connected_time":595000000000,"state":"active","ping":89},{"user_id":649,"name":"sithreis","steam_id":76561198000564263,"connected_time":129000000000,"state":"active","ping":74},{"user_id":600,"name":"Frisbee","steam_id":76561197962808987,"connected_time":3481000000000,"state":"active","ping":62},{"user_id":622,"name":"Anime Racist","steam_id":76561198100775015,"connected_time":1734000000000,"state":"active","ping":102},{"user_id":641,"name":"STILLZ","steam_id":76561198131892406,"connected_time":1145000000000,"state":"active","ping":85},{"user_id":623,"name":"lost in spaaaaace","steam_id":76561199085974120,"connected_time":1701000000000,"state":"active","ping":75},{"user_id":644,"name":"Live","steam_id":76561198003194656,"connected_time":954000000000,"state":"active","ping":72},{"user_id":620,"name":"Kng","steam_id":76561198993248203,"connected_time":1752000000000,"state":"active","ping":88},{"user_id":642,"name":"Kevin(real)","steam_id":76561198031748642,"connected_time":1062000000000,"state":"active","ping":84},{"user_id":566,"name":"Astoriae!","steam_id":76561199090168858,"connected_time":6810000000000,"state":"active","ping":68},{"user_id":648,"name":"wise","steam_id":76561198030066204,"connected_time":243000000000,"state":"active","ping":56},{"user_id":624,"name":"Protato","steam_id":76561198061182563,"connected_time":1686000000000,"state":"active","ping":77},{"user_id":625,"name":"the spider is real","steam_id":76561198076693017,"connected_time":1669000000000,"state":"active","ping":113},{"user_id":564,"name":"Evan","steam_id":76561197972292926,"connected_time":6893000000000,"state":"active","ping":75},{"user_id":595,"name":"BB Lorexav","steam_id":76561198207565988,"connected_time":3896000000000,"state":"active","ping":81},{"user_id":630,"name":"Denial","steam_id":76561198074527285,"connected_time":1540000000000,"state":"active","ping":85},{"user_id":602,"name":"Plinko","steam_id":76561197968530638,"connected_time":3296000000000,"state":"active","ping":60},{"user_id":650,"name":"blood-filled sac","steam_id":76561198010019214,"connected_time":123000000000,"state":"active","ping":59},{"user_id":629,"name":"sheep gf (real)","steam_id":76561198068189558,"connected_time":1582000000000,"state":"active","ping":103},{"user_id":636,"name":"Thau'sau","steam_id":76561198046611923,"connected_time":1463000000000,"state":"active","ping":83},{"user_id":617,"name":"spiritual surcharge","steam_id":76561198164460801,"connected_time":1843000000000,"state":"active","ping":76},{"user_id":604,"name":"xLeoparrd","steam_id":76561198940657194,"connected_time":3258000000000,"state":"active","ping":79},{"user_id":639,"name":"kree","steam_id":76561197979960008,"connected_time":1314000000000,"state":"active","ping":52},{"user_id":651,"name":"lanoc sucks","steam_id":76561198042444734,"connected_time":112000000000,"state":"active","ping":67}]},{"server_id":106,"name":"Uncletopia | Chicago | 2 | All Maps","name_short":"chi-2","host":"chi-1.us.uncletopia.com","port":27025,"enabled":true,"region":"us-central","cc":"us","latitude":41.881832,"longitude":-87.62318,"reserved":0,"last_update":"0001-01-01T00:00:00Z","name_a2s":"Uncletopia | Chicago | 2 | All Maps","protocol":17,"map":"pl_thundermountain","folder":"tf","game":"Team Fortress","app_id":440,"player_count":24,"max_players":24,"Bots":0,"server_type":"Dedicated","server_os":"Linux","password":true,"vac":true,"version":"7882260","steam_id":85568392924469985,"keywords":["nocrits","nodmgspread","payload","uncletopia"],"game_id":440,"stv_port":27026,"stv_name":"Uncletopia | Chicago | 2 | All Maps | STV","players":[{"user_id":585,"name":"_Lusty_","steam_id":76561198876948142,"connected_time":2728000000000,"state":"active","ping":65},{"user_id":586,"name":"shnowshner","steam_id":76561198066450438,"connected_time":2695000000000,"state":"active","ping":88},{"user_id":595,"name":"normal","steam_id":76561198133712839,"connected_time":2444000000000,"state":"active","ping":71},{"user_id":621,"name":"Raine","steam_id":76561198098860903,"connected_time":602000000000,"state":"active","ping":156},{"user_id":622,"name":"Tanuki with a gun.","steam_id":76561198027487285,"connected_time":598000000000,"state":"active","ping":118},{"user_id":618,"name":"ZOOMERGROOMER69","steam_id":76561198027102212,"connected_time":714000000000,"state":"active","ping":68},{"user_id":628,"name":"Medical Breakthrough","steam_id":76561198171718019,"connected_time":272000000000,"state":"active","ping":113},{"user_id":619,"name":"CockDick69","steam_id":76561198051882744,"connected_time":698000000000,"state":"active","ping":88},{"user_id":592,"name":"incompetentmedic","steam_id":76561199466073856,"connected_time":2494000000000,"state":"active","ping":60},{"user_id":611,"name":"$5 biggie bag","steam_id":76561198298310744,"connected_time":1344000000000,"state":"active","ping":69},{"user_id":627,"name":"BigOrca54","steam_id":76561198181360271,"connected_time":454000000000,"state":"active","ping":55},{"user_id":602,"name":"Missing Minus","steam_id":76561198120822928,"connected_time":2085000000000,"state":"active","ping":59},{"user_id":631,"name":"FUSION","steam_id":76561197972659738,"connected_time":72000000000,"state":"active","ping":52},{"user_id":620,"name":"Monochi","steam_id":76561198093093118,"connected_time":648000000000,"state":"active","ping":87},{"user_id":630,"name":"Dot.","steam_id":76561198149463984,"connected_time":142000000000,"state":"active","ping":50},{"user_id":607,"name":"thecal","steam_id":76561198307893384,"connected_time":1716000000000,"state":"active","ping":57},{"user_id":588,"name":"m yfrogs","steam_id":76561198371149432,"connected_time":2521000000000,"state":"active","ping":50},{"user_id":629,"name":"Ayylmao","steam_id":76561198104780147,"connected_time":229000000000,"state":"active","ping":45},{"user_id":625,"name":"frank","steam_id":76561198137777483,"connected_time":553000000000,"state":"active","ping":81},{"user_id":544,"name":"Poyo Boyo","steam_id":76561198010201227,"connected_time":5815000000000,"state":"active","ping":75},{"user_id":614,"name":"SourceMaster_","steam_id":76561198026829179,"connected_time":1284000000000,"state":"active","ping":46},{"user_id":626,"name":"Konnor","steam_id":76561199136300254,"connected_time":501000000000,"state":"active","ping":102},{"user_id":598,"name":"Medic Boyfriend","steam_id":76561198104086771,"connected_time":2351000000000,"state":"active","ping":98},{"user_id":615,"name":"mechanicvirus","steam_id":76561198038161480,"connected_time":1252000000000,"state":"active","ping":113}]},{"server_id":402,"name":"Uncletopia | Chicago | 3 | All Maps","name_short":"chi-3","host":"chi-1.us.uncletopia.com","port":27035,"enabled":true,"region":"us-central","cc":"us","latitude":41.881832,"longitude":-87.62318,"reserved":0,"last_update":"0001-01-01T00:00:00Z","name_a2s":"Uncletopia | Chicago | 3 | All Maps","protocol":17,"map":"pl_upward","folder":"tf","game":"Team Fortress","app_id":440,"player_count":22,"max_players":24,"Bots":0,"server_type":"Dedicated","server_os":"Linux","password":true,"vac":true,"version":"7882260","steam_id":85568392924515191,"keywords":["nocrits","nodmgspread","payload","uncletopia"],"game_id":440,"stv_port":27036,"stv_name":"Uncletopia | Chicago | 3 | All Maps | STV","players":[{"user_id":695,"name":"mechiimi ‚òÖ","steam_id":76561198321627268,"connected_time":3125000000000,"state":"active","ping":112},{"user_id":715,"name":"Knight Minson","steam_id":76561198091567396,"connected_time":1242000000000,"state":"active","ping":55},{"user_id":728,"name":"üíõMercyüíõ","steam_id":76561198147095572,"connected_time":52000000000,"state":"active","ping":59},{"user_id":719,"name":"PageBoiSkull","steam_id":76561198237353578,"connected_time":811000000000,"state":"active","ping":108},{"user_id":716,"name":"HOTA","steam_id":76561199002778841,"connected_time":841000000000,"state":"active","ping":84},{"user_id":727,"name":"CheeseCake488","steam_id":76561199407617942,"connected_time":678000000000,"state":"active","ping":185},{"user_id":683,"name":"freyja","steam_id":76561198079416036,"connected_time":4802000000000,"state":"active","ping":45},{"user_id":705,"name":"Model of a Modern Major General","steam_id":76561198237304364,"connected_time":2236000000000,"state":"active","ping":106},{"user_id":679,"name":"Begrip","steam_id":76561198091990094,"connected_time":5038000000000,"state":"active","ping":72},{"user_id":714,"name":"aleksei","steam_id":76561199061380038,"connected_time":1311000000000,"state":"active","ping":60},{"user_id":634,"name":"l4d2 marshall","steam_id":76561198042570322,"connected_time":6387000000000,"state":"active","ping":59},{"user_id":720,"name":"D4NMAR","steam_id":76561198056453091,"connected_time":801000000000,"state":"active","ping":49},{"user_id":730,"name":"rawgust","steam_id":76561198004523887,"connected_time":35000000000,"state":"active","ping":102},{"user_id":711,"name":"Chicken Soup","steam_id":76561197989268948,"connected_time":1936000000000,"state":"active","ping":78},{"user_id":708,"name":"Mr. Sandman","steam_id":76561198065870487,"connected_time":2159000000000,"state":"active","ping":53},{"user_id":688,"name":"pigfarmer.gov","steam_id":76561199071167548,"connected_time":4022000000000,"state":"active","ping":69},{"user_id":722,"name":"AFK BRB","steam_id":76561198104939612,"connected_time":760000000000,"state":"active","ping":56},{"user_id":723,"name":"feenman","steam_id":76561199383834799,"connected_time":745000000000,"state":"active","ping":97},{"user_id":693,"name":"ItalianStallion","steam_id":76561198026526810,"connected_time":3517000000000,"state":"active","ping":70},{"user_id":709,"name":"Fiendish Frog","steam_id":76561198029478821,"connected_time":2143000000000,"state":"active","ping":70},{"user_id":724,"name":"Jezzus","steam_id":76561199289676387,"connected_time":737000000000,"state":"active","ping":84},{"user_id":726,"name":"Jo","steam_id":76561198060447015,"connected_time":732000000000,"state":"active","ping":74}]},{"server_id":403,"name":"Uncletopia | Chicago | 4 | All Maps","name_short":"chi-4","host":"chi-1.us.uncletopia.com","port":27045,"enabled":true,"region":"us-central","cc":"us","latitude":41.881832,"longitude":-87.62318,"reserved":0,"last_update":"0001-01-01T00:00:00Z","name_a2s":"Uncletopia | Chicago | 4 | All Maps","protocol":17,"map":"pl_borneo","folder":"tf","game":"Team Fortress","app_id":440,"player_count":24,"max_players":24,"Bots":0,"server_type":"Dedicated","server_os":"Linux","password":true,"vac":true,"version":"7882260","steam_id":85568392924515193,"keywords":["nocrits","nodmgspread","payload","uncletopia"],"game_id":440,"stv_port":27046,"stv_name":"Uncletopia | Chicago | 4 | All Maps | STV","players":[{"user_id":477,"name":"mxgic","steam_id":76561198354656195,"connected_time":4122000000000,"state":"active","ping":128},{"user_id":512,"name":"Dusken","steam_id":76561198020696265,"connected_time":2438000000000,"state":"active","ping":61},{"user_id":528,"name":"MeatBall","steam_id":76561199055196261,"connected_time":454000000000,"state":"active","ping":65},{"user_id":538,"name":"June","steam_id":76561198211858204,"connected_time":114000000000,"state":"active","ping":119},{"user_id":529,"name":" ï‚Ä¢·¥•‚Ä¢ î the bear","steam_id":76561197989591976,"connected_time":447000000000,"state":"active","ping":75},{"user_id":517,"name":"paetho YT","steam_id":76561198152690003,"connected_time":2352000000000,"state":"active","ping":58},{"user_id":500,"name":"hashmap","steam_id":76561198043794014,"connected_time":3490000000000,"state":"active","ping":55},{"user_id":524,"name":"Jabawakai","steam_id":76561198088881254,"connected_time":1344000000000,"state":"active","ping":57},{"user_id":531,"name":"Viokik","steam_id":76561198408846602,"connected_time":386000000000,"state":"active","ping":65},{"user_id":485,"name":"C Papi","steam_id":76561198027779564,"connected_time":3973000000000,"state":"active","ping":54},{"user_id":532,"name":"totally not a pile of beans","steam_id":76561198119851931,"connected_time":345000000000,"state":"active","ping":83},{"user_id":505,"name":"Cooki","steam_id":76561198051705314,"connected_time":3072000000000,"state":"active","ping":116},{"user_id":527,"name":"MoonWolf","steam_id":76561198095735033,"connected_time":712000000000,"state":"active","ping":75},{"user_id":526,"name":"Der Krieger105","steam_id":76561197978384609,"connected_time":1220000000000,"state":"active","ping":85},{"user_id":533,"name":"Sarbanes-Oxley","steam_id":76561197975898479,"connected_time":329000000000,"state":"active","ping":75},{"user_id":519,"name":"Grand","steam_id":76561198290143399,"connected_time":2327000000000,"state":"active","ping":68},{"user_id":534,"name":"Daperlin (VGM.24)","steam_id":76561198091299113,"connected_time":309000000000,"state":"active","ping":90},{"user_id":520,"name":"xFactr","steam_id":76561198129007422,"connected_time":2321000000000,"state":"active","ping":59},{"user_id":502,"name":"NovaSc6ut","steam_id":76561198277163301,"connected_time":3341000000000,"state":"active","ping":63},{"user_id":494,"name":"TheGhostThatWas","steam_id":76561198055836483,"connected_time":3799000000000,"state":"active","ping":59},{"user_id":537,"name":"Also Known As Assteeth","steam_id":76561198049837377,"connected_time":190000000000,"state":"active","ping":53},{"user_id":508,"name":"Piyono","steam_id":76561197962188504,"connected_time":2783000000000,"state":"active","ping":70},{"user_id":521,"name":"Truffles","steam_id":76561198095868800,"connected_time":2206000000000,"state":"active","ping":79},{"user_id":525,"name":"ceres","steam_id":76561198291976960,"connected_time":1343000000000,"state":"active","ping":106}]},{"server_id":36,"name":"Uncletopia | Chicago | 5 | All Maps","name_short":"chi-5","host":"chi-2.us.uncletopia.com","port":27015,"enabled":true,"region":"us-central","cc":"us","latitude":41.881832,"longitude":-87.62318,"reserved":0,"last_update":"0001-01-01T00:00:00Z","name_a2s":"Uncletopia | Chicago | 5 | All Maps","protocol":17,"map":"pl_snowycoast","folder":"tf","game":"Team Fortress","app_id":440,"player_count":4,"max_players":24,"Bots":0,"server_type":"Dedicated","server_os":"Linux","password":true,"vac":true,"version":"7882260","steam_id":85568392924866362,"keywords":["nocrits","nodmgspread","payload","uncletopia"],"game_id":440,"stv_port":27016,"stv_name":"Uncletopia | Chicago | 5 | All Maps | STV","players":[{"user_id":633,"name":"boneboy88","steam_id":76561199231079499,"connected_time":350000000000,"state":"active","ping":76},{"user_id":634,"name":"Benis Gonzalez","steam_id":76561198799391259,"connected_time":303000000000,"state":"active","ping":115},{"user_id":626,"name":"Sgt. Satire","steam_id":76561198104193483,"connected_time":866000000000,"state":"active","ping":112},{"user_id":627,"name":"Dzhoshua","steam_id":76561198071915251,"connected_time":850000000000,"state":"active","ping":57}]},{"server_id":37,"name":"Uncletopia | Chicago | 6 | All Maps","name_short":"chi-6","host":"chi-2.us.uncletopia.com","port":27025,"enabled":true,"region":"us-central","cc":"us","latitude":41.881832,"longitude":-87.62318,"reserved":0,"last_update":"0001-01-01T00:00:00Z","name_a2s":"Uncletopia | Chicago | 6 | All Maps","protocol":17,"map":"pl_upward","folder":"tf","game":"Team Fortress","app_id":440,"player_count":22,"max_players":24,"Bots":0,"server_type":"Dedicated","server_os":"Linux","password":true,"vac":true,"version":"7882260","steam_id":85568392924866363,"keywords":["nocrits","nodmgspread","payload","uncletopia"],"game_id":440,"stv_port":27026,"stv_name":"Uncletopia | Chicago | 6 | All Maps | STV","players":[{"user_id":523,"name":"cyber.genius","steam_id":76561198034121017,"connected_time":3024000000000,"state":"active","ping":72},{"user_id":567,"name":"blitzkriiegi","steam_id":76561198200944766,"connected_time":196000000000,"state":"active","ping":46},{"user_id":554,"name":"HanakoToast","steam_id":76561198045233131,"connected_time":807000000000,"state":"active","ping":116},{"user_id":565,"name":"regular_consuelo","steam_id":76561198327831852,"connected_time":301000000000,"state":"active","ping":75},{"user_id":571,"name":"Evenaris","steam_id":76561198087544319,"connected_time":93000000000,"state":"active","ping":88},{"user_id":570,"name":"SirKiser","steam_id":76561198041047264,"connected_time":136000000000,"state":"active","ping":67},{"user_id":555,"name":"Furious George","steam_id":76561198405111646,"connected_time":799000000000,"state":"active","ping":91},{"user_id":533,"name":"Mastermind","steam_id":76561198127783432,"connected_time":2417000000000,"state":"active","ping":64},{"user_id":487,"name":"Bag","steam_id":76561198012395490,"connected_time":6669000000000,"state":"active","ping":62},{"user_id":472,"name":"Heathcliff","steam_id":76561198044288534,"connected_time":9182000000000,"state":"active","ping":91},{"user_id":526,"name":"GingaNinja","steam_id":76561198048984325,"connected_time":2952000000000,"state":"active","ping":54},{"user_id":520,"name":"Snoopy","steam_id":76561198065339248,"connected_time":3229000000000,"state":"active","ping":91},{"user_id":572,"name":"Clumsy","steam_id":76561198056345245,"connected_time":54000000000,"state":"active","ping":64},{"user_id":559,"name":"Peter Popoff","steam_id":76561198027171160,"connected_time":524000000000,"state":"active","ping":39},{"user_id":569,"name":"YouR dad","steam_id":76561198044013623,"connected_time":148000000000,"state":"active","ping":72},{"user_id":573,"name":"GoldtoothFour","steam_id":76561198055529332,"connected_time":54000000000,"state":"active","ping":50},{"user_id":563,"name":"ThatOneGuy831","steam_id":76561198000422558,"connected_time":344000000000,"state":"active","ping":73},{"user_id":574,"name":"Hou Tou Gu","steam_id":76561198041196591,"connected_time":49000000000,"state":"spawning","ping":59},{"user_id":566,"name":"blorp","steam_id":76561198054677742,"connected_time":260000000000,"state":"active","ping":102},{"user_id":575,"name":"GTO- TheRealWeiner[isn't-real]","steam_id":76561198083975056,"connected_time":43000000000,"state":"active","ping":108},{"user_id":552,"name":"namI stnaptihS","steam_id":76561198063677510,"connected_time":984000000000,"state":"active","ping":73},{"user_id":544,"name":"beats","steam_id":76561199245717718,"connected_time":1852000000000,"state":"active","ping":59}]},{"server_id":38,"name":"Uncletopia | Chicago | 7 | Stopwatch Beta","name_short":"chi-7","host":"chi-2.us.uncletopia.com","port":27035,"enabled":true,"region":"us-central","cc":"us","latitude":41.881832,"longitude":-87.62318,"reserved":0,"last_update":"0001-01-01T00:00:00Z","name_a2s":"Uncletopia | Chicago | 7 | Stopwatch Beta","protocol":17,"map":"koth_lakeside_final","folder":"tf","game":"Team Fortress","app_id":440,"player_count":0,"max_players":24,"Bots":0,"server_type":"Dedicated","server_os":"Linux","password":true,"vac":true,"version":"7882260","steam_id":85568392924866364,"keywords":["cp","nocrits","nodmgspread","uncletopia"],"game_id":440,"stv_port":27036,"stv_name":"Uncletopia | Chicago | 7 | Stopwatch Beta | STV","players":null},{"server_id":39,"name":"Uncletopia | Chicago | 8 | Community","name_short":"chi-8","host":"chi-2.us.uncletopia.com","port":27045,"enabled":true,"region":"us-central","cc":"us","latitude":41.881832,"longitude":-87.62318,"reserved":0,"last_update":"0001-01-01T00:00:00Z","name_a2s":"Uncletopia | Chicago | 8 | Community","protocol":17,"map":"workshop/cp_glacier_rc6.ugc2905735376","folder":"tf","game":"Team Fortress","app_id":440,"player_count":24,"max_players":24,"Bots":0,"server_type":"Dedicated","server_os":"Linux","password":true,"vac":true,"version":"7882260","steam_id":85568392924866365,"keywords":["cp","nocrits","nodmgspread","uncletopia"],"game_id":440,"stv_port":27046,"stv_name":"Uncletopia | Chicago | 8 | Community | STV","players":[{"user_id":268,"name":"rept","steam_id":76561198022100969,"connected_time":1120000000000,"state":"active","ping":45},{"user_id":265,"name":"Dynamo","steam_id":76561198057875639,"connected_time":1161000000000,"state":"active","ping":91},{"user_id":267,"name":"snow","steam_id":76561198018184698,"connected_time":1142000000000,"state":"active","ping":72},{"user_id":251,"name":"deadpixel","steam_id":76561198150249843,"connected_time":2333000000000,"state":"active","ping":50},{"user_id":263,"name":"Snoozey","steam_id":76561198017120466,"connected_time":1365000000000,"state":"active","ping":78},{"user_id":145,"name":"Van","steam_id":76561198073518712,"connected_time":8570000000000,"state":"active","ping":64},{"user_id":266,"name":"erm what the scallop","steam_id":76561198983069721,"connected_time":1155000000000,"state":"active","ping":63},{"user_id":198,"name":"ethanf","steam_id":76561198103930234,"connected_time":5844000000000,"state":"active","ping":46},{"user_id":219,"name":"Hindmost","steam_id":76561199081837220,"connected_time":4517000000000,"state":"active","ping":83},{"user_id":182,"name":"GiraffeMan","steam_id":76561198042104084,"connected_time":6561000000000,"state":"active","ping":64},{"user_id":273,"name":"High Caliber Triangle","steam_id":76561197999059241,"connected_time":355000000000,"state":"active","ping":90},{"user_id":252,"name":"Infinitytacos","steam_id":76561198884260211,"connected_time":2320000000000,"state":"active","ping":45},{"user_id":240,"name":"Phil Collins","steam_id":76561198068868644,"connected_time":3508000000000,"state":"active","ping":110},{"user_id":201,"name":"IKOVKY/TTV","steam_id":76561198138035040,"connected_time":5776000000000,"state":"active","ping":43},{"user_id":221,"name":"The_Pacific_gamer","steam_id":76561198089491446,"connected_time":4470000000000,"state":"active","ping":104},{"user_id":269,"name":"Snarles Darwin","steam_id":76561198013503949,"connected_time":859000000000,"state":"active","ping":99},{"user_id":271,"name":"Riko","steam_id":76561198028097118,"connected_time":617000000000,"state":"active","ping":83},{"user_id":203,"name":"YEE","steam_id":76561198317068510,"connected_time":5762000000000,"state":"active","ping":47},{"user_id":162,"name":"dairy delinquent","steam_id":76561198971552734,"connected_time":8178000000000,"state":"active","ping":82},{"user_id":215,"name":"brussy (f2p)","steam_id":76561199218128725,"connected_time":4680000000000,"state":"active","ping":103},{"user_id":243,"name":"Kyle H. McCloud","steam_id":76561198025050432,"connected_time":3058000000000,"state":"active","ping":91},{"user_id":255,"name":"Slavocado","steam_id":76561198161381266,"connected_time":2131000000000,"state":"active","ping":61},{"user_id":262,"name":"EdxTheFig","steam_id":76561198108650109,"connected_time":1484000000000,"state":"active","ping":106},{"user_id":264,"name":"perc 10","steam_id":76561198116471653,"connected_time":1334000000000,"state":"active","ping":127}]},{"server_id":8,"name":"Uncletopia | Dallas | 1 | All Maps","name_short":"dal-1","host":"dal-1.us.uncletopia.com","port":27015,"enabled":true,"region":"us-central","cc":"us","latitude":32.779167,"longitude":-96.80889,"reserved":0,"last_update":"0001-01-01T00:00:00Z","name_a2s":"Uncletopia | Dallas | 1 | All Maps","protocol":17,"map":"pl_borneo","folder":"tf","game":"Team Fortress","app_id":440,"player_count":24,"max_players":24,"Bots":0,"server_type":"Dedicated","server_os":"Linux","password":true,"vac":true,"version":"7882260","steam_id":85568392924469986,"keywords":["nocrits","nodmgspread","payload","uncletopia"],"game_id":440,"stv_port":27016,"stv_name":"Uncletopia | Dallas | 1 | All Maps | STV","players":[{"user_id":756,"name":"supcupman","steam_id":76561198051513866,"connected_time":252000000000,"state":"active","ping":102},{"user_id":655,"name":"errant","steam_id":76561197961758410,"connected_time":9385000000000,"state":"active","ping":45},{"user_id":728,"name":"trainmarine -bt","steam_id":76561198341784551,"connected_time":2616000000000,"state":"active","ping":48},{"user_id":731,"name":"pusang","steam_id":76561198123407886,"connected_time":2310000000000,"state":"active","ping":52},{"user_id":730,"name":"Emberdened","steam_id":76561199163688421,"connected_time":2540000000000,"state":"active","ping":76},{"user_id":742,"name":"Zing","steam_id":76561198097160898,"connected_time":1336000000000,"state":"active","ping":61},{"user_id":739,"name":"great1photo","steam_id":76561198085481933,"connected_time":1374000000000,"state":"active","ping":98},{"user_id":733,"name":"Bread Makes you Fat","steam_id":76561198985126532,"connected_time":2186000000000,"state":"active","ping":46},{"user_id":724,"name":"Icarus the legend","steam_id":76561199013250091,"connected_time":3039000000000,"state":"active","ping":60},{"user_id":720,"name":"Bamboo","steam_id":76561198043139553,"connected_time":3650000000000,"state":"active","ping":90},{"user_id":761,"name":"Yongle","steam_id":76561198068591156,"connected_time":94000000000,"state":"active","ping":75},{"user_id":741,"name":"sunny","steam_id":76561198069380992,"connected_time":1354000000000,"state":"active","ping":57},{"user_id":743,"name":"JohnnyGitGud","steam_id":76561198401455467,"connected_time":1301000000000,"state":"active","ping":96},{"user_id":759,"name":"larguu","steam_id":76561197994336210,"connected_time":222000000000,"state":"active","ping":84},{"user_id":754,"name":"Lift_","steam_id":76561198863467430,"connected_time":307000000000,"state":"active","ping":40},{"user_id":749,"name":"SleepyBoi0","steam_id":76561198799416079,"connected_time":837000000000,"state":"active","ping":75},{"user_id":755,"name":"Rafl","steam_id":76561198055222756,"connected_time":300000000000,"state":"active","ping":43},{"user_id":727,"name":"Clawkikker","steam_id":76561198269433962,"connected_time":2818000000000,"state":"active","ping":43},{"user_id":752,"name":"TECHNONEKO","steam_id":76561198094040998,"connected_time":572000000000,"state":"active","ping":75},{"user_id":744,"name":"RandomGavin?","steam_id":76561199102839784,"connected_time":1285000000000,"state":"active","ping":81},{"user_id":760,"name":"Sirgioblayde","steam_id":76561198059445113,"connected_time":217000000000,"state":"active","ping":62},{"user_id":721,"name":"luneybarker","steam_id":76561198389189837,"connected_time":3629000000000,"state":"active","ping":60},{"user_id":745,"name":"+]3D[+ Kirbs","steam_id":76561198368039510,"connected_time":1247000000000,"state":"active","ping":64},{"user_id":747,"name":"Apricot","steam_id":76561198355699935,"connected_time":1104000000000,"state":"active","ping":81}]},{"server_id":108,"name":"Uncletopia | Dallas | 2 | All Maps","name_short":"dal-2","host":"dal-1.us.uncletopia.com","port":27025,"enabled":true,"region":"us-central","cc":"us","latitude":32.779167,"longitude":-96.80889,"reserved":0,"last_update":"0001-01-01T00:00:00Z","name_a2s":"Uncletopia | Dallas | 2 | All Maps","protocol":17,"map":"pl_pier","folder":"tf","game":"Team Fortress","app_id":440,"player_count":24,"max_players":24,"Bots":0,"server_type":"Dedicated","server_os":"Linux","password":true,"vac":true,"version":"7882260","steam_id":85568392924469988,"keywords":["nocrits","nodmgspread","payload","uncletopia"],"game_id":440,"stv_port":27026,"stv_name":"Uncletopia | Dallas | 2 | All Maps | STV","players":[{"user_id":506,"name":"Double Salty McNasty","steam_id":76561198069065665,"connected_time":2950000000000,"state":"active","ping":69},{"user_id":524,"name":"bruised banana gaming","steam_id":76561198069600113,"connected_time":1780000000000,"state":"active","ping":77},{"user_id":546,"name":"Retrace","steam_id":76561198080620966,"connected_time":105000000000,"state":"active","ping":75},{"user_id":530,"name":"therajmahal","steam_id":76561199012370396,"connected_time":1447000000000,"state":"active","ping":65},{"user_id":527,"name":"JJmanepic Loves Bingus","steam_id":76561198387660652,"connected_time":1607000000000,"state":"active","ping":60},{"user_id":514,"name":"deb","steam_id":76561198414336279,"connected_time":2812000000000,"state":"active","ping":62},{"user_id":540,"name":"makeshift_burrito","steam_id":76561198042510825,"connected_time":645000000000,"state":"active","ping":97},{"user_id":454,"name":"taylor swift","steam_id":76561198151135298,"connected_time":7295000000000,"state":"active","ping":60},{"user_id":507,"name":"redxd","steam_id":76561198046915626,"connected_time":2940000000000,"state":"active","ping":64},{"user_id":508,"name":"naturia","steam_id":76561198092317849,"connected_time":2933000000000,"state":"active","ping":76},{"user_id":544,"name":"ooc","steam_id":76561198069979962,"connected_time":421000000000,"state":"active","ping":83},{"user_id":510,"name":"Sammich Slinger","steam_id":76561198007644532,"connected_time":2924000000000,"state":"active","ping":69},{"user_id":538,"name":"Woozy","steam_id":76561198008220735,"connected_time":728000000000,"state":"active","ping":86},{"user_id":528,"name":"Karl","steam_id":76561198115714484,"connected_time":1586000000000,"state":"active","ping":135},{"user_id":542,"name":"HOTDOG","steam_id":76561198120564627,"connected_time":621000000000,"state":"active","ping":110},{"user_id":543,"name":"Doctor Emerald(real)","steam_id":76561199123003872,"connected_time":548000000000,"state":"active","ping":230},{"user_id":533,"name":"samb0","steam_id":76561198055876337,"connected_time":1332000000000,"state":"active","ping":63},{"user_id":537,"name":"Booty Woyer","steam_id":76561198168852050,"connected_time":819000000000,"state":"active","ping":82},{"user_id":344,"name":"Sableye","steam_id":76561198061247147,"connected_time":15015000000000,"state":"active","ping":75},{"user_id":521,"name":"rad killl raccoon","steam_id":76561198980975595,"connected_time":2141000000000,"state":"active","ping":122},{"user_id":529,"name":"yeyoi","steam_id":76561198069821885,"connected_time":1579000000000,"state":"active","ping":46},{"user_id":516,"name":"Lore","steam_id":76561198098407538,"connected_time":2708000000000,"state":"active","ping":75},{"user_id":534,"name":"[BU773T\u003e","steam_id":76561197991671942,"connected_time":1138000000000,"state":"active","ping":69},{"user_id":526,"name":"Cassius","steam_id":76561198146163328,"connected_time":1626000000000,"state":"active","ping":90}]},{"server_id":5,"name":"Uncletopia | Frankfurt | 1 | All Maps","name_short":"frk-1","host":"frk-1.de.uncletopia.com","port":27015,"enabled":true,"region":"eu","cc":"de","latitude":50.110924,"longitude":8.682127,"reserved":0,"last_update":"0001-01-01T00:00:00Z","name_a2s":"Uncletopia | Frankfurt | 1 | All Maps","protocol":17,"map":"koth_highpass","folder":"tf","game":"Team Fortress","app_id":440,"player_count":0,"max_players":24,"Bots":0,"server_type":"Dedicated","server_os":"Linux","password":true,"vac":true,"version":"7882260","steam_id":85568392924469989,"keywords":["cp","nocrits","nodmgspread","uncletopia"],"game_id":440,"stv_port":27016,"stv_name":"Uncletopia | Frankfurt | 1 | All Maps | STV","players":null},{"server_id":110,"name":"Uncletopia | Frankfurt | 2 | All Maps","name_short":"frk-2","host":"frk-1.de.uncletopia.com","port":27025,"enabled":true,"region":"eu","cc":"de","latitude":50.110924,"longitude":8.682127,"reserved":0,"last_update":"0001-01-01T00:00:00Z","name_a2s":"Uncletopia | Frankfurt | 2 | All Maps","protocol":17,"map":"cp_sunshine","folder":"tf","game":"Team Fortress","app_id":440,"player_count":0,"max_players":24,"Bots":0,"server_type":"Dedicated","server_os":"Linux","password":true,"vac":true,"version":"7882260","steam_id":85568392924469990,"keywords":["cp","nocrits","nodmgspread","uncletopia"],"game_id":440,"stv_port":27026,"stv_name":"Uncletopia | Frankfurt | 2 | All Maps | STV","players":null},{"server_id":308,"name":"Uncletopia | Frankfurt | 3 | All Maps","name_short":"frk-3","host":"frk-1.de.uncletopia.com","port":27035,"enabled":true,"region":"eu","cc":"de","latitude":50.110924,"longitude":8.682127,"reserved":0,"last_update":"0001-01-01T00:00:00Z","name_a2s":"Uncletopia | Frankfurt | 3 | All Maps","protocol":17,"map":"koth_lakeside_final","folder":"tf","game":"Team Fortress","app_id":440,"player_count":0,"max_players":24,"Bots":0,"server_type":"Dedicated","server_os":"Linux","password":true,"vac":true,"version":"7882260","steam_id":85568392924504274,"keywords":["cp","nocrits","nodmgspread","uncletopia"],"game_id":440,"stv_port":27036,"stv_name":"Uncletopia | Frankfurt | 3 | All Maps | STV","players":null},{"server_id":309,"name":"Uncletopia | Frankfurt | 4 | All Maps","name_short":"frk-4","host":"frk-1.de.uncletopia.com","port":27045,"enabled":true,"region":"eu","cc":"de","latitude":50.110924,"longitude":8.682127,"reserved":0,"last_update":"0001-01-01T00:00:00Z","name_a2s":"Uncletopia | Frankfurt | 4 | All Maps","protocol":17,"map":"cp_altitude","folder":"tf","game":"Team Fortress","app_id":440,"player_count":0,"max_players":24,"Bots":0,"server_type":"Dedicated","server_os":"Linux","password":true,"vac":true,"version":"7882260","steam_id":85568392924504275,"keywords":["cp","nocrits","nodmgspread","uncletopia"],"game_id":440,"stv_port":27046,"stv_name":"Uncletopia | Frankfurt | 4 | All Maps | STV","players":null},{"server_id":310,"name":"Uncletopia | Frankfurt | 5 | All Maps","name_short":"frk-5","host":"frk-1.de.uncletopia.com","port":27055,"enabled":true,"region":"eu","cc":"de","latitude":50.110924,"longitude":8.682127,"reserved":0,"last_update":"0001-01-01T00:00:00Z","name_a2s":"Uncletopia | Frankfurt | 5 | All Maps","protocol":17,"map":"cp_sunshine","folder":"tf","game":"Team Fortress","app_id":440,"player_count":0,"max_players":24,"Bots":0,"server_type":"Dedicated","server_os":"Linux","password":true,"vac":true,"version":"7882260","steam_id":85568392924504277,"keywords":["cp","nocrits","nodmgspread","uncletopia"],"game_id":440,"stv_port":27056,"stv_name":"Uncletopia | Frankfurt | 5 | All Maps | STV","players":null},{"server_id":311,"name":"Uncletopia | Frankfurt | 6 | All Maps","name_short":"frk-6","host":"frk-1.de.uncletopia.com","port":27065,"enabled":true,"region":"eu","cc":"de","latitude":50.110924,"longitude":8.682127,"reserved":0,"last_update":"0001-01-01T00:00:00Z","name_a2s":"Uncletopia | Frankfurt | 6 | All Maps","protocol":17,"map":"koth_highpass","folder":"tf","game":"Team Fortress","app_id":440,"player_count":0,"max_players":24,"Bots":0,"server_type":"Dedicated","server_os":"Linux","password":true,"vac":true,"version":"7882260","steam_id":85568392924504278,"keywords":["cp","nocrits","nodmgspread","uncletopia"],"game_id":440,"stv_port":27066,"stv_name":"Uncletopia | Frankfurt | 6 | All Maps | STV","players":null},{"server_id":23,"name":"Uncletopia | Frankfurt | 7 | Stopwatch Beta","name_short":"frk-7","host":"frk-1.de.uncletopia.com","port":27075,"enabled":true,"region":"eu","cc":"de","latitude":50.110924,"longitude":8.682127,"reserved":0,"last_update":"0001-01-01T00:00:00Z","name_a2s":"Uncletopia | Frankfurt | 7 | Stopwatch Beta","protocol":17,"map":"pl_swiftwater_final1","folder":"tf","game":"Team Fortress","app_id":440,"player_count":0,"max_players":24,"Bots":0,"server_type":"Dedicated","server_os":"Linux","password":true,"vac":true,"version":"7882260","steam_id":85568392924742827,"keywords":["nocrits","nodmgspread","payload","uncletopia"],"game_id":440,"stv_port":27076,"stv_name":"Uncletopia | Frankfurt | 7 | Stopwatch Beta | STV","players":null},{"server_id":24,"name":"Uncletopia | Frankfurt | 8 | Community","name_short":"frk-8","host":"frk-1.de.uncletopia.com","port":27085,"enabled":true,"region":"eu","cc":"de","latitude":50.110924,"longitude":8.682127,"reserved":0,"last_update":"0001-01-01T00:00:00Z","name_a2s":"Uncletopia | Frankfurt | 8 | Community","protocol":17,"map":"workshop/koth_kemptown_rc1.ugc767410655","folder":"tf","game":"Team Fortress","app_id":440,"player_count":0,"max_players":24,"Bots":0,"server_type":"Dedicated","server_os":"Linux","password":true,"vac":true,"version":"7882260","steam_id":85568392924742828,"keywords":["cp","nocrits","nodmgspread","uncletopia"],"game_id":440,"stv_port":27086,"stv_name":"Uncletopia | Frankfurt | 8 | Community | STV","players":null},{"server_id":202,"name":"Uncletopia | Hong Kong | 1 | All Maps","name_short":"hgk-1","host":"hgk-1.hk.uncletopia.com","port":27015,"enabled":true,"region":"asia","cc":"hk","latitude":22.302711,"longitude":114.177216,"reserved":0,"last_update":"0001-01-01T00:00:00Z","name_a2s":"Uncletopia | Hong Kong | 1 | All Maps","protocol":17,"map":"koth_viaduct","folder":"tf","game":"Team Fortress","app_id":440,"player_count":0,"max_players":24,"Bots":0,"server_type":"Dedicated","server_os":"Linux","password":true,"vac":true,"version":"7882260","steam_id":85568392924494504,"keywords":["cp","nocrits","nodmgspread","uncletopia"],"game_id":440,"stv_port":27016,"stv_name":"Uncletopia | Hong Kong | 1 | All Maps | STV","players":null},{"server_id":1,"name":"Uncletopia | Los Angeles | 1 | All Maps","name_short":"lax-1","host":"lax-1.us.uncletopia.com","port":27015,"enabled":true,"region":"us-west","cc":"us","latitude":33.94279,"longitude":-118.41004,"reserved":0,"last_update":"0001-01-01T00:00:00Z","name_a2s":"Uncletopia | Los Angeles | 1 | All Maps","protocol":17,"map":"pl_barnblitz","folder":"tf","game":"Team Fortress","app_id":440,"player_count":24,"max_players":24,"Bots":0,"server_type":"Dedicated","server_os":"Linux","password":true,"vac":true,"version":"7882260","steam_id":85568392924469991,"keywords":["nocrits","nodmgspread","payload","uncletopia"],"game_id":440,"stv_port":27016,"stv_name":"Uncletopia | Los Angeles | 1 | All Maps | STV","players":[{"user_id":650,"name":"Walrus","steam_id":76561198001799905,"connected_time":2137000000000,"state":"active","ping":50},{"user_id":678,"name":"Ralph Kramden (Slim Charles)","steam_id":76561197981687895,"connected_time":392000000000,"state":"active","ping":58},{"user_id":590,"name":"Zigadox","steam_id":76561198079813479,"connected_time":6350000000000,"state":"active","ping":119},{"user_id":663,"name":"The Great Eagle Scourge of 1822","steam_id":76561198325086209,"connected_time":1727000000000,"state":"active","ping":62},{"user_id":626,"name":"el wokismo","steam_id":76561198058617608,"connected_time":3282000000000,"state":"active","ping":53},{"user_id":639,"name":"Compress Dong","steam_id":76561198018950826,"connected_time":2480000000000,"state":"active","ping":58},{"user_id":656,"name":"Jazpy","steam_id":76561198036872545,"connected_time":1967000000000,"state":"active","ping":76},{"user_id":641,"name":"NeoVid","steam_id":76561197998866635,"connected_time":2396000000000,"state":"active","ping":77},{"user_id":649,"name":"GreaterNater","steam_id":76561198076516970,"connected_time":2165000000000,"state":"active","ping":130},{"user_id":682,"name":"babywizard","steam_id":76561198097757862,"connected_time":301000000000,"state":"active","ping":63},{"user_id":668,"name":"cjetson","steam_id":76561198074482272,"connected_time":1454000000000,"state":"active","ping":64},{"user_id":651,"name":"Feel the bern","steam_id":76561198078824519,"connected_time":2085000000000,"state":"active","ping":51},{"user_id":637,"name":"Soviet Potato","steam_id":76561198068546113,"connected_time":2555000000000,"state":"active","ping":54},{"user_id":659,"name":"?","steam_id":76561198077811162,"connected_time":1875000000000,"state":"active","ping":52},{"user_id":680,"name":"Lumberjane37 (She/Her)","steam_id":76561198014841793,"connected_time":359000000000,"state":"active","ping":62},{"user_id":681,"name":"e7","steam_id":76561198154265084,"connected_time":327000000000,"state":"active","ping":60},{"user_id":684,"name":"Artic_Ryuu","steam_id":76561198182194918,"connected_time":269000000000,"state":"active","ping":43},{"user_id":671,"name":"harcdroe herny","steam_id":76561199052439964,"connected_time":1380000000000,"state":"active","ping":73},{"user_id":664,"name":"Jimmy","steam_id":76561198857959855,"connected_time":1727000000000,"state":"active","ping":48},{"user_id":666,"name":"EduardoLopez2005","steam_id":76561198188481309,"connected_time":1518000000000,"state":"active","ping":63},{"user_id":686,"name":"wutami?urfuqqindaddy?!","steam_id":76561199305518744,"connected_time":74000000000,"state":"active","ping":26},{"user_id":676,"name":"Sauce Boss","steam_id":76561198000156997,"connected_time":1074000000000,"state":"active","ping":99},{"user_id":685,"name":"1998 Mazda b2500","steam_id":76561198883172857,"connected_time":198000000000,"state":"active","ping":62},{"user_id":687,"name":"TwoForFlinching","steam_id":76561198073814209,"connected_time":60000000000,"state":"active","ping":103}]},{"server_id":112,"name":"Uncletopia | Los Angeles | 2 | All Maps","name_short":"lax-2","host":"lax-1.us.uncletopia.com","port":27025,"enabled":true,"region":"us-west","cc":"us","latitude":33.94279,"longitude":-118.41004,"reserved":0,"last_update":"0001-01-01T00:00:00Z","name_a2s":"Uncletopia | Los Angeles | 2 | All Maps","protocol":17,"map":"pl_borneo","folder":"tf","game":"Team Fortress","app_id":440,"player_count":24,"max_players":24,"Bots":0,"server_type":"Dedicated","server_os":"Linux","password":true,"vac":true,"version":"7882260","steam_id":85568392924469992,"keywords":["nocrits","nodmgspread","payload","uncletopia"],"game_id":440,"stv_port":27026,"stv_name":"Uncletopia | Los Angeles | 2 | All Maps | STV","players":[{"user_id":407,"name":"Obrodai","steam_id":76561199465783209,"connected_time":1182000000000,"state":"active","ping":83},{"user_id":271,"name":"[√òWQJ√ò]chubacaalatake","steam_id":76561198136201697,"connected_time":10933000000000,"state":"active","ping":85},{"user_id":415,"name":"OmniMoto","steam_id":76561198091298557,"connected_time":669000000000,"state":"active","ping":79},{"user_id":416,"name":"Corpe","steam_id":76561198054490549,"connected_time":641000000000,"state":"active","ping":89},{"user_id":424,"name":"bad player","steam_id":76561198957233710,"connected_time":368000000000,"state":"active","ping":58},{"user_id":425,"name":"..flop","steam_id":76561197989058876,"connected_time":333000000000,"state":"active","ping":67},{"user_id":394,"name":"Gm_Trash","steam_id":76561199445091548,"connected_time":2608000000000,"state":"active","ping":66},{"user_id":418,"name":"the witchia lineman","steam_id":76561198993611309,"connected_time":571000000000,"state":"active","ping":71},{"user_id":385,"name":"H _ N G M _ N","steam_id":76561198064662875,"connected_time":3274000000000,"state":"active","ping":51},{"user_id":414,"name":"i cant aim","steam_id":76561198065873462,"connected_time":875000000000,"state":"active","ping":46},{"user_id":377,"name":"InvalidUserID","steam_id":76561198014177920,"connected_time":3822000000000,"state":"active","ping":31},{"user_id":419,"name":"Soda","steam_id":76561198219209367,"connected_time":533000000000,"state":"active","ping":59},{"user_id":403,"name":"culture shock","steam_id":76561198212421513,"connected_time":2082000000000,"state":"active","ping":47},{"user_id":388,"name":"MrManlet","steam_id":76561198148597989,"connected_time":3085000000000,"state":"active","ping":92},{"user_id":405,"name":"Mr. Mime","steam_id":76561199197676776,"connected_time":1714000000000,"state":"active","ping":99},{"user_id":326,"name":"California Jew","steam_id":76561198914032112,"connected_time":6262000000000,"state":"active","ping":45},{"user_id":426,"name":"Gnome Chompski","steam_id":76561198003130703,"connected_time":232000000000,"state":"active","ping":93},{"user_id":360,"name":"kelvin","steam_id":76561198121215313,"connected_time":4998000000000,"state":"active","ping":48},{"user_id":427,"name":"a chicken","steam_id":76561198313121580,"connected_time":210000000000,"state":"active","ping":63},{"user_id":397,"name":"moxxie","steam_id":76561198893111808,"connected_time":2596000000000,"state":"active","ping":44},{"user_id":410,"name":"Waaaaz","steam_id":76561198029754301,"connected_time":1171000000000,"state":"active","ping":68},{"user_id":428,"name":"leumas","steam_id":76561198240408540,"connected_time":116000000000,"state":"active","ping":114},{"user_id":398,"name":"Provocator","steam_id":76561197961830410,"connected_time":2593000000000,"state":"active","ping":114},{"user_id":344,"name":"THE PRODIGAL STUNNA","steam_id":76561198325613425,"connected_time":5653000000000,"state":"active","ping":93}]},{"server_id":324,"name":"Uncletopia | Los Angeles | 3 | All Maps","name_short":"lax-3","host":"lax-1.us.uncletopia.com","port":27035,"enabled":true,"region":"us-west","cc":"us","latitude":33.94279,"longitude":-118.41004,"reserved":0,"last_update":"0001-01-01T00:00:00Z","name_a2s":"Uncletopia | Los Angeles | 3 | All Maps","protocol":17,"map":"plr_hightower","folder":"tf","game":"Team Fortress","app_id":440,"player_count":16,"max_players":24,"Bots":0,"server_type":"Dedicated","server_os":"Linux","password":true,"vac":true,"version":"7882260","steam_id":85568392924510198,"keywords":["nocrits","nodmgspread","payload","uncletopia"],"game_id":440,"stv_port":27036,"stv_name":"Uncletopia | Los Angeles | 3 | All Maps | STV","players":[{"user_id":199,"name":"Jaded","steam_id":76561198272575611,"connected_time":40000000000,"state":"active","ping":106},{"user_id":173,"name":"...","steam_id":76561198121508845,"connected_time":1965000000000,"state":"active","ping":57},{"user_id":172,"name":"TobyTurner32","steam_id":76561198018801418,"connected_time":2069000000000,"state":"active","ping":75},{"user_id":179,"name":"Bhutch","steam_id":76561198145654275,"connected_time":1284000000000,"state":"active","ping":90},{"user_id":161,"name":"Takareer","steam_id":76561198001751765,"connected_time":2576000000000,"state":"active","ping":102},{"user_id":200,"name":"vioxynteris","steam_id":76561198161428666,"connected_time":29000000000,"state":"spawning","ping":62},{"user_id":201,"name":"bubbles","steam_id":76561198040940902,"connected_time":14000000000,"state":"active","ping":45},{"user_id":194,"name":"i farted.","steam_id":76561199059257565,"connected_time":221000000000,"state":"active","ping":89},{"user_id":191,"name":"danger","steam_id":76561198000459165,"connected_time":455000000000,"state":"active","ping":82},{"user_id":174,"name":"Owl_eyes","steam_id":76561198066199203,"connected_time":1831000000000,"state":"active","ping":53},{"user_id":182,"name":"Dani","steam_id":76561198348012378,"connected_time":1152000000000,"state":"active","ping":122},{"user_id":175,"name":"fansuki","steam_id":76561198051928674,"connected_time":1830000000000,"state":"active","ping":96},{"user_id":166,"name":"A UsedNom","steam_id":76561198402832756,"connected_time":2464000000000,"state":"active","ping":46},{"user_id":168,"name":"my pfp gives tf2 players ptsd","steam_id":76561198214702431,"connected_time":2331000000000,"state":"active","ping":125},{"user_id":129,"name":"HazmatHarry_TTV","steam_id":76561199003107869,"connected_time":6030000000000,"state":"active","ping":78},{"user_id":169,"name":"Dr. Bubs","steam_id":76561198011696595,"connected_time":2330000000000,"state":"active","ping":45}]},{"server_id":25,"name":"Uncletopia | Los Angeles | 4 | Stopwatch Beta","name_short":"lax-4","host":"lax-1.us.uncletopia.com","port":27045,"enabled":true,"region":"us-west","cc":"us","latitude":33.94279,"longitude":-118.41004,"reserved":0,"last_update":"0001-01-01T00:00:00Z","name_a2s":"Uncletopia | Los Angeles | 4 | Stopwatch Beta","protocol":17,"map":"koth_viaduct","folder":"tf","game":"Team Fortress","app_id":440,"player_count":0,"max_players":24,"Bots":0,"server_type":"Dedicated","server_os":"Linux","password":true,"vac":true,"version":"7882260","steam_id":85568392924510199,"keywords":["cp","nocrits","nodmgspread","uncletopia"],"game_id":440,"stv_port":27046,"stv_name":"Uncletopia | Los Angeles | 4 | Stopwatch Beta | STV","players":null},{"server_id":11,"name":"Uncletopia | London | 1 | All Maps","name_short":"lon-1","host":"lon-1.uk.uncletopia.com","port":27015,"enabled":true,"region":"eu","cc":"gb","latitude":51.509865,"longitude":-0.118092,"reserved":0,"last_update":"0001-01-01T00:00:00Z","name_a2s":"Uncletopia | London | 1 | All Maps","protocol":17,"map":"pl_borneo","folder":"tf","game":"Team Fortress","app_id":440,"player_count":0,"max_players":24,"Bots":0,"server_type":"Dedicated","server_os":"Linux","password":true,"vac":true,"version":"7882260","steam_id":85568392924367362,"keywords":["nocrits","nodmgspread","payload","uncletopia"],"game_id":440,"stv_port":27016,"stv_name":"Uncletopia | London | 1 | All Maps | STV","players":null},{"server_id":114,"name":"Uncletopia | London | 2 | All Maps","name_short":"lon-2","host":"lon-1.uk.uncletopia.com","port":27025,"enabled":true,"region":"eu","cc":"gb","latitude":51.509865,"longitude":-0.118092,"reserved":0,"last_update":"0001-01-01T00:00:00Z","name_a2s":"Uncletopia | London | 2 | All Maps","protocol":17,"map":"pl_badwater","folder":"tf","game":"Team Fortress","app_id":440,"player_count":12,"max_players":24,"Bots":0,"server_type":"Dedicated","server_os":"Linux","password":true,"vac":true,"version":"7882260","steam_id":85568392924470941,"keywords":["nocrits","nodmgspread","payload","uncletopia"],"game_id":440,"stv_port":27026,"stv_name":"Uncletopia | London | 2 | All Maps | STV","players":[{"user_id":495,"name":"Andrew Tate","steam_id":76561198113710681,"connected_time":12000000000,"state":"active","ping":100},{"user_id":492,"name":"depeche mode zealot","steam_id":76561198129828715,"connected_time":275000000000,"state":"active","ping":62},{"user_id":491,"name":"Zylon","steam_id":76561198073269221,"connected_time":377000000000,"state":"active","ping":51},{"user_id":441,"name":"tonroshi","steam_id":76561199435854673,"connected_time":5009000000000,"state":"active","ping":45},{"user_id":493,"name":"Gimmick","steam_id":76561197979603871,"connected_time":206000000000,"state":"active","ping":59},{"user_id":494,"name":"Pogmanson","steam_id":76561198919953445,"connected_time":140000000000,"state":"active","ping":37},{"user_id":496,"name":"fortnite","steam_id":76561199105796083,"connected_time":8000000000,"state":"spawning","ping":80},{"user_id":474,"name":"‚ô•Femboy AMon‚ô•","steam_id":76561198082470411,"connected_time":2014000000000,"state":"active","ping":86},{"user_id":461,"name":"rag","steam_id":76561198083505031,"connected_time":3108000000000,"state":"active","ping":44},{"user_id":482,"name":"[placeholder]","steam_id":76561198092615776,"connected_time":1135000000000,"state":"active","ping":145},{"user_id":483,"name":"Jouppi","steam_id":76561198063725468,"connected_time":1112000000000,"state":"active","ping":82},{"user_id":446,"name":"Norbert Hallelujah","steam_id":76561198137876982,"connected_time":4486000000000,"state":"active","ping":74}]},{"server_id":320,"name":"Uncletopia | London | 3 | All Maps","name_short":"lon-3","host":"lon-1.uk.uncletopia.com","port":27035,"enabled":true,"region":"eu","cc":"gb","latitude":51.509865,"longitude":-0.118092,"reserved":0,"last_update":"0001-01-01T00:00:00Z","name_a2s":"Uncletopia | London | 3 | All Maps","protocol":17,"map":"pl_borneo","folder":"tf","game":"Team Fortress","app_id":440,"player_count":0,"max_players":24,"Bots":0,"server_type":"Dedicated","server_os":"Linux","password":true,"vac":true,"version":"7882260","steam_id":85568392924510192,"keywords":["nocrits","nodmgspread","payload","uncletopia"],"game_id":440,"stv_port":27036,"stv_name":"Uncletopia | London | 3 | All Maps | STV","players":null},{"server_id":321,"name":"Uncletopia | London | 4 | All Maps","name_short":"lon-4","host":"lon-1.uk.uncletopia.com","port":27045,"enabled":true,"region":"eu","cc":"gb","latitude":51.509865,"longitude":-0.118092,"reserved":0,"last_update":"0001-01-01T00:00:00Z","name_a2s":"Uncletopia | London | 4 | All Maps","protocol":17,"map":"pl_frontier_final","folder":"tf","game":"Team Fortress","app_id":440,"player_count":0,"max_players":24,"Bots":0,"server_type":"Dedicated","server_os":"Linux","password":true,"vac":true,"version":"7882260","steam_id":85568392924510193,"keywords":["nocrits","nodmgspread","payload","uncletopia"],"game_id":440,"stv_port":27046,"stv_name":"Uncletopia | London | 4 | All Maps | STV","players":null},{"server_id":21,"name":"Uncletopia | London | 5 | All Maps","name_short":"lon-5","host":"lon-1.uk.uncletopia.com","port":27055,"enabled":true,"region":"eu","cc":"gb","latitude":51.509865,"longitude":-0.118092,"reserved":0,"last_update":"0001-01-01T00:00:00Z","name_a2s":"Uncletopia | London | 5 | All Maps","protocol":17,"map":"pl_frontier_final","folder":"tf","game":"Team Fortress","app_id":440,"player_count":0,"max_players":24,"Bots":0,"server_type":"Dedicated","server_os":"Linux","password":true,"vac":true,"version":"7882260","steam_id":85568392924742829,"keywords":["nocrits","nodmgspread","payload","uncletopia"],"game_id":440,"stv_port":27056,"stv_name":"Uncletopia | London | 5 | All Maps | STV","players":null},{"server_id":22,"name":"Uncletopia | London | 6 | All Maps","name_short":"lon-6","host":"lon-1.uk.uncletopia.com","port":27065,"enabled":true,"region":"eu","cc":"gb","latitude":51.509865,"longitude":-0.118092,"reserved":0,"last_update":"0001-01-01T00:00:00Z","name_a2s":"Uncletopia | London | 6 | All Maps","protocol":17,"map":"cp_mountainlab","folder":"tf","game":"Team Fortress","app_id":440,"player_count":0,"max_players":24,"Bots":0,"server_type":"Dedicated","server_os":"Linux","password":true,"vac":true,"version":"7882260","steam_id":85568392924742830,"keywords":["cp","nocrits","nodmgspread","uncletopia"],"game_id":440,"stv_port":27066,"stv_name":"Uncletopia | London | 6 | All Maps | STV","players":null},{"server_id":40,"name":"Uncletopia | London | 7 | No Payload","name_short":"lon-7","host":"lon-1.uk.uncletopia.com","port":27075,"enabled":true,"region":"eu","cc":"gb","latitude":51.509865,"longitude":-0.118092,"reserved":0,"last_update":"0001-01-01T00:00:00Z","name_a2s":"Uncletopia | London | 7 | No Payload","protocol":17,"map":"koth_suijin","folder":"tf","game":"Team Fortress","app_id":440,"player_count":0,"max_players":24,"Bots":0,"server_type":"Dedicated","server_os":"Linux","password":true,"vac":true,"version":"7882260","steam_id":85568392924964314,"keywords":["cp","nocrits","nodmgspread","uncletopia"],"game_id":440,"stv_port":27076,"stv_name":"Uncletopia | London | 7 | No Payload | STV","players":null},{"server_id":41,"name":"Uncletopia | London | 8 | Community","name_short":"lon-8","host":"lon-1.uk.uncletopia.com","port":27085,"enabled":true,"region":"eu","cc":"gb","latitude":51.509865,"longitude":-0.118092,"reserved":0,"last_update":"0001-01-01T00:00:00Z","name_a2s":"Uncletopia | London | 8 | Community","protocol":17,"map":"workshop/koth_slaughter_rc1.ugc1712845210","folder":"tf","game":"Team Fortress","app_id":440,"player_count":0,"max_players":24,"Bots":0,"server_type":"Dedicated","server_os":"Linux","password":true,"vac":true,"version":"7882260","steam_id":85568392924964315,"keywords":["cp","nocrits","nodmgspread","uncletopia"],"game_id":440,"stv_port":27086,"stv_name":"Uncletopia | London | 8 | Community | STV","players":null},{"server_id":300,"name":"Uncletopia | Montr√©al | 1 | All Maps","name_short":"mtl-1","host":"mtl-1.ca.uncletopia.com","port":27015,"enabled":true,"region":"us-east","cc":"ca","latitude":45.50889,"longitude":-73.56167,"reserved":0,"last_update":"0001-01-01T00:00:00Z","name_a2s":"Uncletopia | Montr√©al | 1 | All Maps","protocol":17,"map":"koth_viaduct","folder":"tf","game":"Team Fortress","app_id":440,"player_count":0,"max_players":24,"Bots":0,"server_type":"Dedicated","server_os":"Linux","password":true,"vac":true,"version":"7882260","steam_id":85568392924500087,"keywords":["cp","nocrits","nodmgspread","uncletopia"],"game_id":440,"stv_port":27016,"stv_name":"Uncletopia | Montr√©al | 1 | All Maps | STV","players":null},{"server_id":301,"name":"Uncletopia | Montr√©al | 2 | All Maps","name_short":"mtl-2","host":"mtl-1.ca.uncletopia.com","port":27025,"enabled":true,"region":"us-east","cc":"ca","latitude":45.50889,"longitude":-73.56167,"reserved":0,"last_update":"0001-01-01T00:00:00Z","name_a2s":"Uncletopia | Montr√©al | 2 | All Maps","protocol":17,"map":"koth_cascade","folder":"tf","game":"Team Fortress","app_id":440,"player_count":0,"max_players":24,"Bots":0,"server_type":"Dedicated","server_os":"Linux","password":true,"vac":true,"version":"7882260","steam_id":85568392924500088,"keywords":["cp","nocrits","nodmgspread","uncletopia"],"game_id":440,"stv_port":27026,"stv_name":"Uncletopia | Montr√©al | 2 | All Maps | STV","players":null},{"server_id":302,"name":"Uncletopia | Montr√©al | 3 | All Maps","name_short":"mtl-3","host":"mtl-1.ca.uncletopia.com","port":27035,"enabled":true,"region":"us-east","cc":"ca","latitude":45.50889,"longitude":-73.56167,"reserved":0,"last_update":"0001-01-01T00:00:00Z","name_a2s":"Uncletopia | Montr√©al | 3 | All Maps","protocol":17,"map":"cp_altitude","folder":"tf","game":"Team Fortress","app_id":440,"player_count":0,"max_players":24,"Bots":0,"server_type":"Dedicated","server_os":"Linux","password":true,"vac":true,"version":"7882260","steam_id":85568392924500089,"keywords":["cp","nocrits","nodmgspread","uncletopia"],"game_id":440,"stv_port":27036,"stv_name":"Uncletopia | Montr√©al | 3 | All Maps | STV","players":null},{"server_id":303,"name":"Uncletopia | Montr√©al | 4 | No Payload","name_short":"mtl-4","host":"mtl-1.ca.uncletopia.com","port":27045,"enabled":true,"region":"us-east","cc":"ca","latitude":45.50889,"longitude":-73.56167,"reserved":0,"last_update":"0001-01-01T00:00:00Z","name_a2s":"Uncletopia | Montr√©al | 4 | No Payload","protocol":17,"map":"koth_highpass","folder":"tf","game":"Team Fortress","app_id":440,"player_count":0,"max_players":24,"Bots":0,"server_type":"Dedicated","server_os":"Linux","password":true,"vac":true,"version":"7882260","steam_id":85568392924500090,"keywords":["cp","nocrits","nodmgspread","uncletopia"],"game_id":440,"stv_port":27046,"stv_name":"Uncletopia | Montr√©al | 4 | No Payload | STV","players":null},{"server_id":13,"name":"Uncletopia | New York City | 1 | All Maps","name_short":"nyc-1","host":"nyc-1.us.uncletopia.com","port":27015,"enabled":true,"region":"us-east","cc":"us","latitude":40.73061,"longitude":-73.93524,"reserved":0,"last_update":"0001-01-01T00:00:00Z","name_a2s":"Uncletopia | New York City | 1 | All Maps","protocol":17,"map":"koth_harvest_final","folder":"tf","game":"Team Fortress","app_id":440,"player_count":21,"max_players":24,"Bots":0,"server_type":"Dedicated","server_os":"Linux","password":true,"vac":true,"version":"7882260","steam_id":85568392924469993,"keywords":["cp","nocrits","nodmgspread","uncletopia"],"game_id":440,"stv_port":27016,"stv_name":"Uncletopia | New York City | 1 | All Maps | STV","players":[{"user_id":480,"name":"HeavenHearst","steam_id":76561198066083947,"connected_time":599000000000,"state":"active","ping":54},{"user_id":455,"name":"t0ast","steam_id":76561198141722573,"connected_time":3165000000000,"state":"active","ping":105},{"user_id":487,"name":"fortnite balls","steam_id":76561199487130843,"connected_time":315000000000,"state":"active","ping":33},{"user_id":481,"name":"randall","steam_id":76561198121712006,"connected_time":567000000000,"state":"active","ping":45},{"user_id":414,"name":"Gentoo Linux Gaming","steam_id":76561197999657118,"connected_time":6799000000000,"state":"active","ping":61},{"user_id":457,"name":"Samrizo el Chorizo","steam_id":76561198009838162,"connected_time":2880000000000,"state":"active","ping":47},{"user_id":463,"name":"BeerPowder","steam_id":76561198058129400,"connected_time":2205000000000,"state":"active","ping":51},{"user_id":490,"name":"@soexclusive12_","steam_id":76561198144909435,"connected_time":109000000000,"state":"active","ping":118},{"user_id":482,"name":"Novazor","steam_id":76561198242689590,"connected_time":506000000000,"state":"active","ping":36},{"user_id":472,"name":"Juvice","steam_id":76561198843371502,"connected_time":1625000000000,"state":"active","ping":43},{"user_id":484,"name":"twix","steam_id":76561198040912048,"connected_time":376000000000,"state":"active","ping":68},{"user_id":439,"name":"ShiverBorn","steam_id":76561198384811149,"connected_time":5013000000000,"state":"active","ping":96},{"user_id":488,"name":"tyg","steam_id":76561198056246867,"connected_time":299000000000,"state":"active","ping":60},{"user_id":489,"name":"chilis baby back ribs","steam_id":76561198813516435,"connected_time":263000000000,"state":"active","ping":103},{"user_id":462,"name":"DARKLY| Pumpkin","steam_id":76561198053277291,"connected_time":2648000000000,"state":"active","ping":69},{"user_id":386,"name":"Horrizan","steam_id":76561197965028480,"connected_time":8376000000000,"state":"active","ping":85},{"user_id":475,"name":"Bert.","steam_id":76561198140666346,"connected_time":1246000000000,"state":"active","ping":50},{"user_id":491,"name":"8-Bit","steam_id":76561198000234727,"connected_time":106000000000,"state":"active","ping":144},{"user_id":478,"name":"BluJay","steam_id":76561198044670560,"connected_time":690000000000,"state":"active","ping":49},{"user_id":464,"name":"chainsaw chains for teeth.","steam_id":76561198294013916,"connected_time":2110000000000,"state":"active","ping":47},{"user_id":479,"name":"Glorified Super Soaker","steam_id":76561199078324894,"connected_time":690000000000,"state":"active","ping":72}]},{"server_id":14,"name":"Uncletopia | New York City | 2 | All Maps","name_short":"nyc-2","host":"nyc-1.us.uncletopia.com","port":27025,"enabled":true,"region":"us-east","cc":"us","latitude":40.73061,"longitude":-73.93524,"reserved":0,"last_update":"0001-01-01T00:00:00Z","name_a2s":"Uncletopia | New York City | 2 | All Maps","protocol":17,"map":"cp_mountainlab","folder":"tf","game":"Team Fortress","app_id":440,"player_count":0,"max_players":24,"Bots":0,"server_type":"Dedicated","server_os":"Linux","password":true,"vac":true,"version":"7882260","steam_id":85568392924469994,"keywords":["cp","nocrits","nodmgspread","uncletopia"],"game_id":440,"stv_port":27026,"stv_name":"Uncletopia | New York City | 2 | All Maps | STV","players":null},{"server_id":15,"name":"Uncletopia | New York City | 3 | Stopwatch Beta","name_short":"nyc-3","host":"nyc-1.us.uncletopia.com","port":27035,"enabled":true,"region":"us-east","cc":"us","latitude":40.73061,"longitude":-73.93524,"reserved":0,"last_update":"0001-01-01T00:00:00Z","name_a2s":"Uncletopia | New York City | 3 | Stopwatch Beta","protocol":17,"map":"pl_borneo","folder":"tf","game":"Team Fortress","app_id":440,"player_count":0,"max_players":24,"Bots":0,"server_type":"Dedicated","server_os":"Linux","password":true,"vac":true,"version":"7882260","steam_id":85568392924742820,"keywords":["nocrits","nodmgspread","payload","uncletopia"],"game_id":440,"stv_port":27036,"stv_name":"Uncletopia | New York City | 3 | Stopwatch Beta | STV","players":null},{"server_id":16,"name":"Uncletopia | New York City | 4 | Community","name_short":"nyc-4","host":"nyc-1.us.uncletopia.com","port":27045,"enabled":true,"region":"us-east","cc":"us","latitude":40.73061,"longitude":-73.93524,"reserved":0,"last_update":"0001-01-01T00:00:00Z","name_a2s":"Uncletopia | New York City | 4 | Community","protocol":17,"map":"workshop/koth_product_final.ugc454272353","folder":"tf","game":"Team Fortress","app_id":440,"player_count":0,"max_players":24,"Bots":0,"server_type":"Dedicated","server_os":"Linux","password":true,"vac":true,"version":"7882260","steam_id":85568392924742821,"keywords":["cp","nocrits","nodmgspread","uncletopia"],"game_id":440,"stv_port":27046,"stv_name":"Uncletopia | New York City | 4 | Community | STV","players":null},{"server_id":142,"name":"Uncletopia | S√£o Paulo | 1 | All Maps","name_short":"sao-1","host":"sao-1.br.uncletopia.com","port":27015,"enabled":true,"region":"sa","cc":"br","latitude":-23.533773,"longitude":-46.62529,"reserved":0,"last_update":"0001-01-01T00:00:00Z","name_a2s":"Uncletopia | S√£o Paulo | 1 | All Maps","protocol":17,"map":"pl_badwater","folder":"tf","game":"Team Fortress","app_id":440,"player_count":0,"max_players":24,"Bots":0,"server_type":"Dedicated","server_os":"Linux","password":true,"vac":true,"version":"7882260","steam_id":85568392924469996,"keywords":["nocrits","nodmgspread","payload","uncletopia"],"game_id":440,"stv_port":27016,"stv_name":"Uncletopia | S√£o Paulo | 1 | All Maps | STV","players":null},{"server_id":143,"name":"Uncletopia | S√£o Paulo | 2 | All Maps","name_short":"sao-2","host":"sao-2.br.uncletopia.com","port":27015,"enabled":true,"region":"sa","cc":"br","latitude":-23.533773,"longitude":-46.62529,"reserved":0,"last_update":"0001-01-01T00:00:00Z","name_a2s":"Uncletopia | S√£o Paulo | 2 | All Maps","protocol":17,"map":"pl_borneo","folder":"tf","game":"Team Fortress","app_id":440,"player_count":0,"max_players":24,"Bots":0,"server_type":"Dedicated","server_os":"Linux","password":true,"vac":true,"version":"7882260","steam_id":85568392924485349,"keywords":["nocrits","nodmgspread","payload","uncletopia"],"game_id":440,"stv_port":27016,"stv_name":"Uncletopia | S√£o Paulo | 2 | All Maps | STV","players":null},{"server_id":7,"name":"Uncletopia | Seattle | 1 | All Maps","name_short":"sea-1","host":"sea-1.us.uncletopia.com","port":27015,"enabled":true,"region":"us-west","cc":"us","latitude":47.608013,"longitude":-122.33517,"reserved":0,"last_update":"0001-01-01T00:00:00Z","name_a2s":"Uncletopia | Seattle | 1 | All Maps","protocol":17,"map":"pl_frontier_final","folder":"tf","game":"Team Fortress","app_id":440,"player_count":24,"max_players":24,"Bots":0,"server_type":"Dedicated","server_os":"Linux","password":true,"vac":true,"version":"7882260","steam_id":85568392924469997,"keywords":["nocrits","nodmgspread","payload","uncletopia"],"game_id":440,"stv_port":27016,"stv_name":"Uncletopia | Seattle | 1 | All Maps | STV","players":[{"user_id":721,"name":"BolognaWithOlives","steam_id":76561198101262668,"connected_time":756000000000,"state":"active","ping":88},{"user_id":717,"name":"Johnny Testickle","steam_id":76561198032736600,"connected_time":1572000000000,"state":"active","ping":74},{"user_id":698,"name":"Skabbety","steam_id":76561198168044257,"connected_time":3517000000000,"state":"active","ping":38},{"user_id":714,"name":"Seriously Bruh","steam_id":76561198070408485,"connected_time":1591000000000,"state":"active","ping":57},{"user_id":701,"name":"·≤º ·≤º","steam_id":76561198149443710,"connected_time":3209000000000,"state":"active","ping":89},{"user_id":686,"name":"Hellboy","steam_id":76561198186259779,"connected_time":5023000000000,"state":"active","ping":79},{"user_id":624,"name":"rat gets the cheese","steam_id":76561198031234032,"connected_time":9405000000000,"state":"active","ping":98},{"user_id":705,"name":"Caqtus","steam_id":76561198025599356,"connected_time":2015000000000,"state":"active","ping":82},{"user_id":725,"name":"Byte The Protogen","steam_id":76561199229871383,"connected_time":582000000000,"state":"active","ping":87},{"user_id":722,"name":"SCUD missile up your ass","steam_id":76561198066452726,"connected_time":749000000000,"state":"active","ping":79},{"user_id":718,"name":"Wafflemuscle","steam_id":76561198868628982,"connected_time":1571000000000,"state":"active","ping":49},{"user_id":660,"name":"steve","steam_id":76561198207881077,"connected_time":6486000000000,"state":"active","ping":100},{"user_id":710,"name":"Henchie!","steam_id":76561198047567464,"connected_time":1787000000000,"state":"active","ping":106},{"user_id":697,"name":"dunkin'","steam_id":76561198066114874,"connected_time":3621000000000,"state":"active","ping":61},{"user_id":702,"name":"spenca","steam_id":76561198025371154,"connected_time":3080000000000,"state":"active","ping":75},{"user_id":676,"name":"lusty","steam_id":76561198138478947,"connected_time":5453000000000,"state":"active","ping":42},{"user_id":684,"name":"Noxitril_Enjoyer","steam_id":76561198870649125,"connected_time":5214000000000,"state":"active","ping":85},{"user_id":704,"name":"reiidaya","steam_id":76561198325306660,"connected_time":2598000000000,"state":"active","ping":54},{"user_id":719,"name":"charm quark","steam_id":76561198098770777,"connected_time":1568000000000,"state":"active","ping":59},{"user_id":724,"name":"fwoov","steam_id":76561198129166260,"connected_time":643000000000,"state":"active","ping":76},{"user_id":728,"name":"blinkerton city","steam_id":76561198054270410,"connected_time":556000000000,"state":"active","ping":58},{"user_id":487,"name":"lili","steam_id":76561199391478575,"connected_time":20687000000000,"state":"active","ping":64},{"user_id":690,"name":"shiadyne","steam_id":76561198271939793,"connected_time":4604000000000,"state":"active","ping":54},{"user_id":693,"name":"quaq","steam_id":76561198059604047,"connected_time":4562000000000,"state":"active","ping":40}]},{"server_id":119,"name":"Uncletopia | Seattle | 2 | All Maps","name_short":"sea-2","host":"sea-1.us.uncletopia.com","port":27025,"enabled":true,"region":"us-west","cc":"us","latitude":47.608013,"longitude":-122.33517,"reserved":0,"last_update":"0001-01-01T00:00:00Z","name_a2s":"Uncletopia | Seattle | 2 | All Maps","protocol":17,"map":"pl_pier","folder":"tf","game":"Team Fortress","app_id":440,"player_count":24,"max_players":24,"Bots":0,"server_type":"Dedicated","server_os":"Linux","password":true,"vac":true,"version":"7882260","steam_id":85568392924469998,"keywords":["nocrits","nodmgspread","payload","uncletopia"],"game_id":440,"stv_port":27026,"stv_name":"Uncletopia | Seattle | 2 | All Maps | STV","players":[{"user_id":280,"name":"mooney","steam_id":76561199110622484,"connected_time":5727000000000,"state":"active","ping":73},{"user_id":323,"name":"Melancholy Clown","steam_id":76561198110605813,"connected_time":2100000000000,"state":"active","ping":61},{"user_id":289,"name":"jorts","steam_id":76561199041179985,"connected_time":5053000000000,"state":"active","ping":68},{"user_id":290,"name":"‚ô¶Benji‚ô¶","steam_id":76561198313529973,"connected_time":5038000000000,"state":"active","ping":36},{"user_id":339,"name":"IISBR3AD","steam_id":76561198272068937,"connected_time":50000000000,"state":"active","ping":128},{"user_id":340,"name":"FlamingManiac","steam_id":76561198361996837,"connected_time":9000000000,"state":"spawning","ping":104},{"user_id":320,"name":"i.love.ants.321","steam_id":76561198169755734,"connected_time":2570000000000,"state":"active","ping":65},{"user_id":341,"name":"Samvich","steam_id":76561198263319227,"connected_time":9000000000,"state":"active","ping":62},{"user_id":334,"name":"Pah-Wraith Gul Dukat","steam_id":76561198033918106,"connected_time":475000000000,"state":"active","ping":82},{"user_id":316,"name":"thunderous prophet","steam_id":76561198131166135,"connected_time":3297000000000,"state":"active","ping":38},{"user_id":260,"name":"Florist","steam_id":76561198009121060,"connected_time":6791000000000,"state":"active","ping":45},{"user_id":244,"name":"Zincian","steam_id":76561198055484259,"connected_time":7806000000000,"state":"active","ping":58},{"user_id":335,"name":"Mothman","steam_id":76561198050672409,"connected_time":474000000000,"state":"active","ping":84},{"user_id":310,"name":"NEBULA","steam_id":76561198086878595,"connected_time":3522000000000,"state":"active","ping":74},{"user_id":327,"name":"MisterManne","steam_id":76561198106598600,"connected_time":1790000000000,"state":"active","ping":61},{"user_id":325,"name":"BlazedBunny","steam_id":76561198243610560,"connected_time":1805000000000,"state":"active","ping":80},{"user_id":317,"name":"Retesaurus","steam_id":76561198045189319,"connected_time":3088000000000,"state":"active","ping":52},{"user_id":324,"name":"Asphodel","steam_id":76561198750101819,"connected_time":1818000000000,"state":"active","ping":99},{"user_id":308,"name":"weegeebad","steam_id":76561198280841437,"connected_time":3765000000000,"state":"active","ping":116},{"user_id":309,"name":"CashGordon","steam_id":76561197975594096,"connected_time":3554000000000,"state":"active","ping":40},{"user_id":331,"name":"Username","steam_id":76561198198918781,"connected_time":1500000000000,"state":"active","ping":99},{"user_id":332,"name":"gorlab","steam_id":76561198025089694,"connected_time":497000000000,"state":"active","ping":67},{"user_id":322,"name":"butfuqit","steam_id":76561198415245374,"connected_time":2460000000000,"state":"active","ping":94},{"user_id":333,"name":"Shields","steam_id":76561198043216746,"connected_time":497000000000,"state":"active","ping":67}]},{"server_id":406,"name":"Uncletopia | Seattle | 3 | Stopwatch Beta","name_short":"sea-3","host":"sea-1.us.uncletopia.com","port":27035,"enabled":true,"region":"us-west","cc":"us","latitude":47.608013,"longitude":-122.33517,"reserved":0,"last_update":"0001-01-01T00:00:00Z","name_a2s":"Uncletopia | Seattle | 3 | Stopwatch Beta","protocol":17,"map":"koth_lakeside_final","folder":"tf","game":"Team Fortress","app_id":440,"player_count":14,"max_players":24,"Bots":0,"server_type":"Dedicated","server_os":"Linux","password":true,"vac":true,"version":"7882260","steam_id":85568392924515217,"keywords":["cp","nocrits","nodmgspread","uncletopia"],"game_id":440,"stv_port":27036,"stv_name":"Uncletopia | Seattle | 3 | Stopwatch Beta | STV","players":[{"user_id":260,"name":"miscellaneous","steam_id":76561199436642954,"connected_time":842000000000,"state":"active","ping":57},{"user_id":275,"name":"goldhed","steam_id":76561198051751133,"connected_time":231000000000,"state":"active","ping":61},{"user_id":268,"name":"Sleempreem","steam_id":76561198131987251,"connected_time":470000000000,"state":"active","ping":69},{"user_id":269,"name":"gadisboss","steam_id":76561198301704975,"connected_time":466000000000,"state":"active","ping":89},{"user_id":262,"name":"üÖúüÖîüÖîüÖöüÖ¢üÖ£üÖî\ufffd\ufffd\ufffd","steam_id":76561197999748343,"connected_time":669000000000,"state":"active","ping":90},{"user_id":258,"name":"Bottle","steam_id":76561198170190655,"connected_time":1059000000000,"state":"active","ping":87},{"user_id":263,"name":"gawk gawk 9001","steam_id":76561198149217841,"connected_time":636000000000,"state":"active","ping":53},{"user_id":264,"name":"Blitzy","steam_id":76561198149472890,"connected_time":630000000000,"state":"active","ping":63},{"user_id":234,"name":"Bonjolor","steam_id":76561198302904255,"connected_time":3722000000000,"state":"active","ping":40},{"user_id":265,"name":"Dongus","steam_id":76561197979056451,"connected_time":621000000000,"state":"active","ping":45},{"user_id":266,"name":"Leaderofthe00fkins","steam_id":76561198281999872,"connected_time":610000000000,"state":"active","ping":77},{"user_id":273,"name":"bobby cigarette","steam_id":76561198059780866,"connected_time":413000000000,"state":"active","ping":133},{"user_id":271,"name":"Fluffy","steam_id":76561198213561811,"connected_time":460000000000,"state":"active","ping":63},{"user_id":272,"name":"u know i keep","steam_id":76561198094615739,"connected_time":459000000000,"state":"active","ping":78}]},{"server_id":17,"name":"Uncletopia | San Francisco | 1 | All Maps","name_short":"sfo-1","host":"sfo-1.us.uncletopia.com","port":27015,"enabled":true,"region":"us-west","cc":"us","latitude":37.77397,"longitude":-122.4313,"reserved":0,"last_update":"0001-01-01T00:00:00Z","name_a2s":"Uncletopia | San Francisco | 1 | All Maps","protocol":17,"map":"pl_frontier_final","folder":"tf","game":"Team Fortress","app_id":440,"player_count":24,"max_players":24,"Bots":0,"server_type":"Dedicated","server_os":"Linux","password":true,"vac":true,"version":"7882260","steam_id":85568392924469999,"keywords":["nocrits","nodmgspread","payload","uncletopia"],"game_id":440,"stv_port":27016,"stv_name":"Uncletopia | San Francisco | 1 | All Maps | STV","players":[{"user_id":351,"name":"YASAI JUICE","steam_id":76561198131971992,"connected_time":279000000000,"state":"active","ping":82},{"user_id":343,"name":"Punished Jeff (Drain Messiah)","steam_id":76561198304252584,"connected_time":1373000000000,"state":"active","ping":68},{"user_id":331,"name":"sora","steam_id":76561198094256973,"connected_time":1887000000000,"state":"active","ping":90},{"user_id":349,"name":"log","steam_id":76561198386992717,"connected_time":759000000000,"state":"active","ping":111},{"user_id":326,"name":"Hector Salamanca","steam_id":76561199103213955,"connected_time":2004000000000,"state":"active","ping":59},{"user_id":338,"name":"Major_Pippy","steam_id":76561198004482878,"connected_time":1797000000000,"state":"active","ping":70},{"user_id":352,"name":"El Gato Paranoico","steam_id":76561198116567116,"connected_time":254000000000,"state":"active","ping":105},{"user_id":217,"name":"The Horny","steam_id":76561198863639459,"connected_time":8992000000000,"state":"active","ping":81},{"user_id":333,"name":"RagingRoosevelt","steam_id":76561197985483153,"connected_time":1857000000000,"state":"active","ping":67},{"user_id":318,"name":"Balerion the Black Dread","steam_id":76561198003728369,"connected_time":2363000000000,"state":"active","ping":67},{"user_id":330,"name":"Freakoid","steam_id":76561198087177094,"connected_time":1961000000000,"state":"active","ping":57},{"user_id":332,"name":"Tiny Fisto","steam_id":76561198446888505,"connected_time":1881000000000,"state":"active","ping":119},{"user_id":334,"name":"professional twelve year old","steam_id":76561198858796870,"connected_time":1855000000000,"state":"active","ping":59},{"user_id":344,"name":"cliftoce","steam_id":76561197998912007,"connected_time":1176000000000,"state":"active","ping":60},{"user_id":353,"name":"PTR","steam_id":76561198237253772,"connected_time":191000000000,"state":"active","ping":87},{"user_id":357,"name":"Pagman2","steam_id":76561199152655859,"connected_time":98000000000,"state":"active","ping":105},{"user_id":354,"name":"Vriska","steam_id":76561198942104681,"connected_time":188000000000,"state":"active","ping":70},{"user_id":337,"name":"SolarusD","steam_id":76561198029279861,"connected_time":1807000000000,"state":"active","ping":46},{"user_id":277,"name":"JD","steam_id":76561198202669250,"connected_time":3567000000000,"state":"active","ping":117},{"user_id":358,"name":"MaDeuce","steam_id":76561198110732835,"connected_time":5000000000,"state":"spawning","ping":74},{"user_id":339,"name":"Bogeyman","steam_id":76561198829294071,"connected_time":1777000000000,"state":"active","ping":149},{"user_id":348,"name":"i cry .","steam_id":76561199193020423,"connected_time":885000000000,"state":"active","ping":65},{"user_id":345,"name":"Thomas Chavira Gaming","steam_id":76561198313671617,"connected_time":1079000000000,"state":"active","ping":60},{"user_id":356,"name":"Hezxp","steam_id":76561198312931111,"connected_time":166000000000,"state":"active","ping":75}]},{"server_id":18,"name":"Uncletopia | San Francisco | 2 | All Maps","name_short":"sfo-2","host":"sfo-1.us.uncletopia.com","port":27025,"enabled":true,"region":"us-west","cc":"us","latitude":37.77397,"longitude":-122.4313,"reserved":0,"last_update":"0001-01-01T00:00:00Z","name_a2s":"Uncletopia | San Francisco | 2 | All Maps","protocol":17,"map":"cp_mountainlab","folder":"tf","game":"Team Fortress","app_id":440,"player_count":0,"max_players":24,"Bots":0,"server_type":"Dedicated","server_os":"Linux","password":true,"vac":true,"version":"7882260","steam_id":85568392924470000,"keywords":["cp","nocrits","nodmgspread","uncletopia"],"game_id":440,"stv_port":27026,"stv_name":"Uncletopia | San Francisco | 2 | All Maps | STV","players":null},{"server_id":19,"name":"Uncletopia | San Francisco | 3 | Stopwatch Beta","name_short":"sfo-3","host":"sfo-1.us.uncletopia.com","port":27035,"enabled":true,"region":"us-west","cc":"us","latitude":37.77397,"longitude":-122.4313,"reserved":0,"last_update":"0001-01-01T00:00:00Z","name_a2s":"Uncletopia | San Francisco | 3 | Stopwatch Beta","protocol":17,"map":"pl_snowycoast","folder":"tf","game":"Team Fortress","app_id":440,"player_count":0,"max_players":24,"Bots":0,"server_type":"Dedicated","server_os":"Linux","password":true,"vac":true,"version":"7882260","steam_id":85568392924742824,"keywords":["nocrits","nodmgspread","payload","uncletopia"],"game_id":440,"stv_port":27036,"stv_name":"Uncletopia | San Francisco | 3 | Stopwatch Beta | STV","players":null},{"server_id":20,"name":"Uncletopia | San Francisco | 4 | Community","name_short":"sfo-4","host":"sfo-1.us.uncletopia.com","port":27045,"enabled":true,"region":"us-west","cc":"us","latitude":37.77397,"longitude":-122.4313,"reserved":0,"last_update":"0001-01-01T00:00:00Z","name_a2s":"Uncletopia | San Francisco | 4 | Community","protocol":17,"map":"workshop/cp_kalinka_rc6a.ugc1272700588","folder":"tf","game":"Team Fortress","app_id":440,"player_count":0,"max_players":24,"Bots":0,"server_type":"Dedicated","server_os":"Linux","password":true,"vac":true,"version":"7882260","steam_id":85568392924742826,"keywords":["cp","nocrits","nodmgspread","uncletopia"],"game_id":440,"stv_port":27046,"stv_name":"Uncletopia | San Francisco | 4 | Community | STV","players":null},{"server_id":141,"name":"Uncletopia | Sydney | 1 | All Maps","name_short":"syd-1","host":"syd-1.au.uncletopia.com","port":27015,"enabled":true,"region":"au","cc":"au","latitude":-33.865143,"longitude":151.2099,"reserved":0,"last_update":"0001-01-01T00:00:00Z","name_a2s":"Uncletopia | Sydney | 1 | All Maps","protocol":17,"map":"pl_badwater","folder":"tf","game":"Team Fortress","app_id":440,"player_count":10,"max_players":24,"Bots":0,"server_type":"Dedicated","server_os":"Linux","password":true,"vac":true,"version":"7882260","steam_id":85568392924470001,"keywords":["nocrits","nodmgspread","payload","uncletopia"],"game_id":440,"stv_port":27016,"stv_name":"Uncletopia | Sydney | 1 | All Maps | STV","players":[{"user_id":72,"name":"The :)","steam_id":76561198958059883,"connected_time":3199000000000,"state":"active","ping":82},{"user_id":92,"name":"Blondie","steam_id":76561198046977058,"connected_time":568000000000,"state":"active","ping":67},{"user_id":86,"name":"Your Local Karen Hunter","steam_id":76561199469410668,"connected_time":1948000000000,"state":"active","ping":100},{"user_id":87,"name":"The World's Angriest Bee","steam_id":76561197978273424,"connected_time":1710000000000,"state":"active","ping":50},{"user_id":89,"name":"Denszeal","steam_id":76561198313718095,"connected_time":1399000000000,"state":"active","ping":70},{"user_id":93,"name":"meatenschlappen","steam_id":76561198048064049,"connected_time":233000000000,"state":"active","ping":74},{"user_id":94,"name":"splurboingus wazoogort","steam_id":76561198063481761,"connected_time":223000000000,"state":"active","ping":45},{"user_id":76,"name":"BOSsPOPFIZz","steam_id":76561198841371844,"connected_time":2958000000000,"state":"active","ping":88},{"user_id":91,"name":"Phibs","steam_id":76561199323730865,"connected_time":1264000000000,"state":"active","ping":44},{"user_id":95,"name":"send me ur Gerrards","steam_id":76561198301282416,"connected_time":209000000000,"state":"active","ping":53}]},{"server_id":123,"name":"Uncletopia | Sydney | 2 | All Maps","name_short":"syd-2","host":"syd-1.au.uncletopia.com","port":27025,"enabled":true,"region":"au","cc":"au","latitude":-33.865143,"longitude":151.2099,"reserved":0,"last_update":"0001-01-01T00:00:00Z","name_a2s":"Uncletopia | Sydney | 2 | All Maps","protocol":17,"map":"pl_pier","folder":"tf","game":"Team Fortress","app_id":440,"player_count":0,"max_players":24,"Bots":0,"server_type":"Dedicated","server_os":"Linux","password":true,"vac":true,"version":"7882260","steam_id":85568392924470002,"keywords":["nocrits","nodmgspread","payload","uncletopia"],"game_id":440,"stv_port":27026,"stv_name":"Uncletopia | Sydney | 2 | All Maps | STV","players":null},{"server_id":395,"name":"Uncletopia | Sydney | 3 | All Maps","name_short":"syd-3","host":"syd-1.au.uncletopia.com","port":27035,"enabled":true,"region":"au","cc":"au","latitude":-33.865143,"longitude":151.2099,"reserved":0,"last_update":"0001-01-01T00:00:00Z","name_a2s":"Uncletopia | Sydney | 3 | All Maps","protocol":17,"map":"pl_badwater","folder":"tf","game":"Team Fortress","app_id":440,"player_count":0,"max_players":24,"Bots":0,"server_type":"Dedicated","server_os":"Linux","password":true,"vac":true,"version":"7882260","steam_id":85568392925194467,"keywords":["nocrits","nodmgspread","payload","uncletopia"],"game_id":440,"stv_port":27036,"stv_name":"Uncletopia | Sydney | 3 | All Maps | STV","players":null},{"server_id":396,"name":"Uncletopia | Sydney | 4 | All Maps","name_short":"syd-4","host":"syd-1.au.uncletopia.com","port":27045,"enabled":true,"region":"au","cc":"au","latitude":-33.865143,"longitude":151.2099,"reserved":0,"last_update":"0001-01-01T00:00:00Z","name_a2s":"Uncletopia | Sydney | 4 | All Maps","protocol":17,"map":"cp_altitude","folder":"tf","game":"Team Fortress","app_id":440,"player_count":0,"max_players":24,"Bots":0,"server_type":"Dedicated","server_os":"Linux","password":true,"vac":true,"version":"7882260","steam_id":85568392925397958,"keywords":["cp","nocrits","nodmgspread","uncletopia"],"game_id":440,"stv_port":27046,"stv_name":"Uncletopia | Sydney | 4 | All Maps | STV","players":null},{"server_id":58,"name":"Uncletopia | Sydney | 5 | Stopwatch Beta","name_short":"syd-5","host":"syd-1.au.uncletopia.com","port":27055,"enabled":true,"region":"au","cc":"au","latitude":-33.865143,"longitude":151.2099,"reserved":0,"last_update":"0001-01-01T00:00:00Z","name_a2s":"Uncletopia | Sydney | 5 | Stopwatch Beta","protocol":17,"map":"koth_viaduct","folder":"tf","game":"Team Fortress","app_id":440,"player_count":0,"max_players":24,"Bots":0,"server_type":"Dedicated","server_os":"Linux","password":true,"vac":true,"version":"7882260","steam_id":85568392925397959,"keywords":["cp","nocrits","nodmgspread","uncletopia"],"game_id":440,"stv_port":27056,"stv_name":"Uncletopia | Sydney | 5 | Stopwatch Beta | STV","players":null},{"server_id":59,"name":"Uncletopia | Sydney | 6 | Community","name_short":"syd-6","host":"syd-1.au.uncletopia.com","port":27065,"enabled":true,"region":"au","cc":"au","latitude":-33.865143,"longitude":151.2099,"reserved":0,"last_update":"0001-01-01T00:00:00Z","name_a2s":"Uncletopia | Sydney | 6 | Community","protocol":17,"map":"workshop/pl_emerge_rc2.ugc888027758","folder":"tf","game":"Team Fortress","app_id":440,"player_count":0,"max_players":24,"Bots":0,"server_type":"Dedicated","server_os":"Linux","password":true,"vac":true,"version":"7882260","steam_id":85568392925397960,"keywords":["nocrits","nodmgspread","payload","uncletopia"],"game_id":440,"stv_port":27066,"stv_name":"Uncletopia | Sydney | 6 | Community | STV","players":null},{"server_id":49,"name":"Uncletopia | Warsaw | 1 | All Maps","name_short":"waw-1","host":"waw-1.pl.uncletopia.com","port":27015,"enabled":true,"region":"eu","cc":"pl","latitude":52.2297,"longitude":21.017532,"reserved":0,"last_update":"0001-01-01T00:00:00Z","name_a2s":"","protocol":0,"map":"","folder":"","game":"","app_id":0,"player_count":0,"max_players":0,"Bots":0,"server_type":"","server_os":"","password":false,"vac":false,"version":"","steam_id":0,"keywords":null,"game_id":0,"stv_port":0,"stv_name":"","players":null},{"server_id":50,"name":"Uncletopia | Warsaw | 2 | All Maps","name_short":"waw-2","host":"waw-1.pl.uncletopia.com","port":27025,"enabled":true,"region":"eu","cc":"pl","latitude":52.2297,"longitude":21.017532,"reserved":0,"last_update":"0001-01-01T00:00:00Z","name_a2s":"Uncletopia | Warsaw | 2 | All Maps","protocol":17,"map":"koth_viaduct","folder":"tf","game":"Team Fortress","app_id":440,"player_count":0,"max_players":24,"Bots":0,"server_type":"Dedicated","server_os":"Linux","password":true,"vac":true,"version":"7882260","steam_id":85568392925397851,"keywords":["cp","nocrits","nodmgspread","uncletopia"],"game_id":440,"stv_port":27026,"stv_name":"Uncletopia | Warsaw | 2 | All Maps | STV","players":null},{"server_id":51,"name":"Uncletopia | Warsaw | 3 | All Maps","name_short":"waw-3","host":"waw-1.pl.uncletopia.com","port":27035,"enabled":true,"region":"eu","cc":"pl","latitude":52.2297,"longitude":21.017532,"reserved":0,"last_update":"0001-01-01T00:00:00Z","name_a2s":"Uncletopia | Warsaw | 3 | All Maps","protocol":17,"map":"pl_upward","folder":"tf","game":"Team Fortress","app_id":440,"player_count":0,"max_players":24,"Bots":0,"server_type":"Dedicated","server_os":"Linux","password":true,"vac":true,"version":"7882260","steam_id":85568392925397852,"keywords":["nocrits","nodmgspread","payload","uncletopia"],"game_id":440,"stv_port":27036,"stv_name":"Uncletopia | Warsaw | 3 | All Maps | STV","players":null},{"server_id":52,"name":"Uncletopia | Warsaw | 4 | All Maps","name_short":"waw-4","host":"waw-1.pl.uncletopia.com","port":27045,"enabled":true,"region":"eu","cc":"pl","latitude":52.2297,"longitude":21.017532,"reserved":0,"last_update":"0001-01-01T00:00:00Z","name_a2s":"Uncletopia | Warsaw | 4 | All Maps","protocol":17,"map":"pl_barnblitz","folder":"tf","game":"Team Fortress","app_id":440,"player_count":0,"max_players":24,"Bots":0,"server_type":"Dedicated","server_os":"Linux","password":true,"vac":true,"version":"7882260","steam_id":85568392925397853,"keywords":["nocrits","nodmgspread","payload","uncletopia"],"game_id":440,"stv_port":27046,"stv_name":"Uncletopia | Warsaw | 4 | All Maps | STV","players":null},{"server_id":53,"name":"Uncletopia | Warsaw | 5 | Stopwatch Beta","name_short":"waw-5","host":"waw-1.pl.uncletopia.com","port":27055,"enabled":true,"region":"eu","cc":"pl","latitude":52.2297,"longitude":21.017532,"reserved":0,"last_update":"0001-01-01T00:00:00Z","name_a2s":"Uncletopia | Warsaw | 5 | Stopwatch Beta","protocol":17,"map":"workshop/koth_ramjam_rc1.ugc459778887","folder":"tf","game":"Team Fortress","app_id":440,"player_count":0,"max_players":24,"Bots":0,"server_type":"Dedicated","server_os":"Linux","password":true,"vac":true,"version":"7882260","steam_id":85568392925397854,"keywords":["cp","nocrits","nodmgspread","uncletopia"],"game_id":440,"stv_port":27056,"stv_name":"Uncletopia | Warsaw | 5 | Stopwatch Beta | STV","players":null},{"server_id":54,"name":"Uncletopia | Warsaw | 6 | Community","name_short":"waw-6","host":"waw-1.pl.uncletopia.com","port":27065,"enabled":true,"region":"eu","cc":"pl","latitude":52.2297,"longitude":21.017532,"reserved":0,"last_update":"0001-01-01T00:00:00Z","name_a2s":"Uncletopia | Warsaw | 6 | Community","protocol":17,"map":"workshop/cp_reckoner_rc6.ugc674719999","folder":"tf","game":"Team Fortress","app_id":440,"player_count":0,"max_players":24,"Bots":0,"server_type":"Dedicated","server_os":"Linux","password":true,"vac":true,"version":"7882260","steam_id":85568392925397856,"keywords":["cp","nocrits","nodmgspread","uncletopia"],"game_id":440,"stv_port":27066,"stv_name":"Uncletopia | Warsaw | 6 | Community | STV","players":null}]}