{"status":true,"message":"","result":[{"server_id":9,"name":"Uncletopia | Atlanta | 1 | All Maps","name_short":"atl-1","host":"atl-1.us.uncletopia.com","port":27015,"enabled":true,"region":"us-east","cc":"us","latitude":33.753746,"longitude":-84.38633,"reserved":0,"last_update":"0001-01-01T00:00:00Z","name_a2s":"Uncletopia | Atlanta | 1 | All Maps","protocol":17,"map":"cp_process_final","folder":"tf","game":"Team Fortress","app_id":440,"player_count":24,"max_players":24,"Bots":0,"server_type":"Dedicated","server_os":"Linux","password":true,"vac":true,"version":"7961495","steam_id":85568392924469982,"keywords":["cp","nocrits","nodmgspread","uncletopia"],"game_id":440,"stv_port":27016,"stv_name":"Uncletopia | Atlanta | 1 | All Maps | STV","players":[{"user_id":538,"name":"lynt","steam_id":76561198988333976,"connected_time":728000000000,"state":"active","ping":44},{"user_id":467,"name":"Hydroxianchaos","steam_id":76561198043786828,"connected_time":2441000000000,"state":"active","ping":66},{"user_id":473,"name":"Neptune˖⁺｡˚⋆˙♥","steam_id":76561199054203198,"connected_time":2133000000000,"state":"active","ping":78},{"user_id":541,"name":"shinon","steam_id":76561198373626848,"connected_time":147000000000,"state":"active","ping":64},{"user_id":462,"name":"johnny wang","steam_id":76561198969143876,"connected_time":3044000000000,"state":"active","ping":72},{"user_id":474,"name":"chexo4","steam_id":76561198150532531,"connected_time":2129000000000,"state":"active","ping":51},{"user_id":465,"name":"Sinta","steam_id":76561198098398841,"connected_time":2530000000000,"state":"active","ping":60},{"user_id":477,"name":"✚PINKY✚","steam_id":76561198833348537,"connected_time":2056000000000,"state":"active","ping":98},{"user_id":539,"name":"Im High","steam_id":76561198049954886,"connected_time":440000000000,"state":"active","ping":71},{"user_id":540,"name":"zacmattsmith","steam_id":76561199027704149,"connected_time":389000000000,"state":"active","ping":72},{"user_id":534,"name":"Heathcliff","steam_id":76561198044288534,"connected_time":1158000000000,"state":"active","ping":77},{"user_id":415,"name":"twitch.tv/kegaman_","steam_id":76561198043632775,"connected_time":7125000000000,"state":"active","ping":113},{"user_id":439,"name":"josie","steam_id":76561198170848553,"connected_time":5027000000000,"state":"active","ping":105},{"user_id":536,"name":"Albino Jellyfish","steam_id":76561198208561097,"connected_time":912000000000,"state":"active","ping":59},{"user_id":480,"name":"teaf","steam_id":76561198406252824,"connected_time":1900000000000,"state":"active","ping":111},{"user_id":463,"name":"ATL1 | Uganda (Steel enjoyer)","steam_id":76561199121276474,"connected_time":2689000000000,"state":"active","ping":139},{"user_id":535,"name":"Woke Bush","steam_id":76561198047994501,"connected_time":1125000000000,"state":"active","ping":46},{"user_id":482,"name":"Pango","steam_id":76561198069811545,"connected_time":1833000000000,"state":"active","ping":42},{"user_id":502,"name":"ATL1 | on my hunting trip","steam_id":76561198315341646,"connected_time":1515000000000,"state":"active","ping":69},{"user_id":452,"name":"DuckMann","steam_id":76561198197058638,"connected_time":4031000000000,"state":"active","ping":63},{"user_id":531,"name":"sansa musa","steam_id":76561198163723555,"connected_time":1258000000000,"state":"active","ping":62},{"user_id":490,"name":"Lily (she/her)","steam_id":76561198355495948,"connected_time":1758000000000,"state":"active","ping":60},{"user_id":472,"name":"pootispogger69","steam_id":76561198249206656,"connected_time":2177000000000,"state":"active","ping":79},{"user_id":446,"name":"Kc","steam_id":76561198210734407,"connected_time":4450000000000,"state":"active","ping":49}]},{"server_id":104,"name":"Uncletopia | Atlanta | 2 | All Maps","name_short":"atl-2","host":"atl-1.us.uncletopia.com","port":27025,"enabled":true,"region":"us-east","cc":"us","latitude":33.753746,"longitude":-84.38633,"reserved":0,"last_update":"0001-01-01T00:00:00Z","name_a2s":"Uncletopia | Atlanta | 2 | All Maps","protocol":17,"map":"cp_sunshine","folder":"tf","game":"Team Fortress","app_id":440,"player_count":23,"max_players":24,"Bots":0,"server_type":"Dedicated","server_os":"Linux","password":true,"vac":true,"version":"7961495","steam_id":85568392924469983,"keywords":["cp","nocrits","nodmgspread","uncletopia"],"game_id":440,"stv_port":27026,"stv_name":"Uncletopia | Atlanta | 2 | All Maps | STV","players":[{"user_id":83,"name":"Mr. Squirt","steam_id":76561198174755679,"connected_time":4335000000000,"state":"active","ping":52},{"user_id":78,"name":"Dewey Obababa-ooo Mamma-say Mam","steam_id":76561198142756572,"connected_time":5131000000000,"state":"active","ping":45},{"user_id":94,"name":"Two-Ton Heavy Thing","steam_id":76561198201724274,"connected_time":3437000000000,"state":"active","ping":78},{"user_id":150,"name":"TF2C | fac","steam_id":76561198009818412,"connected_time":576000000000,"state":"active","ping":70},{"user_id":82,"name":"el vengador de la tienda","steam_id":76561199081928341,"connected_time":4381000000000,"state":"active","ping":81},{"user_id":123,"name":"Professor K","steam_id":76561198255775561,"connected_time":1929000000000,"state":"active","ping":121},{"user_id":97,"name":"DrChillin","steam_id":76561198043824865,"connected_time":3352000000000,"state":"active","ping":94},{"user_id":152,"name":"Mask","steam_id":76561198877649728,"connected_time":218000000000,"state":"active","ping":129},{"user_id":147,"name":"Draco6257","steam_id":76561199147322448,"connected_time":664000000000,"state":"active","ping":63},{"user_id":104,"name":"JasonYELL","steam_id":76561198054943788,"connected_time":3134000000000,"state":"active","ping":76},{"user_id":153,"name":"Throstle","steam_id":76561197971330175,"connected_time":127000000000,"state":"active","ping":79},{"user_id":124,"name":"My Tummy Hurts :(","steam_id":76561198168976029,"connected_time":1852000000000,"state":"active","ping":97},{"user_id":154,"name":"Lord Scrubling","steam_id":76561198263744445,"connected_time":103000000000,"state":"active","ping":69},{"user_id":56,"name":"SEGNO","steam_id":76561198102780113,"connected_time":6404000000000,"state":"active","ping":83},{"user_id":132,"name":"Viewie","steam_id":76561198280108853,"connected_time":1530000000000,"state":"active","ping":76},{"user_id":141,"name":"♡♥human trafficking♥♡","steam_id":76561198309823950,"connected_time":1127000000000,"state":"active","ping":104},{"user_id":139,"name":"TheSecretNewbie","steam_id":76561198194671218,"connected_time":1192000000000,"state":"active","ping":41},{"user_id":149,"name":"diamond sword","steam_id":76561198415577499,"connected_time":596000000000,"state":"active","ping":83},{"user_id":111,"name":"Greatcascade","steam_id":76561198161218812,"connected_time":2620000000000,"state":"active","ping":67},{"user_id":112,"name":"Octomal800","steam_id":76561199453595616,"connected_time":2574000000000,"state":"active","ping":70},{"user_id":151,"name":"BuncusBeffer","steam_id":76561198285936616,"connected_time":280000000000,"state":"active","ping":109},{"user_id":69,"name":"Singularity","steam_id":76561198199217834,"connected_time":5723000000000,"state":"active","ping":116},{"user_id":88,"name":"CheetoSmoke7","steam_id":76561198095217273,"connected_time":4007000000000,"state":"active","ping":69}]},{"server_id":400,"name":"Uncletopia | Atlanta | 3 | Stopwatch","name_short":"atl-3","host":"atl-1.us.uncletopia.com","port":27035,"enabled":true,"region":"us-east","cc":"us","latitude":33.753746,"longitude":-84.38633,"reserved":0,"last_update":"0001-01-01T00:00:00Z","name_a2s":"Uncletopia | Atlanta | 3 | Stopwatch","protocol":17,"map":"koth_highpass","folder":"tf","game":"Team Fortress","app_id":440,"player_count":0,"max_players":24,"Bots":0,"server_type":"Dedicated","server_os":"Linux","password":true,"vac":true,"version":"7961495","steam_id":85568392924515187,"keywords":["cp","nocrits","nodmgspread","uncletopia"],"game_id":440,"stv_port":27036,"stv_name":"Uncletopia | Atlanta | 3 | Stopwatch | STV","players":null},{"server_id":401,"name":"Uncletopia | Atlanta | 4 | Community","name_short":"atl-4","host":"atl-1.us.uncletopia.com","port":27045,"enabled":true,"region":"us-east","cc":"us","latitude":33.753746,"longitude":-84.38633,"reserved":0,"last_update":"0001-01-01T00:00:00Z","name_a2s":"Uncletopia | Atlanta | 4 | Community","protocol":17,"map":"workshop/koth_bagel_rc6.ugc2514036946","folder":"tf","game":"Team Fortress","app_id":440,"player_count":0,"max_players":24,"Bots":0,"server_type":"Dedicated","server_os":"Linux","password":true,"vac":true,"version":"7961495","steam_id":85568392924515188,"keywords":["cp","nocrits","nodmgspread","uncletopia"],"game_id":440,"stv_port":27046,"stv_name":"Uncletopia | Atlanta | 4 | Community | STV","players":null},{"server_id":2,"name":"Uncletopia | Chicago | 1 | All Maps","name_short":"chi-1","host":"chi-1.us.uncletopia.com","port":27015,"enabled":true,"region":"us-central","cc":"us","latitude":41.881832,"longitude":-87.62318,"reserved":0,"last_update":"0001-01-01T00:00:00Z","name_a2s":"Uncletopia | Chicago | 1 | All Maps","protocol":17,"map":"pl_badwater","folder":"tf","game":"Team Fortress","app_id":440,"player_count":24,"max_players":24,"Bots":0,"server_type":"Dedicated","server_os":"Linux","password":true,"vac":true,"version":"7961495","steam_id":85568392924469984,"keywords":["nocrits","nodmgspread","payload","uncletopia"],"game_id":440,"stv_port":27016,"stv_name":"Uncletopia | Chicago | 1 | All Maps | STV","players":[{"user_id":325,"name":"Tom","steam_id":76561198070630154,"connected_time":288000000000,"state":"active","ping":81},{"user_id":313,"name":"Snom","steam_id":76561198333827920,"connected_time":1043000000000,"state":"active","ping":99},{"user_id":304,"name":"Trepidpotato","steam_id":76561199230865007,"connected_time":2360000000000,"state":"active","ping":60},{"user_id":328,"name":"UzedPickle","steam_id":76561198005513760,"connected_time":199000000000,"state":"active","ping":69},{"user_id":305,"name":"Traceback","steam_id":76561197993212340,"connected_time":2303000000000,"state":"active","ping":73},{"user_id":322,"name":"jordanfer111","steam_id":76561198044993097,"connected_time":360000000000,"state":"active","ping":102},{"user_id":323,"name":"the_wolfman111","steam_id":76561198880434275,"connected_time":349000000000,"state":"active","ping":63},{"user_id":326,"name":"Pigsicle","steam_id":76561198215696320,"connected_time":267000000000,"state":"active","ping":48},{"user_id":306,"name":"astrobob911","steam_id":76561199099110654,"connected_time":2275000000000,"state":"active","ping":69},{"user_id":327,"name":"bookreader","steam_id":76561198978568007,"connected_time":224000000000,"state":"active","ping":48},{"user_id":320,"name":"FattSucc","steam_id":76561198009500503,"connected_time":486000000000,"state":"active","ping":89},{"user_id":290,"name":"✧.*Remzy✧.*","steam_id":76561199239412094,"connected_time":4117000000000,"state":"active","ping":145},{"user_id":329,"name":"Ajaxica","steam_id":76561198220666152,"connected_time":189000000000,"state":"active","ping":57},{"user_id":307,"name":"SammyD","steam_id":76561198057216118,"connected_time":2145000000000,"state":"active","ping":71},{"user_id":288,"name":"PickleHater13","steam_id":76561198259380127,"connected_time":4177000000000,"state":"active","ping":60},{"user_id":330,"name":"The Horny","steam_id":76561198863639459,"connected_time":170000000000,"state":"active","ping":119},{"user_id":315,"name":"Griffin","steam_id":76561198159339442,"connected_time":1033000000000,"state":"active","ping":65},{"user_id":311,"name":"a rabbit with a keyboard","steam_id":76561198129051488,"connected_time":1715000000000,"state":"active","ping":60},{"user_id":284,"name":"Nate","steam_id":76561198044469419,"connected_time":4548000000000,"state":"active","ping":73},{"user_id":331,"name":"Belvidere","steam_id":76561198121336953,"connected_time":168000000000,"state":"active","ping":78},{"user_id":321,"name":"chok","steam_id":76561198242016100,"connected_time":450000000000,"state":"active","ping":91},{"user_id":319,"name":"bird enthusiast","steam_id":76561198087661713,"connected_time":570000000000,"state":"active","ping":60},{"user_id":249,"name":"Lia_Rein","steam_id":76561198151569597,"connected_time":7016000000000,"state":"active","ping":138},{"user_id":332,"name":"artemisjackson2","steam_id":76561199094686268,"connected_time":157000000000,"state":"active","ping":67}]},{"server_id":106,"name":"Uncletopia | Chicago | 2 | All Maps","name_short":"chi-2","host":"chi-1.us.uncletopia.com","port":27025,"enabled":true,"region":"us-central","cc":"us","latitude":41.881832,"longitude":-87.62318,"reserved":0,"last_update":"0001-01-01T00:00:00Z","name_a2s":"Uncletopia | Chicago | 2 | All Maps","protocol":17,"map":"pl_upward","folder":"tf","game":"Team Fortress","app_id":440,"player_count":24,"max_players":24,"Bots":0,"server_type":"Dedicated","server_os":"Linux","password":true,"vac":true,"version":"7961495","steam_id":85568392924469985,"keywords":["nocrits","nodmgspread","payload","uncletopia"],"game_id":440,"stv_port":27026,"stv_name":"Uncletopia | Chicago | 2 | All Maps | STV","players":[{"user_id":385,"name":"Pixel","steam_id":76561198129243055,"connected_time":20000000000,"state":"spawning","ping":91},{"user_id":332,"name":"Danny","steam_id":76561198089084860,"connected_time":3506000000000,"state":"active","ping":106},{"user_id":359,"name":"NerdyEnforcement","steam_id":76561198437710820,"connected_time":2223000000000,"state":"active","ping":68},{"user_id":378,"name":"lilscot","steam_id":76561198099212453,"connected_time":1028000000000,"state":"active","ping":68},{"user_id":371,"name":"Not Rook","steam_id":76561199232296380,"connected_time":1131000000000,"state":"active","ping":84},{"user_id":360,"name":"heady_asskill","steam_id":76561197982882284,"connected_time":2202000000000,"state":"active","ping":72},{"user_id":356,"name":"punk cock","steam_id":76561198418182764,"connected_time":2370000000000,"state":"active","ping":72},{"user_id":373,"name":"Golumpus","steam_id":76561198053549635,"connected_time":1110000000000,"state":"active","ping":83},{"user_id":363,"name":"olivia","steam_id":76561198288130849,"connected_time":1768000000000,"state":"active","ping":68},{"user_id":379,"name":"misterjozo","steam_id":76561198012300755,"connected_time":1016000000000,"state":"active","ping":102},{"user_id":375,"name":"Smokey","steam_id":76561198870461639,"connected_time":1093000000000,"state":"active","ping":189},{"user_id":354,"name":"That's So Raven! [Dexgod]","steam_id":76561198017130786,"connected_time":2595000000000,"state":"active","ping":75},{"user_id":381,"name":"Anakin_FR #SaveTF2","steam_id":76561199138747122,"connected_time":876000000000,"state":"active","ping":96},{"user_id":369,"name":"Carthing","steam_id":76561198330833171,"connected_time":1363000000000,"state":"active","ping":75},{"user_id":366,"name":"4Real","steam_id":76561199051709367,"connected_time":1581000000000,"state":"active","ping":76},{"user_id":383,"name":"Shark In Awe","steam_id":76561198032663494,"connected_time":471000000000,"state":"active","ping":75},{"user_id":376,"name":"purple diesel","steam_id":76561197976548449,"connected_time":1092000000000,"state":"active","ping":87},{"user_id":384,"name":"❤ Ashleyyy ❤","steam_id":76561198056428303,"connected_time":441000000000,"state":"active","ping":104},{"user_id":368,"name":"Asthmatic boi","steam_id":76561198197796766,"connected_time":1469000000000,"state":"active","ping":56},{"user_id":382,"name":"Uwu Micster","steam_id":76561198843890616,"connected_time":652000000000,"state":"active","ping":84},{"user_id":380,"name":"Garlikk","steam_id":76561198095295602,"connected_time":915000000000,"state":"active","ping":77},{"user_id":325,"name":"hearthian","steam_id":76561198113235260,"connected_time":3945000000000,"state":"active","ping":92},{"user_id":365,"name":"b","steam_id":76561198156336213,"connected_time":1716000000000,"state":"active","ping":75},{"user_id":353,"name":"beep","steam_id":76561199096448766,"connected_time":2807000000000,"state":"active","ping":66}]},{"server_id":402,"name":"Uncletopia | Chicago | 3 | All Maps","name_short":"chi-3","host":"chi-1.us.uncletopia.com","port":27035,"enabled":true,"region":"us-central","cc":"us","latitude":41.881832,"longitude":-87.62318,"reserved":0,"last_update":"0001-01-01T00:00:00Z","name_a2s":"Uncletopia | Chicago | 3 | All Maps","protocol":17,"map":"pl_upward","folder":"tf","game":"Team Fortress","app_id":440,"player_count":23,"max_players":24,"Bots":0,"server_type":"Dedicated","server_os":"Linux","password":true,"vac":true,"version":"7961495","steam_id":85568392924515191,"keywords":["nocrits","nodmgspread","payload","uncletopia"],"game_id":440,"stv_port":27036,"stv_name":"Uncletopia | Chicago | 3 | All Maps | STV","players":[{"user_id":27,"name":"bane","steam_id":76561198196769297,"connected_time":5313000000000,"state":"active","ping":59},{"user_id":100,"name":"Darghul the Skeleton Lord","steam_id":76561198004140161,"connected_time":1167000000000,"state":"active","ping":59},{"user_id":24,"name":"Wild_Rumpus","steam_id":76561198066393719,"connected_time":5965000000000,"state":"active","ping":52},{"user_id":117,"name":"nice","steam_id":76561199102883421,"connected_time":899000000000,"state":"active","ping":72},{"user_id":107,"name":"Weed Spy","steam_id":76561199483610732,"connected_time":1048000000000,"state":"active","ping":90},{"user_id":56,"name":"choppa wednesday","steam_id":76561199389283507,"connected_time":2344000000000,"state":"active","ping":70},{"user_id":124,"name":"Riandox","steam_id":76561198130577326,"connected_time":660000000000,"state":"active","ping":62},{"user_id":125,"name":"not gotten","steam_id":76561198033033884,"connected_time":553000000000,"state":"active","ping":65},{"user_id":122,"name":"Lulee","steam_id":76561198044410549,"connected_time":731000000000,"state":"active","ping":85},{"user_id":128,"name":"DethSQRL","steam_id":76561199149628610,"connected_time":420000000000,"state":"active","ping":84},{"user_id":44,"name":"the.land.of.avalon","steam_id":76561198245431668,"connected_time":2812000000000,"state":"active","ping":56},{"user_id":112,"name":"Space Captainface","steam_id":76561197995103493,"connected_time":928000000000,"state":"active","ping":60},{"user_id":119,"name":"LG_Fridge_User","steam_id":76561198977815014,"connected_time":876000000000,"state":"active","ping":77},{"user_id":58,"name":"losing","steam_id":76561198003206947,"connected_time":2302000000000,"state":"active","ping":67},{"user_id":110,"name":"crouch2004","steam_id":76561198085429828,"connected_time":948000000000,"state":"active","ping":101},{"user_id":120,"name":"Candy Sparkles","steam_id":76561198126871264,"connected_time":876000000000,"state":"active","ping":91},{"user_id":54,"name":"Lennu","steam_id":76561198060730154,"connected_time":2397000000000,"state":"active","ping":76},{"user_id":131,"name":"Dr.Pig","steam_id":76561198069496754,"connected_time":144000000000,"state":"active","ping":87},{"user_id":113,"name":"duck","steam_id":76561198040671133,"connected_time":926000000000,"state":"active","ping":83},{"user_id":121,"name":"Faerun_F","steam_id":76561198443906094,"connected_time":876000000000,"state":"active","ping":92},{"user_id":97,"name":"thatboyyhub","steam_id":76561198272053849,"connected_time":1215000000000,"state":"active","ping":58},{"user_id":67,"name":"cyclops","steam_id":76561197970370198,"connected_time":2076000000000,"state":"active","ping":59},{"user_id":102,"name":"Shaby_Frost","steam_id":76561198401334563,"connected_time":1154000000000,"state":"active","ping":68}]},{"server_id":403,"name":"Uncletopia | Chicago | 4 | All Maps","name_short":"chi-4","host":"chi-1.us.uncletopia.com","port":27045,"enabled":true,"region":"us-central","cc":"us","latitude":41.881832,"longitude":-87.62318,"reserved":0,"last_update":"0001-01-01T00:00:00Z","name_a2s":"Uncletopia | Chicago | 4 | All Maps","protocol":17,"map":"pl_pier","folder":"tf","game":"Team Fortress","app_id":440,"player_count":24,"max_players":24,"Bots":0,"server_type":"Dedicated","server_os":"Linux","password":true,"vac":true,"version":"7961495","steam_id":85568392924515193,"keywords":["nocrits","nodmgspread","payload","uncletopia"],"game_id":440,"stv_port":27046,"stv_name":"Uncletopia | Chicago | 4 | All Maps | STV","players":[{"user_id":497,"name":"kernstjean97","steam_id":76561199216661045,"connected_time":916000000000,"state":"active","ping":94},{"user_id":512,"name":"robert","steam_id":76561198063313115,"connected_time":75000000000,"state":"active","ping":59},{"user_id":484,"name":"sidhaktheguy","steam_id":76561198306006593,"connected_time":1569000000000,"state":"active","ping":57},{"user_id":496,"name":"brains","steam_id":76561198197388678,"connected_time":997000000000,"state":"active","ping":57},{"user_id":464,"name":"Drewgs","steam_id":76561198012531221,"connected_time":2519000000000,"state":"active","ping":73},{"user_id":485,"name":"CrushforceX","steam_id":76561198367985723,"connected_time":1562000000000,"state":"active","ping":87},{"user_id":501,"name":"Drop top porsche no shirt","steam_id":76561198328346670,"connected_time":727000000000,"state":"active","ping":43},{"user_id":506,"name":"stungoperation","steam_id":76561199162409918,"connected_time":256000000000,"state":"active","ping":64},{"user_id":475,"name":"Fairchild Republic A-10 Thndrbl","steam_id":76561199038043360,"connected_time":1942000000000,"state":"active","ping":81},{"user_id":446,"name":"Fattened Dessert","steam_id":76561198351008375,"connected_time":3875000000000,"state":"active","ping":46},{"user_id":503,"name":"=Silver=","steam_id":76561198292307127,"connected_time":511000000000,"state":"active","ping":93},{"user_id":459,"name":"FutabaUchiha","steam_id":76561199436467630,"connected_time":2901000000000,"state":"active","ping":85},{"user_id":489,"name":"PhD Flopper","steam_id":76561198961051809,"connected_time":1345000000000,"state":"active","ping":102},{"user_id":490,"name":"wowzers","steam_id":76561199074875663,"connected_time":1315000000000,"state":"active","ping":79},{"user_id":422,"name":"..!","steam_id":76561198882483441,"connected_time":5700000000000,"state":"active","ping":89},{"user_id":510,"name":"challen","steam_id":76561197961277967,"connected_time":173000000000,"state":"active","ping":80},{"user_id":498,"name":"reis","steam_id":76561199232952016,"connected_time":842000000000,"state":"active","ping":180},{"user_id":491,"name":"ZenkoZSprite","steam_id":76561198190132250,"connected_time":1270000000000,"state":"active","ping":66},{"user_id":482,"name":"lethargy incarnate","steam_id":76561198072095399,"connected_time":1742000000000,"state":"active","ping":60},{"user_id":508,"name":"TURN IT INTO LOVE","steam_id":76561198072179483,"connected_time":214000000000,"state":"active","ping":91},{"user_id":509,"name":"Mr. Squiggles","steam_id":76561197963304088,"connected_time":211000000000,"state":"active","ping":74},{"user_id":480,"name":"Raccoon","steam_id":76561199189494190,"connected_time":1877000000000,"state":"active","ping":86},{"user_id":492,"name":"Laurbler","steam_id":76561198132094572,"connected_time":1253000000000,"state":"active","ping":62},{"user_id":495,"name":"chaffy","steam_id":76561198021754567,"connected_time":1163000000000,"state":"active","ping":66}]},{"server_id":36,"name":"Uncletopia | Chicago | 5 | All Maps","name_short":"chi-5","host":"chi-2.us.uncletopia.com","port":27015,"enabled":true,"region":"us-central","cc":"us","latitude":41.881832,"longitude":-87.62318,"reserved":0,"last_update":"0001-01-01T00:00:00Z","name_a2s":"Uncletopia | Chicago | 5 | All Maps","protocol":17,"map":"koth_highpass","folder":"tf","game":"Team Fortress","app_id":440,"player_count":20,"max_players":24,"Bots":0,"server_type":"Dedicated","server_os":"Linux","password":true,"vac":true,"version":"7961495","steam_id":85568392924866362,"keywords":["cp","nocrits","nodmgspread","uncletopia"],"game_id":440,"stv_port":27016,"stv_name":"Uncletopia | Chicago | 5 | All Maps | STV","players":[{"user_id":207,"name":"mopsyNYAA","steam_id":76561199044347663,"connected_time":761000000000,"state":"active","ping":45},{"user_id":216,"name":"Chip_Chip_","steam_id":76561198239993328,"connected_time":130000000000,"state":"active","ping":80},{"user_id":136,"name":"Slapperpow","steam_id":76561198089895100,"connected_time":4146000000000,"state":"active","ping":65},{"user_id":159,"name":"Magnet Dood","steam_id":76561198364178746,"connected_time":3475000000000,"state":"active","ping":49},{"user_id":217,"name":"sagekiss","steam_id":76561198038831240,"connected_time":25000000000,"state":"active","ping":107},{"user_id":160,"name":"HasheM","steam_id":76561198090308879,"connected_time":3460000000000,"state":"active","ping":134},{"user_id":215,"name":"Dick to ball ratio","steam_id":76561198072205512,"connected_time":318000000000,"state":"active","ping":69},{"user_id":154,"name":"IsleBound","steam_id":76561198278451717,"connected_time":3662000000000,"state":"active","ping":57},{"user_id":156,"name":"jello","steam_id":76561199274158922,"connected_time":3562000000000,"state":"active","ping":97},{"user_id":190,"name":"OrangeSodaMachine","steam_id":76561198079230156,"connected_time":1564000000000,"state":"active","ping":141},{"user_id":196,"name":"CoolOpossum77","steam_id":76561198085047501,"connected_time":1211000000000,"state":"active","ping":74},{"user_id":188,"name":"chaos","steam_id":76561198055462404,"connected_time":1715000000000,"state":"active","ping":88},{"user_id":211,"name":"mak","steam_id":76561198071535971,"connected_time":580000000000,"state":"active","ping":99},{"user_id":179,"name":"turtlewho","steam_id":76561199071366637,"connected_time":2593000000000,"state":"active","ping":87},{"user_id":200,"name":"Flea103","steam_id":76561198085863864,"connected_time":865000000000,"state":"active","ping":84},{"user_id":210,"name":"Mayor Milo","steam_id":76561198024246523,"connected_time":735000000000,"state":"active","ping":64},{"user_id":204,"name":"Butters495","steam_id":76561197998689042,"connected_time":813000000000,"state":"active","ping":79},{"user_id":205,"name":"LogicGate","steam_id":76561199189481990,"connected_time":790000000000,"state":"active","ping":83},{"user_id":206,"name":"Hater","steam_id":76561198124685704,"connected_time":790000000000,"state":"active","ping":81},{"user_id":187,"name":"popfulmail","steam_id":76561198865971290,"connected_time":1829000000000,"state":"active","ping":88}]},{"server_id":37,"name":"Uncletopia | Chicago | 6 | All Maps","name_short":"chi-6","host":"chi-2.us.uncletopia.com","port":27025,"enabled":true,"region":"us-central","cc":"us","latitude":41.881832,"longitude":-87.62318,"reserved":0,"last_update":"0001-01-01T00:00:00Z","name_a2s":"Uncletopia | Chicago | 6 | All Maps","protocol":17,"map":"pl_thundermountain","folder":"tf","game":"Team Fortress","app_id":440,"player_count":24,"max_players":24,"Bots":0,"server_type":"Dedicated","server_os":"Linux","password":true,"vac":true,"version":"7961495","steam_id":85568392924866363,"keywords":["nocrits","nodmgspread","payload","uncletopia"],"game_id":440,"stv_port":27026,"stv_name":"Uncletopia | Chicago | 6 | All Maps | STV","players":[{"user_id":626,"name":"yuuki","steam_id":76561199179253649,"connected_time":259000000000,"state":"active","ping":83},{"user_id":627,"name":"Maid 'n' China","steam_id":76561198423392976,"connected_time":239000000000,"state":"active","ping":86},{"user_id":578,"name":"Perfume Department","steam_id":76561198128299594,"connected_time":2801000000000,"state":"active","ping":106},{"user_id":601,"name":"starfungus","steam_id":76561198158312789,"connected_time":1493000000000,"state":"active","ping":86},{"user_id":621,"name":"hypnotize","steam_id":76561198359634841,"connected_time":669000000000,"state":"active","ping":91},{"user_id":632,"name":"versitalitam","steam_id":76561199149919610,"connected_time":126000000000,"state":"active","ping":130},{"user_id":633,"name":"slammin","steam_id":76561197965022076,"connected_time":81000000000,"state":"active","ping":59},{"user_id":597,"name":"frank","steam_id":76561198137777483,"connected_time":1781000000000,"state":"active","ping":69},{"user_id":593,"name":"emma","steam_id":76561198206177593,"connected_time":2002000000000,"state":"active","ping":100},{"user_id":567,"name":"Soy King","steam_id":76561198263025614,"connected_time":3216000000000,"state":"active","ping":98},{"user_id":581,"name":"Shtupid","steam_id":76561198842691655,"connected_time":2681000000000,"state":"active","ping":96},{"user_id":582,"name":"Alpha","steam_id":76561199482290132,"connected_time":2667000000000,"state":"active","ping":68},{"user_id":605,"name":"INFINITE","steam_id":76561197971285557,"connected_time":1269000000000,"state":"active","ping":71},{"user_id":598,"name":"/\\/Mr. Phoenix/\\/","steam_id":76561198258944941,"connected_time":1778000000000,"state":"active","ping":79},{"user_id":631,"name":"Not_Douglas","steam_id":76561199024184136,"connected_time":160000000000,"state":"active","ping":56},{"user_id":623,"name":"War on Drugs Fighter","steam_id":76561198103211035,"connected_time":534000000000,"state":"active","ping":61},{"user_id":618,"name":"Sneed-poster","steam_id":76561198206198937,"connected_time":824000000000,"state":"active","ping":77},{"user_id":630,"name":"sometimes your made of stupid \u003c","steam_id":76561198849924462,"connected_time":193000000000,"state":"active","ping":85},{"user_id":609,"name":"chrisd149","steam_id":76561198018710480,"connected_time":1221000000000,"state":"active","ping":82},{"user_id":591,"name":"mister slippery","steam_id":76561198057076267,"connected_time":2404000000000,"state":"active","ping":79},{"user_id":611,"name":"bitchmade","steam_id":76561198194078077,"connected_time":1200000000000,"state":"active","ping":46},{"user_id":612,"name":"shadow wizard money gang","steam_id":76561198067487745,"connected_time":1171000000000,"state":"active","ping":60},{"user_id":614,"name":"papa","steam_id":76561198109308860,"connected_time":1096000000000,"state":"active","ping":60},{"user_id":619,"name":"commando_2#SAVETF2","steam_id":76561199503272290,"connected_time":823000000000,"state":"active","ping":73}]},{"server_id":38,"name":"Uncletopia | Chicago | 7 | Stopwatch","name_short":"chi-7","host":"chi-2.us.uncletopia.com","port":27035,"enabled":true,"region":"us-central","cc":"us","latitude":41.881832,"longitude":-87.62318,"reserved":0,"last_update":"0001-01-01T00:00:00Z","name_a2s":"Uncletopia | Chicago | 7 | Stopwatch","protocol":17,"map":"koth_lakeside_final","folder":"tf","game":"Team Fortress","app_id":440,"player_count":1,"max_players":24,"Bots":0,"server_type":"Dedicated","server_os":"Linux","password":true,"vac":true,"version":"7961495","steam_id":85568392924866364,"keywords":["cp","nocrits","nodmgspread","uncletopia"],"game_id":440,"stv_port":27036,"stv_name":"Uncletopia | Chicago | 7 | Stopwatch | STV","players":[{"user_id":20,"name":"marshmellowguy","steam_id":76561199008710694,"connected_time":702000000000,"state":"active","ping":105}]},{"server_id":39,"name":"Uncletopia | Chicago | 8 | Community","name_short":"chi-8","host":"chi-2.us.uncletopia.com","port":27045,"enabled":true,"region":"us-central","cc":"us","latitude":41.881832,"longitude":-87.62318,"reserved":0,"last_update":"0001-01-01T00:00:00Z","name_a2s":"Uncletopia | Chicago | 8 | Community","protocol":17,"map":"workshop/cp_caldera_rc3.ugc2834196889","folder":"tf","game":"Team Fortress","app_id":440,"player_count":0,"max_players":24,"Bots":0,"server_type":"Dedicated","server_os":"Linux","password":true,"vac":true,"version":"7961495","steam_id":85568392924866365,"keywords":["cp","nocrits","nodmgspread","uncletopia"],"game_id":440,"stv_port":27046,"stv_name":"Uncletopia | Chicago | 8 | Community | STV","players":null},{"server_id":8,"name":"Uncletopia | Dallas | 1 | All Maps","name_short":"dal-1","host":"dal-1.us.uncletopia.com","port":27015,"enabled":true,"region":"us-central","cc":"us","latitude":32.779167,"longitude":-96.80889,"reserved":0,"last_update":"0001-01-01T00:00:00Z","name_a2s":"Uncletopia | Dallas | 1 | All Maps","protocol":17,"map":"cp_gorge","folder":"tf","game":"Team Fortress","app_id":440,"player_count":23,"max_players":24,"Bots":0,"server_type":"Dedicated","server_os":"Linux","password":true,"vac":true,"version":"7961495","steam_id":85568392924469986,"keywords":["cp","nocrits","nodmgspread","uncletopia"],"game_id":440,"stv_port":27016,"stv_name":"Uncletopia | Dallas | 1 | All Maps | STV","players":[{"user_id":224,"name":"Interrobang","steam_id":76561198385044529,"connected_time":2354000000000,"state":"active","ping":135},{"user_id":181,"name":"Kot","steam_id":76561198380050451,"connected_time":5326000000000,"state":"active","ping":76},{"user_id":266,"name":"d4ngerd4n","steam_id":76561198043758735,"connected_time":62000000000,"state":"active","ping":77},{"user_id":254,"name":"flu walrus","steam_id":76561198207940136,"connected_time":351000000000,"state":"active","ping":55},{"user_id":240,"name":"Mr. Gecko","steam_id":76561199121958430,"connected_time":1327000000000,"state":"active","ping":90},{"user_id":269,"name":"ArchieTF2","steam_id":76561199435459475,"connected_time":30000000000,"state":"active","ping":153},{"user_id":111,"name":"Perry (The White Fang Grunt)","steam_id":76561198870926636,"connected_time":10270000000000,"state":"active","ping":89},{"user_id":249,"name":"what're ya buyin","steam_id":76561199277633460,"connected_time":618000000000,"state":"active","ping":57},{"user_id":156,"name":"letmehurtyou","steam_id":76561199001918194,"connected_time":7006000000000,"state":"active","ping":91},{"user_id":231,"name":"ImTallOk","steam_id":76561198405915670,"connected_time":2215000000000,"state":"active","ping":81},{"user_id":267,"name":"Chilly Wintrz","steam_id":76561198137410740,"connected_time":61000000000,"state":"active","ping":73},{"user_id":198,"name":"Wooden E","steam_id":76561198020308956,"connected_time":4421000000000,"state":"active","ping":60},{"user_id":251,"name":"zenwork","steam_id":76561199094467477,"connected_time":529000000000,"state":"active","ping":85},{"user_id":252,"name":"Captain Underbelly","steam_id":76561198811270935,"connected_time":526000000000,"state":"active","ping":84},{"user_id":242,"name":"Srg-Waffle","steam_id":76561198204555116,"connected_time":1073000000000,"state":"active","ping":94},{"user_id":195,"name":"Master Of Whales","steam_id":76561198349104889,"connected_time":4711000000000,"state":"active","ping":81},{"user_id":232,"name":"i am clinically insane","steam_id":76561199013323529,"connected_time":2131000000000,"state":"active","ping":79},{"user_id":268,"name":"SaxyThePhone","steam_id":76561199439167761,"connected_time":59000000000,"state":"active","ping":77},{"user_id":257,"name":"cardsfish","steam_id":76561199195316687,"connected_time":309000000000,"state":"active","ping":53},{"user_id":262,"name":"Imrgrim","steam_id":76561198135866481,"connected_time":91000000000,"state":"active","ping":73},{"user_id":258,"name":"SHADOW","steam_id":76561198207768148,"connected_time":295000000000,"state":"active","ping":100},{"user_id":259,"name":"Mogwarrior41","steam_id":76561199388063817,"connected_time":269000000000,"state":"active","ping":66},{"user_id":260,"name":"Derblitz","steam_id":76561198040953176,"connected_time":267000000000,"state":"active","ping":80}]},{"server_id":108,"name":"Uncletopia | Dallas | 2 | All Maps","name_short":"dal-2","host":"dal-1.us.uncletopia.com","port":27025,"enabled":true,"region":"us-central","cc":"us","latitude":32.779167,"longitude":-96.80889,"reserved":0,"last_update":"0001-01-01T00:00:00Z","name_a2s":"Uncletopia | Dallas | 2 | All Maps","protocol":17,"map":"pl_goldrush","folder":"tf","game":"Team Fortress","app_id":440,"player_count":15,"max_players":24,"Bots":0,"server_type":"Dedicated","server_os":"Linux","password":true,"vac":true,"version":"7961495","steam_id":85568392924469988,"keywords":["nocrits","nodmgspread","payload","uncletopia"],"game_id":440,"stv_port":27026,"stv_name":"Uncletopia | Dallas | 2 | All Maps | STV","players":[{"user_id":349,"name":"trucksforducks","steam_id":76561198122970888,"connected_time":198000000000,"state":"active","ping":46},{"user_id":350,"name":"GLG.Liz","steam_id":76561198021957956,"connected_time":94000000000,"state":"active","ping":45},{"user_id":353,"name":"The Communist Daughter","steam_id":76561198202458288,"connected_time":9000000000,"state":"spawning","ping":99},{"user_id":321,"name":"Eightysix","steam_id":76561198092261067,"connected_time":2729000000000,"state":"active","ping":97},{"user_id":352,"name":"MikeTv","steam_id":76561199106316882,"connected_time":32000000000,"state":"active","ping":87},{"user_id":342,"name":"totoro","steam_id":76561198210420871,"connected_time":1898000000000,"state":"active","ping":72},{"user_id":302,"name":"Arc","steam_id":76561198057246982,"connected_time":3550000000000,"state":"active","ping":45},{"user_id":193,"name":"The Anime Protagonist","steam_id":76561198131400543,"connected_time":10626000000000,"state":"active","ping":68},{"user_id":343,"name":"Herr Texas","steam_id":76561198300069355,"connected_time":1541000000000,"state":"active","ping":115},{"user_id":341,"name":"CASR","steam_id":76561199122040210,"connected_time":1939000000000,"state":"active","ping":101},{"user_id":324,"name":"Nasatron7","steam_id":76561198217185169,"connected_time":2668000000000,"state":"active","ping":67},{"user_id":333,"name":"Genderneutron","steam_id":76561199022773775,"connected_time":2163000000000,"state":"active","ping":75},{"user_id":335,"name":"Glue Sniffer","steam_id":76561198289642788,"connected_time":2147000000000,"state":"active","ping":119},{"user_id":345,"name":"The Benefactor","steam_id":76561198307247913,"connected_time":1535000000000,"state":"active","ping":78},{"user_id":234,"name":"have blue","steam_id":76561198054260599,"connected_time":9118000000000,"state":"active","ping":49}]},{"server_id":404,"name":"Uncletopia | Dallas | 3 | All Maps","name_short":"dal-3","host":"dal-1.us.uncletopia.com","port":27035,"enabled":true,"region":"us-central","cc":"us","latitude":32.779167,"longitude":-96.80889,"reserved":0,"last_update":"0001-01-01T00:00:00Z","name_a2s":"Uncletopia | Dallas | 3 | All Maps","protocol":17,"map":"cp_well","folder":"tf","game":"Team Fortress","app_id":440,"player_count":19,"max_players":24,"Bots":0,"server_type":"Dedicated","server_os":"Linux","password":true,"vac":true,"version":"7961495","steam_id":85568392924515219,"keywords":["cp","nocrits","nodmgspread","uncletopia"],"game_id":440,"stv_port":27036,"stv_name":"Uncletopia | Dallas | 3 | All Maps | STV","players":[{"user_id":201,"name":"2spooky","steam_id":76561198094747637,"connected_time":263000000000,"state":"active","ping":104},{"user_id":207,"name":"YoteDab McFapDab.jpg","steam_id":76561197984870380,"connected_time":95000000000,"state":"active","ping":111},{"user_id":115,"name":"Cactus","steam_id":76561198149762619,"connected_time":6688000000000,"state":"active","ping":85},{"user_id":203,"name":"tadsandco","steam_id":76561198037266781,"connected_time":244000000000,"state":"active","ping":74},{"user_id":198,"name":"BOUZENZEL","steam_id":76561198095000722,"connected_time":417000000000,"state":"active","ping":32},{"user_id":199,"name":"goip","steam_id":76561199164347838,"connected_time":393000000000,"state":"active","ping":69},{"user_id":146,"name":"Femboy breeding❤","steam_id":76561198387324643,"connected_time":4683000000000,"state":"active","ping":96},{"user_id":204,"name":"Suburban Wolf Dad","steam_id":76561198069234954,"connected_time":234000000000,"state":"active","ping":53},{"user_id":119,"name":"tsz","steam_id":76561199246231090,"connected_time":6510000000000,"state":"active","ping":74},{"user_id":188,"name":"that wasnt funny pal","steam_id":76561198837926595,"connected_time":1069000000000,"state":"active","ping":94},{"user_id":200,"name":"guac","steam_id":76561198025481672,"connected_time":330000000000,"state":"active","ping":91},{"user_id":189,"name":"TheBrocklobster","steam_id":76561198039682984,"connected_time":1036000000000,"state":"active","ping":83},{"user_id":190,"name":"Gunspy?","steam_id":76561198401231245,"connected_time":1017000000000,"state":"active","ping":48},{"user_id":194,"name":"Somnus","steam_id":76561198980001728,"connected_time":917000000000,"state":"active","ping":57},{"user_id":208,"name":"Bea","steam_id":76561198197928515,"connected_time":35000000000,"state":"active","ping":60},{"user_id":205,"name":"Jugguz","steam_id":76561197991942641,"connected_time":206000000000,"state":"active","ping":63},{"user_id":178,"name":"HeroOfTime","steam_id":76561199096218001,"connected_time":2203000000000,"state":"active","ping":77},{"user_id":180,"name":"Eat It Up Worms Hero","steam_id":76561198259956719,"connected_time":1816000000000,"state":"active","ping":75},{"user_id":171,"name":"lucky","steam_id":76561198323426623,"connected_time":2804000000000,"state":"active","ping":104}]},{"server_id":405,"name":"Uncletopia | Dallas | 4 | Community","name_short":"dal-4","host":"dal-1.us.uncletopia.com","port":27045,"enabled":true,"region":"us-central","cc":"us","latitude":32.779167,"longitude":-96.80889,"reserved":0,"last_update":"0001-01-01T00:00:00Z","name_a2s":"Uncletopia | Dallas | 4 | Community","protocol":17,"map":"workshop/pl_cashworks_final1.ugc2904065412","folder":"tf","game":"Team Fortress","app_id":440,"player_count":0,"max_players":24,"Bots":0,"server_type":"Dedicated","server_os":"Linux","password":true,"vac":true,"version":"7961495","steam_id":85568392924515220,"keywords":["nocrits","nodmgspread","payload","uncletopia"],"game_id":440,"stv_port":27046,"stv_name":"Uncletopia | Dallas | 4 | Community | STV","players":null},{"server_id":5,"name":"Uncletopia | Frankfurt | 1 | All Maps","name_short":"frk-1","host":"frk-1.de.uncletopia.com","port":27015,"enabled":true,"region":"eu","cc":"de","latitude":50.110924,"longitude":8.682127,"reserved":0,"last_update":"0001-01-01T00:00:00Z","name_a2s":"Uncletopia | Frankfurt | 1 | All Maps","protocol":17,"map":"pl_borneo","folder":"tf","game":"Team Fortress","app_id":440,"player_count":15,"max_players":24,"Bots":0,"server_type":"Dedicated","server_os":"Linux","password":true,"vac":true,"version":"7961495","steam_id":85568392924469989,"keywords":["nocrits","nodmgspread","payload","uncletopia"],"game_id":440,"stv_port":27016,"stv_name":"Uncletopia | Frankfurt | 1 | All Maps | STV","players":[{"user_id":775,"name":"Sweetcheesus","steam_id":76561198022299033,"connected_time":627000000000,"state":"active","ping":51},{"user_id":743,"name":"Greasy","steam_id":76561198868180366,"connected_time":3626000000000,"state":"active","ping":48},{"user_id":763,"name":"swagmeester","steam_id":76561198045828392,"connected_time":1445000000000,"state":"active","ping":59},{"user_id":774,"name":"anabolic steroids","steam_id":76561199470147761,"connected_time":687000000000,"state":"active","ping":128},{"user_id":771,"name":":weed:","steam_id":76561199087495940,"connected_time":818000000000,"state":"active","ping":44},{"user_id":787,"name":"beurgeur","steam_id":76561198872426314,"connected_time":12000000000,"state":"spawning","ping":41},{"user_id":766,"name":"Sosig","steam_id":76561199012155377,"connected_time":1053000000000,"state":"active","ping":44},{"user_id":783,"name":"dbgp1997","steam_id":76561199287229434,"connected_time":427000000000,"state":"active","ping":70},{"user_id":759,"name":"Cioly","steam_id":76561198257791981,"connected_time":2350000000000,"state":"active","ping":56},{"user_id":777,"name":"Yavan Airlines","steam_id":76561198033322115,"connected_time":600000000000,"state":"active","ping":61},{"user_id":786,"name":"knorg","steam_id":76561198876259318,"connected_time":353000000000,"state":"active","ping":45},{"user_id":778,"name":"Clonetics","steam_id":76561197970897094,"connected_time":600000000000,"state":"active","ping":148},{"user_id":779,"name":"Toast On Cheese","steam_id":76561198078766475,"connected_time":595000000000,"state":"active","ping":57},{"user_id":780,"name":"Walkingboi","steam_id":76561198385498290,"connected_time":573000000000,"state":"active","ping":90},{"user_id":782,"name":"sven","steam_id":76561198816086528,"connected_time":512000000000,"state":"active","ping":69}]},{"server_id":110,"name":"Uncletopia | Frankfurt | 2 | All Maps","name_short":"frk-2","host":"frk-1.de.uncletopia.com","port":27025,"enabled":true,"region":"eu","cc":"de","latitude":50.110924,"longitude":8.682127,"reserved":0,"last_update":"0001-01-01T00:00:00Z","name_a2s":"Uncletopia | Frankfurt | 2 | All Maps","protocol":17,"map":"cp_process_final","folder":"tf","game":"Team Fortress","app_id":440,"player_count":12,"max_players":24,"Bots":0,"server_type":"Dedicated","server_os":"Linux","password":true,"vac":true,"version":"7961495","steam_id":85568392924469990,"keywords":["cp","nocrits","nodmgspread","uncletopia"],"game_id":440,"stv_port":27026,"stv_name":"Uncletopia | Frankfurt | 2 | All Maps | STV","players":[{"user_id":702,"name":"Nittugai","steam_id":76561198067366462,"connected_time":949000000000,"state":"active","ping":53},{"user_id":686,"name":"Kenny","steam_id":76561198994898206,"connected_time":2166000000000,"state":"active","ping":74},{"user_id":714,"name":"literallyjasonx","steam_id":76561198835895387,"connected_time":274000000000,"state":"active","ping":75},{"user_id":707,"name":"Bobirulez","steam_id":76561198009125458,"connected_time":634000000000,"state":"active","ping":59},{"user_id":708,"name":"Esquiloz","steam_id":76561198075645336,"connected_time":629000000000,"state":"active","ping":64},{"user_id":660,"name":"Big Dave","steam_id":76561198086672774,"connected_time":3919000000000,"state":"active","ping":70},{"user_id":710,"name":"gomma naturale","steam_id":76561198072719728,"connected_time":534000000000,"state":"active","ping":73},{"user_id":715,"name":"Gillusion","steam_id":76561198138818087,"connected_time":271000000000,"state":"active","ping":45},{"user_id":677,"name":"Tekor","steam_id":76561198088542862,"connected_time":2883000000000,"state":"active","ping":64},{"user_id":657,"name":"Waltism","steam_id":76561199447676489,"connected_time":4170000000000,"state":"active","ping":73},{"user_id":619,"name":"Dave-it","steam_id":76561198286717874,"connected_time":7415000000000,"state":"active","ping":57},{"user_id":636,"name":"0iO","steam_id":76561198093526408,"connected_time":6664000000000,"state":"active","ping":48}]},{"server_id":308,"name":"Uncletopia | Frankfurt | 3 | All Maps","name_short":"frk-3","host":"frk-1.de.uncletopia.com","port":27035,"enabled":true,"region":"eu","cc":"de","latitude":50.110924,"longitude":8.682127,"reserved":0,"last_update":"0001-01-01T00:00:00Z","name_a2s":"Uncletopia | Frankfurt | 3 | All Maps","protocol":17,"map":"koth_cascade","folder":"tf","game":"Team Fortress","app_id":440,"player_count":0,"max_players":24,"Bots":0,"server_type":"Dedicated","server_os":"Linux","password":true,"vac":true,"version":"7961495","steam_id":85568392924504274,"keywords":["cp","nocrits","nodmgspread","uncletopia"],"game_id":440,"stv_port":27036,"stv_name":"Uncletopia | Frankfurt | 3 | All Maps | STV","players":null},{"server_id":309,"name":"Uncletopia | Frankfurt | 4 | All Maps","name_short":"frk-4","host":"frk-1.de.uncletopia.com","port":27045,"enabled":true,"region":"eu","cc":"de","latitude":50.110924,"longitude":8.682127,"reserved":0,"last_update":"0001-01-01T00:00:00Z","name_a2s":"Uncletopia | Frankfurt | 4 | All Maps","protocol":17,"map":"cp_granary","folder":"tf","game":"Team Fortress","app_id":440,"player_count":0,"max_players":24,"Bots":0,"server_type":"Dedicated","server_os":"Linux","password":true,"vac":true,"version":"7961495","steam_id":85568392924504275,"keywords":["cp","nocrits","nodmgspread","uncletopia"],"game_id":440,"stv_port":27046,"stv_name":"Uncletopia | Frankfurt | 4 | All Maps | STV","players":null},{"server_id":310,"name":"Uncletopia | Frankfurt | 5 | All Maps","name_short":"frk-5","host":"frk-1.de.uncletopia.com","port":27055,"enabled":true,"region":"eu","cc":"de","latitude":50.110924,"longitude":8.682127,"reserved":0,"last_update":"0001-01-01T00:00:00Z","name_a2s":"Uncletopia | Frankfurt | 5 | All Maps","protocol":17,"map":"pl_frontier_final","folder":"tf","game":"Team Fortress","app_id":440,"player_count":23,"max_players":24,"Bots":0,"server_type":"Dedicated","server_os":"Linux","password":true,"vac":true,"version":"7961495","steam_id":85568392924504277,"keywords":["nocrits","nodmgspread","payload","uncletopia"],"game_id":440,"stv_port":27056,"stv_name":"Uncletopia | Frankfurt | 5 | All Maps | STV","players":[{"user_id":713,"name":"Mr.Shpee","steam_id":76561198158701474,"connected_time":1948000000000,"state":"active","ping":79},{"user_id":739,"name":"Osaka","steam_id":76561198088909286,"connected_time":103000000000,"state":"active","ping":89},{"user_id":728,"name":"Krefa12","steam_id":76561198268375393,"connected_time":1001000000000,"state":"active","ping":84},{"user_id":740,"name":"Rahmed","steam_id":76561198136056704,"connected_time":87000000000,"state":"active","ping":48},{"user_id":727,"name":"Captain Puddleboat","steam_id":76561198053913970,"connected_time":1250000000000,"state":"active","ping":65},{"user_id":698,"name":"Doctor Marijuana","steam_id":76561198288289879,"connected_time":5046000000000,"state":"active","ping":60},{"user_id":738,"name":"Doritoshredder","steam_id":76561198826710752,"connected_time":110000000000,"state":"active","ping":113},{"user_id":741,"name":"LF Vegan GF","steam_id":76561198042602892,"connected_time":70000000000,"state":"active","ping":51},{"user_id":715,"name":"Pats (Gifted items Collector)","steam_id":76561198418538887,"connected_time":1833000000000,"state":"active","ping":88},{"user_id":723,"name":"Gugu gaga","steam_id":76561198161822358,"connected_time":1510000000000,"state":"active","ping":59},{"user_id":718,"name":"Littleyoshifan","steam_id":76561198445491045,"connected_time":1756000000000,"state":"active","ping":52},{"user_id":742,"name":"Will","steam_id":76561198172046401,"connected_time":68000000000,"state":"active","ping":49},{"user_id":743,"name":"Limber","steam_id":76561198406320611,"connected_time":63000000000,"state":"active","ping":60},{"user_id":722,"name":"Knösta","steam_id":76561198143422139,"connected_time":1557000000000,"state":"active","ping":102},{"user_id":731,"name":"korea","steam_id":76561198120520111,"connected_time":811000000000,"state":"active","ping":46},{"user_id":729,"name":"guess who's beck","steam_id":76561198190073005,"connected_time":998000000000,"state":"active","ping":54},{"user_id":744,"name":"Jack","steam_id":76561198397105421,"connected_time":34000000000,"state":"active","ping":59},{"user_id":737,"name":"Ott","steam_id":76561198276464481,"connected_time":311000000000,"state":"active","ping":60},{"user_id":745,"name":"January 2035","steam_id":76561198011749653,"connected_time":16000000000,"state":"active","ping":113},{"user_id":735,"name":"LiterallyRyanGosling","steam_id":76561199017856691,"connected_time":399000000000,"state":"active","ping":61},{"user_id":746,"name":"Inky (she/her)","steam_id":76561198334042273,"connected_time":8000000000,"state":"spawning","ping":48},{"user_id":596,"name":"Vershal Smershal","steam_id":76561198116223995,"connected_time":11636000000000,"state":"active","ping":58},{"user_id":705,"name":"hawkblob","steam_id":76561198803720565,"connected_time":3400000000000,"state":"active","ping":75}]},{"server_id":311,"name":"Uncletopia | Frankfurt | 6 | All Maps","name_short":"frk-6","host":"frk-1.de.uncletopia.com","port":27065,"enabled":true,"region":"eu","cc":"de","latitude":50.110924,"longitude":8.682127,"reserved":0,"last_update":"0001-01-01T00:00:00Z","name_a2s":"Uncletopia | Frankfurt | 6 | All Maps","protocol":17,"map":"pl_badwater","folder":"tf","game":"Team Fortress","app_id":440,"player_count":0,"max_players":24,"Bots":0,"server_type":"Dedicated","server_os":"Linux","password":true,"vac":true,"version":"7961495","steam_id":85568392924504278,"keywords":["nocrits","nodmgspread","payload","uncletopia"],"game_id":440,"stv_port":27066,"stv_name":"Uncletopia | Frankfurt | 6 | All Maps | STV","players":null},{"server_id":23,"name":"Uncletopia | Frankfurt | 7 | Stopwatch","name_short":"frk-7","host":"frk-1.de.uncletopia.com","port":27075,"enabled":true,"region":"eu","cc":"de","latitude":50.110924,"longitude":8.682127,"reserved":0,"last_update":"0001-01-01T00:00:00Z","name_a2s":"Uncletopia | Frankfurt | 7 | Stopwatch","protocol":17,"map":"koth_lakeside_final","folder":"tf","game":"Team Fortress","app_id":440,"player_count":0,"max_players":24,"Bots":0,"server_type":"Dedicated","server_os":"Linux","password":true,"vac":true,"version":"7961495","steam_id":85568392924742827,"keywords":["cp","nocrits","nodmgspread","uncletopia"],"game_id":440,"stv_port":27076,"stv_name":"Uncletopia | Frankfurt | 7 | Stopwatch | STV","players":null},{"server_id":24,"name":"Uncletopia | Frankfurt | 8 | Community","name_short":"frk-8","host":"frk-1.de.uncletopia.com","port":27085,"enabled":true,"region":"eu","cc":"de","latitude":50.110924,"longitude":8.682127,"reserved":0,"last_update":"0001-01-01T00:00:00Z","name_a2s":"Uncletopia | Frankfurt | 8 | Community","protocol":17,"map":"workshop/koth_relic_rc3.ugc2965301326","folder":"tf","game":"Team Fortress","app_id":440,"player_count":0,"max_players":24,"Bots":0,"server_type":"Dedicated","server_os":"Linux","password":true,"vac":true,"version":"7961495","steam_id":85568392924742828,"keywords":["cp","nocrits","nodmgspread","uncletopia"],"game_id":440,"stv_port":27086,"stv_name":"Uncletopia | Frankfurt | 8 | Community | STV","players":null},{"server_id":202,"name":"Uncletopia | Hong Kong | 1 | All Maps","name_short":"hgk-1","host":"hgk-1.hk.uncletopia.com","port":27015,"enabled":true,"region":"asia","cc":"hk","latitude":22.302711,"longitude":114.177216,"reserved":0,"last_update":"0001-01-01T00:00:00Z","name_a2s":"Uncletopia | Hong Kong | 1 | All Maps","protocol":17,"map":"cp_metalworks","folder":"tf","game":"Team Fortress","app_id":440,"player_count":0,"max_players":24,"Bots":0,"server_type":"Dedicated","server_os":"Linux","password":true,"vac":true,"version":"7961495","steam_id":85568392924494504,"keywords":["cp","nocrits","nodmgspread","uncletopia"],"game_id":440,"stv_port":27016,"stv_name":"Uncletopia | Hong Kong | 1 | All Maps | STV","players":null},{"server_id":1,"name":"Uncletopia | Los Angeles | 1 | All Maps","name_short":"lax-1","host":"lax-1.us.uncletopia.com","port":27015,"enabled":true,"region":"us-west","cc":"us","latitude":33.94279,"longitude":-118.41004,"reserved":0,"last_update":"0001-01-01T00:00:00Z","name_a2s":"Uncletopia | Los Angeles | 1 | All Maps","protocol":17,"map":"plr_hightower","folder":"tf","game":"Team Fortress","app_id":440,"player_count":0,"max_players":24,"Bots":0,"server_type":"Dedicated","server_os":"Linux","password":true,"vac":true,"version":"7961495","steam_id":85568392924469991,"keywords":["nocrits","nodmgspread","payload","uncletopia"],"game_id":440,"stv_port":27016,"stv_name":"Uncletopia | Los Angeles | 1 | All Maps | STV","players":null},{"server_id":112,"name":"Uncletopia | Los Angeles | 2 | All Maps","name_short":"lax-2","host":"lax-1.us.uncletopia.com","port":27025,"enabled":true,"region":"us-west","cc":"us","latitude":33.94279,"longitude":-118.41004,"reserved":0,"last_update":"0001-01-01T00:00:00Z","name_a2s":"Uncletopia | Los Angeles | 2 | All Maps","protocol":17,"map":"pl_thundermountain","folder":"tf","game":"Team Fortress","app_id":440,"player_count":24,"max_players":24,"Bots":0,"server_type":"Dedicated","server_os":"Linux","password":true,"vac":true,"version":"7961495","steam_id":85568392924469992,"keywords":["nocrits","nodmgspread","payload","uncletopia"],"game_id":440,"stv_port":27026,"stv_name":"Uncletopia | Los Angeles | 2 | All Maps | STV","players":[{"user_id":8,"name":"Gray","steam_id":76561198275796773,"connected_time":10833000000000,"state":"active","ping":65},{"user_id":6,"name":"2r84718724t1@cia.gov","steam_id":76561198201698086,"connected_time":11191000000000,"state":"active","ping":65},{"user_id":62,"name":"HOG RIDER","steam_id":76561198298589502,"connected_time":5645000000000,"state":"active","ping":46},{"user_id":98,"name":"immonky","steam_id":76561198170080898,"connected_time":1883000000000,"state":"active","ping":91},{"user_id":53,"name":"☭Borris☭","steam_id":76561198011136886,"connected_time":6455000000000,"state":"active","ping":62},{"user_id":99,"name":"Many Bees' Chilling","steam_id":76561198079641282,"connected_time":1827000000000,"state":"active","ping":98},{"user_id":106,"name":"Rascallyyy","steam_id":76561198184552369,"connected_time":755000000000,"state":"active","ping":54},{"user_id":85,"name":"FI LO","steam_id":76561198976530881,"connected_time":3177000000000,"state":"active","ping":38},{"user_id":87,"name":"Mocha Josie","steam_id":76561198066452726,"connected_time":3074000000000,"state":"active","ping":70},{"user_id":107,"name":"Sábado Gigante","steam_id":76561197994685971,"connected_time":634000000000,"state":"active","ping":60},{"user_id":78,"name":"johnny","steam_id":76561198050225055,"connected_time":3623000000000,"state":"active","ping":52},{"user_id":79,"name":"spacetoven","steam_id":76561198115821131,"connected_time":3427000000000,"state":"active","ping":60},{"user_id":89,"name":"tbcugsmck","steam_id":76561198970733188,"connected_time":3068000000000,"state":"active","ping":46},{"user_id":101,"name":"APOTATO","steam_id":76561198118199858,"connected_time":1640000000000,"state":"active","ping":47},{"user_id":103,"name":"TeeVeeGee","steam_id":76561198009869685,"connected_time":1457000000000,"state":"active","ping":53},{"user_id":83,"name":"cielael","steam_id":76561198043971956,"connected_time":3180000000000,"state":"active","ping":46},{"user_id":102,"name":"rhsiegetank","steam_id":76561198359829118,"connected_time":1629000000000,"state":"active","ping":62},{"user_id":104,"name":"Sgt. Eclair","steam_id":76561198156384194,"connected_time":1130000000000,"state":"active","ping":51},{"user_id":96,"name":"Whisper!","steam_id":76561198119609795,"connected_time":2072000000000,"state":"active","ping":47},{"user_id":91,"name":"Ξ Living Room Set - $799","steam_id":76561198123731470,"connected_time":2934000000000,"state":"active","ping":47},{"user_id":97,"name":"Chalupa Jones","steam_id":76561198335855588,"connected_time":1905000000000,"state":"active","ping":51},{"user_id":109,"name":"Adxn","steam_id":76561198136685433,"connected_time":478000000000,"state":"active","ping":65},{"user_id":73,"name":"Hobbes","steam_id":76561198087956236,"connected_time":4607000000000,"state":"active","ping":55},{"user_id":82,"name":"Xtar","steam_id":76561198301774048,"connected_time":3344000000000,"state":"active","ping":92}]},{"server_id":324,"name":"Uncletopia | Los Angeles | 3 | All Maps","name_short":"lax-3","host":"lax-1.us.uncletopia.com","port":27035,"enabled":true,"region":"us-west","cc":"us","latitude":33.94279,"longitude":-118.41004,"reserved":0,"last_update":"0001-01-01T00:00:00Z","name_a2s":"Uncletopia | Los Angeles | 3 | All Maps","protocol":17,"map":"pl_borneo","folder":"tf","game":"Team Fortress","app_id":440,"player_count":0,"max_players":24,"Bots":0,"server_type":"Dedicated","server_os":"Linux","password":true,"vac":true,"version":"7961495","steam_id":85568392924510198,"keywords":["nocrits","nodmgspread","payload","uncletopia"],"game_id":440,"stv_port":27036,"stv_name":"Uncletopia | Los Angeles | 3 | All Maps | STV","players":null},{"server_id":25,"name":"Uncletopia | Los Angeles | 4 | Stopwatch","name_short":"lax-4","host":"lax-1.us.uncletopia.com","port":27045,"enabled":true,"region":"us-west","cc":"us","latitude":33.94279,"longitude":-118.41004,"reserved":0,"last_update":"0001-01-01T00:00:00Z","name_a2s":"Uncletopia | Los Angeles | 4 | Stopwatch","protocol":17,"map":"pl_upward","folder":"tf","game":"Team Fortress","app_id":440,"player_count":0,"max_players":24,"Bots":0,"server_type":"Dedicated","server_os":"Linux","password":true,"vac":true,"version":"7961495","steam_id":85568392924510199,"keywords":["nocrits","nodmgspread","payload","uncletopia"],"game_id":440,"stv_port":27046,"stv_name":"Uncletopia | Los Angeles | 4 | Stopwatch | STV","players":null},{"server_id":11,"name":"Uncletopia | London | 1 | All Maps","name_short":"lon-1","host":"lon-1.uk.uncletopia.com","port":27015,"enabled":true,"region":"eu","cc":"gb","latitude":51.509865,"longitude":-0.118092,"reserved":0,"last_update":"0001-01-01T00:00:00Z","name_a2s":"Uncletopia | London | 1 | All Maps","protocol":17,"map":"pl_borneo","folder":"tf","game":"Team Fortress","app_id":440,"player_count":1,"max_players":24,"Bots":0,"server_type":"Dedicated","server_os":"Linux","password":true,"vac":true,"version":"7961495","steam_id":85568392924367362,"keywords":["nocrits","nodmgspread","payload","uncletopia"],"game_id":440,"stv_port":27016,"stv_name":"Uncletopia | London | 1 | All Maps | STV","players":[{"user_id":825,"name":"Weird Sub-Classes \u0026 Sentries","steam_id":76561199483317097,"connected_time":44000000000,"state":"active","ping":131}]},{"server_id":114,"name":"Uncletopia | London | 2 | All Maps","name_short":"lon-2","host":"lon-1.uk.uncletopia.com","port":27025,"enabled":true,"region":"eu","cc":"gb","latitude":51.509865,"longitude":-0.118092,"reserved":0,"last_update":"0001-01-01T00:00:00Z","name_a2s":"Uncletopia | London | 2 | All Maps","protocol":17,"map":"cp_mountainlab","folder":"tf","game":"Team Fortress","app_id":440,"player_count":0,"max_players":24,"Bots":0,"server_type":"Dedicated","server_os":"Linux","password":true,"vac":true,"version":"7961495","steam_id":85568392924470941,"keywords":["cp","nocrits","nodmgspread","uncletopia"],"game_id":440,"stv_port":27026,"stv_name":"Uncletopia | London | 2 | All Maps | STV","players":null},{"server_id":320,"name":"Uncletopia | London | 3 | All Maps","name_short":"lon-3","host":"lon-1.uk.uncletopia.com","port":27035,"enabled":true,"region":"eu","cc":"gb","latitude":51.509865,"longitude":-0.118092,"reserved":0,"last_update":"0001-01-01T00:00:00Z","name_a2s":"Uncletopia | London | 3 | All Maps","protocol":17,"map":"pl_borneo","folder":"tf","game":"Team Fortress","app_id":440,"player_count":24,"max_players":24,"Bots":0,"server_type":"Dedicated","server_os":"Linux","password":true,"vac":true,"version":"7961495","steam_id":85568392924510192,"keywords":["nocrits","nodmgspread","payload","uncletopia"],"game_id":440,"stv_port":27036,"stv_name":"Uncletopia | London | 3 | All Maps | STV","players":[{"user_id":315,"name":"Cryo","steam_id":76561198324132940,"connected_time":2453000000000,"state":"active","ping":56},{"user_id":312,"name":"Shawty","steam_id":76561198256704286,"connected_time":2596000000000,"state":"active","ping":61},{"user_id":342,"name":"Sigsby","steam_id":76561198155116429,"connected_time":805000000000,"state":"active","ping":63},{"user_id":331,"name":"Dei Genetrix","steam_id":76561198305678122,"connected_time":1545000000000,"state":"active","ping":50},{"user_id":325,"name":"Lemon","steam_id":76561198188535947,"connected_time":2135000000000,"state":"active","ping":70},{"user_id":317,"name":"KittyKate ❤","steam_id":76561198116340817,"connected_time":2280000000000,"state":"active","ping":63},{"user_id":318,"name":"BuzzBees ❤","steam_id":76561198101502273,"connected_time":2271000000000,"state":"active","ping":45},{"user_id":326,"name":"Burbie","steam_id":76561198046069449,"connected_time":2007000000000,"state":"active","ping":45},{"user_id":343,"name":"Laru","steam_id":76561197998838438,"connected_time":776000000000,"state":"active","ping":81},{"user_id":346,"name":"Over Extended","steam_id":76561199089290269,"connected_time":628000000000,"state":"active","ping":49},{"user_id":328,"name":"tired","steam_id":76561198046838168,"connected_time":1866000000000,"state":"active","ping":56},{"user_id":332,"name":"Huwajux","steam_id":76561197990943283,"connected_time":1502000000000,"state":"active","ping":44},{"user_id":347,"name":"Cabbch","steam_id":76561198045955679,"connected_time":37000000000,"state":"active","ping":47},{"user_id":321,"name":"Neeeiks","steam_id":76561198009156801,"connected_time":2264000000000,"state":"active","ping":76},{"user_id":344,"name":"teddy","steam_id":76561198007436837,"connected_time":730000000000,"state":"active","ping":32},{"user_id":338,"name":"A Succulent Chinese Meal","steam_id":76561198069472440,"connected_time":1202000000000,"state":"active","ping":64},{"user_id":330,"name":"lugi","steam_id":76561198026903673,"connected_time":1578000000000,"state":"active","ping":73},{"user_id":301,"name":"Coac","steam_id":76561198085265740,"connected_time":3586000000000,"state":"active","ping":75},{"user_id":339,"name":"Ryan Gosling (Literally me)","steam_id":76561198438150893,"connected_time":1088000000000,"state":"active","ping":103},{"user_id":333,"name":"Venwood","steam_id":76561198126973175,"connected_time":1483000000000,"state":"active","ping":57},{"user_id":337,"name":"worgeral","steam_id":76561198050781898,"connected_time":1334000000000,"state":"active","ping":61},{"user_id":335,"name":"C.I.","steam_id":76561197972438196,"connected_time":1427000000000,"state":"active","ping":47},{"user_id":306,"name":"goofy goober","steam_id":76561198068054530,"connected_time":3005000000000,"state":"active","ping":90},{"user_id":345,"name":"Dr Smeggman","steam_id":76561197966614845,"connected_time":686000000000,"state":"active","ping":45}]},{"server_id":321,"name":"Uncletopia | London | 4 | All Maps","name_short":"lon-4","host":"lon-1.uk.uncletopia.com","port":27045,"enabled":true,"region":"eu","cc":"gb","latitude":51.509865,"longitude":-0.118092,"reserved":0,"last_update":"0001-01-01T00:00:00Z","name_a2s":"Uncletopia | London | 4 | All Maps","protocol":17,"map":"cp_steel","folder":"tf","game":"Team Fortress","app_id":440,"player_count":24,"max_players":24,"Bots":0,"server_type":"Dedicated","server_os":"Linux","password":true,"vac":true,"version":"7961495","steam_id":85568392924510193,"keywords":["cp","nocrits","nodmgspread","uncletopia"],"game_id":440,"stv_port":27046,"stv_name":"Uncletopia | London | 4 | All Maps | STV","players":[{"user_id":404,"name":"can u die from gargling honey","steam_id":76561197996269312,"connected_time":2929000000000,"state":"active","ping":33},{"user_id":439,"name":"Wilderhammer","steam_id":76561198132133702,"connected_time":771000000000,"state":"active","ping":59},{"user_id":429,"name":"Crystal Kerosene","steam_id":76561198963378933,"connected_time":1582000000000,"state":"active","ping":45},{"user_id":431,"name":"Lilliputt","steam_id":76561198090146457,"connected_time":1229000000000,"state":"active","ping":39},{"user_id":448,"name":"Aftiks","steam_id":76561198875182686,"connected_time":52000000000,"state":"active","ping":103},{"user_id":438,"name":"Not A Fake Uncletopia Server","steam_id":76561198152871288,"connected_time":800000000000,"state":"active","ping":66},{"user_id":433,"name":"Elf Slut C-./S/.-センはブ\ufffd\ufffd","steam_id":76561198124567224,"connected_time":1087000000000,"state":"active","ping":75},{"user_id":423,"name":"xXx_-SAT3LL1TE-_xXx","steam_id":76561198037955288,"connected_time":1988000000000,"state":"active","ping":45},{"user_id":444,"name":"Vince","steam_id":76561199103000131,"connected_time":653000000000,"state":"active","ping":45},{"user_id":409,"name":"60hz \u003e","steam_id":76561198307037169,"connected_time":2739000000000,"state":"active","ping":49},{"user_id":422,"name":"that shit got me middle handed","steam_id":76561198010239925,"connected_time":2050000000000,"state":"active","ping":45},{"user_id":440,"name":"vani","steam_id":76561197991778291,"connected_time":723000000000,"state":"active","ping":78},{"user_id":359,"name":"Houlles","steam_id":76561198095277383,"connected_time":6435000000000,"state":"active","ping":52},{"user_id":441,"name":"watch thief","steam_id":76561198036730191,"connected_time":691000000000,"state":"active","ping":59},{"user_id":443,"name":"Transcendence Fernando","steam_id":76561197987115316,"connected_time":665000000000,"state":"active","ping":46},{"user_id":442,"name":"gitlitwitit","steam_id":76561197980019054,"connected_time":669000000000,"state":"active","ping":60},{"user_id":449,"name":"Lizard Wizard","steam_id":76561198077224982,"connected_time":43000000000,"state":"active","ping":77},{"user_id":411,"name":"MACHO MAN RANDY SAVAGE","steam_id":76561197995723404,"connected_time":2732000000000,"state":"active","ping":60},{"user_id":403,"name":"harryhux","steam_id":76561198228052940,"connected_time":3068000000000,"state":"active","ping":45},{"user_id":401,"name":"Collet-Gaming69","steam_id":76561198335486000,"connected_time":3309000000000,"state":"active","ping":62},{"user_id":447,"name":"Nox Equites","steam_id":76561198115438449,"connected_time":159000000000,"state":"active","ping":84},{"user_id":450,"name":"ice spice","steam_id":76561198276681691,"connected_time":22000000000,"state":"spawning","ping":74},{"user_id":428,"name":"UltimateSlayer","steam_id":76561198384109309,"connected_time":1851000000000,"state":"active","ping":56},{"user_id":415,"name":"I'M JUST SCHIZOPHRENIC","steam_id":76561198798803845,"connected_time":2561000000000,"state":"active","ping":53}]},{"server_id":21,"name":"Uncletopia | London | 5 | All Maps","name_short":"lon-5","host":"lon-1.uk.uncletopia.com","port":27055,"enabled":true,"region":"eu","cc":"gb","latitude":51.509865,"longitude":-0.118092,"reserved":0,"last_update":"0001-01-01T00:00:00Z","name_a2s":"Uncletopia | London | 5 | All Maps","protocol":17,"map":"pl_snowycoast","folder":"tf","game":"Team Fortress","app_id":440,"player_count":24,"max_players":24,"Bots":0,"server_type":"Dedicated","server_os":"Linux","password":true,"vac":true,"version":"7961495","steam_id":85568392924742829,"keywords":["nocrits","nodmgspread","payload","uncletopia"],"game_id":440,"stv_port":27056,"stv_name":"Uncletopia | London | 5 | All Maps | STV","players":[{"user_id":786,"name":"Jerrycans in my Bum","steam_id":76561198089478898,"connected_time":5626000000000,"state":"active","ping":44},{"user_id":781,"name":"phoinks","steam_id":76561198087543005,"connected_time":5747000000000,"state":"active","ping":35},{"user_id":834,"name":"cl_skinnyboi 1","steam_id":76561198042864708,"connected_time":880000000000,"state":"active","ping":54},{"user_id":810,"name":"Drunk russian with pyromania","steam_id":76561198195527328,"connected_time":3150000000000,"state":"active","ping":47},{"user_id":842,"name":"the beast","steam_id":76561198115505914,"connected_time":100000000000,"state":"active","ping":46},{"user_id":811,"name":"kaelan","steam_id":76561198001425310,"connected_time":3136000000000,"state":"active","ping":74},{"user_id":794,"name":"MF COOM","steam_id":76561198415319057,"connected_time":4590000000000,"state":"active","ping":53},{"user_id":795,"name":"jeff","steam_id":76561198272815746,"connected_time":4585000000000,"state":"active","ping":50},{"user_id":818,"name":"biohazard.pt","steam_id":76561198088367808,"connected_time":2863000000000,"state":"active","ping":69},{"user_id":835,"name":"Brian","steam_id":76561198077756206,"connected_time":499000000000,"state":"active","ping":44},{"user_id":841,"name":"dad.","steam_id":76561198147173457,"connected_time":118000000000,"state":"active","ping":76},{"user_id":828,"name":"Scuffed katana+9 PvP stones+4","steam_id":76561199375170916,"connected_time":1522000000000,"state":"active","ping":118},{"user_id":813,"name":"JicK","steam_id":76561198150094539,"connected_time":3064000000000,"state":"active","ping":41},{"user_id":820,"name":"Spanns","steam_id":76561197998349793,"connected_time":2752000000000,"state":"active","ping":74},{"user_id":824,"name":"joseph","steam_id":76561197961127850,"connected_time":2180000000000,"state":"active","ping":67},{"user_id":836,"name":"The Subway Scientist","steam_id":76561198193757646,"connected_time":436000000000,"state":"active","ping":51},{"user_id":832,"name":"Jeryx","steam_id":76561197995602803,"connected_time":1340000000000,"state":"active","ping":61},{"user_id":814,"name":"Sun Man","steam_id":76561198080247208,"connected_time":3044000000000,"state":"active","ping":59},{"user_id":840,"name":"Maximilian1359","steam_id":76561198152439608,"connected_time":281000000000,"state":"active","ping":62},{"user_id":830,"name":"Kick Grabaston","steam_id":76561198043098859,"connected_time":1488000000000,"state":"active","ping":41},{"user_id":831,"name":"plastic3glaciers","steam_id":76561198878444299,"connected_time":1446000000000,"state":"active","ping":125},{"user_id":839,"name":"Weegee","steam_id":76561198150308523,"connected_time":319000000000,"state":"active","ping":48},{"user_id":822,"name":"CumbustiblePunda","steam_id":76561197974274677,"connected_time":2437000000000,"state":"active","ping":60},{"user_id":817,"name":"Or1g1nal","steam_id":76561198080473870,"connected_time":2904000000000,"state":"active","ping":51}]},{"server_id":22,"name":"Uncletopia | London | 6 | All Maps","name_short":"lon-6","host":"lon-1.uk.uncletopia.com","port":27065,"enabled":true,"region":"eu","cc":"gb","latitude":51.509865,"longitude":-0.118092,"reserved":0,"last_update":"0001-01-01T00:00:00Z","name_a2s":"Uncletopia | London | 6 | All Maps","protocol":17,"map":"cp_snakewater_final1","folder":"tf","game":"Team Fortress","app_id":440,"player_count":9,"max_players":24,"Bots":0,"server_type":"Dedicated","server_os":"Linux","password":true,"vac":true,"version":"7961495","steam_id":85568392924742830,"keywords":["cp","nocrits","nodmgspread","uncletopia"],"game_id":440,"stv_port":27066,"stv_name":"Uncletopia | London | 6 | All Maps | STV","players":[{"user_id":401,"name":"wano","steam_id":76561198127657906,"connected_time":2095000000000,"state":"active","ping":56},{"user_id":413,"name":"Олексій | UA","steam_id":76561198802594676,"connected_time":1133000000000,"state":"active","ping":65},{"user_id":416,"name":"Nova","steam_id":76561198108601005,"connected_time":931000000000,"state":"active","ping":81},{"user_id":417,"name":"kreeper700","steam_id":76561199495556056,"connected_time":25000000000,"state":"active","ping":183},{"user_id":403,"name":"Clay","steam_id":76561198174934114,"connected_time":2044000000000,"state":"active","ping":58},{"user_id":378,"name":"katana on the trains","steam_id":76561198202464032,"connected_time":4246000000000,"state":"active","ping":70},{"user_id":415,"name":"Pablo Escobar(real)","steam_id":76561199244631253,"connected_time":1057000000000,"state":"active","ping":56},{"user_id":409,"name":"Olegvalter","steam_id":76561198991989450,"connected_time":1729000000000,"state":"active","ping":97},{"user_id":410,"name":"Sticky Fingers","steam_id":76561199204788981,"connected_time":1724000000000,"state":"active","ping":89}]},{"server_id":40,"name":"Uncletopia | London | 7 | Stopwatch","name_short":"lon-7","host":"lon-1.uk.uncletopia.com","port":27075,"enabled":true,"region":"eu","cc":"gb","latitude":51.509865,"longitude":-0.118092,"reserved":0,"last_update":"0001-01-01T00:00:00Z","name_a2s":"Uncletopia | London | 7 | Stopwatch","protocol":17,"map":"workshop/koth_clearcut_b15.ugc2107050255","folder":"tf","game":"Team Fortress","app_id":440,"player_count":0,"max_players":24,"Bots":0,"server_type":"Dedicated","server_os":"Linux","password":true,"vac":true,"version":"7961495","steam_id":85568392924964314,"keywords":["cp","nocrits","nodmgspread","uncletopia"],"game_id":440,"stv_port":27076,"stv_name":"Uncletopia | London | 7 | Stopwatch | STV","players":null},{"server_id":41,"name":"Uncletopia | London | 8 | Community","name_short":"lon-8","host":"lon-1.uk.uncletopia.com","port":27085,"enabled":true,"region":"eu","cc":"gb","latitude":51.509865,"longitude":-0.118092,"reserved":0,"last_update":"0001-01-01T00:00:00Z","name_a2s":"Uncletopia | London | 8 | Community","protocol":17,"map":"workshop/koth_kemptown_rc1.ugc767410655","folder":"tf","game":"Team Fortress","app_id":440,"player_count":0,"max_players":24,"Bots":0,"server_type":"Dedicated","server_os":"Linux","password":true,"vac":true,"version":"7961495","steam_id":85568392924964315,"keywords":["cp","nocrits","nodmgspread","uncletopia"],"game_id":440,"stv_port":27086,"stv_name":"Uncletopia | London | 8 | Community | STV","players":null},{"server_id":300,"name":"Uncletopia | Montréal | 1 | One Thousand Uncles","name_short":"mtl-1","host":"mtl-1.ca.uncletopia.com","port":27015,"enabled":true,"region":"us-east","cc":"ca","latitude":45.50889,"longitude":-73.56167,"reserved":0,"last_update":"0001-01-01T00:00:00Z","name_a2s":"Uncletopia | Montréal | 1 | One Thousand Uncles","protocol":17,"map":"pl_thundermountain","folder":"tf","game":"Team Fortress","app_id":440,"player_count":10,"max_players":32,"Bots":0,"server_type":"Dedicated","server_os":"Linux","password":true,"vac":true,"version":"7961495","steam_id":85568392924500087,"keywords":["alltalk","danepve","increased_maxplayers","norespawntime","payload","uncletopia"],"game_id":440,"stv_port":0,"stv_name":"","players":[{"user_id":194,"name":"pyroclastic flow","steam_id":76561198095121758,"connected_time":2277000000000,"state":"spawning","ping":280},{"user_id":216,"name":"Low-Presence","steam_id":76561198422505573,"connected_time":2022000000000,"state":"spawning","ping":95},{"user_id":219,"name":"ExplodingPie","steam_id":76561199007746780,"connected_time":1438000000000,"state":"spawning","ping":158},{"user_id":221,"name":"Jurassicsteel24","steam_id":76561199019369817,"connected_time":1284000000000,"state":"spawning","ping":177},{"user_id":222,"name":"Herman Bavinck","steam_id":76561197993190216,"connected_time":1072000000000,"state":"spawning","ping":146},{"user_id":224,"name":"Freestylo","steam_id":76561198144284189,"connected_time":980000000000,"state":"spawning","ping":88},{"user_id":225,"name":"cheesecake hunter","steam_id":76561198097769060,"connected_time":932000000000,"state":"spawning","ping":284},{"user_id":227,"name":"chomorkuz","steam_id":76561198452662446,"connected_time":834000000000,"state":"spawning","ping":322},{"user_id":228,"name":"Witicka Dot Com","steam_id":76561198050361870,"connected_time":829000000000,"state":"spawning","ping":98},{"user_id":230,"name":"pyroshark tf2","steam_id":76561199077122531,"connected_time":373000000000,"state":"spawning","ping":156}]},{"server_id":301,"name":"Uncletopia | Montréal | 2 | One Thousand Uncles","name_short":"mtl-2","host":"mtl-1.ca.uncletopia.com","port":27025,"enabled":true,"region":"us-east","cc":"ca","latitude":45.50889,"longitude":-73.56167,"reserved":0,"last_update":"0001-01-01T00:00:00Z","name_a2s":"Uncletopia | Montréal | 2 | One Thousand Uncles","protocol":17,"map":"pl_swiftwater_final1","folder":"tf","game":"Team Fortress","app_id":440,"player_count":0,"max_players":32,"Bots":0,"server_type":"Dedicated","server_os":"Linux","password":true,"vac":true,"version":"7961495","steam_id":85568392924500088,"keywords":["alltalk","danepve","increased_maxplayers","norespawntime","payload","uncletopia"],"game_id":440,"stv_port":0,"stv_name":"","players":null},{"server_id":302,"name":"Uncletopia | Montréal | 3 | One Thousand Uncles","name_short":"mtl-3","host":"mtl-1.ca.uncletopia.com","port":27035,"enabled":true,"region":"us-east","cc":"ca","latitude":45.50889,"longitude":-73.56167,"reserved":0,"last_update":"0001-01-01T00:00:00Z","name_a2s":"Uncletopia | Montréal | 3 | One Thousand Uncles","protocol":17,"map":"pl_swiftwater_final1","folder":"tf","game":"Team Fortress","app_id":440,"player_count":0,"max_players":32,"Bots":0,"server_type":"Dedicated","server_os":"Linux","password":true,"vac":true,"version":"7961495","steam_id":85568392924500089,"keywords":["alltalk","danepve","increased_maxplayers","norespawntime","payload","uncletopia"],"game_id":440,"stv_port":0,"stv_name":"","players":null},{"server_id":13,"name":"Uncletopia | New York City | 1 | All Maps","name_short":"nyc-1","host":"nyc-1.us.uncletopia.com","port":27015,"enabled":true,"region":"us-east","cc":"us","latitude":40.73061,"longitude":-73.93524,"reserved":0,"last_update":"0001-01-01T00:00:00Z","name_a2s":"Uncletopia | New York City | 1 | All Maps","protocol":17,"map":"cp_process_final","folder":"tf","game":"Team Fortress","app_id":440,"player_count":24,"max_players":24,"Bots":0,"server_type":"Dedicated","server_os":"Linux","password":true,"vac":true,"version":"7961495","steam_id":85568392924469993,"keywords":["cp","nocrits","nodmgspread","uncletopia"],"game_id":440,"stv_port":27016,"stv_name":"Uncletopia | New York City | 1 | All Maps | STV","players":[{"user_id":494,"name":"Versuski","steam_id":76561198085193084,"connected_time":1032000000000,"state":"active","ping":51},{"user_id":434,"name":"morning glory","steam_id":76561198105081948,"connected_time":5437000000000,"state":"active","ping":47},{"user_id":462,"name":"Ike Yard","steam_id":76561197998954523,"connected_time":3040000000000,"state":"active","ping":93},{"user_id":498,"name":"Hamhog","steam_id":76561198353967566,"connected_time":451000000000,"state":"active","ping":50},{"user_id":499,"name":"thugginator","steam_id":76561198030280831,"connected_time":404000000000,"state":"active","ping":82},{"user_id":482,"name":"cavemanDv","steam_id":76561198111927196,"connected_time":1983000000000,"state":"active","ping":76},{"user_id":448,"name":"apcsmoore","steam_id":76561199124727793,"connected_time":4265000000000,"state":"active","ping":88},{"user_id":468,"name":"ṽ⧉ cookie","steam_id":76561197998884823,"connected_time":2945000000000,"state":"active","ping":70},{"user_id":493,"name":"Straight White Man \u003che/him\u003e","steam_id":76561199500876333,"connected_time":1069000000000,"state":"active","ping":69},{"user_id":501,"name":"psychoactive tf2","steam_id":76561198007494744,"connected_time":315000000000,"state":"active","ping":135},{"user_id":500,"name":"Walmart Employee","steam_id":76561198840373909,"connected_time":369000000000,"state":"active","ping":90},{"user_id":483,"name":"Cellus","steam_id":76561198067204847,"connected_time":1949000000000,"state":"active","ping":55},{"user_id":491,"name":"1-800-GHOST-DANCE","steam_id":76561198835430429,"connected_time":1158000000000,"state":"active","ping":66},{"user_id":492,"name":"terrapieseven","steam_id":76561198072062415,"connected_time":1155000000000,"state":"active","ping":58},{"user_id":477,"name":"nethersome","steam_id":76561198892225148,"connected_time":2513000000000,"state":"active","ping":81},{"user_id":466,"name":"Willis","steam_id":76561198802561549,"connected_time":2973000000000,"state":"active","ping":181},{"user_id":467,"name":"Sagusky","steam_id":76561199020014535,"connected_time":2960000000000,"state":"active","ping":156},{"user_id":484,"name":"Dwanor","steam_id":76561198039571887,"connected_time":1809000000000,"state":"active","ping":60},{"user_id":117,"name":"CDBeans","steam_id":76561198046990367,"connected_time":26689000000000,"state":"active","ping":85},{"user_id":469,"name":"draining to stay happy","steam_id":76561198797823116,"connected_time":2942000000000,"state":"active","ping":46},{"user_id":470,"name":"EmotreX","steam_id":76561198366518989,"connected_time":2940000000000,"state":"active","ping":89},{"user_id":502,"name":"homsar","steam_id":76561199031742838,"connected_time":159000000000,"state":"active","ping":56},{"user_id":496,"name":"sonikro","steam_id":76561197989428692,"connected_time":577000000000,"state":"active","ping":68},{"user_id":473,"name":"✪Type_Alpha","steam_id":76561198122780598,"connected_time":2865000000000,"state":"active","ping":66}]},{"server_id":14,"name":"Uncletopia | New York City | 2 | All Maps","name_short":"nyc-2","host":"nyc-1.us.uncletopia.com","port":27025,"enabled":true,"region":"us-east","cc":"us","latitude":40.73061,"longitude":-73.93524,"reserved":0,"last_update":"0001-01-01T00:00:00Z","name_a2s":"Uncletopia | New York City | 2 | All Maps","protocol":17,"map":"pl_upward","folder":"tf","game":"Team Fortress","app_id":440,"player_count":24,"max_players":24,"Bots":0,"server_type":"Dedicated","server_os":"Linux","password":true,"vac":true,"version":"7961495","steam_id":85568392924469994,"keywords":["nocrits","nodmgspread","payload","uncletopia"],"game_id":440,"stv_port":27026,"stv_name":"Uncletopia | New York City | 2 | All Maps | STV","players":[{"user_id":486,"name":"Sagoogoo","steam_id":76561198176061614,"connected_time":4499000000000,"state":"active","ping":80},{"user_id":521,"name":"boykisser","steam_id":76561198805511159,"connected_time":3088000000000,"state":"active","ping":45},{"user_id":554,"name":"♫ GPN ♫","steam_id":76561198115033251,"connected_time":1188000000000,"state":"active","ping":59},{"user_id":555,"name":"Cowabummer","steam_id":76561198272640432,"connected_time":1174000000000,"state":"active","ping":78},{"user_id":533,"name":"Slondermin","steam_id":76561198320301349,"connected_time":2315000000000,"state":"active","ping":65},{"user_id":539,"name":"avery","steam_id":76561198948558464,"connected_time":2095000000000,"state":"active","ping":49},{"user_id":537,"name":"Nixon's the One","steam_id":76561198046688278,"connected_time":2115000000000,"state":"active","ping":88},{"user_id":502,"name":"DeepDive","steam_id":76561198140542184,"connected_time":3846000000000,"state":"active","ping":47},{"user_id":503,"name":"Sniper Monkey","steam_id":76561199036173209,"connected_time":3831000000000,"state":"active","ping":49},{"user_id":547,"name":"chrisMan","steam_id":76561199017898392,"connected_time":1848000000000,"state":"active","ping":54},{"user_id":520,"name":"SpaceSanctum","steam_id":76561198805242305,"connected_time":3107000000000,"state":"active","ping":47},{"user_id":564,"name":"tim-","steam_id":76561199119101315,"connected_time":45000000000,"state":"active","ping":95},{"user_id":518,"name":"Sasha Vandal (YT)","steam_id":76561198063448831,"connected_time":3117000000000,"state":"active","ping":79},{"user_id":563,"name":"Mr. Fluffy Penguins","steam_id":76561198172538149,"connected_time":110000000000,"state":"active","ping":89},{"user_id":556,"name":"Shack","steam_id":76561198035503322,"connected_time":1140000000000,"state":"active","ping":70},{"user_id":560,"name":"enzorap117","steam_id":76561199179604800,"connected_time":622000000000,"state":"active","ping":66},{"user_id":546,"name":"Can't Screw Ol' Nixon","steam_id":76561198114576876,"connected_time":1893000000000,"state":"active","ping":82},{"user_id":562,"name":"S25","steam_id":76561198424979656,"connected_time":128000000000,"state":"active","ping":118},{"user_id":531,"name":"Jmciano24","steam_id":76561198050723212,"connected_time":2690000000000,"state":"active","ping":58},{"user_id":561,"name":"googa","steam_id":76561198133130452,"connected_time":567000000000,"state":"active","ping":50},{"user_id":529,"name":"Nixon Me, Dixon Me","steam_id":76561198126519537,"connected_time":2771000000000,"state":"active","ping":63},{"user_id":558,"name":"Hungry Grunt","steam_id":76561199398398390,"connected_time":801000000000,"state":"active","ping":41},{"user_id":557,"name":"Al1enCab8ag3","steam_id":76561198426970216,"connected_time":1115000000000,"state":"active","ping":54},{"user_id":530,"name":"Senpa1","steam_id":76561198140297250,"connected_time":2729000000000,"state":"active","ping":45}]},{"server_id":15,"name":"Uncletopia | New York City | 3 | Stopwatch","name_short":"nyc-3","host":"nyc-1.us.uncletopia.com","port":27035,"enabled":true,"region":"us-east","cc":"us","latitude":40.73061,"longitude":-73.93524,"reserved":0,"last_update":"0001-01-01T00:00:00Z","name_a2s":"Uncletopia | New York City | 3 | Stopwatch","protocol":17,"map":"workshop/pl_vigil_rc10.ugc1266210012","folder":"tf","game":"Team Fortress","app_id":440,"player_count":0,"max_players":24,"Bots":0,"server_type":"Dedicated","server_os":"Linux","password":true,"vac":true,"version":"7961495","steam_id":85568392924742820,"keywords":["nocrits","nodmgspread","payload","uncletopia"],"game_id":440,"stv_port":27036,"stv_name":"Uncletopia | New York City | 3 | Stopwatch | STV","players":null},{"server_id":16,"name":"Uncletopia | New York City | 4 | Community","name_short":"nyc-4","host":"nyc-1.us.uncletopia.com","port":27045,"enabled":true,"region":"us-east","cc":"us","latitude":40.73061,"longitude":-73.93524,"reserved":0,"last_update":"0001-01-01T00:00:00Z","name_a2s":"Uncletopia | New York City | 4 | Community","protocol":17,"map":"workshop/cp_glassworks_rc7a.ugc454118349","folder":"tf","game":"Team Fortress","app_id":440,"player_count":12,"max_players":24,"Bots":0,"server_type":"Dedicated","server_os":"Linux","password":true,"vac":true,"version":"7961495","steam_id":85568392924742821,"keywords":["cp","nocrits","nodmgspread","uncletopia"],"game_id":440,"stv_port":27046,"stv_name":"Uncletopia | New York City | 4 | Community | STV","players":[{"user_id":6,"name":"HippieOfWar","steam_id":76561198079776257,"connected_time":6173000000000,"state":"active","ping":117},{"user_id":7,"name":"AquaticSky","steam_id":76561198091332323,"connected_time":6168000000000,"state":"active","ping":117},{"user_id":8,"name":"Super Stupid","steam_id":76561198040665081,"connected_time":6152000000000,"state":"active","ping":145},{"user_id":9,"name":"Zeus","steam_id":76561198078791961,"connected_time":6067000000000,"state":"active","ping":117},{"user_id":10,"name":"Raptorattack","steam_id":76561198029727810,"connected_time":6044000000000,"state":"active","ping":63},{"user_id":19,"name":"Retro","steam_id":76561198030794318,"connected_time":4898000000000,"state":"active","ping":60},{"user_id":74,"name":"Autumn Clover","steam_id":76561198012295314,"connected_time":843000000000,"state":"active","ping":61},{"user_id":77,"name":"VrTlV","steam_id":76561198117148323,"connected_time":668000000000,"state":"active","ping":63},{"user_id":68,"name":"CoconutGun42069","steam_id":76561199116912878,"connected_time":1024000000000,"state":"active","ping":147},{"user_id":24,"name":"Alacran","steam_id":76561198127448623,"connected_time":4798000000000,"state":"active","ping":115},{"user_id":25,"name":"BearHardt","steam_id":76561198091192774,"connected_time":4760000000000,"state":"active","ping":116},{"user_id":38,"name":"He rolls his own","steam_id":76561198058162684,"connected_time":4101000000000,"state":"active","ping":63}]},{"server_id":142,"name":"Uncletopia | São Paulo | 1 | All Maps","name_short":"sao-1","host":"sao-1.br.uncletopia.com","port":27015,"enabled":true,"region":"sa","cc":"br","latitude":-23.533773,"longitude":-46.62529,"reserved":0,"last_update":"0001-01-01T00:00:00Z","name_a2s":"Uncletopia | São Paulo | 1 | All Maps","protocol":17,"map":"cp_mountainlab","folder":"tf","game":"Team Fortress","app_id":440,"player_count":0,"max_players":24,"Bots":0,"server_type":"Dedicated","server_os":"Linux","password":true,"vac":true,"version":"7961495","steam_id":85568392924469996,"keywords":["cp","nocrits","nodmgspread","uncletopia"],"game_id":440,"stv_port":27016,"stv_name":"Uncletopia | São Paulo | 1 | All Maps | STV","players":null},{"server_id":143,"name":"Uncletopia | São Paulo | 2 | Community","name_short":"sao-2","host":"sao-2.br.uncletopia.com","port":27015,"enabled":true,"region":"sa","cc":"br","latitude":-23.533773,"longitude":-46.62529,"reserved":0,"last_update":"0001-01-01T00:00:00Z","name_a2s":"Uncletopia | São Paulo | 2 | Community","protocol":17,"map":"workshop/koth_slaughter_rc1.ugc1712845210","folder":"tf","game":"Team Fortress","app_id":440,"player_count":0,"max_players":24,"Bots":0,"server_type":"Dedicated","server_os":"Linux","password":true,"vac":true,"version":"7961495","steam_id":85568392924485349,"keywords":["cp","nocrits","nodmgspread","uncletopia"],"game_id":440,"stv_port":27016,"stv_name":"Uncletopia | São Paulo | 2 | Community | STV","players":null},{"server_id":7,"name":"Uncletopia | Seattle | 1 | All Maps","name_short":"sea-1","host":"sea-1.us.uncletopia.com","port":27015,"enabled":true,"region":"us-west","cc":"us","latitude":47.608013,"longitude":-122.33517,"reserved":0,"last_update":"0001-01-01T00:00:00Z","name_a2s":"Uncletopia | Seattle | 1 | All Maps","protocol":17,"map":"pl_swiftwater_final1","folder":"tf","game":"Team Fortress","app_id":440,"player_count":24,"max_players":24,"Bots":0,"server_type":"Dedicated","server_os":"Linux","password":true,"vac":true,"version":"7961495","steam_id":85568392924469997,"keywords":["nocrits","nodmgspread","payload","uncletopia"],"game_id":440,"stv_port":27016,"stv_name":"Uncletopia | Seattle | 1 | All Maps | STV","players":[{"user_id":295,"name":"pipi","steam_id":76561198450073779,"connected_time":613000000000,"state":"active","ping":45},{"user_id":300,"name":"coco","steam_id":76561199488457138,"connected_time":41000000000,"state":"active","ping":50},{"user_id":276,"name":"Lé Mon","steam_id":76561198078626283,"connected_time":3126000000000,"state":"active","ping":41},{"user_id":292,"name":"sniffy","steam_id":76561198184933255,"connected_time":882000000000,"state":"active","ping":77},{"user_id":197,"name":"Senior Stoic","steam_id":76561198855171713,"connected_time":8769000000000,"state":"active","ping":78},{"user_id":298,"name":"Catgirl Explise","steam_id":76561198044413891,"connected_time":551000000000,"state":"active","ping":84},{"user_id":258,"name":"sillynessman","steam_id":76561199086142678,"connected_time":4528000000000,"state":"spawning","ping":192},{"user_id":70,"name":"dust | it/she","steam_id":76561198045218909,"connected_time":23473000000000,"state":"active","ping":31},{"user_id":303,"name":"devn | trade.tf","steam_id":76561199202420894,"connected_time":16000000000,"state":"active","ping":50},{"user_id":290,"name":"Eraser cat","steam_id":76561199045570463,"connected_time":1136000000000,"state":"active","ping":52},{"user_id":285,"name":"ArchmageF","steam_id":76561197992246851,"connected_time":1598000000000,"state":"active","ping":47},{"user_id":273,"name":"Aardappel","steam_id":76561198030894676,"connected_time":3259000000000,"state":"active","ping":65},{"user_id":299,"name":"goofy goober","steam_id":76561199024079388,"connected_time":96000000000,"state":"active","ping":43},{"user_id":301,"name":"Arsonist Goose","steam_id":76561198147441830,"connected_time":41000000000,"state":"active","ping":67},{"user_id":288,"name":"Kelladrin","steam_id":76561198040727880,"connected_time":1262000000000,"state":"active","ping":61},{"user_id":264,"name":"Dog Hands Phone","steam_id":76561198090419068,"connected_time":3688000000000,"state":"active","ping":66},{"user_id":261,"name":"DaddyGalaxy","steam_id":76561198139697796,"connected_time":4207000000000,"state":"active","ping":55},{"user_id":302,"name":"King Keifer","steam_id":76561198141070466,"connected_time":40000000000,"state":"connecting","ping":55},{"user_id":293,"name":"Jacasola","steam_id":76561198055460402,"connected_time":690000000000,"state":"active","ping":61},{"user_id":189,"name":"Banana Man","steam_id":76561199012105803,"connected_time":9800000000000,"state":"active","ping":49},{"user_id":267,"name":"rat gets the cheese","steam_id":76561198031234032,"connected_time":3536000000000,"state":"active","ping":105},{"user_id":257,"name":"soup","steam_id":76561198043209046,"connected_time":4625000000000,"state":"active","ping":67},{"user_id":272,"name":"PopcornBucketGames","steam_id":76561199089562026,"connected_time":3401000000000,"state":"active","ping":48},{"user_id":282,"name":"level 7 firemancer","steam_id":76561198209571677,"connected_time":2652000000000,"state":"active","ping":137}]},{"server_id":119,"name":"Uncletopia | Seattle | 2 | All Maps","name_short":"sea-2","host":"sea-1.us.uncletopia.com","port":27025,"enabled":true,"region":"us-west","cc":"us","latitude":47.608013,"longitude":-122.33517,"reserved":0,"last_update":"0001-01-01T00:00:00Z","name_a2s":"Uncletopia | Seattle | 2 | All Maps","protocol":17,"map":"cp_altitude","folder":"tf","game":"Team Fortress","app_id":440,"player_count":0,"max_players":24,"Bots":0,"server_type":"Dedicated","server_os":"Linux","password":true,"vac":true,"version":"7961495","steam_id":85568392924469998,"keywords":["cp","nocrits","nodmgspread","uncletopia"],"game_id":440,"stv_port":27026,"stv_name":"Uncletopia | Seattle | 2 | All Maps | STV","players":null},{"server_id":406,"name":"Uncletopia | Seattle | 3 | Stopwatch","name_short":"sea-3","host":"sea-1.us.uncletopia.com","port":27035,"enabled":true,"region":"us-west","cc":"us","latitude":47.608013,"longitude":-122.33517,"reserved":0,"last_update":"0001-01-01T00:00:00Z","name_a2s":"Uncletopia | Seattle | 3 | Stopwatch","protocol":17,"map":"workshop/pl_vigil_rc10.ugc1266210012","folder":"tf","game":"Team Fortress","app_id":440,"player_count":0,"max_players":24,"Bots":0,"server_type":"Dedicated","server_os":"Linux","password":true,"vac":true,"version":"7961495","steam_id":85568392924515217,"keywords":["nocrits","nodmgspread","payload","uncletopia"],"game_id":440,"stv_port":27036,"stv_name":"Uncletopia | Seattle | 3 | Stopwatch | STV","players":null},{"server_id":17,"name":"Uncletopia | San Francisco | 1 | All Maps","name_short":"sfo-1","host":"sfo-1.us.uncletopia.com","port":27015,"enabled":true,"region":"us-west","cc":"us","latitude":37.77397,"longitude":-122.4313,"reserved":0,"last_update":"0001-01-01T00:00:00Z","name_a2s":"Uncletopia | San Francisco | 1 | All Maps","protocol":17,"map":"koth_viaduct","folder":"tf","game":"Team Fortress","app_id":440,"player_count":0,"max_players":24,"Bots":0,"server_type":"Dedicated","server_os":"Linux","password":true,"vac":true,"version":"7961495","steam_id":85568392924469999,"keywords":["cp","nocrits","nodmgspread","uncletopia"],"game_id":440,"stv_port":27016,"stv_name":"Uncletopia | San Francisco | 1 | All Maps | STV","players":null},{"server_id":18,"name":"Uncletopia | San Francisco | 2 | All Maps","name_short":"sfo-2","host":"sfo-1.us.uncletopia.com","port":27025,"enabled":true,"region":"us-west","cc":"us","latitude":37.77397,"longitude":-122.4313,"reserved":0,"last_update":"0001-01-01T00:00:00Z","name_a2s":"Uncletopia | San Francisco | 2 | All Maps","protocol":17,"map":"pl_hoodoo_final","folder":"tf","game":"Team Fortress","app_id":440,"player_count":0,"max_players":24,"Bots":0,"server_type":"Dedicated","server_os":"Linux","password":true,"vac":true,"version":"7961495","steam_id":85568392924470000,"keywords":["nocrits","nodmgspread","payload","uncletopia"],"game_id":440,"stv_port":27026,"stv_name":"Uncletopia | San Francisco | 2 | All Maps | STV","players":null},{"server_id":19,"name":"Uncletopia | San Francisco | 3 | Stopwatch","name_short":"sfo-3","host":"sfo-1.us.uncletopia.com","port":27035,"enabled":true,"region":"us-west","cc":"us","latitude":37.77397,"longitude":-122.4313,"reserved":0,"last_update":"0001-01-01T00:00:00Z","name_a2s":"Uncletopia | San Francisco | 3 | Stopwatch","protocol":17,"map":"workshop/koth_clearcut_b15.ugc2107050255","folder":"tf","game":"Team Fortress","app_id":440,"player_count":0,"max_players":24,"Bots":0,"server_type":"Dedicated","server_os":"Linux","password":true,"vac":true,"version":"7961495","steam_id":85568392924742824,"keywords":["cp","nocrits","nodmgspread","uncletopia"],"game_id":440,"stv_port":27036,"stv_name":"Uncletopia | San Francisco | 3 | Stopwatch | STV","players":null},{"server_id":20,"name":"Uncletopia | San Francisco | 4 | Community","name_short":"sfo-4","host":"sfo-1.us.uncletopia.com","port":27045,"enabled":true,"region":"us-west","cc":"us","latitude":37.77397,"longitude":-122.4313,"reserved":0,"last_update":"0001-01-01T00:00:00Z","name_a2s":"Uncletopia | San Francisco | 4 | Community","protocol":17,"map":"workshop/cp_reckoner_rc6.ugc674719999","folder":"tf","game":"Team Fortress","app_id":440,"player_count":0,"max_players":24,"Bots":0,"server_type":"Dedicated","server_os":"Linux","password":true,"vac":true,"version":"7961495","steam_id":85568392924742826,"keywords":["cp","nocrits","nodmgspread","uncletopia"],"game_id":440,"stv_port":27046,"stv_name":"Uncletopia | San Francisco | 4 | Community | STV","players":null},{"server_id":141,"name":"Uncletopia | Sydney | 1 | All Maps","name_short":"syd-1","host":"syd-1.au.uncletopia.com","port":27015,"enabled":true,"region":"au","cc":"au","latitude":-33.865143,"longitude":151.2099,"reserved":0,"last_update":"0001-01-01T00:00:00Z","name_a2s":"Uncletopia | Sydney | 1 | All Maps","protocol":17,"map":"cp_mountainlab","folder":"tf","game":"Team Fortress","app_id":440,"player_count":0,"max_players":24,"Bots":0,"server_type":"Dedicated","server_os":"Linux","password":true,"vac":true,"version":"7961495","steam_id":85568392924470001,"keywords":["cp","nocrits","nodmgspread","uncletopia"],"game_id":440,"stv_port":27016,"stv_name":"Uncletopia | Sydney | 1 | All Maps | STV","players":null},{"server_id":123,"name":"Uncletopia | Sydney | 2 | All Maps","name_short":"syd-2","host":"syd-1.au.uncletopia.com","port":27025,"enabled":true,"region":"au","cc":"au","latitude":-33.865143,"longitude":151.2099,"reserved":0,"last_update":"0001-01-01T00:00:00Z","name_a2s":"Uncletopia | Sydney | 2 | All Maps","protocol":17,"map":"cp_mercenarypark","folder":"tf","game":"Team Fortress","app_id":440,"player_count":0,"max_players":24,"Bots":0,"server_type":"Dedicated","server_os":"Linux","password":true,"vac":true,"version":"7961495","steam_id":85568392924470002,"keywords":["cp","nocrits","nodmgspread","uncletopia"],"game_id":440,"stv_port":27026,"stv_name":"Uncletopia | Sydney | 2 | All Maps | STV","players":null},{"server_id":395,"name":"Uncletopia | Sydney | 3 | All Maps","name_short":"syd-3","host":"syd-1.au.uncletopia.com","port":27035,"enabled":true,"region":"au","cc":"au","latitude":-33.865143,"longitude":151.2099,"reserved":0,"last_update":"0001-01-01T00:00:00Z","name_a2s":"Uncletopia | Sydney | 3 | All Maps","protocol":17,"map":"koth_brazil","folder":"tf","game":"Team Fortress","app_id":440,"player_count":0,"max_players":24,"Bots":0,"server_type":"Dedicated","server_os":"Linux","password":true,"vac":true,"version":"7961495","steam_id":85568392925194467,"keywords":["cp","nocrits","nodmgspread","uncletopia"],"game_id":440,"stv_port":27036,"stv_name":"Uncletopia | Sydney | 3 | All Maps | STV","players":null},{"server_id":396,"name":"Uncletopia | Sydney | 4 | All Maps","name_short":"syd-4","host":"syd-1.au.uncletopia.com","port":27045,"enabled":true,"region":"au","cc":"au","latitude":-33.865143,"longitude":151.2099,"reserved":0,"last_update":"0001-01-01T00:00:00Z","name_a2s":"Uncletopia | Sydney | 4 | All Maps","protocol":17,"map":"cp_standin_final","folder":"tf","game":"Team Fortress","app_id":440,"player_count":0,"max_players":24,"Bots":0,"server_type":"Dedicated","server_os":"Linux","password":true,"vac":true,"version":"7961495","steam_id":85568392925397958,"keywords":["cp","nocrits","nodmgspread","uncletopia"],"game_id":440,"stv_port":27046,"stv_name":"Uncletopia | Sydney | 4 | All Maps | STV","players":null},{"server_id":58,"name":"Uncletopia | Sydney | 5 | Stopwatch","name_short":"syd-5","host":"syd-1.au.uncletopia.com","port":27055,"enabled":true,"region":"au","cc":"au","latitude":-33.865143,"longitude":151.2099,"reserved":0,"last_update":"0001-01-01T00:00:00Z","name_a2s":"Uncletopia | Sydney | 5 | Stopwatch","protocol":17,"map":"koth_highpass","folder":"tf","game":"Team Fortress","app_id":440,"player_count":0,"max_players":24,"Bots":0,"server_type":"Dedicated","server_os":"Linux","password":true,"vac":true,"version":"7961495","steam_id":85568392925397959,"keywords":["cp","nocrits","nodmgspread","uncletopia"],"game_id":440,"stv_port":27056,"stv_name":"Uncletopia | Sydney | 5 | Stopwatch | STV","players":null},{"server_id":59,"name":"Uncletopia | Sydney | 6 | Community","name_short":"syd-6","host":"syd-1.au.uncletopia.com","port":27065,"enabled":true,"region":"au","cc":"au","latitude":-33.865143,"longitude":151.2099,"reserved":0,"last_update":"0001-01-01T00:00:00Z","name_a2s":"Uncletopia | Sydney | 6 | Community","protocol":17,"map":"workshop/koth_soot_final1.ugc2969540689","folder":"tf","game":"Team Fortress","app_id":440,"player_count":0,"max_players":24,"Bots":0,"server_type":"Dedicated","server_os":"Linux","password":true,"vac":true,"version":"7961495","steam_id":85568392925397960,"keywords":["cp","nocrits","nodmgspread","uncletopia"],"game_id":440,"stv_port":27066,"stv_name":"Uncletopia | Sydney | 6 | Community | STV","players":null},{"server_id":49,"name":"Uncletopia | Warsaw | 1 | One Thousand Uncles","name_short":"waw-1","host":"waw-1.pl.uncletopia.com","port":27015,"enabled":true,"region":"eu","cc":"pl","latitude":52.2297,"longitude":21.017532,"reserved":0,"last_update":"0001-01-01T00:00:00Z","name_a2s":"Uncletopia | Warsaw | 1 | One Thousand Uncles","protocol":17,"map":"pl_thundermountain","folder":"tf","game":"Team Fortress","app_id":440,"player_count":0,"max_players":32,"Bots":0,"server_type":"Dedicated","server_os":"Linux","password":true,"vac":true,"version":"7961495","steam_id":85568392925397850,"keywords":["alltalk","danepve","increased_maxplayers","norespawntime","payload","uncletopia"],"game_id":440,"stv_port":0,"stv_name":"","players":null},{"server_id":50,"name":"Uncletopia | Warsaw | 2 | One Thousand Uncles","name_short":"waw-2","host":"waw-1.pl.uncletopia.com","port":27025,"enabled":true,"region":"eu","cc":"pl","latitude":52.2297,"longitude":21.017532,"reserved":0,"last_update":"0001-01-01T00:00:00Z","name_a2s":"Uncletopia | Warsaw | 2 | One Thousand Uncles","protocol":17,"map":"cp_dustbowl","folder":"tf","game":"Team Fortress","app_id":440,"player_count":0,"max_players":32,"Bots":0,"server_type":"Dedicated","server_os":"Linux","password":true,"vac":true,"version":"7961495","steam_id":85568392925397851,"keywords":["alltalk","cp","danepve","increased_maxplayers","norespawntime","uncletopia"],"game_id":440,"stv_port":0,"stv_name":"","players":null},{"server_id":51,"name":"Uncletopia | Warsaw | 3 | All Maps","name_short":"waw-3","host":"waw-1.pl.uncletopia.com","port":27035,"enabled":true,"region":"eu","cc":"pl","latitude":52.2297,"longitude":21.017532,"reserved":0,"last_update":"0001-01-01T00:00:00Z","name_a2s":"Uncletopia | Warsaw | 3 | All Maps","protocol":17,"map":"koth_viaduct","folder":"tf","game":"Team Fortress","app_id":440,"player_count":0,"max_players":24,"Bots":0,"server_type":"Dedicated","server_os":"Linux","password":true,"vac":true,"version":"7961495","steam_id":85568392925397852,"keywords":["cp","nocrits","nodmgspread","uncletopia"],"game_id":440,"stv_port":27036,"stv_name":"Uncletopia | Warsaw | 3 | All Maps | STV","players":null},{"server_id":52,"name":"Uncletopia | Warsaw | 4 | All Maps","name_short":"waw-4","host":"waw-1.pl.uncletopia.com","port":27045,"enabled":true,"region":"eu","cc":"pl","latitude":52.2297,"longitude":21.017532,"reserved":0,"last_update":"0001-01-01T00:00:00Z","name_a2s":"Uncletopia | Warsaw | 4 | All Maps","protocol":17,"map":"koth_viaduct","folder":"tf","game":"Team Fortress","app_id":440,"player_count":0,"max_players":24,"Bots":0,"server_type":"Dedicated","server_os":"Linux","password":true,"vac":true,"version":"7961495","steam_id":85568392925397853,"keywords":["cp","nocrits","nodmgspread","uncletopia"],"game_id":440,"stv_port":27046,"stv_name":"Uncletopia | Warsaw | 4 | All Maps | STV","players":null},{"server_id":53,"name":"Uncletopia | Warsaw | 5 | Stopwatch","name_short":"waw-5","host":"waw-1.pl.uncletopia.com","port":27055,"enabled":true,"region":"eu","cc":"pl","latitude":52.2297,"longitude":21.017532,"reserved":0,"last_update":"0001-01-01T00:00:00Z","name_a2s":"Uncletopia | Warsaw | 5 | Stopwatch","protocol":17,"map":"workshop/koth_clearcut_b15.ugc2107050255","folder":"tf","game":"Team Fortress","app_id":440,"player_count":0,"max_players":24,"Bots":0,"server_type":"Dedicated","server_os":"Linux","password":true,"vac":true,"version":"7961495","steam_id":85568392925397854,"keywords":["cp","nocrits","nodmgspread","uncletopia"],"game_id":440,"stv_port":27056,"stv_name":"Uncletopia | Warsaw | 5 | Stopwatch | STV","players":null},{"server_id":54,"name":"Uncletopia | Warsaw | 6 | Community","name_short":"waw-6","host":"waw-1.pl.uncletopia.com","port":27065,"enabled":true,"region":"eu","cc":"pl","latitude":52.2297,"longitude":21.017532,"reserved":0,"last_update":"0001-01-01T00:00:00Z","name_a2s":"Uncletopia | Warsaw | 6 | Community","protocol":17,"map":"workshop/pl_boundary_final1.ugc456799153","folder":"tf","game":"Team Fortress","app_id":440,"player_count":0,"max_players":24,"Bots":0,"server_type":"Dedicated","server_os":"Linux","password":true,"vac":true,"version":"7961495","steam_id":85568392925397856,"keywords":["nocrits","nodmgspread","payload","uncletopia"],"game_id":440,"stv_port":27066,"stv_name":"Uncletopia | Warsaw | 6 | Community | STV","players":null}]}