{"status":true,"message":"","result":[{"server_id":9,"name":"Uncletopia | Atlanta | 1 | All Maps","name_short":"atl-1","host":"atl-1.us.uncletopia.com","port":27015,"enabled":true,"region":"us-east","cc":"us","latitude":33.753746,"longitude":-84.38633,"reserved":0,"last_update":"0001-01-01T00:00:00Z","name_a2s":"Uncletopia | Atlanta | 1 | All Maps","protocol":17,"map":"pl_upward","folder":"tf","game":"Team Fortress","app_id":440,"player_count":22,"max_players":24,"Bots":0,"server_type":"Dedicated","server_os":"Linux","password":true,"vac":true,"version":"7961495","steam_id":85568392924469982,"keywords":["nocrits","nodmgspread","payload","uncletopia"],"game_id":440,"stv_port":27016,"stv_name":"Uncletopia | Atlanta | 1 | All Maps | STV","players":null},{"server_id":104,"name":"Uncletopia | Atlanta | 2 | All Maps","name_short":"atl-2","host":"atl-1.us.uncletopia.com","port":27025,"enabled":true,"region":"us-east","cc":"us","latitude":33.753746,"longitude":-84.38633,"reserved":0,"last_update":"0001-01-01T00:00:00Z","name_a2s":"Uncletopia | Atlanta | 2 | All Maps","protocol":17,"map":"cp_mountainlab","folder":"tf","game":"Team Fortress","app_id":440,"player_count":24,"max_players":24,"Bots":0,"server_type":"Dedicated","server_os":"Linux","password":true,"vac":true,"version":"7961495","steam_id":85568392924469983,"keywords":["cp","nocrits","nodmgspread","uncletopia"],"game_id":440,"stv_port":27026,"stv_name":"Uncletopia | Atlanta | 2 | All Maps | STV","players":null},{"server_id":400,"name":"Uncletopia | Atlanta | 3 | Stopwatch","name_short":"atl-3","host":"atl-1.us.uncletopia.com","port":27035,"enabled":true,"region":"us-east","cc":"us","latitude":33.753746,"longitude":-84.38633,"reserved":0,"last_update":"0001-01-01T00:00:00Z","name_a2s":"Uncletopia | Atlanta | 3 | Stopwatch","protocol":17,"map":"koth_lakeside_final","folder":"tf","game":"Team Fortress","app_id":440,"player_count":0,"max_players":24,"Bots":0,"server_type":"Dedicated","server_os":"Linux","password":true,"vac":true,"version":"7961495","steam_id":85568392924515187,"keywords":["cp","nocrits","nodmgspread","uncletopia"],"game_id":440,"stv_port":27036,"stv_name":"Uncletopia | Atlanta | 3 | Stopwatch | STV","players":null},{"server_id":401,"name":"Uncletopia | Atlanta | 4 | Community","name_short":"atl-4","host":"atl-1.us.uncletopia.com","port":27045,"enabled":true,"region":"us-east","cc":"us","latitude":33.753746,"longitude":-84.38633,"reserved":0,"last_update":"0001-01-01T00:00:00Z","name_a2s":"Uncletopia | Atlanta | 4 | Community","protocol":17,"map":"koth_trenchfoot_b1a","folder":"tf","game":"Team Fortress","app_id":440,"player_count":11,"max_players":24,"Bots":0,"server_type":"Dedicated","server_os":"Linux","password":true,"vac":true,"version":"7961495","steam_id":85568392924515188,"keywords":["cp","nocrits","nodmgspread","uncletopia"],"game_id":440,"stv_port":27046,"stv_name":"Uncletopia | Atlanta | 4 | Community | STV","players":null},{"server_id":2,"name":"Uncletopia | Chicago | 1 | All Maps","name_short":"chi-1","host":"chi-1.us.uncletopia.com","port":27015,"enabled":true,"region":"us-central","cc":"us","latitude":41.881832,"longitude":-87.62318,"reserved":0,"last_update":"0001-01-01T00:00:00Z","name_a2s":"Uncletopia | Chicago | 1 | All Maps","protocol":17,"map":"ctf_2fort","folder":"tf","game":"Team Fortress","app_id":440,"player_count":24,"max_players":24,"Bots":0,"server_type":"Dedicated","server_os":"Linux","password":true,"vac":true,"version":"7961495","steam_id":85568392924469984,"keywords":["ctf","nocrits","nodmgspread","uncletopia"],"game_id":440,"stv_port":27016,"stv_name":"Uncletopia | Chicago | 1 | All Maps | STV","players":[{"user_id":800,"name":"Coach McFish","steam_id":76561198210456405,"connected_time":2803000000000,"state":"active","ping":72},{"user_id":818,"name":"Tetra","steam_id":76561198012329955,"connected_time":1150000000000,"state":"active","ping":104},{"user_id":827,"name":"[Peanuts]Linus","steam_id":76561197992887879,"connected_time":291000000000,"state":"active","ping":46},{"user_id":811,"name":"squaggles!","steam_id":76561197994995011,"connected_time":1616000000000,"state":"active","ping":54},{"user_id":641,"name":"Sentient Plaid Shirt","steam_id":76561198073338999,"connected_time":15759000000000,"state":"active","ping":84},{"user_id":777,"name":"loser","steam_id":76561198259380127,"connected_time":4085000000000,"state":"active","ping":59},{"user_id":797,"name":"Jovo","steam_id":76561197993265970,"connected_time":2882000000000,"state":"active","ping":85},{"user_id":826,"name":"Your Local Queer Librarian","steam_id":76561198013077080,"connected_time":337000000000,"state":"active","ping":59},{"user_id":820,"name":"Stew Eater","steam_id":76561198978307159,"connected_time":1012000000000,"state":"active","ping":67},{"user_id":805,"name":"Raccoon Wizard","steam_id":76561198072562591,"connected_time":1726000000000,"state":"active","ping":90},{"user_id":809,"name":"Ford460","steam_id":76561198340774613,"connected_time":1657000000000,"state":"active","ping":96},{"user_id":793,"name":"Celestial Bodies","steam_id":76561198212572955,"connected_time":3108000000000,"state":"active","ping":75},{"user_id":728,"name":"๖ۣۜMagic","steam_id":76561199272962550,"connected_time":9047000000000,"state":"active","ping":59},{"user_id":816,"name":"Hey","steam_id":76561198447517893,"connected_time":1230000000000,"state":"active","ping":77},{"user_id":823,"name":"Cyndaquil Fan","steam_id":76561198799205521,"connected_time":672000000000,"state":"active","ping":84},{"user_id":745,"name":"Raven_Ash_ (she/They)","steam_id":76561198800351148,"connected_time":7584000000000,"state":"active","ping":92},{"user_id":814,"name":"LeRoy42","steam_id":76561198035591428,"connected_time":1350000000000,"state":"active","ping":83},{"user_id":713,"name":"Cobalt","steam_id":76561198353896624,"connected_time":10277000000000,"state":"active","ping":92},{"user_id":796,"name":"Autumn","steam_id":76561198088925274,"connected_time":2887000000000,"state":"active","ping":69},{"user_id":781,"name":"Hindmost","steam_id":76561199081837220,"connected_time":4061000000000,"state":"active","ping":88},{"user_id":803,"name":"ZombieMaster428","steam_id":76561198085251146,"connected_time":2205000000000,"state":"active","ping":77},{"user_id":819,"name":"CrunchCisco","steam_id":76561199162724832,"connected_time":1143000000000,"state":"active","ping":81},{"user_id":825,"name":"CherriKat","steam_id":76561198821297512,"connected_time":557000000000,"state":"active","ping":104},{"user_id":683,"name":"NukaTheRabbit {Fur}","steam_id":76561198058692928,"connected_time":12750000000000,"state":"active","ping":56}]},{"server_id":106,"name":"Uncletopia | Chicago | 2 | All Maps","name_short":"chi-2","host":"chi-1.us.uncletopia.com","port":27025,"enabled":true,"region":"us-central","cc":"us","latitude":41.881832,"longitude":-87.62318,"reserved":0,"last_update":"0001-01-01T00:00:00Z","name_a2s":"Uncletopia | Chicago | 2 | All Maps","protocol":17,"map":"pl_thundermountain","folder":"tf","game":"Team Fortress","app_id":440,"player_count":24,"max_players":24,"Bots":0,"server_type":"Dedicated","server_os":"Linux","password":true,"vac":true,"version":"7961495","steam_id":85568392924469985,"keywords":["nocrits","nodmgspread","payload","uncletopia"],"game_id":440,"stv_port":27026,"stv_name":"Uncletopia | Chicago | 2 | All Maps | STV","players":[{"user_id":856,"name":"howtobepker","steam_id":76561198115053865,"connected_time":9515000000000,"state":"active","ping":85},{"user_id":922,"name":"Dr. FlimFlam","steam_id":76561198049212986,"connected_time":1902000000000,"state":"active","ping":88},{"user_id":941,"name":"6 million bees","steam_id":76561198400438007,"connected_time":571000000000,"state":"active","ping":45},{"user_id":900,"name":"Word To Your Mothership","steam_id":76561198034329138,"connected_time":4795000000000,"state":"active","ping":97},{"user_id":934,"name":"TacoStand985","steam_id":76561198822356815,"connected_time":1508000000000,"state":"active","ping":61},{"user_id":925,"name":"workers","steam_id":76561198881131176,"connected_time":1661000000000,"state":"active","ping":55},{"user_id":926,"name":"страдаю как я","steam_id":76561198021308963,"connected_time":1657000000000,"state":"active","ping":71},{"user_id":937,"name":"The Heart","steam_id":76561198271979288,"connected_time":977000000000,"state":"active","ping":36},{"user_id":935,"name":"TheOneZoot","steam_id":76561198121944243,"connected_time":1278000000000,"state":"active","ping":80},{"user_id":886,"name":"cooljason08","steam_id":76561198248153988,"connected_time":6033000000000,"state":"active","ping":71},{"user_id":933,"name":"Combez","steam_id":76561198215028184,"connected_time":1530000000000,"state":"active","ping":134},{"user_id":905,"name":"MedRed™ #IATAH","steam_id":76561198002962970,"connected_time":3415000000000,"state":"active","ping":100},{"user_id":906,"name":"DinkleBerg","steam_id":76561198891626233,"connected_time":3228000000000,"state":"active","ping":65},{"user_id":930,"name":"Girthworm Jim","steam_id":76561198007433376,"connected_time":1584000000000,"state":"active","ping":80},{"user_id":914,"name":"Nutty Dave","steam_id":76561198219327488,"connected_time":2519000000000,"state":"active","ping":78},{"user_id":942,"name":"The Goose","steam_id":76561199006093549,"connected_time":443000000000,"state":"active","ping":68},{"user_id":931,"name":"WheelockWarlock","steam_id":76561198171456553,"connected_time":1580000000000,"state":"active","ping":89},{"user_id":943,"name":"Otto","steam_id":76561198167371080,"connected_time":282000000000,"state":"active","ping":160},{"user_id":891,"name":"Zanartan","steam_id":76561198050528902,"connected_time":5189000000000,"state":"active","ping":181},{"user_id":918,"name":"blou :(","steam_id":76561198273483554,"connected_time":2478000000000,"state":"active","ping":62},{"user_id":864,"name":"Scooty.","steam_id":76561198138990283,"connected_time":8848000000000,"state":"active","ping":70},{"user_id":713,"name":"Lia_Rein","steam_id":76561198151569597,"connected_time":16863000000000,"state":"active","ping":143},{"user_id":871,"name":"Swash","steam_id":76561197969421355,"connected_time":8094000000000,"state":"active","ping":72},{"user_id":924,"name":"mellowhype","steam_id":76561198040675606,"connected_time":1882000000000,"state":"active","ping":74}]},{"server_id":402,"name":"Uncletopia | Chicago | 3 | All Maps","name_short":"chi-3","host":"chi-1.us.uncletopia.com","port":27035,"enabled":true,"region":"us-central","cc":"us","latitude":41.881832,"longitude":-87.62318,"reserved":0,"last_update":"0001-01-01T00:00:00Z","name_a2s":"Uncletopia | Chicago | 3 | All Maps","protocol":17,"map":"cp_process_final","folder":"tf","game":"Team Fortress","app_id":440,"player_count":24,"max_players":24,"Bots":0,"server_type":"Dedicated","server_os":"Linux","password":true,"vac":true,"version":"7961495","steam_id":85568392924515191,"keywords":["cp","nocrits","nodmgspread","uncletopia"],"game_id":440,"stv_port":27036,"stv_name":"Uncletopia | Chicago | 3 | All Maps | STV","players":[{"user_id":566,"name":"Drake from State Farm","steam_id":76561199069029812,"connected_time":789000000000,"state":"active","ping":105},{"user_id":560,"name":"FrostStorm","steam_id":76561198142685151,"connected_time":958000000000,"state":"active","ping":77},{"user_id":489,"name":"Allahgator","steam_id":76561198280659041,"connected_time":7017000000000,"state":"active","ping":76},{"user_id":536,"name":"He Who Dared Say \"SuS\"","steam_id":76561198123441203,"connected_time":2664000000000,"state":"active","ping":67},{"user_id":570,"name":"Smuggs","steam_id":76561197999456003,"connected_time":646000000000,"state":"active","ping":133},{"user_id":572,"name":"Kamin","steam_id":76561198255299559,"connected_time":289000000000,"state":"active","ping":86},{"user_id":562,"name":"Waffle","steam_id":76561199000034608,"connected_time":887000000000,"state":"active","ping":69},{"user_id":563,"name":"derdds","steam_id":76561198034339940,"connected_time":887000000000,"state":"active","ping":55},{"user_id":507,"name":"Rat King (Deposed)","steam_id":76561198271907916,"connected_time":4727000000000,"state":"active","ping":56},{"user_id":573,"name":"Byte9291","steam_id":76561198044313374,"connected_time":248000000000,"state":"active","ping":112},{"user_id":447,"name":"SiltyStar85","steam_id":76561198309175923,"connected_time":10693000000000,"state":"active","ping":93},{"user_id":557,"name":"JtsRes","steam_id":76561197994809241,"connected_time":1089000000000,"state":"active","ping":63},{"user_id":577,"name":"RusticCarp42989","steam_id":76561198361151865,"connected_time":77000000000,"state":"active","ping":125},{"user_id":565,"name":"DRUMMY GRAMMY","steam_id":76561198047642540,"connected_time":802000000000,"state":"active","ping":84},{"user_id":545,"name":"[S]Mr. X [No Monitor]","steam_id":76561197963746035,"connected_time":2103000000000,"state":"active","ping":131},{"user_id":550,"name":"Papahemmy","steam_id":76561198155470810,"connected_time":1765000000000,"state":"active","ping":66},{"user_id":575,"name":"Mistakenitem188","steam_id":76561199381819641,"connected_time":174000000000,"state":"active","ping":70},{"user_id":567,"name":"Revenge of the Jews in 3D","steam_id":76561199381623663,"connected_time":768000000000,"state":"active","ping":192},{"user_id":568,"name":"garfield","steam_id":76561198114119308,"connected_time":753000000000,"state":"active","ping":61},{"user_id":558,"name":"caption cool","steam_id":76561197990612056,"connected_time":1038000000000,"state":"active","ping":48},{"user_id":576,"name":"Dad","steam_id":76561198123230167,"connected_time":170000000000,"state":"active","ping":57},{"user_id":571,"name":"Aspxts","steam_id":76561199125254746,"connected_time":624000000000,"state":"active","ping":56},{"user_id":553,"name":"Ike Yard","steam_id":76561197998954523,"connected_time":1618000000000,"state":"active","ping":72},{"user_id":524,"name":"[Soldunk]","steam_id":76561198142400155,"connected_time":3433000000000,"state":"active","ping":98}]},{"server_id":403,"name":"Uncletopia | Chicago | 4 | All Maps","name_short":"chi-4","host":"chi-1.us.uncletopia.com","port":27045,"enabled":true,"region":"us-central","cc":"us","latitude":41.881832,"longitude":-87.62318,"reserved":0,"last_update":"0001-01-01T00:00:00Z","name_a2s":"Uncletopia | Chicago | 4 | All Maps","protocol":17,"map":"pl_swiftwater_final1","folder":"tf","game":"Team Fortress","app_id":440,"player_count":24,"max_players":24,"Bots":0,"server_type":"Dedicated","server_os":"Linux","password":true,"vac":true,"version":"7961495","steam_id":85568392924515193,"keywords":["nocrits","nodmgspread","payload","uncletopia"],"game_id":440,"stv_port":27046,"stv_name":"Uncletopia | Chicago | 4 | All Maps | STV","players":[{"user_id":301,"name":"aloysius","steam_id":76561199193617048,"connected_time":6987000000000,"state":"active","ping":84},{"user_id":362,"name":"Mayan","steam_id":76561198087915957,"connected_time":793000000000,"state":"active","ping":47},{"user_id":326,"name":"Noise from pizzatower","steam_id":76561198835144780,"connected_time":4377000000000,"state":"active","ping":67},{"user_id":374,"name":"Doctor Skeltal","steam_id":76561198120450240,"connected_time":381000000000,"state":"active","ping":84},{"user_id":340,"name":"thecal","steam_id":76561198307893384,"connected_time":2912000000000,"state":"active","ping":48},{"user_id":308,"name":"catfish from toontown","steam_id":76561198060070002,"connected_time":6117000000000,"state":"active","ping":73},{"user_id":355,"name":"stedman slick","steam_id":76561198088599835,"connected_time":1222000000000,"state":"active","ping":82},{"user_id":231,"name":"wunkem","steam_id":76561198055948497,"connected_time":13130000000000,"state":"active","ping":67},{"user_id":360,"name":"(◕‿◕✿)","steam_id":76561198228395556,"connected_time":883000000000,"state":"active","ping":81},{"user_id":363,"name":"THICCBEEF GRANDPA","steam_id":76561197993550572,"connected_time":686000000000,"state":"active","ping":70},{"user_id":310,"name":"milk","steam_id":76561198209000640,"connected_time":5738000000000,"state":"active","ping":74},{"user_id":364,"name":"crotuslovershanks","steam_id":76561199091300223,"connected_time":685000000000,"state":"active","ping":69},{"user_id":331,"name":"Boboblin","steam_id":76561199030131717,"connected_time":3133000000000,"state":"active","ping":91},{"user_id":365,"name":"Quilfus Scrofel","steam_id":76561198160308375,"connected_time":677000000000,"state":"active","ping":63},{"user_id":371,"name":"Bingo","steam_id":76561198865253634,"connected_time":465000000000,"state":"active","ping":60},{"user_id":343,"name":"Digresser","steam_id":76561198016426367,"connected_time":2731000000000,"state":"active","ping":61},{"user_id":367,"name":"MayKaye","steam_id":76561199016092265,"connected_time":608000000000,"state":"active","ping":101},{"user_id":368,"name":"HeHedron","steam_id":76561199199667164,"connected_time":587000000000,"state":"active","ping":135},{"user_id":375,"name":"Xebbey","steam_id":76561198880415976,"connected_time":285000000000,"state":"active","ping":70},{"user_id":372,"name":"Sweater-Fan","steam_id":76561199389567214,"connected_time":417000000000,"state":"active","ping":68},{"user_id":369,"name":"Bread","steam_id":76561198251896612,"connected_time":579000000000,"state":"active","ping":53},{"user_id":351,"name":"Transgender Spider Priestess","steam_id":76561198111286397,"connected_time":1950000000000,"state":"active","ping":111},{"user_id":356,"name":"Killa","steam_id":76561198089901241,"connected_time":1203000000000,"state":"active","ping":70},{"user_id":376,"name":"duck, duck, LOVE","steam_id":76561198010706701,"connected_time":285000000000,"state":"active","ping":72}]},{"server_id":36,"name":"Uncletopia | Chicago | 5 | All Maps","name_short":"chi-5","host":"chi-2.us.uncletopia.com","port":27015,"enabled":true,"region":"us-central","cc":"us","latitude":41.881832,"longitude":-87.62318,"reserved":0,"last_update":"0001-01-01T00:00:00Z","name_a2s":"Uncletopia | Chicago | 5 | All Maps","protocol":17,"map":"cp_gorge","folder":"tf","game":"Team Fortress","app_id":440,"player_count":24,"max_players":24,"Bots":0,"server_type":"Dedicated","server_os":"Linux","password":true,"vac":true,"version":"7961495","steam_id":85568392924866362,"keywords":["cp","nocrits","nodmgspread","uncletopia"],"game_id":440,"stv_port":27016,"stv_name":"Uncletopia | Chicago | 5 | All Maps | STV","players":[{"user_id":248,"name":"Benjiwoo","steam_id":76561197990190803,"connected_time":78000000000,"state":"active","ping":50},{"user_id":76,"name":"Hamz","steam_id":76561199287459211,"connected_time":15385000000000,"state":"active","ping":71},{"user_id":244,"name":"SKForm","steam_id":76561198381500437,"connected_time":213000000000,"state":"active","ping":56},{"user_id":223,"name":"epicman381","steam_id":76561198800060376,"connected_time":3532000000000,"state":"active","ping":69},{"user_id":237,"name":"Sex Midfielder","steam_id":76561198048918192,"connected_time":1276000000000,"state":"active","ping":67},{"user_id":238,"name":"Aluminumroadlion","steam_id":76561198323677959,"connected_time":1274000000000,"state":"active","ping":76},{"user_id":208,"name":"Pug_9492","steam_id":76561199078217640,"connected_time":4311000000000,"state":"active","ping":133},{"user_id":236,"name":"FROYO donovin","steam_id":76561198045679387,"connected_time":1663000000000,"state":"active","ping":45},{"user_id":231,"name":"The Fiend","steam_id":76561199229771413,"connected_time":2320000000000,"state":"active","ping":55},{"user_id":230,"name":"Tibalt Nyahuma","steam_id":76561198034779431,"connected_time":2330000000000,"state":"active","ping":88},{"user_id":213,"name":"rin","steam_id":76561198155841915,"connected_time":3885000000000,"state":"active","ping":76},{"user_id":224,"name":"LVL","steam_id":76561198334403617,"connected_time":3005000000000,"state":"active","ping":58},{"user_id":152,"name":"High Medic","steam_id":76561198082405984,"connected_time":8975000000000,"state":"active","ping":72},{"user_id":243,"name":"viagra addict","steam_id":76561198017705248,"connected_time":615000000000,"state":"active","ping":49},{"user_id":239,"name":"Sage","steam_id":76561198143101697,"connected_time":1253000000000,"state":"active","ping":104},{"user_id":229,"name":"badboy6996","steam_id":76561197969386201,"connected_time":2372000000000,"state":"active","ping":46},{"user_id":232,"name":"MelonFelonies","steam_id":76561198804631199,"connected_time":2318000000000,"state":"active","ping":61},{"user_id":210,"name":"Cat_Soldier","steam_id":76561198799974610,"connected_time":3922000000000,"state":"active","ping":72},{"user_id":190,"name":"Fish","steam_id":76561199044619031,"connected_time":5890000000000,"state":"active","ping":65},{"user_id":234,"name":"BOBBYSMOKE","steam_id":76561198201872929,"connected_time":2151000000000,"state":"active","ping":66},{"user_id":247,"name":"Cold shoulder","steam_id":76561198453824178,"connected_time":89000000000,"state":"active","ping":122},{"user_id":206,"name":"swan","steam_id":76561198012569200,"connected_time":4598000000000,"state":"active","ping":86},{"user_id":186,"name":"guac","steam_id":76561198407685013,"connected_time":6101000000000,"state":"active","ping":48},{"user_id":187,"name":"Fred","steam_id":76561199013600767,"connected_time":6101000000000,"state":"active","ping":150}]},{"server_id":37,"name":"Uncletopia | Chicago | 6 | All Maps","name_short":"chi-6","host":"chi-2.us.uncletopia.com","port":27025,"enabled":true,"region":"us-central","cc":"us","latitude":41.881832,"longitude":-87.62318,"reserved":0,"last_update":"0001-01-01T00:00:00Z","name_a2s":"Uncletopia | Chicago | 6 | All Maps","protocol":17,"map":"pl_upward","folder":"tf","game":"Team Fortress","app_id":440,"player_count":24,"max_players":24,"Bots":0,"server_type":"Dedicated","server_os":"Linux","password":true,"vac":true,"version":"7961495","steam_id":85568392924866363,"keywords":["nocrits","nodmgspread","payload","uncletopia"],"game_id":440,"stv_port":27026,"stv_name":"Uncletopia | Chicago | 6 | All Maps | STV","players":[{"user_id":624,"name":"Kronk","steam_id":76561198063092125,"connected_time":1561000000000,"state":"active","ping":69},{"user_id":594,"name":"Okpar","steam_id":76561199221067945,"connected_time":3841000000000,"state":"active","ping":101},{"user_id":595,"name":"grand piano tuna","steam_id":76561198135137213,"connected_time":3830000000000,"state":"active","ping":46},{"user_id":612,"name":"Lore","steam_id":76561198098407538,"connected_time":2070000000000,"state":"active","ping":55},{"user_id":637,"name":"BlancaLamb","steam_id":76561198025646073,"connected_time":406000000000,"state":"active","ping":87},{"user_id":575,"name":"Quebec","steam_id":76561198865760503,"connected_time":7325000000000,"state":"active","ping":76},{"user_id":602,"name":"sex enjoyer","steam_id":76561198106320012,"connected_time":3059000000000,"state":"active","ping":88},{"user_id":613,"name":"BigNugs","steam_id":76561198056402610,"connected_time":1948000000000,"state":"active","ping":71},{"user_id":639,"name":"Michaelpc1","steam_id":76561198088365519,"connected_time":108000000000,"state":"active","ping":75},{"user_id":638,"name":"SHLONK \" real name mason\"","steam_id":76561198374894509,"connected_time":121000000000,"state":"active","ping":67},{"user_id":604,"name":"cooper","steam_id":76561198272034065,"connected_time":2649000000000,"state":"active","ping":85},{"user_id":632,"name":"Rein | Comms  Open","steam_id":76561198300340427,"connected_time":800000000000,"state":"active","ping":62},{"user_id":634,"name":"Fatpoob","steam_id":76561198056730096,"connected_time":566000000000,"state":"active","ping":51},{"user_id":589,"name":"krimsonxsin","steam_id":76561198379898602,"connected_time":3899000000000,"state":"active","ping":119},{"user_id":629,"name":"JacobJingleheimerschmidt(r8orDi","steam_id":76561198050582941,"connected_time":1036000000000,"state":"active","ping":60},{"user_id":608,"name":"Dude","steam_id":76561199058616824,"connected_time":2179000000000,"state":"active","ping":73},{"user_id":621,"name":"FiddyFoMike","steam_id":76561198057072581,"connected_time":1731000000000,"state":"active","ping":100},{"user_id":631,"name":"pipepeepi","steam_id":76561198845905873,"connected_time":885000000000,"state":"active","ping":56},{"user_id":636,"name":"Burf","steam_id":76561198019341161,"connected_time":490000000000,"state":"active","ping":70},{"user_id":630,"name":"ADRIEN BRODY","steam_id":76561198009299473,"connected_time":1013000000000,"state":"active","ping":71},{"user_id":622,"name":"Superman123389","steam_id":76561198267472539,"connected_time":1720000000000,"state":"active","ping":90},{"user_id":598,"name":"uheggwhite","steam_id":76561199199795741,"connected_time":3608000000000,"state":"active","ping":66},{"user_id":626,"name":"KillPact","steam_id":76561197976319415,"connected_time":1547000000000,"state":"active","ping":73},{"user_id":619,"name":"Frontier Psychiatrist","steam_id":76561198038689088,"connected_time":1774000000000,"state":"active","ping":88}]},{"server_id":38,"name":"Uncletopia | Chicago | 7 | Stopwatch","name_short":"chi-7","host":"chi-2.us.uncletopia.com","port":27035,"enabled":true,"region":"us-central","cc":"us","latitude":41.881832,"longitude":-87.62318,"reserved":0,"last_update":"0001-01-01T00:00:00Z","name_a2s":"Uncletopia | Chicago | 7 | Stopwatch","protocol":17,"map":"workshop/cp_process_f12.ugc2302948105","folder":"tf","game":"Team Fortress","app_id":440,"player_count":24,"max_players":24,"Bots":0,"server_type":"Dedicated","server_os":"Linux","password":true,"vac":true,"version":"7961495","steam_id":85568392924866364,"keywords":["cp","nocrits","nodmgspread","uncletopia"],"game_id":440,"stv_port":27036,"stv_name":"Uncletopia | Chicago | 7 | Stopwatch | STV","players":[{"user_id":133,"name":"Ace Chromatica","steam_id":76561198042211131,"connected_time":5215000000000,"state":"active","ping":55},{"user_id":174,"name":"only a spoonful","steam_id":76561198113180616,"connected_time":2176000000000,"state":"active","ping":67},{"user_id":201,"name":"Post-It Paige","steam_id":76561198294059159,"connected_time":208000000000,"state":"active","ping":91},{"user_id":188,"name":"DolphiN | RGL.gg","steam_id":76561198048614515,"connected_time":1520000000000,"state":"active","ping":60},{"user_id":167,"name":"chesterwnimitz","steam_id":76561198062664377,"connected_time":2560000000000,"state":"active","ping":98},{"user_id":199,"name":"Duncan Idaho","steam_id":76561197988963861,"connected_time":490000000000,"state":"active","ping":106},{"user_id":191,"name":"Butters495","steam_id":76561197998689042,"connected_time":1204000000000,"state":"active","ping":82},{"user_id":127,"name":"Pines","steam_id":76561199024146278,"connected_time":5443000000000,"state":"active","ping":116},{"user_id":190,"name":"salty like Lot's wife","steam_id":76561197998619845,"connected_time":1214000000000,"state":"active","ping":71},{"user_id":161,"name":"Luxcraz","steam_id":76561198035278349,"connected_time":2893000000000,"state":"active","ping":63},{"user_id":192,"name":"schnedwob","steam_id":76561197999146588,"connected_time":1190000000000,"state":"active","ping":72},{"user_id":135,"name":"anotherl2","steam_id":76561198354418895,"connected_time":5142000000000,"state":"active","ping":78},{"user_id":159,"name":"Sweet Iced Tea From McDonald's","steam_id":76561198081110786,"connected_time":2906000000000,"state":"active","ping":92},{"user_id":194,"name":"b","steam_id":76561198156336213,"connected_time":1158000000000,"state":"active","ping":75},{"user_id":198,"name":"ImmortalProphet","steam_id":76561198012352477,"connected_time":669000000000,"state":"active","ping":45},{"user_id":180,"name":"DuckTM","steam_id":76561198871205540,"connected_time":2022000000000,"state":"active","ping":68},{"user_id":196,"name":"the ultimate life form","steam_id":76561199210541615,"connected_time":1051000000000,"state":"active","ping":99},{"user_id":186,"name":"mothsprings","steam_id":76561198928604937,"connected_time":1752000000000,"state":"active","ping":83},{"user_id":162,"name":"vintagevalentinesviagravolcano","steam_id":76561197972601902,"connected_time":2886000000000,"state":"active","ping":89},{"user_id":183,"name":"Phillip Jeffries","steam_id":76561198064052174,"connected_time":1887000000000,"state":"active","ping":65},{"user_id":187,"name":"gIBBY","steam_id":76561198080099598,"connected_time":1720000000000,"state":"active","ping":59},{"user_id":166,"name":"Morthos_Dretchsticke","steam_id":76561199050069175,"connected_time":2666000000000,"state":"active","ping":70},{"user_id":197,"name":"picklerick4736","steam_id":76561199123994658,"connected_time":902000000000,"state":"active","ping":68},{"user_id":152,"name":"BaconUltimate","steam_id":76561198060737668,"connected_time":4172000000000,"state":"active","ping":105}]},{"server_id":39,"name":"Uncletopia | Chicago | 8 | Community","name_short":"chi-8","host":"chi-2.us.uncletopia.com","port":27045,"enabled":true,"region":"us-central","cc":"us","latitude":41.881832,"longitude":-87.62318,"reserved":0,"last_update":"0001-01-01T00:00:00Z","name_a2s":"Uncletopia | Chicago | 8 | Community","protocol":17,"map":"workshop/pl_barnblitz_pro7.ugc582280235","folder":"tf","game":"Team Fortress","app_id":440,"player_count":22,"max_players":24,"Bots":0,"server_type":"Dedicated","server_os":"Linux","password":true,"vac":true,"version":"7961495","steam_id":85568392924866365,"keywords":["nocrits","nodmgspread","payload","uncletopia"],"game_id":440,"stv_port":27046,"stv_name":"Uncletopia | Chicago | 8 | Community | STV","players":[{"user_id":128,"name":"Ⓑ⓪⓪ⓣⓨⓒⓐⓚⓔⓢ","steam_id":76561198088776421,"connected_time":300000000000,"state":"active","ping":64},{"user_id":106,"name":"Diet Milk","steam_id":76561198143586604,"connected_time":2394000000000,"state":"active","ping":65},{"user_id":123,"name":"Acorn","steam_id":76561198353480153,"connected_time":639000000000,"state":"active","ping":57},{"user_id":124,"name":"stiGGy","steam_id":76561198049311931,"connected_time":491000000000,"state":"active","ping":76},{"user_id":125,"name":"THIRDPIERCE","steam_id":76561198405366314,"connected_time":490000000000,"state":"active","ping":86},{"user_id":107,"name":"GamingJuice42","steam_id":76561198110469437,"connected_time":2369000000000,"state":"active","ping":60},{"user_id":126,"name":"Cute and Funny","steam_id":76561198109885889,"connected_time":478000000000,"state":"active","ping":91},{"user_id":79,"name":"Target Audience","steam_id":76561198095536103,"connected_time":4921000000000,"state":"active","ping":59},{"user_id":127,"name":"Jo-Bro","steam_id":76561198179902529,"connected_time":442000000000,"state":"active","ping":60},{"user_id":129,"name":"deafened","steam_id":76561198454526448,"connected_time":295000000000,"state":"active","ping":79},{"user_id":131,"name":"Strangelove","steam_id":76561198353773611,"connected_time":272000000000,"state":"active","ping":87},{"user_id":135,"name":"DamienWolfy","steam_id":76561198995035133,"connected_time":89000000000,"state":"active","ping":99},{"user_id":133,"name":"Femboy Farmer","steam_id":76561198174402409,"connected_time":120000000000,"state":"active","ping":55},{"user_id":134,"name":"Store Runner","steam_id":76561198156282541,"connected_time":116000000000,"state":"active","ping":45},{"user_id":116,"name":"the rizzler","steam_id":76561198012917426,"connected_time":1687000000000,"state":"active","ping":77},{"user_id":136,"name":"Willhelm","steam_id":76561198046569146,"connected_time":53000000000,"state":"active","ping":128},{"user_id":121,"name":"Sumireko Gaming","steam_id":76561199013422135,"connected_time":984000000000,"state":"active","ping":67},{"user_id":81,"name":"Smiley Fries","steam_id":76561198052763637,"connected_time":4916000000000,"state":"active","ping":54},{"user_id":71,"name":"kimchy101","steam_id":76561198202721584,"connected_time":6060000000000,"state":"active","ping":57},{"user_id":102,"name":"HIM","steam_id":76561198124224197,"connected_time":2662000000000,"state":"active","ping":72},{"user_id":82,"name":"Bob","steam_id":76561198038708273,"connected_time":4908000000000,"state":"active","ping":56},{"user_id":118,"name":"the rizzard","steam_id":76561198431594430,"connected_time":1633000000000,"state":"active","ping":61}]},{"server_id":8,"name":"Uncletopia | Dallas | 1 | All Maps","name_short":"dal-1","host":"dal-1.us.uncletopia.com","port":27015,"enabled":true,"region":"us-central","cc":"us","latitude":32.779167,"longitude":-96.80889,"reserved":0,"last_update":"0001-01-01T00:00:00Z","name_a2s":"Uncletopia | Dallas | 1 | All Maps","protocol":17,"map":"cp_steel","folder":"tf","game":"Team Fortress","app_id":440,"player_count":24,"max_players":24,"Bots":0,"server_type":"Dedicated","server_os":"Linux","password":true,"vac":true,"version":"7961495","steam_id":85568392924469986,"keywords":["cp","nocrits","nodmgspread","uncletopia"],"game_id":440,"stv_port":27016,"stv_name":"Uncletopia | Dallas | 1 | All Maps | STV","players":[{"user_id":578,"name":"intek","steam_id":76561198052705291,"connected_time":3073000000000,"state":"active","ping":86},{"user_id":600,"name":"TrovusMango","steam_id":76561198207214560,"connected_time":1235000000000,"state":"active","ping":148},{"user_id":526,"name":"Samercam","steam_id":76561198189403190,"connected_time":6441000000000,"state":"active","ping":75},{"user_id":571,"name":"Rage Pyro","steam_id":76561197998285726,"connected_time":3839000000000,"state":"active","ping":99},{"user_id":498,"name":"Darling","steam_id":76561198127525888,"connected_time":9017000000000,"state":"active","ping":54},{"user_id":577,"name":"flatts","steam_id":76561198094127177,"connected_time":3211000000000,"state":"active","ping":67},{"user_id":605,"name":"troubless","steam_id":76561198335431391,"connected_time":1106000000000,"state":"active","ping":77},{"user_id":608,"name":"Grumby","steam_id":76561198149175262,"connected_time":201000000000,"state":"active","ping":66},{"user_id":609,"name":"ToxinTractor","steam_id":76561197990467234,"connected_time":192000000000,"state":"active","ping":131},{"user_id":597,"name":"1-800-CLUNGE-DUMPSTER","steam_id":76561198059780866,"connected_time":1518000000000,"state":"active","ping":66},{"user_id":590,"name":"Abysa.","steam_id":76561198424398862,"connected_time":2019000000000,"state":"active","ping":141},{"user_id":606,"name":"Roxie (She/Her)","steam_id":76561198283084060,"connected_time":692000000000,"state":"active","ping":83},{"user_id":595,"name":"PrincessSephera","steam_id":76561198018690940,"connected_time":1603000000000,"state":"active","ping":107},{"user_id":554,"name":"Siev","steam_id":76561198000518937,"connected_time":4889000000000,"state":"active","ping":66},{"user_id":582,"name":"ZILICON","steam_id":76561199044705592,"connected_time":2165000000000,"state":"active","ping":116},{"user_id":610,"name":"ItsCaleB","steam_id":76561198376522348,"connected_time":180000000000,"state":"active","ping":98},{"user_id":593,"name":"YoteDab McFapDab.jpg","steam_id":76561197984870380,"connected_time":1995000000000,"state":"active","ping":95},{"user_id":435,"name":"THRONGLER","steam_id":76561198198563466,"connected_time":14109000000000,"state":"active","ping":43},{"user_id":607,"name":"CWCLONE","steam_id":76561198132459460,"connected_time":474000000000,"state":"active","ping":80},{"user_id":544,"name":"U ω U","steam_id":76561198118802562,"connected_time":5671000000000,"state":"active","ping":93},{"user_id":545,"name":"Kenku","steam_id":76561199086762926,"connected_time":5222000000000,"state":"active","ping":67},{"user_id":599,"name":"Born_In_Xixax","steam_id":76561197960464479,"connected_time":1298000000000,"state":"active","ping":50},{"user_id":592,"name":"yes","steam_id":76561199226277457,"connected_time":2011000000000,"state":"active","ping":78},{"user_id":538,"name":"H2OBourne","steam_id":76561198396293109,"connected_time":6132000000000,"state":"active","ping":65}]},{"server_id":108,"name":"Uncletopia | Dallas | 2 | All Maps","name_short":"dal-2","host":"dal-1.us.uncletopia.com","port":27025,"enabled":true,"region":"us-central","cc":"us","latitude":32.779167,"longitude":-96.80889,"reserved":0,"last_update":"0001-01-01T00:00:00Z","name_a2s":"Uncletopia | Dallas | 2 | All Maps","protocol":17,"map":"cp_dustbowl","folder":"tf","game":"Team Fortress","app_id":440,"player_count":24,"max_players":24,"Bots":0,"server_type":"Dedicated","server_os":"Linux","password":true,"vac":true,"version":"7961495","steam_id":85568392924469988,"keywords":["cp","nocrits","nodmgspread","uncletopia"],"game_id":440,"stv_port":27026,"stv_name":"Uncletopia | Dallas | 2 | All Maps | STV","players":[{"user_id":327,"name":"Gary Busey","steam_id":76561197970096950,"connected_time":7416000000000,"state":"active","ping":44},{"user_id":366,"name":"satilite","steam_id":76561199127035429,"connected_time":4477000000000,"state":"active","ping":124},{"user_id":421,"name":"Sam","steam_id":76561199057029718,"connected_time":1450000000000,"state":"active","ping":94},{"user_id":433,"name":"literally tyler durden","steam_id":76561199014628655,"connected_time":88000000000,"state":"active","ping":59},{"user_id":429,"name":"harold","steam_id":76561199016285746,"connected_time":297000000000,"state":"active","ping":73},{"user_id":389,"name":"DeckofDragons","steam_id":76561198057398213,"connected_time":3652000000000,"state":"active","ping":71},{"user_id":431,"name":"intense radish","steam_id":76561199061038624,"connected_time":147000000000,"state":"active","ping":62},{"user_id":430,"name":"G. Howard Dee","steam_id":76561198058382812,"connected_time":219000000000,"state":"active","ping":74},{"user_id":401,"name":"Giselle","steam_id":76561198162593640,"connected_time":2715000000000,"state":"active","ping":110},{"user_id":425,"name":"Stryder","steam_id":76561199387418697,"connected_time":1083000000000,"state":"active","ping":71},{"user_id":399,"name":"Cosmic Soup","steam_id":76561198448801117,"connected_time":2764000000000,"state":"active","ping":82},{"user_id":427,"name":"SpeedyGongo","steam_id":76561198842946737,"connected_time":594000000000,"state":"active","ping":100},{"user_id":432,"name":"Pasta Water","steam_id":76561199112068305,"connected_time":131000000000,"state":"active","ping":74},{"user_id":418,"name":"Top Score","steam_id":76561197998396236,"connected_time":1573000000000,"state":"active","ping":61},{"user_id":434,"name":"TheAsianMeatball","steam_id":76561198336926133,"connected_time":85000000000,"state":"active","ping":65},{"user_id":406,"name":"SoldMyKidneyForCollege","steam_id":76561198096329559,"connected_time":2582000000000,"state":"active","ping":87},{"user_id":436,"name":"HeroOfTime","steam_id":76561199096218001,"connected_time":43000000000,"state":"active","ping":86},{"user_id":437,"name":"xLeoparrd","steam_id":76561198940657194,"connected_time":36000000000,"state":"active","ping":59},{"user_id":403,"name":"Oxbell","steam_id":76561198448173562,"connected_time":2708000000000,"state":"active","ping":112},{"user_id":438,"name":"notLoona","steam_id":76561198861851215,"connected_time":21000000000,"state":"active","ping":68},{"user_id":423,"name":"Jones","steam_id":76561198046037216,"connected_time":1372000000000,"state":"active","ping":127},{"user_id":379,"name":"Cosmic_ScreechTTV","steam_id":76561198092551523,"connected_time":4100000000000,"state":"active","ping":72},{"user_id":420,"name":"max.motors","steam_id":76561197968363752,"connected_time":1539000000000,"state":"active","ping":102},{"user_id":439,"name":"FinnGator","steam_id":76561198241766488,"connected_time":20000000000,"state":"active","ping":149}]},{"server_id":404,"name":"Uncletopia | Dallas | 3 | All Maps","name_short":"dal-3","host":"dal-1.us.uncletopia.com","port":27035,"enabled":true,"region":"us-central","cc":"us","latitude":32.779167,"longitude":-96.80889,"reserved":0,"last_update":"0001-01-01T00:00:00Z","name_a2s":"Uncletopia | Dallas | 3 | All Maps","protocol":17,"map":"pl_borneo","folder":"tf","game":"Team Fortress","app_id":440,"player_count":24,"max_players":24,"Bots":0,"server_type":"Dedicated","server_os":"Linux","password":true,"vac":true,"version":"7961495","steam_id":85568392924515219,"keywords":["nocrits","nodmgspread","payload","uncletopia"],"game_id":440,"stv_port":27036,"stv_name":"Uncletopia | Dallas | 3 | All Maps | STV","players":[{"user_id":255,"name":"Seaplane","steam_id":76561198147243498,"connected_time":2023000000000,"state":"active","ping":109},{"user_id":201,"name":"4 life","steam_id":76561198175961598,"connected_time":6662000000000,"state":"active","ping":97},{"user_id":277,"name":"caliecat","steam_id":76561198075902571,"connected_time":128000000000,"state":"active","ping":89},{"user_id":269,"name":"(TPT) Ghost","steam_id":76561198123262873,"connected_time":1161000000000,"state":"active","ping":92},{"user_id":256,"name":"ian","steam_id":76561198119616750,"connected_time":1465000000000,"state":"active","ping":91},{"user_id":270,"name":"✠【Mr_Stark】 ✠","steam_id":76561198035846981,"connected_time":1161000000000,"state":"active","ping":173},{"user_id":257,"name":"Everyday Appliances","steam_id":76561198040401086,"connected_time":1461000000000,"state":"active","ping":57},{"user_id":246,"name":"This Water Slaps","steam_id":76561198079089813,"connected_time":2819000000000,"state":"active","ping":76},{"user_id":258,"name":"MrStoneyBologna","steam_id":76561198170167470,"connected_time":1455000000000,"state":"active","ping":71},{"user_id":240,"name":"Bean Marrow","steam_id":76561198116650223,"connected_time":3203000000000,"state":"active","ping":73},{"user_id":267,"name":"Superfly Johnson","steam_id":76561198047081340,"connected_time":1238000000000,"state":"active","ping":110},{"user_id":280,"name":"plink","steam_id":76561198057829889,"connected_time":71000000000,"state":"active","ping":53},{"user_id":278,"name":"max poop retention","steam_id":76561199050461421,"connected_time":115000000000,"state":"active","ping":88},{"user_id":268,"name":"Malex","steam_id":76561198012216805,"connected_time":1210000000000,"state":"active","ping":86},{"user_id":279,"name":"StarB","steam_id":76561198149605368,"connected_time":100000000000,"state":"active","ping":66},{"user_id":244,"name":"LewdestLoli","steam_id":76561197967842240,"connected_time":2981000000000,"state":"active","ping":62},{"user_id":253,"name":"Stacy","steam_id":76561198305817355,"connected_time":2170000000000,"state":"active","ping":91},{"user_id":254,"name":"Ashen One","steam_id":76561198188489245,"connected_time":2163000000000,"state":"active","ping":91},{"user_id":170,"name":"Moonflower ✦","steam_id":76561198191782483,"connected_time":7881000000000,"state":"active","ping":50},{"user_id":248,"name":"Plains Phoenix","steam_id":76561198817161299,"connected_time":2557000000000,"state":"active","ping":59},{"user_id":272,"name":"Cebula33","steam_id":76561197984964095,"connected_time":686000000000,"state":"active","ping":88},{"user_id":264,"name":"D_Doxxed","steam_id":76561198276498805,"connected_time":1359000000000,"state":"active","ping":92},{"user_id":265,"name":"Sunshine On Me","steam_id":76561198042570322,"connected_time":1341000000000,"state":"active","ping":83},{"user_id":275,"name":"booty","steam_id":76561198817452952,"connected_time":193000000000,"state":"active","ping":83}]},{"server_id":405,"name":"Uncletopia | Dallas | 4 | Community","name_short":"dal-4","host":"dal-1.us.uncletopia.com","port":27045,"enabled":true,"region":"us-central","cc":"us","latitude":32.779167,"longitude":-96.80889,"reserved":0,"last_update":"0001-01-01T00:00:00Z","name_a2s":"Uncletopia | Dallas | 4 | Community","protocol":17,"map":"workshop/koth_bagel_rc6.ugc2514036946","folder":"tf","game":"Team Fortress","app_id":440,"player_count":0,"max_players":24,"Bots":0,"server_type":"Dedicated","server_os":"Linux","password":true,"vac":true,"version":"7961495","steam_id":85568392924515220,"keywords":["cp","nocrits","nodmgspread","uncletopia"],"game_id":440,"stv_port":27046,"stv_name":"Uncletopia | Dallas | 4 | Community | STV","players":null},{"server_id":5,"name":"Uncletopia | Frankfurt | 1 | All Maps","name_short":"frk-1","host":"frk-1.de.uncletopia.com","port":27015,"enabled":true,"region":"eu","cc":"de","latitude":50.110924,"longitude":8.682127,"reserved":0,"last_update":"0001-01-01T00:00:00Z","name_a2s":"Uncletopia | Frankfurt | 1 | All Maps","protocol":17,"map":"koth_highpass","folder":"tf","game":"Team Fortress","app_id":440,"player_count":0,"max_players":24,"Bots":0,"server_type":"Dedicated","server_os":"Linux","password":true,"vac":true,"version":"7961495","steam_id":85568392924469989,"keywords":["cp","nocrits","nodmgspread","uncletopia"],"game_id":440,"stv_port":27016,"stv_name":"Uncletopia | Frankfurt | 1 | All Maps | STV","players":null},{"server_id":110,"name":"Uncletopia | Frankfurt | 2 | All Maps","name_short":"frk-2","host":"frk-1.de.uncletopia.com","port":27025,"enabled":true,"region":"eu","cc":"de","latitude":50.110924,"longitude":8.682127,"reserved":0,"last_update":"0001-01-01T00:00:00Z","name_a2s":"Uncletopia | Frankfurt | 2 | All Maps","protocol":17,"map":"cp_dustbowl","folder":"tf","game":"Team Fortress","app_id":440,"player_count":0,"max_players":24,"Bots":0,"server_type":"Dedicated","server_os":"Linux","password":true,"vac":true,"version":"7961495","steam_id":85568392924469990,"keywords":["cp","nocrits","nodmgspread","uncletopia"],"game_id":440,"stv_port":27026,"stv_name":"Uncletopia | Frankfurt | 2 | All Maps | STV","players":null},{"server_id":308,"name":"Uncletopia | Frankfurt | 3 | All Maps","name_short":"frk-3","host":"frk-1.de.uncletopia.com","port":27035,"enabled":true,"region":"eu","cc":"de","latitude":50.110924,"longitude":8.682127,"reserved":0,"last_update":"0001-01-01T00:00:00Z","name_a2s":"Uncletopia | Frankfurt | 3 | All Maps","protocol":17,"map":"pl_barnblitz","folder":"tf","game":"Team Fortress","app_id":440,"player_count":0,"max_players":24,"Bots":0,"server_type":"Dedicated","server_os":"Linux","password":true,"vac":true,"version":"7961495","steam_id":85568392924504274,"keywords":["nocrits","nodmgspread","payload","uncletopia"],"game_id":440,"stv_port":27036,"stv_name":"Uncletopia | Frankfurt | 3 | All Maps | STV","players":null},{"server_id":309,"name":"Uncletopia | Frankfurt | 4 | All Maps","name_short":"frk-4","host":"frk-1.de.uncletopia.com","port":27045,"enabled":true,"region":"eu","cc":"de","latitude":50.110924,"longitude":8.682127,"reserved":0,"last_update":"0001-01-01T00:00:00Z","name_a2s":"Uncletopia | Frankfurt | 4 | All Maps","protocol":17,"map":"koth_highpass","folder":"tf","game":"Team Fortress","app_id":440,"player_count":0,"max_players":24,"Bots":0,"server_type":"Dedicated","server_os":"Linux","password":true,"vac":true,"version":"7961495","steam_id":85568392924504275,"keywords":["cp","nocrits","nodmgspread","uncletopia"],"game_id":440,"stv_port":27046,"stv_name":"Uncletopia | Frankfurt | 4 | All Maps | STV","players":null},{"server_id":310,"name":"Uncletopia | Frankfurt | 5 | All Maps","name_short":"frk-5","host":"frk-1.de.uncletopia.com","port":27055,"enabled":true,"region":"eu","cc":"de","latitude":50.110924,"longitude":8.682127,"reserved":0,"last_update":"0001-01-01T00:00:00Z","name_a2s":"Uncletopia | Frankfurt | 5 | All Maps","protocol":17,"map":"pl_badwater","folder":"tf","game":"Team Fortress","app_id":440,"player_count":0,"max_players":24,"Bots":0,"server_type":"Dedicated","server_os":"Linux","password":true,"vac":true,"version":"7961495","steam_id":85568392924504277,"keywords":["nocrits","nodmgspread","payload","uncletopia"],"game_id":440,"stv_port":27056,"stv_name":"Uncletopia | Frankfurt | 5 | All Maps | STV","players":null},{"server_id":311,"name":"Uncletopia | Frankfurt | 6 | All Maps","name_short":"frk-6","host":"frk-1.de.uncletopia.com","port":27065,"enabled":true,"region":"eu","cc":"de","latitude":50.110924,"longitude":8.682127,"reserved":0,"last_update":"0001-01-01T00:00:00Z","name_a2s":"Uncletopia | Frankfurt | 6 | All Maps","protocol":17,"map":"cp_altitude","folder":"tf","game":"Team Fortress","app_id":440,"player_count":0,"max_players":24,"Bots":0,"server_type":"Dedicated","server_os":"Linux","password":true,"vac":true,"version":"7961495","steam_id":85568392924504278,"keywords":["cp","nocrits","nodmgspread","uncletopia"],"game_id":440,"stv_port":27066,"stv_name":"Uncletopia | Frankfurt | 6 | All Maps | STV","players":null},{"server_id":23,"name":"Uncletopia | Frankfurt | 7 | Stopwatch","name_short":"frk-7","host":"frk-1.de.uncletopia.com","port":27075,"enabled":true,"region":"eu","cc":"de","latitude":50.110924,"longitude":8.682127,"reserved":0,"last_update":"0001-01-01T00:00:00Z","name_a2s":"Uncletopia | Frankfurt | 7 | Stopwatch","protocol":17,"map":"pl_frontier_final","folder":"tf","game":"Team Fortress","app_id":440,"player_count":0,"max_players":24,"Bots":0,"server_type":"Dedicated","server_os":"Linux","password":true,"vac":true,"version":"7961495","steam_id":85568392924742827,"keywords":["nocrits","nodmgspread","payload","uncletopia"],"game_id":440,"stv_port":27076,"stv_name":"Uncletopia | Frankfurt | 7 | Stopwatch | STV","players":null},{"server_id":24,"name":"Uncletopia | Frankfurt | 8 | Community","name_short":"frk-8","host":"frk-1.de.uncletopia.com","port":27085,"enabled":true,"region":"eu","cc":"de","latitude":50.110924,"longitude":8.682127,"reserved":0,"last_update":"0001-01-01T00:00:00Z","name_a2s":"Uncletopia | Frankfurt | 8 | Community","protocol":17,"map":"cp_mountainlab","folder":"tf","game":"Team Fortress","app_id":440,"player_count":0,"max_players":24,"Bots":0,"server_type":"Dedicated","server_os":"Linux","password":true,"vac":true,"version":"7961495","steam_id":85568392924742828,"keywords":["cp","nocrits","nodmgspread","uncletopia"],"game_id":440,"stv_port":27086,"stv_name":"Uncletopia | Frankfurt | 8 | Community | STV","players":null},{"server_id":202,"name":"Uncletopia | Hong Kong | 1 | All Maps","name_short":"hgk-1","host":"hgk-1.hk.uncletopia.com","port":27015,"enabled":true,"region":"asia","cc":"hk","latitude":22.302711,"longitude":114.177216,"reserved":0,"last_update":"0001-01-01T00:00:00Z","name_a2s":"Uncletopia | Hong Kong | 1 | All Maps","protocol":17,"map":"koth_brazil","folder":"tf","game":"Team Fortress","app_id":440,"player_count":24,"max_players":24,"Bots":0,"server_type":"Dedicated","server_os":"Linux","password":true,"vac":true,"version":"7961495","steam_id":85568392924494504,"keywords":["cp","nocrits","nodmgspread","uncletopia"],"game_id":440,"stv_port":27016,"stv_name":"Uncletopia | Hong Kong | 1 | All Maps | STV","players":[{"user_id":70,"name":"Talkk More","steam_id":76561198305424433,"connected_time":591000000000,"state":"active","ping":75},{"user_id":73,"name":"QWQ","steam_id":76561198886731650,"connected_time":377000000000,"state":"active","ping":115},{"user_id":71,"name":"Corhix","steam_id":76561198968706355,"connected_time":406000000000,"state":"active","ping":54},{"user_id":57,"name":"yuyu26071","steam_id":76561199363142727,"connected_time":1445000000000,"state":"active","ping":108},{"user_id":48,"name":"ZiNX","steam_id":76561198125816569,"connected_time":2323000000000,"state":"active","ping":141},{"user_id":78,"name":"sultan","steam_id":76561199131298675,"connected_time":31000000000,"state":"active","ping":151},{"user_id":52,"name":"sea-saw day","steam_id":76561198230213828,"connected_time":1915000000000,"state":"active","ping":60},{"user_id":53,"name":"Momoxhien","steam_id":76561198414997429,"connected_time":1882000000000,"state":"active","ping":62},{"user_id":74,"name":"intimidating opponent","steam_id":76561199016061149,"connected_time":269000000000,"state":"active","ping":132},{"user_id":21,"name":"Average Helltaker Enjoyer","steam_id":76561199250448715,"connected_time":3571000000000,"state":"active","ping":115},{"user_id":24,"name":"umaa005","steam_id":76561199486763257,"connected_time":3212000000000,"state":"active","ping":78},{"user_id":43,"name":"WORST PYRO MAIN EVER???","steam_id":76561198074339034,"connected_time":2557000000000,"state":"active","ping":73},{"user_id":76,"name":"Satnur","steam_id":76561199445694770,"connected_time":133000000000,"state":"active","ping":263},{"user_id":63,"name":"Galaxywee","steam_id":76561198257501357,"connected_time":1262000000000,"state":"active","ping":81},{"user_id":77,"name":"vutueminh907","steam_id":76561199491967126,"connected_time":98000000000,"state":"active","ping":75},{"user_id":54,"name":"Beef Wellington","steam_id":76561197995635241,"connected_time":1839000000000,"state":"active","ping":114},{"user_id":69,"name":"Prussian","steam_id":76561198974248745,"connected_time":939000000000,"state":"active","ping":54},{"user_id":60,"name":"跟蹤破貓(我好壞ˋwˊ)","steam_id":76561198246557344,"connected_time":1359000000000,"state":"active","ping":65},{"user_id":35,"name":"Gordon.Freeman","steam_id":76561198337746852,"connected_time":2740000000000,"state":"active","ping":49},{"user_id":55,"name":"PawmKin","steam_id":76561198344175018,"connected_time":1771000000000,"state":"active","ping":124},{"user_id":79,"name":"Lu","steam_id":76561198320532821,"connected_time":7000000000,"state":"spawning","ping":60},{"user_id":38,"name":"fy","steam_id":76561198121591901,"connected_time":2693000000000,"state":"active","ping":114},{"user_id":47,"name":"I GOT A 96 ON MY MATH","steam_id":76561199137927625,"connected_time":2460000000000,"state":"active","ping":99},{"user_id":72,"name":"You got a war face?","steam_id":76561198047057420,"connected_time":405000000000,"state":"active","ping":140}]},{"server_id":1,"name":"Uncletopia | Los Angeles | 1 | All Maps","name_short":"lax-1","host":"lax-1.us.uncletopia.com","port":27015,"enabled":true,"region":"us-west","cc":"us","latitude":33.94279,"longitude":-118.41004,"reserved":0,"last_update":"0001-01-01T00:00:00Z","name_a2s":"Uncletopia | Los Angeles | 1 | All Maps","protocol":17,"map":"pl_borneo","folder":"tf","game":"Team Fortress","app_id":440,"player_count":24,"max_players":24,"Bots":0,"server_type":"Dedicated","server_os":"Linux","password":true,"vac":true,"version":"7961495","steam_id":85568392924469991,"keywords":["nocrits","nodmgspread","payload","uncletopia"],"game_id":440,"stv_port":27016,"stv_name":"Uncletopia | Los Angeles | 1 | All Maps | STV","players":[{"user_id":322,"name":"laughs bigman","steam_id":76561198067714032,"connected_time":2167000000000,"state":"active","ping":55},{"user_id":259,"name":"The_Skull","steam_id":76561198121244647,"connected_time":7143000000000,"state":"active","ping":94},{"user_id":339,"name":"JawnyMac","steam_id":76561198179529599,"connected_time":326000000000,"state":"active","ping":61},{"user_id":343,"name":"John Calibur","steam_id":76561197999986606,"connected_time":109000000000,"state":"active","ping":42},{"user_id":260,"name":"Immortal8Reaper","steam_id":76561198297661559,"connected_time":7140000000000,"state":"active","ping":132},{"user_id":310,"name":"HevyCheddar","steam_id":76561199388576700,"connected_time":3265000000000,"state":"active","ping":62},{"user_id":338,"name":"Maid 'n' China","steam_id":76561198423392976,"connected_time":378000000000,"state":"active","ping":56},{"user_id":335,"name":"sobaka","steam_id":76561198116008934,"connected_time":982000000000,"state":"active","ping":64},{"user_id":303,"name":"ruben!","steam_id":76561198248731498,"connected_time":3993000000000,"state":"active","ping":55},{"user_id":327,"name":"Sirphantom","steam_id":76561198125415432,"connected_time":1906000000000,"state":"active","ping":72},{"user_id":308,"name":"you ain't slick","steam_id":76561199229786558,"connected_time":3345000000000,"state":"active","ping":102},{"user_id":342,"name":"Skaði","steam_id":76561198063949642,"connected_time":213000000000,"state":"active","ping":65},{"user_id":332,"name":"123","steam_id":76561198035655773,"connected_time":1411000000000,"state":"active","ping":70},{"user_id":324,"name":"fish","steam_id":76561199047144019,"connected_time":2146000000000,"state":"active","ping":69},{"user_id":294,"name":"CORGI.EXE","steam_id":76561198077093432,"connected_time":4738000000000,"state":"active","ping":112},{"user_id":336,"name":"Higuma","steam_id":76561198375229012,"connected_time":823000000000,"state":"active","ping":68},{"user_id":331,"name":"Chilis 2 for 20","steam_id":76561198121544531,"connected_time":1632000000000,"state":"active","ping":89},{"user_id":337,"name":"6.5 In/360°","steam_id":76561198889997809,"connected_time":695000000000,"state":"active","ping":45},{"user_id":291,"name":"Toddinator","steam_id":76561198303329028,"connected_time":4934000000000,"state":"active","ping":131},{"user_id":319,"name":"Magik","steam_id":76561198099726660,"connected_time":2396000000000,"state":"active","ping":60},{"user_id":329,"name":"medic makes milkshakes (tasty)","steam_id":76561198377868275,"connected_time":1804000000000,"state":"active","ping":97},{"user_id":341,"name":"Chad the Sex Haver","steam_id":76561198058236528,"connected_time":229000000000,"state":"active","ping":47},{"user_id":290,"name":"werolat","steam_id":76561197960544784,"connected_time":4948000000000,"state":"active","ping":55},{"user_id":293,"name":"coffee veins","steam_id":76561198044004639,"connected_time":4873000000000,"state":"active","ping":82}]},{"server_id":112,"name":"Uncletopia | Los Angeles | 2 | All Maps","name_short":"lax-2","host":"lax-1.us.uncletopia.com","port":27025,"enabled":true,"region":"us-west","cc":"us","latitude":33.94279,"longitude":-118.41004,"reserved":0,"last_update":"0001-01-01T00:00:00Z","name_a2s":"Uncletopia | Los Angeles | 2 | All Maps","protocol":17,"map":"pl_pier","folder":"tf","game":"Team Fortress","app_id":440,"player_count":24,"max_players":24,"Bots":0,"server_type":"Dedicated","server_os":"Linux","password":true,"vac":true,"version":"7961495","steam_id":85568392924469992,"keywords":["nocrits","nodmgspread","payload","uncletopia"],"game_id":440,"stv_port":27026,"stv_name":"Uncletopia | Los Angeles | 2 | All Maps | STV","players":[{"user_id":42,"name":"Barnie Sandlers","steam_id":76561198153295482,"connected_time":2262000000000,"state":"active","ping":31},{"user_id":50,"name":"DeltaForce4Life","steam_id":76561198355534614,"connected_time":2058000000000,"state":"active","ping":98},{"user_id":43,"name":"squid","steam_id":76561198070236972,"connected_time":2252000000000,"state":"active","ping":60},{"user_id":21,"name":"mrthugpug1732","steam_id":76561198881200768,"connected_time":3573000000000,"state":"active","ping":60},{"user_id":63,"name":"Stewie","steam_id":76561197991798513,"connected_time":344000000000,"state":"active","ping":127},{"user_id":51,"name":"saneggzings","steam_id":76561199465922101,"connected_time":2001000000000,"state":"active","ping":67},{"user_id":24,"name":"walrooos","steam_id":76561198024521839,"connected_time":3079000000000,"state":"active","ping":42},{"user_id":25,"name":"LEAN \u003c3","steam_id":76561198185286203,"connected_time":3047000000000,"state":"active","ping":81},{"user_id":52,"name":"cielael","steam_id":76561198043971956,"connected_time":1816000000000,"state":"active","ping":47},{"user_id":64,"name":"ronald","steam_id":76561197960691622,"connected_time":295000000000,"state":"active","ping":74},{"user_id":28,"name":"Whip_the_Rabbit","steam_id":76561198049896057,"connected_time":2904000000000,"state":"active","ping":71},{"user_id":55,"name":"Sol","steam_id":76561198121500201,"connected_time":1424000000000,"state":"active","ping":45},{"user_id":56,"name":"man fish fish man","steam_id":76561198879600285,"connected_time":1323000000000,"state":"active","ping":61},{"user_id":62,"name":"Pixelated Pussy","steam_id":76561198002511088,"connected_time":444000000000,"state":"active","ping":66},{"user_id":60,"name":"Sigma Freud","steam_id":76561198049220780,"connected_time":1128000000000,"state":"active","ping":63},{"user_id":58,"name":"Poladroid","steam_id":76561198032005291,"connected_time":1176000000000,"state":"active","ping":58},{"user_id":59,"name":"plumber","steam_id":76561198122177409,"connected_time":1164000000000,"state":"active","ping":69},{"user_id":38,"name":"MechanizedContortion","steam_id":76561199146092247,"connected_time":2407000000000,"state":"active","ping":49},{"user_id":39,"name":"35 years without a footjob...","steam_id":76561198799299193,"connected_time":2400000000000,"state":"active","ping":75},{"user_id":40,"name":"rad killl raccoon","steam_id":76561198980975595,"connected_time":2379000000000,"state":"active","ping":101},{"user_id":41,"name":"dodecadron","steam_id":76561198027397222,"connected_time":2369000000000,"state":"active","ping":97},{"user_id":45,"name":"Shini","steam_id":76561199066567421,"connected_time":2224000000000,"state":"active","ping":84},{"user_id":46,"name":"MancalaMadMan","steam_id":76561198347324053,"connected_time":2197000000000,"state":"active","ping":100},{"user_id":61,"name":"AlphaBoi","steam_id":76561198995017977,"connected_time":1077000000000,"state":"active","ping":87}]},{"server_id":324,"name":"Uncletopia | Los Angeles | 3 | All Maps","name_short":"lax-3","host":"lax-1.us.uncletopia.com","port":27035,"enabled":true,"region":"us-west","cc":"us","latitude":33.94279,"longitude":-118.41004,"reserved":0,"last_update":"0001-01-01T00:00:00Z","name_a2s":"Uncletopia | Los Angeles | 3 | All Maps","protocol":17,"map":"cp_dustbowl","folder":"tf","game":"Team Fortress","app_id":440,"player_count":24,"max_players":24,"Bots":0,"server_type":"Dedicated","server_os":"Linux","password":true,"vac":true,"version":"7961495","steam_id":85568392924510198,"keywords":["cp","nocrits","nodmgspread","uncletopia"],"game_id":440,"stv_port":27036,"stv_name":"Uncletopia | Los Angeles | 3 | All Maps | STV","players":[{"user_id":384,"name":"greens beans","steam_id":76561198153611491,"connected_time":5715000000000,"state":"active","ping":69},{"user_id":400,"name":"color gibus enjoyer","steam_id":76561198253531160,"connected_time":5012000000000,"state":"active","ping":62},{"user_id":437,"name":"Maxmind24","steam_id":76561198859888778,"connected_time":1466000000000,"state":"active","ping":91},{"user_id":442,"name":"tum","steam_id":76561198084712019,"connected_time":839000000000,"state":"active","ping":59},{"user_id":433,"name":"Your Favorite Fearless Hero","steam_id":76561199127590316,"connected_time":1801000000000,"state":"active","ping":62},{"user_id":447,"name":"a_lilypup","steam_id":76561198163640324,"connected_time":574000000000,"state":"active","ping":51},{"user_id":430,"name":"SHHHHHkebab","steam_id":76561198001611431,"connected_time":1970000000000,"state":"active","ping":114},{"user_id":445,"name":"Monki","steam_id":76561198964210411,"connected_time":728000000000,"state":"active","ping":61},{"user_id":428,"name":"Ti00","steam_id":76561198083342036,"connected_time":1983000000000,"state":"active","ping":113},{"user_id":424,"name":"RandomGuy","steam_id":76561198000897889,"connected_time":2115000000000,"state":"active","ping":48},{"user_id":449,"name":"Dcoyotzi","steam_id":76561199124707627,"connected_time":243000000000,"state":"active","ping":77},{"user_id":435,"name":"mcgfn","steam_id":76561198061563289,"connected_time":1709000000000,"state":"active","ping":57},{"user_id":426,"name":"Seriously Bruh","steam_id":76561198070408485,"connected_time":2111000000000,"state":"active","ping":68},{"user_id":405,"name":"Karg","steam_id":76561198091387866,"connected_time":4492000000000,"state":"active","ping":68},{"user_id":443,"name":"dekemori","steam_id":76561198373889573,"connected_time":815000000000,"state":"active","ping":83},{"user_id":374,"name":"monkey squirts","steam_id":76561197983101644,"connected_time":6233000000000,"state":"active","ping":44},{"user_id":454,"name":"Medicinal Significant Other","steam_id":76561198239771532,"connected_time":48000000000,"state":"active","ping":117},{"user_id":395,"name":"mine diam","steam_id":76561198119123981,"connected_time":5191000000000,"state":"active","ping":75},{"user_id":444,"name":"Ronnie Pickering!","steam_id":76561198041842118,"connected_time":760000000000,"state":"active","ping":59},{"user_id":446,"name":"Von Neumann","steam_id":76561199395843187,"connected_time":726000000000,"state":"active","ping":90},{"user_id":417,"name":"Tian","steam_id":76561198076669788,"connected_time":2629000000000,"state":"active","ping":74},{"user_id":455,"name":"gnome zone","steam_id":76561198883349445,"connected_time":40000000000,"state":"active","ping":68},{"user_id":436,"name":"FunnyGoomba","steam_id":76561198279865229,"connected_time":1709000000000,"state":"active","ping":84},{"user_id":393,"name":"john.","steam_id":76561198982939658,"connected_time":5205000000000,"state":"active","ping":75}]},{"server_id":25,"name":"Uncletopia | Los Angeles | 4 | Stopwatch","name_short":"lax-4","host":"lax-1.us.uncletopia.com","port":27045,"enabled":true,"region":"us-west","cc":"us","latitude":33.94279,"longitude":-118.41004,"reserved":0,"last_update":"0001-01-01T00:00:00Z","name_a2s":"Uncletopia | Los Angeles | 4 | Stopwatch","protocol":17,"map":"pl_borneo","folder":"tf","game":"Team Fortress","app_id":440,"player_count":3,"max_players":24,"Bots":0,"server_type":"Dedicated","server_os":"Linux","password":true,"vac":true,"version":"7961495","steam_id":85568392924510199,"keywords":["nocrits","nodmgspread","payload","uncletopia"],"game_id":440,"stv_port":27046,"stv_name":"Uncletopia | Los Angeles | 4 | Stopwatch | STV","players":[{"user_id":100,"name":"Erebus","steam_id":76561199061956673,"connected_time":5961000000000,"state":"active","ping":128},{"user_id":143,"name":"Sheets","steam_id":76561198182088207,"connected_time":3343000000000,"state":"active","ping":98},{"user_id":167,"name":"Yoyo-Wo","steam_id":76561198880520205,"connected_time":1223000000000,"state":"active","ping":85}]},{"server_id":11,"name":"Uncletopia | London | 1 | All Maps","name_short":"lon-1","host":"lon-1.uk.uncletopia.com","port":27015,"enabled":true,"region":"eu","cc":"gb","latitude":51.509865,"longitude":-0.118092,"reserved":0,"last_update":"0001-01-01T00:00:00Z","name_a2s":"Uncletopia | London | 1 | All Maps","protocol":17,"map":"cp_dustbowl","folder":"tf","game":"Team Fortress","app_id":440,"player_count":0,"max_players":24,"Bots":0,"server_type":"Dedicated","server_os":"Linux","password":true,"vac":true,"version":"7961495","steam_id":85568392924367362,"keywords":["cp","nocrits","nodmgspread","uncletopia"],"game_id":440,"stv_port":27016,"stv_name":"Uncletopia | London | 1 | All Maps | STV","players":null},{"server_id":114,"name":"Uncletopia | London | 2 | All Maps","name_short":"lon-2","host":"lon-1.uk.uncletopia.com","port":27025,"enabled":true,"region":"eu","cc":"gb","latitude":51.509865,"longitude":-0.118092,"reserved":0,"last_update":"0001-01-01T00:00:00Z","name_a2s":"Uncletopia | London | 2 | All Maps","protocol":17,"map":"pl_barnblitz","folder":"tf","game":"Team Fortress","app_id":440,"player_count":0,"max_players":24,"Bots":0,"server_type":"Dedicated","server_os":"Linux","password":true,"vac":true,"version":"7961495","steam_id":85568392924470941,"keywords":["nocrits","nodmgspread","payload","uncletopia"],"game_id":440,"stv_port":27026,"stv_name":"Uncletopia | London | 2 | All Maps | STV","players":null},{"server_id":320,"name":"Uncletopia | London | 3 | All Maps","name_short":"lon-3","host":"lon-1.uk.uncletopia.com","port":27035,"enabled":true,"region":"eu","cc":"gb","latitude":51.509865,"longitude":-0.118092,"reserved":0,"last_update":"0001-01-01T00:00:00Z","name_a2s":"Uncletopia | London | 3 | All Maps","protocol":17,"map":"cp_altitude","folder":"tf","game":"Team Fortress","app_id":440,"player_count":0,"max_players":24,"Bots":0,"server_type":"Dedicated","server_os":"Linux","password":true,"vac":true,"version":"7961495","steam_id":85568392924510192,"keywords":["cp","nocrits","nodmgspread","uncletopia"],"game_id":440,"stv_port":27036,"stv_name":"Uncletopia | London | 3 | All Maps | STV","players":null},{"server_id":321,"name":"Uncletopia | London | 4 | All Maps","name_short":"lon-4","host":"lon-1.uk.uncletopia.com","port":27045,"enabled":true,"region":"eu","cc":"gb","latitude":51.509865,"longitude":-0.118092,"reserved":0,"last_update":"0001-01-01T00:00:00Z","name_a2s":"Uncletopia | London | 4 | All Maps","protocol":17,"map":"cp_snakewater_final1","folder":"tf","game":"Team Fortress","app_id":440,"player_count":0,"max_players":24,"Bots":0,"server_type":"Dedicated","server_os":"Linux","password":true,"vac":true,"version":"7961495","steam_id":85568392924510193,"keywords":["cp","nocrits","nodmgspread","uncletopia"],"game_id":440,"stv_port":27046,"stv_name":"Uncletopia | London | 4 | All Maps | STV","players":null},{"server_id":21,"name":"Uncletopia | London | 5 | All Maps","name_short":"lon-5","host":"lon-1.uk.uncletopia.com","port":27055,"enabled":true,"region":"eu","cc":"gb","latitude":51.509865,"longitude":-0.118092,"reserved":0,"last_update":"0001-01-01T00:00:00Z","name_a2s":"Uncletopia | London | 5 | All Maps","protocol":17,"map":"pl_snowycoast","folder":"tf","game":"Team Fortress","app_id":440,"player_count":0,"max_players":24,"Bots":0,"server_type":"Dedicated","server_os":"Linux","password":true,"vac":true,"version":"7961495","steam_id":85568392924742829,"keywords":["nocrits","nodmgspread","payload","uncletopia"],"game_id":440,"stv_port":27056,"stv_name":"Uncletopia | London | 5 | All Maps | STV","players":null},{"server_id":22,"name":"Uncletopia | London | 6 | All Maps","name_short":"lon-6","host":"lon-1.uk.uncletopia.com","port":27065,"enabled":true,"region":"eu","cc":"gb","latitude":51.509865,"longitude":-0.118092,"reserved":0,"last_update":"0001-01-01T00:00:00Z","name_a2s":"Uncletopia | London | 6 | All Maps","protocol":17,"map":"koth_lakeside_final","folder":"tf","game":"Team Fortress","app_id":440,"player_count":0,"max_players":24,"Bots":0,"server_type":"Dedicated","server_os":"Linux","password":true,"vac":true,"version":"7961495","steam_id":85568392924742830,"keywords":["cp","nocrits","nodmgspread","uncletopia"],"game_id":440,"stv_port":27066,"stv_name":"Uncletopia | London | 6 | All Maps | STV","players":null},{"server_id":40,"name":"Uncletopia | London | 7 | Stopwatch","name_short":"lon-7","host":"lon-1.uk.uncletopia.com","port":27075,"enabled":true,"region":"eu","cc":"gb","latitude":51.509865,"longitude":-0.118092,"reserved":0,"last_update":"0001-01-01T00:00:00Z","name_a2s":"Uncletopia | London | 7 | Stopwatch","protocol":17,"map":"koth_lakeside_final","folder":"tf","game":"Team Fortress","app_id":440,"player_count":0,"max_players":24,"Bots":0,"server_type":"Dedicated","server_os":"Linux","password":true,"vac":true,"version":"7961495","steam_id":85568392924964314,"keywords":["cp","nocrits","nodmgspread","uncletopia"],"game_id":440,"stv_port":27076,"stv_name":"Uncletopia | London | 7 | Stopwatch | STV","players":null},{"server_id":41,"name":"Uncletopia | London | 8 | Community","name_short":"lon-8","host":"lon-1.uk.uncletopia.com","port":27085,"enabled":true,"region":"eu","cc":"gb","latitude":51.509865,"longitude":-0.118092,"reserved":0,"last_update":"0001-01-01T00:00:00Z","name_a2s":"Uncletopia | London | 8 | Community","protocol":17,"map":"workshop/pl_eruption_b9a.ugc2807898013","folder":"tf","game":"Team Fortress","app_id":440,"player_count":0,"max_players":24,"Bots":0,"server_type":"Dedicated","server_os":"Linux","password":true,"vac":true,"version":"7961495","steam_id":85568392924964315,"keywords":["nocrits","nodmgspread","payload","uncletopia"],"game_id":440,"stv_port":27086,"stv_name":"Uncletopia | London | 8 | Community | STV","players":null},{"server_id":300,"name":"Uncletopia | Montréal | 1 | All Maps","name_short":"mtl-1","host":"mtl-1.ca.uncletopia.com","port":27015,"enabled":true,"region":"us-east","cc":"ca","latitude":45.50889,"longitude":-73.56167,"reserved":0,"last_update":"0001-01-01T00:00:00Z","name_a2s":"","protocol":0,"map":"","folder":"","game":"","app_id":0,"player_count":23,"max_players":0,"Bots":0,"server_type":"","server_os":"","password":false,"vac":false,"version":"","steam_id":0,"keywords":null,"game_id":0,"stv_port":0,"stv_name":"","players":[{"user_id":55,"name":"rivera","steam_id":76561198051058706,"connected_time":2003000000000,"state":"active","ping":50},{"user_id":70,"name":"Mally","steam_id":76561198025013765,"connected_time":317000000000,"state":"active","ping":72},{"user_id":28,"name":"Jim Guy Tucker","steam_id":76561197999035461,"connected_time":3005000000000,"state":"active","ping":80},{"user_id":31,"name":"YesMargaret","steam_id":76561198127971751,"connected_time":2982000000000,"state":"active","ping":45},{"user_id":71,"name":"I Can't Stop Smelling My Finger","steam_id":76561198189445709,"connected_time":224000000000,"state":"active","ping":124},{"user_id":65,"name":"Bunnyboy","steam_id":76561198298416058,"connected_time":1204000000000,"state":"active","ping":90},{"user_id":42,"name":"Zoarork25","steam_id":76561198373589711,"connected_time":2758000000000,"state":"active","ping":85},{"user_id":72,"name":"Belts the Puppet","steam_id":76561198322969864,"connected_time":220000000000,"state":"active","ping":87},{"user_id":69,"name":"kermit","steam_id":76561198099928281,"connected_time":584000000000,"state":"active","ping":80},{"user_id":34,"name":"Insurance Man for the Funk","steam_id":76561198049001959,"connected_time":2957000000000,"state":"active","ping":118},{"user_id":35,"name":"Grandaddy Longlegs","steam_id":76561198003505579,"connected_time":2951000000000,"state":"active","ping":68},{"user_id":48,"name":"vinny6","steam_id":76561198386735728,"connected_time":2215000000000,"state":"active","ping":46},{"user_id":36,"name":"Uncle Bert","steam_id":76561197996574751,"connected_time":2925000000000,"state":"active","ping":93},{"user_id":63,"name":"Master17Gaming","steam_id":76561198145986516,"connected_time":1402000000000,"state":"active","ping":89},{"user_id":58,"name":"Poyo Boyo","steam_id":76561198010201227,"connected_time":1852000000000,"state":"active","ping":60},{"user_id":37,"name":"mitty","steam_id":76561197996031815,"connected_time":2910000000000,"state":"active","ping":94},{"user_id":38,"name":"QueenCake575","steam_id":76561198996882407,"connected_time":2841000000000,"state":"active","ping":140},{"user_id":39,"name":"erem2k","steam_id":76561198079020059,"connected_time":2823000000000,"state":"active","ping":46},{"user_id":67,"name":"Goober","steam_id":76561199026734167,"connected_time":1091000000000,"state":"active","ping":56},{"user_id":73,"name":"wafflehamster2000","steam_id":76561198849161820,"connected_time":170000000000,"state":"active","ping":75},{"user_id":74,"name":"El Güey","steam_id":76561197970450546,"connected_time":124000000000,"state":"active","ping":112},{"user_id":59,"name":"Zipf","steam_id":76561198174424443,"connected_time":1774000000000,"state":"active","ping":68},{"user_id":75,"name":"Happy_Lil_Arsonist","steam_id":76561199430437294,"connected_time":6000000000,"state":"spawning","ping":74}]},{"server_id":301,"name":"Uncletopia | Montréal | 2 | ???","name_short":"mtl-2","host":"mtl-1.ca.uncletopia.com","port":27025,"enabled":true,"region":"us-east","cc":"ca","latitude":45.50889,"longitude":-73.56167,"reserved":0,"last_update":"0001-01-01T00:00:00Z","name_a2s":"","protocol":0,"map":"","folder":"","game":"","app_id":0,"player_count":0,"max_players":0,"Bots":0,"server_type":"","server_os":"","password":false,"vac":false,"version":"","steam_id":0,"keywords":null,"game_id":0,"stv_port":0,"stv_name":"","players":null},{"server_id":13,"name":"Uncletopia | New York City | 1 | All Maps","name_short":"nyc-1","host":"nyc-1.us.uncletopia.com","port":27015,"enabled":true,"region":"us-east","cc":"us","latitude":40.73061,"longitude":-73.93524,"reserved":0,"last_update":"0001-01-01T00:00:00Z","name_a2s":"Uncletopia | New York City | 1 | All Maps","protocol":17,"map":"pl_borneo","folder":"tf","game":"Team Fortress","app_id":440,"player_count":22,"max_players":24,"Bots":0,"server_type":"Dedicated","server_os":"Linux","password":true,"vac":true,"version":"7961495","steam_id":85568392924469993,"keywords":["nocrits","nodmgspread","payload","uncletopia"],"game_id":440,"stv_port":27016,"stv_name":"Uncletopia | New York City | 1 | All Maps | STV","players":[{"user_id":563,"name":"Ibrahim","steam_id":76561198028320625,"connected_time":6000000000,"state":"spawning","ping":44},{"user_id":549,"name":"dillon/dylan","steam_id":76561198118054166,"connected_time":788000000000,"state":"active","ping":45},{"user_id":558,"name":"Hideo Kojima","steam_id":76561198082582335,"connected_time":283000000000,"state":"active","ping":52},{"user_id":553,"name":"Freddy fazballs","steam_id":76561198310677935,"connected_time":611000000000,"state":"active","ping":76},{"user_id":538,"name":"Crystall","steam_id":76561198346607700,"connected_time":1418000000000,"state":"active","ping":60},{"user_id":555,"name":"Narh","steam_id":76561198025216294,"connected_time":493000000000,"state":"active","ping":59},{"user_id":506,"name":"ndvr","steam_id":76561199379200102,"connected_time":4113000000000,"state":"active","ping":47},{"user_id":556,"name":"peee pee man","steam_id":76561198044979205,"connected_time":482000000000,"state":"active","ping":44},{"user_id":550,"name":"selling rice","steam_id":76561198063357023,"connected_time":775000000000,"state":"active","ping":107},{"user_id":551,"name":"chiswola","steam_id":76561198046920142,"connected_time":728000000000,"state":"active","ping":88},{"user_id":539,"name":"cran","steam_id":76561198178840075,"connected_time":1409000000000,"state":"active","ping":95},{"user_id":562,"name":"The Deer Consumer","steam_id":76561198812026312,"connected_time":95000000000,"state":"active","ping":73},{"user_id":524,"name":"Ashley","steam_id":76561198056152479,"connected_time":2889000000000,"state":"active","ping":112},{"user_id":532,"name":"HUESO","steam_id":76561198276383681,"connected_time":2540000000000,"state":"active","ping":77},{"user_id":559,"name":"Chernov","steam_id":76561198014463424,"connected_time":283000000000,"state":"active","ping":42},{"user_id":545,"name":"Lego Yoda","steam_id":76561199008362890,"connected_time":1244000000000,"state":"active","ping":44},{"user_id":519,"name":"milk","steam_id":76561198813251405,"connected_time":2932000000000,"state":"active","ping":51},{"user_id":561,"name":"ElChuchoXf","steam_id":76561199235124146,"connected_time":232000000000,"state":"active","ping":223},{"user_id":560,"name":"Kallen","steam_id":76561198079693305,"connected_time":278000000000,"state":"active","ping":128},{"user_id":541,"name":"Sim","steam_id":76561198119227922,"connected_time":1365000000000,"state":"active","ping":53},{"user_id":546,"name":"loadedboi12345","steam_id":76561199213709661,"connected_time":1184000000000,"state":"active","ping":118},{"user_id":543,"name":"Trumpetspyman59","steam_id":76561198048989561,"connected_time":1342000000000,"state":"active","ping":75}]},{"server_id":14,"name":"Uncletopia | New York City | 2 | All Maps","name_short":"nyc-2","host":"nyc-1.us.uncletopia.com","port":27025,"enabled":true,"region":"us-east","cc":"us","latitude":40.73061,"longitude":-73.93524,"reserved":0,"last_update":"0001-01-01T00:00:00Z","name_a2s":"Uncletopia | New York City | 2 | All Maps","protocol":17,"map":"pl_snowycoast","folder":"tf","game":"Team Fortress","app_id":440,"player_count":24,"max_players":24,"Bots":0,"server_type":"Dedicated","server_os":"Linux","password":true,"vac":true,"version":"7961495","steam_id":85568392924469994,"keywords":["nocrits","nodmgspread","payload","uncletopia"],"game_id":440,"stv_port":27026,"stv_name":"Uncletopia | New York City | 2 | All Maps | STV","players":[{"user_id":639,"name":"Bee","steam_id":76561198074681324,"connected_time":4509000000000,"state":"active","ping":45},{"user_id":677,"name":"Hypelipe","steam_id":76561199171330771,"connected_time":1924000000000,"state":"active","ping":117},{"user_id":585,"name":"Naffty","steam_id":76561198119734981,"connected_time":9521000000000,"state":"active","ping":95},{"user_id":697,"name":"radical","steam_id":76561199194112599,"connected_time":394000000000,"state":"active","ping":89},{"user_id":611,"name":"James","steam_id":76561198081313916,"connected_time":7041000000000,"state":"active","ping":74},{"user_id":704,"name":"rattlin' bog","steam_id":76561198224551028,"connected_time":151000000000,"state":"active","ping":56},{"user_id":688,"name":"Smokey Ian","steam_id":76561199128786637,"connected_time":826000000000,"state":"active","ping":89},{"user_id":698,"name":"iknowyouhateme","steam_id":76561199067925855,"connected_time":392000000000,"state":"active","ping":72},{"user_id":699,"name":"Baron von Tansley","steam_id":76561198000688919,"connected_time":356000000000,"state":"active","ping":73},{"user_id":689,"name":"Sgt. Pepper","steam_id":76561198063674627,"connected_time":716000000000,"state":"active","ping":80},{"user_id":701,"name":"flintstones gummy","steam_id":76561198203171349,"connected_time":245000000000,"state":"active","ping":54},{"user_id":654,"name":"Rodrick Knee","steam_id":76561198283021062,"connected_time":2728000000000,"state":"active","ping":75},{"user_id":629,"name":"Silvercoat's Stargazer","steam_id":76561198399525329,"connected_time":5108000000000,"state":"active","ping":64},{"user_id":674,"name":"feenman","steam_id":76561199383834799,"connected_time":2020000000000,"state":"active","ping":118},{"user_id":630,"name":"The Winter Medic","steam_id":76561198197112922,"connected_time":5073000000000,"state":"active","ping":66},{"user_id":635,"name":"random dood","steam_id":76561198314624729,"connected_time":4698000000000,"state":"active","ping":70},{"user_id":695,"name":"Terror-Billy #SaveTF2","steam_id":76561198328141870,"connected_time":446000000000,"state":"active","ping":63},{"user_id":693,"name":"A Rope, for big pits","steam_id":76561198068044782,"connected_time":540000000000,"state":"active","ping":59},{"user_id":696,"name":"BradB.","steam_id":76561199163905036,"connected_time":416000000000,"state":"active","ping":78},{"user_id":682,"name":"dcqwerty","steam_id":76561198964101426,"connected_time":1699000000000,"state":"active","ping":39},{"user_id":641,"name":"Denzel McFlurry","steam_id":76561199231296521,"connected_time":4308000000000,"state":"active","ping":64},{"user_id":702,"name":"Laogh Marbh","steam_id":76561198115240256,"connected_time":201000000000,"state":"active","ping":82},{"user_id":691,"name":"canadian birds","steam_id":76561198059466588,"connected_time":674000000000,"state":"active","ping":50},{"user_id":703,"name":"Stupid Monkey =3","steam_id":76561198024580166,"connected_time":196000000000,"state":"active","ping":118}]},{"server_id":15,"name":"Uncletopia | New York City | 3 | Stopwatch","name_short":"nyc-3","host":"nyc-1.us.uncletopia.com","port":27035,"enabled":true,"region":"us-east","cc":"us","latitude":40.73061,"longitude":-73.93524,"reserved":0,"last_update":"0001-01-01T00:00:00Z","name_a2s":"Uncletopia | New York City | 3 | Stopwatch","protocol":17,"map":"workshop/cp_reckoner_rc6.ugc674719999","folder":"tf","game":"Team Fortress","app_id":440,"player_count":18,"max_players":24,"Bots":0,"server_type":"Dedicated","server_os":"Linux","password":true,"vac":true,"version":"7961495","steam_id":85568392924742820,"keywords":["cp","nocrits","nodmgspread","uncletopia"],"game_id":440,"stv_port":27036,"stv_name":"Uncletopia | New York City | 3 | Stopwatch | STV","players":[{"user_id":376,"name":"uzr","steam_id":76561198799343084,"connected_time":3000000000,"state":"spawning","ping":107},{"user_id":296,"name":"Dr. Cube","steam_id":76561198025469828,"connected_time":6607000000000,"state":"active","ping":71},{"user_id":355,"name":"Saul Goodman","steam_id":76561199440844469,"connected_time":1516000000000,"state":"active","ping":49},{"user_id":357,"name":"ArcticRescue","steam_id":76561198055362404,"connected_time":1249000000000,"state":"active","ping":55},{"user_id":356,"name":"BackupYAHmax","steam_id":76561198309468681,"connected_time":1392000000000,"state":"active","ping":51},{"user_id":371,"name":"Shrebbie","steam_id":76561198875230824,"connected_time":383000000000,"state":"active","ping":39},{"user_id":366,"name":"WhiteIce","steam_id":76561198042895118,"connected_time":799000000000,"state":"active","ping":59},{"user_id":320,"name":"Untossed Salad","steam_id":76561198966239603,"connected_time":4607000000000,"state":"active","ping":46},{"user_id":368,"name":"Marc Antony","steam_id":76561198011366517,"connected_time":601000000000,"state":"active","ping":44},{"user_id":323,"name":"Glonk","steam_id":76561198362627946,"connected_time":4560000000000,"state":"active","ping":59},{"user_id":305,"name":"Terror of Zanarkand","steam_id":76561198106153194,"connected_time":5569000000000,"state":"active","ping":90},{"user_id":375,"name":"sous","steam_id":76561198052572890,"connected_time":69000000000,"state":"active","ping":47},{"user_id":373,"name":"Tom Crúaich","steam_id":76561197999439911,"connected_time":300000000000,"state":"active","ping":100},{"user_id":303,"name":"Railly","steam_id":76561198357355915,"connected_time":5690000000000,"state":"active","ping":86},{"user_id":367,"name":"Lyra","steam_id":76561198156481620,"connected_time":784000000000,"state":"active","ping":56},{"user_id":338,"name":"eMcP!","steam_id":76561198382509396,"connected_time":3321000000000,"state":"active","ping":135},{"user_id":339,"name":"DoggyDogWhirl","steam_id":76561198042841344,"connected_time":3294000000000,"state":"active","ping":69},{"user_id":336,"name":"Sentry Gun Main Man","steam_id":76561198327938247,"connected_time":3345000000000,"state":"active","ping":85}]},{"server_id":16,"name":"Uncletopia | New York City | 4 | Community","name_short":"nyc-4","host":"nyc-1.us.uncletopia.com","port":27045,"enabled":true,"region":"us-east","cc":"us","latitude":40.73061,"longitude":-73.93524,"reserved":0,"last_update":"0001-01-01T00:00:00Z","name_a2s":"Uncletopia | New York City | 4 | Community","protocol":17,"map":"workshop/cp_fulgur_rc2a.ugc2068252300","folder":"tf","game":"Team Fortress","app_id":440,"player_count":0,"max_players":24,"Bots":0,"server_type":"Dedicated","server_os":"Linux","password":true,"vac":true,"version":"7961495","steam_id":85568392924742821,"keywords":["cp","nocrits","nodmgspread","uncletopia"],"game_id":440,"stv_port":27046,"stv_name":"Uncletopia | New York City | 4 | Community | STV","players":null},{"server_id":142,"name":"Uncletopia | São Paulo | 1 | All Maps","name_short":"sao-1","host":"sao-1.br.uncletopia.com","port":27015,"enabled":true,"region":"sa","cc":"br","latitude":-23.533773,"longitude":-46.62529,"reserved":0,"last_update":"0001-01-01T00:00:00Z","name_a2s":"Uncletopia | São Paulo | 1 | All Maps","protocol":17,"map":"koth_lakeside_final","folder":"tf","game":"Team Fortress","app_id":440,"player_count":0,"max_players":24,"Bots":0,"server_type":"Dedicated","server_os":"Linux","password":true,"vac":true,"version":"7961495","steam_id":85568392924469996,"keywords":["cp","nocrits","nodmgspread","uncletopia"],"game_id":440,"stv_port":27016,"stv_name":"Uncletopia | São Paulo | 1 | All Maps | STV","players":null},{"server_id":143,"name":"Uncletopia | São Paulo | 2 | Community","name_short":"sao-2","host":"sao-2.br.uncletopia.com","port":27015,"enabled":true,"region":"sa","cc":"br","latitude":-23.533773,"longitude":-46.62529,"reserved":0,"last_update":"0001-01-01T00:00:00Z","name_a2s":"Uncletopia | São Paulo | 2 | Community","protocol":17,"map":"workshop/koth_bagel_rc6.ugc2514036946","folder":"tf","game":"Team Fortress","app_id":440,"player_count":0,"max_players":24,"Bots":0,"server_type":"Dedicated","server_os":"Linux","password":true,"vac":true,"version":"7961495","steam_id":85568392924485349,"keywords":["cp","nocrits","nodmgspread","uncletopia"],"game_id":440,"stv_port":27016,"stv_name":"Uncletopia | São Paulo | 2 | Community | STV","players":null},{"server_id":7,"name":"Uncletopia | Seattle | 1 | All Maps","name_short":"sea-1","host":"sea-1.us.uncletopia.com","port":27015,"enabled":true,"region":"us-west","cc":"us","latitude":47.608013,"longitude":-122.33517,"reserved":0,"last_update":"0001-01-01T00:00:00Z","name_a2s":"Uncletopia | Seattle | 1 | All Maps","protocol":17,"map":"cp_dustbowl","folder":"tf","game":"Team Fortress","app_id":440,"player_count":23,"max_players":24,"Bots":0,"server_type":"Dedicated","server_os":"Linux","password":true,"vac":true,"version":"7961495","steam_id":85568392924469997,"keywords":["cp","nocrits","nodmgspread","uncletopia"],"game_id":440,"stv_port":27016,"stv_name":"Uncletopia | Seattle | 1 | All Maps | STV","players":[{"user_id":522,"name":"onionman0106","steam_id":76561199067766868,"connected_time":2069000000000,"state":"active","ping":51},{"user_id":540,"name":"zpalmtree","steam_id":76561198134307620,"connected_time":1186000000000,"state":"active","ping":106},{"user_id":525,"name":"ふわふわ毛布","steam_id":76561198088403016,"connected_time":2026000000000,"state":"active","ping":150},{"user_id":509,"name":"AXZIOM","steam_id":76561198255074952,"connected_time":4044000000000,"state":"active","ping":45},{"user_id":505,"name":"RUF","steam_id":76561198062315805,"connected_time":4330000000000,"state":"active","ping":76},{"user_id":558,"name":"kermitkid","steam_id":76561198165102843,"connected_time":21000000000,"state":"active","ping":73},{"user_id":494,"name":"Kanga Roo","steam_id":76561198073358867,"connected_time":5012000000000,"state":"active","ping":46},{"user_id":553,"name":"Lilith","steam_id":76561198120362654,"connected_time":83000000000,"state":"active","ping":45},{"user_id":537,"name":"ikuyo","steam_id":76561198996950205,"connected_time":1362000000000,"state":"active","ping":74},{"user_id":554,"name":"Charles","steam_id":76561198155322277,"connected_time":76000000000,"state":"active","ping":61},{"user_id":550,"name":"pepe warlord","steam_id":76561198080819197,"connected_time":224000000000,"state":"active","ping":86},{"user_id":551,"name":"An Old Lady","steam_id":76561198047480318,"connected_time":222000000000,"state":"active","ping":69},{"user_id":515,"name":"fountain Mann","steam_id":76561198834350355,"connected_time":3429000000000,"state":"active","ping":65},{"user_id":556,"name":"Big Juicy","steam_id":76561198018062350,"connected_time":55000000000,"state":"active","ping":62},{"user_id":521,"name":"porfer","steam_id":76561199118049168,"connected_time":2074000000000,"state":"active","ping":83},{"user_id":548,"name":"WaveSmash","steam_id":76561198208785485,"connected_time":835000000000,"state":"active","ping":84},{"user_id":395,"name":"Grand","steam_id":76561198290143399,"connected_time":16686000000000,"state":"active","ping":75},{"user_id":417,"name":"alpharuby","steam_id":76561198051638462,"connected_time":14712000000000,"state":"active","ping":75},{"user_id":517,"name":"Bocchi The Rock Johnson","steam_id":76561198216017952,"connected_time":2821000000000,"state":"active","ping":68},{"user_id":545,"name":"toes","steam_id":76561198221151676,"connected_time":1049000000000,"state":"active","ping":59},{"user_id":528,"name":"Mr.Bones","steam_id":76561198205170595,"connected_time":1895000000000,"state":"active","ping":49},{"user_id":532,"name":"here2he1p","steam_id":76561199216977630,"connected_time":1815000000000,"state":"active","ping":59},{"user_id":557,"name":"That_Damn_Dragon","steam_id":76561198054658474,"connected_time":53000000000,"state":"active","ping":42}]},{"server_id":119,"name":"Uncletopia | Seattle | 2 | All Maps","name_short":"sea-2","host":"sea-1.us.uncletopia.com","port":27025,"enabled":true,"region":"us-west","cc":"us","latitude":47.608013,"longitude":-122.33517,"reserved":0,"last_update":"0001-01-01T00:00:00Z","name_a2s":"Uncletopia | Seattle | 2 | All Maps","protocol":17,"map":"pl_upward","folder":"tf","game":"Team Fortress","app_id":440,"player_count":24,"max_players":24,"Bots":0,"server_type":"Dedicated","server_os":"Linux","password":true,"vac":true,"version":"7961495","steam_id":85568392924469998,"keywords":["nocrits","nodmgspread","payload","uncletopia"],"game_id":440,"stv_port":27026,"stv_name":"Uncletopia | Seattle | 2 | All Maps | STV","players":[{"user_id":305,"name":"Rude Dog","steam_id":76561197980385816,"connected_time":271000000000,"state":"active","ping":57},{"user_id":303,"name":"Boomboombop","steam_id":76561198267531538,"connected_time":343000000000,"state":"active","ping":121},{"user_id":291,"name":"tomandjerry085","steam_id":76561198800789071,"connected_time":1206000000000,"state":"active","ping":71},{"user_id":298,"name":"DrD","steam_id":76561198067266383,"connected_time":726000000000,"state":"active","ping":97},{"user_id":304,"name":"♜♥Serious Pisces♥♜","steam_id":76561198096129873,"connected_time":292000000000,"state":"active","ping":88},{"user_id":301,"name":"Strikerbolt","steam_id":76561199095622897,"connected_time":527000000000,"state":"active","ping":75},{"user_id":292,"name":":)","steam_id":76561198210322871,"connected_time":1193000000000,"state":"active","ping":78},{"user_id":306,"name":"I THINK COOLSVILLE SUCKS","steam_id":76561198066855998,"connected_time":253000000000,"state":"active","ping":64},{"user_id":299,"name":"ACK","steam_id":76561198130390689,"connected_time":719000000000,"state":"active","ping":82},{"user_id":241,"name":"ORANGE","steam_id":76561198000401769,"connected_time":5121000000000,"state":"active","ping":45},{"user_id":293,"name":"Harry Rage!!","steam_id":76561198873895549,"connected_time":1161000000000,"state":"active","ping":83},{"user_id":250,"name":"(ngv) Antwan","steam_id":76561198018017318,"connected_time":4380000000000,"state":"active","ping":73},{"user_id":311,"name":"♥ Milo Stefferson ♥ (Soupca","steam_id":76561198056269538,"connected_time":176000000000,"state":"active","ping":59},{"user_id":265,"name":"Petrivus","steam_id":76561198202152453,"connected_time":2682000000000,"state":"active","ping":56},{"user_id":312,"name":"Warhead","steam_id":76561198067746049,"connected_time":44000000000,"state":"active","ping":91},{"user_id":308,"name":"KJ","steam_id":76561199019869692,"connected_time":199000000000,"state":"active","ping":78},{"user_id":247,"name":"Attrition","steam_id":76561197969881916,"connected_time":4827000000000,"state":"active","ping":45},{"user_id":309,"name":":\u003c","steam_id":76561198072789439,"connected_time":190000000000,"state":"active","ping":33},{"user_id":294,"name":"Bendidy","steam_id":76561198041964300,"connected_time":1131000000000,"state":"active","ping":74},{"user_id":295,"name":"Eric4bz","steam_id":76561198054439606,"connected_time":1124000000000,"state":"active","ping":68},{"user_id":285,"name":"CheesyPoofs","steam_id":76561197998650617,"connected_time":1681000000000,"state":"active","ping":59},{"user_id":276,"name":"Pepperoni Dave","steam_id":76561199278783760,"connected_time":2365000000000,"state":"active","ping":82},{"user_id":310,"name":"Camohno","steam_id":76561198283519918,"connected_time":188000000000,"state":"active","ping":70},{"user_id":302,"name":"darkonion","steam_id":76561198088355688,"connected_time":498000000000,"state":"active","ping":81}]},{"server_id":406,"name":"Uncletopia | Seattle | 3 | Stopwatch","name_short":"sea-3","host":"sea-1.us.uncletopia.com","port":27035,"enabled":true,"region":"us-west","cc":"us","latitude":47.608013,"longitude":-122.33517,"reserved":0,"last_update":"0001-01-01T00:00:00Z","name_a2s":"Uncletopia | Seattle | 3 | Stopwatch","protocol":17,"map":"workshop/koth_ashville_final.ugc2130459942","folder":"tf","game":"Team Fortress","app_id":440,"player_count":2,"max_players":24,"Bots":0,"server_type":"Dedicated","server_os":"Linux","password":true,"vac":true,"version":"7961495","steam_id":85568392924515217,"keywords":["cp","nocrits","nodmgspread","uncletopia"],"game_id":440,"stv_port":27036,"stv_name":"Uncletopia | Seattle | 3 | Stopwatch | STV","players":[{"user_id":55,"name":"cajun thotsauce","steam_id":76561198101636066,"connected_time":1930000000000,"state":"active","ping":67},{"user_id":56,"name":"StrayGuitarist","steam_id":76561198091315714,"connected_time":1156000000000,"state":"active","ping":58}]},{"server_id":17,"name":"Uncletopia | San Francisco | 1 | All Maps","name_short":"sfo-1","host":"sfo-1.us.uncletopia.com","port":27015,"enabled":true,"region":"us-west","cc":"us","latitude":37.77397,"longitude":-122.4313,"reserved":0,"last_update":"0001-01-01T00:00:00Z","name_a2s":"Uncletopia | San Francisco | 1 | All Maps","protocol":17,"map":"koth_viaduct","folder":"tf","game":"Team Fortress","app_id":440,"player_count":0,"max_players":24,"Bots":0,"server_type":"Dedicated","server_os":"Linux","password":true,"vac":true,"version":"7961495","steam_id":85568392924469999,"keywords":["cp","nocrits","nodmgspread","uncletopia"],"game_id":440,"stv_port":27016,"stv_name":"Uncletopia | San Francisco | 1 | All Maps | STV","players":null},{"server_id":18,"name":"Uncletopia | San Francisco | 2 | All Maps","name_short":"sfo-2","host":"sfo-1.us.uncletopia.com","port":27025,"enabled":true,"region":"us-west","cc":"us","latitude":37.77397,"longitude":-122.4313,"reserved":0,"last_update":"0001-01-01T00:00:00Z","name_a2s":"Uncletopia | San Francisco | 2 | All Maps","protocol":17,"map":"pl_swiftwater_final1","folder":"tf","game":"Team Fortress","app_id":440,"player_count":2,"max_players":24,"Bots":0,"server_type":"Dedicated","server_os":"Linux","password":true,"vac":true,"version":"7961495","steam_id":85568392924470000,"keywords":["nocrits","nodmgspread","payload","uncletopia"],"game_id":440,"stv_port":27026,"stv_name":"Uncletopia | San Francisco | 2 | All Maps | STV","players":[{"user_id":42,"name":"Fork™","steam_id":76561198440233515,"connected_time":1040000000000,"state":"active","ping":186},{"user_id":30,"name":"BluCoffee","steam_id":76561198214995967,"connected_time":2839000000000,"state":"active","ping":139}]},{"server_id":19,"name":"Uncletopia | San Francisco | 3 | Stopwatch","name_short":"sfo-3","host":"sfo-1.us.uncletopia.com","port":27035,"enabled":true,"region":"us-west","cc":"us","latitude":37.77397,"longitude":-122.4313,"reserved":0,"last_update":"0001-01-01T00:00:00Z","name_a2s":"Uncletopia | San Francisco | 3 | Stopwatch","protocol":17,"map":"pl_swiftwater_final1","folder":"tf","game":"Team Fortress","app_id":440,"player_count":0,"max_players":24,"Bots":0,"server_type":"Dedicated","server_os":"Linux","password":true,"vac":true,"version":"7961495","steam_id":85568392924742824,"keywords":["nocrits","nodmgspread","payload","uncletopia"],"game_id":440,"stv_port":27036,"stv_name":"Uncletopia | San Francisco | 3 | Stopwatch | STV","players":null},{"server_id":20,"name":"Uncletopia | San Francisco | 4 | Community","name_short":"sfo-4","host":"sfo-1.us.uncletopia.com","port":27045,"enabled":true,"region":"us-west","cc":"us","latitude":37.77397,"longitude":-122.4313,"reserved":0,"last_update":"0001-01-01T00:00:00Z","name_a2s":"Uncletopia | San Francisco | 4 | Community","protocol":17,"map":"pl_pier","folder":"tf","game":"Team Fortress","app_id":440,"player_count":0,"max_players":24,"Bots":0,"server_type":"Dedicated","server_os":"Linux","password":true,"vac":true,"version":"7961495","steam_id":85568392924742826,"keywords":["nocrits","nodmgspread","payload","uncletopia"],"game_id":440,"stv_port":27046,"stv_name":"Uncletopia | San Francisco | 4 | Community | STV","players":null},{"server_id":141,"name":"Uncletopia | Sydney | 1 | All Maps","name_short":"syd-1","host":"syd-1.au.uncletopia.com","port":27015,"enabled":true,"region":"au","cc":"au","latitude":-33.865143,"longitude":151.2099,"reserved":0,"last_update":"0001-01-01T00:00:00Z","name_a2s":"Uncletopia | Sydney | 1 | All Maps","protocol":17,"map":"pl_goldrush","folder":"tf","game":"Team Fortress","app_id":440,"player_count":23,"max_players":24,"Bots":0,"server_type":"Dedicated","server_os":"Linux","password":true,"vac":true,"version":"7961495","steam_id":85568392924470001,"keywords":["nocrits","nodmgspread","payload","uncletopia"],"game_id":440,"stv_port":27016,"stv_name":"Uncletopia | Sydney | 1 | All Maps | STV","players":[{"user_id":163,"name":"ViVi ☄","steam_id":76561198044727237,"connected_time":6475000000000,"state":"active","ping":52},{"user_id":231,"name":"Teamfighting","steam_id":76561198160135508,"connected_time":1161000000000,"state":"active","ping":50},{"user_id":242,"name":"Lukewarm Lettuce","steam_id":76561198340884469,"connected_time":501000000000,"state":"active","ping":93},{"user_id":243,"name":"good morning","steam_id":76561198895690844,"connected_time":459000000000,"state":"active","ping":60},{"user_id":249,"name":"alex","steam_id":76561198053382248,"connected_time":266000000000,"state":"active","ping":49},{"user_id":246,"name":"dax.","steam_id":76561198321885643,"connected_time":388000000000,"state":"active","ping":160},{"user_id":230,"name":"Lobarté","steam_id":76561198090116136,"connected_time":1202000000000,"state":"active","ping":62},{"user_id":251,"name":"callum.jones2008","steam_id":76561198050053720,"connected_time":167000000000,"state":"active","ping":77},{"user_id":162,"name":"sweet mouse ☄","steam_id":76561198013779321,"connected_time":6538000000000,"state":"active","ping":57},{"user_id":205,"name":"Sentry Gun (EpicGuy4227)","steam_id":76561198094132328,"connected_time":4444000000000,"state":"active","ping":54},{"user_id":234,"name":"elcanggoro","steam_id":76561199139343632,"connected_time":940000000000,"state":"active","ping":150},{"user_id":227,"name":"Zieria","steam_id":76561199261811388,"connected_time":1883000000000,"state":"active","ping":31},{"user_id":204,"name":"LeoJoeD","steam_id":76561198161848749,"connected_time":4537000000000,"state":"active","ping":40},{"user_id":212,"name":"Sherpa","steam_id":76561198018913829,"connected_time":3759000000000,"state":"active","ping":53},{"user_id":240,"name":"yarbinator","steam_id":76561198204678828,"connected_time":764000000000,"state":"active","ping":58},{"user_id":241,"name":"† Reeve","steam_id":76561197969102326,"connected_time":763000000000,"state":"active","ping":63},{"user_id":236,"name":"Stab Calloway","steam_id":76561198027827983,"connected_time":920000000000,"state":"active","ping":52},{"user_id":237,"name":"Micromuffin","steam_id":76561198209370423,"connected_time":915000000000,"state":"active","ping":61},{"user_id":252,"name":"pakgane0819","steam_id":76561199495029226,"connected_time":23000000000,"state":"active","ping":283},{"user_id":228,"name":"night_cold20","steam_id":76561199084601380,"connected_time":1657000000000,"state":"active","ping":151},{"user_id":190,"name":"perturb (feed/seed)","steam_id":76561198085124297,"connected_time":5114000000000,"state":"active","ping":59},{"user_id":198,"name":"oldbie","steam_id":76561198053297711,"connected_time":4797000000000,"state":"active","ping":71},{"user_id":248,"name":"El Chupacabra","steam_id":76561198070641651,"connected_time":359000000000,"state":"active","ping":45}]},{"server_id":123,"name":"Uncletopia | Sydney | 2 | All Maps","name_short":"syd-2","host":"syd-1.au.uncletopia.com","port":27025,"enabled":true,"region":"au","cc":"au","latitude":-33.865143,"longitude":151.2099,"reserved":0,"last_update":"0001-01-01T00:00:00Z","name_a2s":"Uncletopia | Sydney | 2 | All Maps","protocol":17,"map":"koth_lakeside_final","folder":"tf","game":"Team Fortress","app_id":440,"player_count":0,"max_players":24,"Bots":0,"server_type":"Dedicated","server_os":"Linux","password":true,"vac":true,"version":"7961495","steam_id":85568392924470002,"keywords":["cp","nocrits","nodmgspread","uncletopia"],"game_id":440,"stv_port":27026,"stv_name":"Uncletopia | Sydney | 2 | All Maps | STV","players":null},{"server_id":395,"name":"Uncletopia | Sydney | 3 | All Maps","name_short":"syd-3","host":"syd-1.au.uncletopia.com","port":27035,"enabled":true,"region":"au","cc":"au","latitude":-33.865143,"longitude":151.2099,"reserved":0,"last_update":"0001-01-01T00:00:00Z","name_a2s":"Uncletopia | Sydney | 3 | All Maps","protocol":17,"map":"pl_frontier_final","folder":"tf","game":"Team Fortress","app_id":440,"player_count":0,"max_players":24,"Bots":0,"server_type":"Dedicated","server_os":"Linux","password":true,"vac":true,"version":"7961495","steam_id":85568392925194467,"keywords":["nocrits","nodmgspread","payload","uncletopia"],"game_id":440,"stv_port":27036,"stv_name":"Uncletopia | Sydney | 3 | All Maps | STV","players":null},{"server_id":396,"name":"Uncletopia | Sydney | 4 | All Maps","name_short":"syd-4","host":"syd-1.au.uncletopia.com","port":27045,"enabled":true,"region":"au","cc":"au","latitude":-33.865143,"longitude":151.2099,"reserved":0,"last_update":"0001-01-01T00:00:00Z","name_a2s":"Uncletopia | Sydney | 4 | All Maps","protocol":17,"map":"koth_cascade","folder":"tf","game":"Team Fortress","app_id":440,"player_count":0,"max_players":24,"Bots":0,"server_type":"Dedicated","server_os":"Linux","password":true,"vac":true,"version":"7961495","steam_id":85568392925397958,"keywords":["cp","nocrits","nodmgspread","uncletopia"],"game_id":440,"stv_port":27046,"stv_name":"Uncletopia | Sydney | 4 | All Maps | STV","players":null},{"server_id":58,"name":"Uncletopia | Sydney | 5 | Stopwatch","name_short":"syd-5","host":"syd-1.au.uncletopia.com","port":27055,"enabled":true,"region":"au","cc":"au","latitude":-33.865143,"longitude":151.2099,"reserved":0,"last_update":"0001-01-01T00:00:00Z","name_a2s":"Uncletopia | Sydney | 5 | Stopwatch","protocol":17,"map":"cp_sunshine","folder":"tf","game":"Team Fortress","app_id":440,"player_count":0,"max_players":24,"Bots":0,"server_type":"Dedicated","server_os":"Linux","password":true,"vac":true,"version":"7961495","steam_id":85568392925397959,"keywords":["cp","nocrits","nodmgspread","uncletopia"],"game_id":440,"stv_port":27056,"stv_name":"Uncletopia | Sydney | 5 | Stopwatch | STV","players":null},{"server_id":59,"name":"Uncletopia | Sydney | 6 | Community","name_short":"syd-6","host":"syd-1.au.uncletopia.com","port":27065,"enabled":true,"region":"au","cc":"au","latitude":-33.865143,"longitude":151.2099,"reserved":0,"last_update":"0001-01-01T00:00:00Z","name_a2s":"Uncletopia | Sydney | 6 | Community","protocol":17,"map":"cp_sunshine","folder":"tf","game":"Team Fortress","app_id":440,"player_count":0,"max_players":24,"Bots":0,"server_type":"Dedicated","server_os":"Linux","password":true,"vac":true,"version":"7961495","steam_id":85568392925397960,"keywords":["cp","nocrits","nodmgspread","uncletopia"],"game_id":440,"stv_port":27066,"stv_name":"Uncletopia | Sydney | 6 | Community | STV","players":null},{"server_id":49,"name":"Uncletopia | Warsaw | 1 | All Maps","name_short":"waw-1","host":"waw-1.pl.uncletopia.com","port":27015,"enabled":true,"region":"eu","cc":"pl","latitude":52.2297,"longitude":21.017532,"reserved":0,"last_update":"0001-01-01T00:00:00Z","name_a2s":"Uncletopia | Warsaw | 1 | All Maps","protocol":17,"map":"koth_lakeside_final","folder":"tf","game":"Team Fortress","app_id":440,"player_count":0,"max_players":24,"Bots":0,"server_type":"Dedicated","server_os":"Linux","password":true,"vac":true,"version":"7961495","steam_id":85568392925397850,"keywords":["cp","nocrits","nodmgspread","uncletopia"],"game_id":440,"stv_port":27016,"stv_name":"Uncletopia | Warsaw | 1 | All Maps | STV","players":null},{"server_id":50,"name":"Uncletopia | Warsaw | 2 | All Maps","name_short":"waw-2","host":"waw-1.pl.uncletopia.com","port":27025,"enabled":true,"region":"eu","cc":"pl","latitude":52.2297,"longitude":21.017532,"reserved":0,"last_update":"0001-01-01T00:00:00Z","name_a2s":"Uncletopia | Warsaw | 2 | All Maps","protocol":17,"map":"pl_borneo","folder":"tf","game":"Team Fortress","app_id":440,"player_count":0,"max_players":24,"Bots":0,"server_type":"Dedicated","server_os":"Linux","password":true,"vac":true,"version":"7961495","steam_id":85568392925397851,"keywords":["nocrits","nodmgspread","payload","uncletopia"],"game_id":440,"stv_port":27026,"stv_name":"Uncletopia | Warsaw | 2 | All Maps | STV","players":null},{"server_id":51,"name":"Uncletopia | Warsaw | 3 | All Maps","name_short":"waw-3","host":"waw-1.pl.uncletopia.com","port":27035,"enabled":true,"region":"eu","cc":"pl","latitude":52.2297,"longitude":21.017532,"reserved":0,"last_update":"0001-01-01T00:00:00Z","name_a2s":"Uncletopia | Warsaw | 3 | All Maps","protocol":17,"map":"pl_barnblitz","folder":"tf","game":"Team Fortress","app_id":440,"player_count":0,"max_players":24,"Bots":0,"server_type":"Dedicated","server_os":"Linux","password":true,"vac":true,"version":"7961495","steam_id":85568392925397852,"keywords":["nocrits","nodmgspread","payload","uncletopia"],"game_id":440,"stv_port":27036,"stv_name":"Uncletopia | Warsaw | 3 | All Maps | STV","players":null},{"server_id":52,"name":"Uncletopia | Warsaw | 4 | All Maps","name_short":"waw-4","host":"waw-1.pl.uncletopia.com","port":27045,"enabled":true,"region":"eu","cc":"pl","latitude":52.2297,"longitude":21.017532,"reserved":0,"last_update":"0001-01-01T00:00:00Z","name_a2s":"Uncletopia | Warsaw | 4 | All Maps","protocol":17,"map":"pl_borneo","folder":"tf","game":"Team Fortress","app_id":440,"player_count":0,"max_players":24,"Bots":0,"server_type":"Dedicated","server_os":"Linux","password":true,"vac":true,"version":"7961495","steam_id":85568392925397853,"keywords":["nocrits","nodmgspread","payload","uncletopia"],"game_id":440,"stv_port":27046,"stv_name":"Uncletopia | Warsaw | 4 | All Maps | STV","players":null},{"server_id":53,"name":"Uncletopia | Warsaw | 5 | Stopwatch","name_short":"waw-5","host":"waw-1.pl.uncletopia.com","port":27055,"enabled":true,"region":"eu","cc":"pl","latitude":52.2297,"longitude":21.017532,"reserved":0,"last_update":"0001-01-01T00:00:00Z","name_a2s":"Uncletopia | Warsaw | 5 | Stopwatch","protocol":17,"map":"pl_barnblitz","folder":"tf","game":"Team Fortress","app_id":440,"player_count":0,"max_players":24,"Bots":0,"server_type":"Dedicated","server_os":"Linux","password":true,"vac":true,"version":"7961495","steam_id":85568392925397854,"keywords":["nocrits","nodmgspread","payload","uncletopia"],"game_id":440,"stv_port":27056,"stv_name":"Uncletopia | Warsaw | 5 | Stopwatch | STV","players":null},{"server_id":54,"name":"Uncletopia | Warsaw | 6 | Community","name_short":"waw-6","host":"waw-1.pl.uncletopia.com","port":27065,"enabled":true,"region":"eu","cc":"pl","latitude":52.2297,"longitude":21.017532,"reserved":0,"last_update":"0001-01-01T00:00:00Z","name_a2s":"Uncletopia | Warsaw | 6 | Community","protocol":17,"map":"cp_altitude","folder":"tf","game":"Team Fortress","app_id":440,"player_count":0,"max_players":24,"Bots":0,"server_type":"Dedicated","server_os":"Linux","password":true,"vac":true,"version":"7961495","steam_id":85568392925397856,"keywords":["cp","nocrits","nodmgspread","uncletopia"],"game_id":440,"stv_port":27066,"stv_name":"Uncletopia | Warsaw | 6 | Community | STV","players":null}]}