{"status":true,"message":"","result":[{"server_id":9,"name":"Uncletopia | Atlanta | 1 | All Maps","name_short":"atl-1","host":"atl-1.us.uncletopia.com","port":27015,"enabled":true,"region":"us-east","cc":"us","latitude":33.753746,"longitude":-84.38633,"reserved":0,"last_update":"0001-01-01T00:00:00Z","name_a2s":"Uncletopia | Atlanta | 1 | All Maps","protocol":17,"map":"pl_pier","folder":"tf","game":"Team Fortress","app_id":440,"player_count":24,"max_players":24,"Bots":0,"server_type":"Dedicated","server_os":"Linux","password":true,"vac":true,"version":"7757534","steam_id":85568392924469982,"keywords":["nocrits","nodmgspread","payload","uncletopia"],"game_id":440,"stv_port":27016,"stv_name":"Uncletopia | Atlanta | 1 | All Maps | STV","players":[{"user_id":716,"name":"ATL1 | Kramer","steam_id":76561198083595936,"connected_time":1158000000000,"state":"active","ping":73},{"user_id":695,"name":"_clean","steam_id":76561199095580664,"connected_time":4268000000000,"state":"active","ping":120},{"user_id":689,"name":"xFactr","steam_id":76561198129007422,"connected_time":4875000000000,"state":"active","ping":60},{"user_id":729,"name":"cola","steam_id":76561198374390458,"connected_time":250000000000,"state":"active","ping":52},{"user_id":686,"name":"Q47","steam_id":76561198087128341,"connected_time":5417000000000,"state":"active","ping":117},{"user_id":659,"name":"eish","steam_id":76561198089463603,"connected_time":7141000000000,"state":"active","ping":120},{"user_id":730,"name":"SamFec","steam_id":76561198414538682,"connected_time":195000000000,"state":"active","ping":103},{"user_id":708,"name":"Hydroxianchaos","steam_id":76561198043786828,"connected_time":3210000000000,"state":"active","ping":67},{"user_id":687,"name":"basil","steam_id":76561198075758026,"connected_time":5376000000000,"state":"active","ping":74},{"user_id":712,"name":"bogginwater","steam_id":76561198155547142,"connected_time":2770000000000,"state":"active","ping":64},{"user_id":711,"name":"the doo doo man","steam_id":76561198057076267,"connected_time":2830000000000,"state":"active","ping":65},{"user_id":721,"name":"JimmyNeutron","steam_id":76561197993353322,"connected_time":1131000000000,"state":"active","ping":79},{"user_id":672,"name":"ash","steam_id":76561198127890645,"connected_time":6301000000000,"state":"active","ping":61},{"user_id":717,"name":"Shame","steam_id":76561198100490994,"connected_time":1157000000000,"state":"active","ping":65},{"user_id":727,"name":"drain.pablo.2005","steam_id":76561198303963691,"connected_time":841000000000,"state":"active","ping":60},{"user_id":731,"name":"the-willy12","steam_id":76561199145029672,"connected_time":167000000000,"state":"active","ping":95},{"user_id":724,"name":"lynt","steam_id":76561198988333976,"connected_time":1016000000000,"state":"active","ping":42},{"user_id":699,"name":"Dr. drips","steam_id":76561198209380493,"connected_time":3663000000000,"state":"active","ping":62},{"user_id":715,"name":"howtobepker","steam_id":76561198115053865,"connected_time":2277000000000,"state":"active","ping":117},{"user_id":681,"name":"PinkLemonade","steam_id":76561198799286228,"connected_time":5542000000000,"state":"active","ping":76},{"user_id":725,"name":"BackwardsEagle","steam_id":76561199013712612,"connected_time":972000000000,"state":"active","ping":74},{"user_id":718,"name":"nomad","steam_id":76561197998740399,"connected_time":1150000000000,"state":"active","ping":72},{"user_id":726,"name":"Person","steam_id":76561198093244204,"connected_time":888000000000,"state":"active","ping":80},{"user_id":697,"name":"Bottom Trans Cowgirl","steam_id":76561198304239680,"connected_time":3695000000000,"state":"active","ping":83}]},{"server_id":104,"name":"Uncletopia | Atlanta | 2 | All Maps","name_short":"atl-2","host":"atl-1.us.uncletopia.com","port":27025,"enabled":true,"region":"us-east","cc":"us","latitude":33.753746,"longitude":-84.38633,"reserved":0,"last_update":"0001-01-01T00:00:00Z","name_a2s":"Uncletopia | Atlanta | 2 | All Maps","protocol":17,"map":"pl_borneo","folder":"tf","game":"Team Fortress","app_id":440,"player_count":24,"max_players":24,"Bots":0,"server_type":"Dedicated","server_os":"Linux","password":true,"vac":true,"version":"7757534","steam_id":85568392924469983,"keywords":["nocrits","nodmgspread","payload","uncletopia"],"game_id":440,"stv_port":27026,"stv_name":"Uncletopia | Atlanta | 2 | All Maps | STV","players":[{"user_id":634,"name":"estrogen addict","steam_id":76561199185046348,"connected_time":291000000000,"state":"active","ping":97},{"user_id":623,"name":"Jeeper","steam_id":76561198155583692,"connected_time":1306000000000,"state":"active","ping":65},{"user_id":628,"name":"GOTTA MOVE THAT GEAR UP!","steam_id":76561198853635549,"connected_time":954000000000,"state":"active","ping":71},{"user_id":618,"name":"Eins","steam_id":76561199030343810,"connected_time":1350000000000,"state":"active","ping":42},{"user_id":631,"name":"MjrMovnTARGET","steam_id":76561199125908849,"connected_time":433000000000,"state":"active","ping":82},{"user_id":606,"name":"Shattered Glass","steam_id":76561198116835391,"connected_time":2673000000000,"state":"active","ping":86},{"user_id":579,"name":"Kraftlos","steam_id":76561198074350350,"connected_time":4869000000000,"state":"active","ping":82},{"user_id":625,"name":"LanceIsANewby","steam_id":76561198293711793,"connected_time":1284000000000,"state":"active","ping":52},{"user_id":638,"name":"StealthyLlama24","steam_id":76561198045551474,"connected_time":203000000000,"state":"active","ping":71},{"user_id":629,"name":"CrusaderTheFirst","steam_id":76561198025934196,"connected_time":639000000000,"state":"active","ping":95},{"user_id":575,"name":"Ros","steam_id":76561199055963822,"connected_time":4955000000000,"state":"active","ping":59},{"user_id":635,"name":"mari_","steam_id":76561198137855741,"connected_time":275000000000,"state":"active","ping":80},{"user_id":591,"name":"flappyflap2","steam_id":76561198285048973,"connected_time":3366000000000,"state":"active","ping":60},{"user_id":608,"name":"Korshal","steam_id":76561198819036121,"connected_time":2157000000000,"state":"active","ping":60},{"user_id":622,"name":"TechnoNeko22","steam_id":76561198335866466,"connected_time":1318000000000,"state":"active","ping":78},{"user_id":636,"name":"darkeagle157","steam_id":76561198287919502,"connected_time":273000000000,"state":"active","ping":75},{"user_id":637,"name":"[chef] iron","steam_id":76561197970888616,"connected_time":262000000000,"state":"active","ping":60},{"user_id":569,"name":"JoJo","steam_id":76561198063687796,"connected_time":5604000000000,"state":"active","ping":82},{"user_id":630,"name":"JerlBays","steam_id":76561198096773292,"connected_time":626000000000,"state":"active","ping":48},{"user_id":546,"name":"DJ Spit","steam_id":76561198186637025,"connected_time":7343000000000,"state":"active","ping":83},{"user_id":548,"name":"Darkdrake","steam_id":76561198107200600,"connected_time":7185000000000,"state":"active","ping":60},{"user_id":610,"name":"Crasson","steam_id":76561198034967708,"connected_time":2020000000000,"state":"active","ping":91},{"user_id":573,"name":"rumford sweep","steam_id":76561198991982630,"connected_time":5258000000000,"state":"active","ping":59},{"user_id":578,"name":"banana97286","steam_id":76561199367847817,"connected_time":4890000000000,"state":"active","ping":62}]},{"server_id":400,"name":"Uncletopia | Atlanta | 3 | Community","name_short":"atl-3","host":"atl-1.us.uncletopia.com","port":27035,"enabled":true,"region":"us-east","cc":"us","latitude":33.753746,"longitude":-84.38633,"reserved":0,"last_update":"0001-01-01T00:00:00Z","name_a2s":"Uncletopia | Atlanta | 3 | Community","protocol":17,"map":"workshop/koth_kemptown_rc1.ugc767410655","folder":"tf","game":"Team Fortress","app_id":440,"player_count":24,"max_players":24,"Bots":0,"server_type":"Dedicated","server_os":"Linux","password":true,"vac":true,"version":"7757534","steam_id":85568392924515187,"keywords":["cp","nocrits","nodmgspread","uncletopia"],"game_id":440,"stv_port":27036,"stv_name":"Uncletopia | Atlanta | 3 | Community | STV","players":[{"user_id":125,"name":"chronic hash","steam_id":76561198104679689,"connected_time":1896000000000,"state":"active","ping":132},{"user_id":141,"name":"Bludgeon","steam_id":76561198272009412,"connected_time":659000000000,"state":"active","ping":114},{"user_id":139,"name":"Bony","steam_id":76561199001748822,"connected_time":966000000000,"state":"active","ping":115},{"user_id":98,"name":"jaqalope","steam_id":76561198152144009,"connected_time":3884000000000,"state":"active","ping":97},{"user_id":148,"name":"IPlayGamez","steam_id":76561198041387508,"connected_time":537000000000,"state":"active","ping":57},{"user_id":61,"name":"UNIT 220","steam_id":76561198042243497,"connected_time":5975000000000,"state":"active","ping":66},{"user_id":131,"name":"Aü","steam_id":76561199031241776,"connected_time":1548000000000,"state":"active","ping":65},{"user_id":143,"name":"Sanic_Bum","steam_id":76561198094179822,"connected_time":626000000000,"state":"active","ping":47},{"user_id":150,"name":"PJL725","steam_id":76561198241220274,"connected_time":438000000000,"state":"active","ping":78},{"user_id":151,"name":"Grimm","steam_id":76561198193940050,"connected_time":328000000000,"state":"active","ping":92},{"user_id":137,"name":"Van","steam_id":76561198073518712,"connected_time":1086000000000,"state":"active","ping":65},{"user_id":95,"name":"deadpixel","steam_id":76561198150249843,"connected_time":4239000000000,"state":"active","ping":78},{"user_id":99,"name":"mel","steam_id":76561198097124190,"connected_time":3882000000000,"state":"active","ping":77},{"user_id":126,"name":"MericanDragonX","steam_id":76561198797836691,"connected_time":1890000000000,"state":"active","ping":70},{"user_id":149,"name":"Freddyco","steam_id":76561198982900732,"connected_time":518000000000,"state":"active","ping":80},{"user_id":97,"name":"phil on boots","steam_id":76561198069668107,"connected_time":3893000000000,"state":"active","ping":132},{"user_id":103,"name":"melon soda","steam_id":76561198066748230,"connected_time":3686000000000,"state":"active","ping":69},{"user_id":140,"name":"Dr. Pleasant","steam_id":76561198111945101,"connected_time":896000000000,"state":"active","ping":95},{"user_id":153,"name":"Antknee","steam_id":76561198263793809,"connected_time":41000000000,"state":"active","ping":77},{"user_id":112,"name":"♤ Spadek ♤","steam_id":76561198102147842,"connected_time":2989000000000,"state":"active","ping":62},{"user_id":147,"name":"Drusalem","steam_id":76561199078547218,"connected_time":575000000000,"state":"active","ping":98},{"user_id":89,"name":"B","steam_id":76561199174945581,"connected_time":4506000000000,"state":"active","ping":70},{"user_id":92,"name":"jester","steam_id":76561198065970212,"connected_time":4409000000000,"state":"active","ping":63},{"user_id":94,"name":"Phil Collins","steam_id":76561198068868644,"connected_time":4322000000000,"state":"active","ping":97}]},{"server_id":401,"name":"Uncletopia | Atlanta | 4 | No Payload","name_short":"atl-4","host":"atl-1.us.uncletopia.com","port":27045,"enabled":true,"region":"us-east","cc":"us","latitude":33.753746,"longitude":-84.38633,"reserved":0,"last_update":"0001-01-01T00:00:00Z","name_a2s":"","protocol":0,"map":"","folder":"","game":"","app_id":0,"player_count":0,"max_players":0,"Bots":0,"server_type":"","server_os":"","password":false,"vac":false,"version":"","steam_id":0,"keywords":null,"game_id":0,"stv_port":0,"stv_name":"","players":null},{"server_id":2,"name":"Uncletopia | Chicago | 1 | All Maps","name_short":"chi-1","host":"chi-1.us.uncletopia.com","port":27015,"enabled":true,"region":"us-central","cc":"us","latitude":41.881832,"longitude":-87.62318,"reserved":0,"last_update":"0001-01-01T00:00:00Z","name_a2s":"Uncletopia | Chicago | 1 | All Maps","protocol":17,"map":"pl_upward","folder":"tf","game":"Team Fortress","app_id":440,"player_count":24,"max_players":24,"Bots":0,"server_type":"Dedicated","server_os":"Linux","password":true,"vac":true,"version":"7757534","steam_id":85568392924469984,"keywords":["nocrits","nodmgspread","payload","uncletopia"],"game_id":440,"stv_port":27016,"stv_name":"Uncletopia | Chicago | 1 | All Maps | STV","players":[{"user_id":743,"name":"Snom","steam_id":76561198333827920,"connected_time":870000000000,"state":"active","ping":202},{"user_id":670,"name":"vv","steam_id":76561198134813102,"connected_time":7538000000000,"state":"active","ping":48},{"user_id":686,"name":"kite","steam_id":76561198346516392,"connected_time":5284000000000,"state":"active","ping":71},{"user_id":751,"name":"Fancy Bed","steam_id":76561198007172366,"connected_time":411000000000,"state":"active","ping":63},{"user_id":727,"name":"Russians With Satisfaction","steam_id":76561197993814144,"connected_time":2407000000000,"state":"active","ping":54},{"user_id":731,"name":"CORGI.EXE","steam_id":76561198077093432,"connected_time":1662000000000,"state":"active","ping":65},{"user_id":742,"name":"Red","steam_id":76561198001939529,"connected_time":1017000000000,"state":"active","ping":106},{"user_id":701,"name":"Scab Collector","steam_id":76561198346425545,"connected_time":4464000000000,"state":"active","ping":57},{"user_id":729,"name":"[UHS] K24A4 2.4","steam_id":76561199072970627,"connected_time":2259000000000,"state":"active","ping":53},{"user_id":733,"name":"hazel","steam_id":76561198173271218,"connected_time":1317000000000,"state":"active","ping":76},{"user_id":744,"name":"so low my halo","steam_id":76561198034141393,"connected_time":816000000000,"state":"active","ping":65},{"user_id":636,"name":"Trogdor","steam_id":76561198121353181,"connected_time":9815000000000,"state":"active","ping":101},{"user_id":740,"name":"Your Local Queer Librarian","steam_id":76561198013077080,"connected_time":1119000000000,"state":"active","ping":60},{"user_id":745,"name":"Furry Saul Goodman","steam_id":76561198069580305,"connected_time":490000000000,"state":"active","ping":45},{"user_id":746,"name":"Rashi","steam_id":76561198390962022,"connected_time":485000000000,"state":"active","ping":86},{"user_id":722,"name":"Konyuna","steam_id":76561198067951988,"connected_time":2717000000000,"state":"active","ping":70},{"user_id":747,"name":"tA.CHRONIC","steam_id":76561197960760990,"connected_time":484000000000,"state":"active","ping":51},{"user_id":723,"name":"Whatrus","steam_id":76561198340908301,"connected_time":2633000000000,"state":"active","ping":127},{"user_id":713,"name":"Ras","steam_id":76561198123546775,"connected_time":3561000000000,"state":"active","ping":64},{"user_id":685,"name":"AOTFB | Eminem Fortnite","steam_id":76561198064631314,"connected_time":5305000000000,"state":"active","ping":69},{"user_id":738,"name":"NUt","steam_id":76561198031007966,"connected_time":1287000000000,"state":"active","ping":73},{"user_id":749,"name":"regular_consuelo","steam_id":76561198327831852,"connected_time":449000000000,"state":"active","ping":72},{"user_id":709,"name":"-π- BakaD","steam_id":76561197960559169,"connected_time":4211000000000,"state":"active","ping":59},{"user_id":750,"name":"Romo","steam_id":76561198243101572,"connected_time":449000000000,"state":"active","ping":85}]},{"server_id":106,"name":"Uncletopia | Chicago | 2 | All Maps","name_short":"chi-2","host":"chi-1.us.uncletopia.com","port":27025,"enabled":true,"region":"us-central","cc":"us","latitude":41.881832,"longitude":-87.62318,"reserved":0,"last_update":"0001-01-01T00:00:00Z","name_a2s":"Uncletopia | Chicago | 2 | All Maps","protocol":17,"map":"pl_pier","folder":"tf","game":"Team Fortress","app_id":440,"player_count":24,"max_players":24,"Bots":0,"server_type":"Dedicated","server_os":"Linux","password":true,"vac":true,"version":"7757534","steam_id":85568392924469985,"keywords":["nocrits","nodmgspread","payload","uncletopia"],"game_id":440,"stv_port":27026,"stv_name":"Uncletopia | Chicago | 2 | All Maps | STV","players":[{"user_id":631,"name":"TerrariaQuester","steam_id":76561198247590810,"connected_time":1245000000000,"state":"active","ping":85},{"user_id":638,"name":"dbelow_","steam_id":76561198056148853,"connected_time":603000000000,"state":"active","ping":60},{"user_id":648,"name":"touka","steam_id":76561198171521806,"connected_time":87000000000,"state":"active","ping":117},{"user_id":599,"name":"Scrumpy Main","steam_id":76561198146302597,"connected_time":3074000000000,"state":"active","ping":49},{"user_id":624,"name":"gps","steam_id":76561198067492304,"connected_time":1603000000000,"state":"active","ping":80},{"user_id":645,"name":"❤♡･ﾟBubbles･ﾟ♡❤","steam_id":76561198041057042,"connected_time":367000000000,"state":"active","ping":70},{"user_id":639,"name":"Galactic Grass","steam_id":76561198097983927,"connected_time":602000000000,"state":"active","ping":93},{"user_id":606,"name":"Carmine Lupertazzi Jr.","steam_id":76561198059535856,"connected_time":2581000000000,"state":"active","ping":78},{"user_id":611,"name":"Ｂａｎａｎａ Ｋｕｓｈ","steam_id":76561198144939374,"connected_time":2548000000000,"state":"active","ping":90},{"user_id":607,"name":"Fuzzy Toast","steam_id":76561198028067781,"connected_time":2581000000000,"state":"active","ping":45},{"user_id":647,"name":"Admiral","steam_id":76561198189176634,"connected_time":127000000000,"state":"active","ping":84},{"user_id":608,"name":"Raptortastic","steam_id":76561198105613110,"connected_time":2577000000000,"state":"active","ping":59},{"user_id":617,"name":"Oli B\u003eQS/BP/Bulk w/ 500+ keys","steam_id":76561198140316312,"connected_time":2093000000000,"state":"active","ping":46},{"user_id":644,"name":"bash -lc ./asshat.sh","steam_id":76561198004584315,"connected_time":559000000000,"state":"active","ping":71},{"user_id":620,"name":"Restricted_Files","steam_id":76561199448121007,"connected_time":1823000000000,"state":"active","ping":184},{"user_id":646,"name":"deepmeta","steam_id":76561199053600691,"connected_time":134000000000,"state":"active","ping":65},{"user_id":593,"name":"Skullypoo","steam_id":76561198067912022,"connected_time":3752000000000,"state":"active","ping":66},{"user_id":627,"name":"LegendaryMister151","steam_id":76561198064890524,"connected_time":1531000000000,"state":"active","ping":90},{"user_id":629,"name":"Viennetta","steam_id":76561198044088335,"connected_time":1447000000000,"state":"active","ping":75},{"user_id":641,"name":"Macro","steam_id":76561199442846226,"connected_time":596000000000,"state":"active","ping":91},{"user_id":637,"name":"street hock","steam_id":76561198070923665,"connected_time":793000000000,"state":"active","ping":76},{"user_id":594,"name":"Disciplinary Clarkson","steam_id":76561198042748864,"connected_time":3738000000000,"state":"active","ping":80},{"user_id":602,"name":"Cat in Your Backyard","steam_id":76561197979078330,"connected_time":2930000000000,"state":"active","ping":68},{"user_id":625,"name":"Friend Of Blåhaj","steam_id":76561199369408401,"connected_time":1564000000000,"state":"active","ping":85}]},{"server_id":402,"name":"Uncletopia | Chicago | 3 | All Maps","name_short":"chi-3","host":"chi-1.us.uncletopia.com","port":27035,"enabled":true,"region":"us-central","cc":"us","latitude":41.881832,"longitude":-87.62318,"reserved":0,"last_update":"0001-01-01T00:00:00Z","name_a2s":"Uncletopia | Chicago | 3 | All Maps","protocol":17,"map":"pl_badwater","folder":"tf","game":"Team Fortress","app_id":440,"player_count":24,"max_players":24,"Bots":0,"server_type":"Dedicated","server_os":"Linux","password":true,"vac":true,"version":"7757534","steam_id":85568392924515191,"keywords":["nocrits","nodmgspread","payload","uncletopia"],"game_id":440,"stv_port":27036,"stv_name":"Uncletopia | Chicago | 3 | All Maps | STV","players":[{"user_id":364,"name":"Portal2Player","steam_id":76561198062870114,"connected_time":180000000000,"state":"active","ping":80},{"user_id":248,"name":"rkp!","steam_id":76561199053070819,"connected_time":7888000000000,"state":"active","ping":55},{"user_id":361,"name":"Mupu Mupu","steam_id":76561198808795775,"connected_time":205000000000,"state":"active","ping":96},{"user_id":323,"name":"Radon","steam_id":76561198294035077,"connected_time":3394000000000,"state":"active","ping":62},{"user_id":359,"name":"BIG HOG","steam_id":76561198079923652,"connected_time":242000000000,"state":"active","ping":75},{"user_id":357,"name":"-|FG|- Hamilkar Barca","steam_id":76561198091666474,"connected_time":274000000000,"state":"active","ping":62},{"user_id":347,"name":"mr LEMON!","steam_id":76561198032566820,"connected_time":1515000000000,"state":"active","ping":50},{"user_id":326,"name":"XeroDollars","steam_id":76561198137858047,"connected_time":3176000000000,"state":"active","ping":63},{"user_id":356,"name":"bojack from the show bojack hor","steam_id":76561198053006712,"connected_time":545000000000,"state":"active","ping":59},{"user_id":321,"name":"Cave Dweller","steam_id":76561198374825685,"connected_time":3534000000000,"state":"active","ping":120},{"user_id":360,"name":"You Know What You Did","steam_id":76561198218558897,"connected_time":239000000000,"state":"active","ping":111},{"user_id":348,"name":"Just a storm dick, sit down","steam_id":76561198404528521,"connected_time":1512000000000,"state":"active","ping":88},{"user_id":349,"name":"Jon_595","steam_id":76561198846843547,"connected_time":1500000000000,"state":"active","ping":82},{"user_id":345,"name":"Orangecrust26","steam_id":76561199232443221,"connected_time":1550000000000,"state":"active","ping":86},{"user_id":358,"name":"I Lead MLB In \"Bats Eaten\"","steam_id":76561198034079853,"connected_time":248000000000,"state":"active","ping":71},{"user_id":363,"name":"murder is OK","steam_id":76561199041466962,"connected_time":196000000000,"state":"active","ping":104},{"user_id":350,"name":"poiuytrewqwqwqwqwqwqwqwqwqwqwqw","steam_id":76561199105253001,"connected_time":1499000000000,"state":"active","ping":70},{"user_id":322,"name":"Not What He Wanted to Cook","steam_id":76561198057374871,"connected_time":3501000000000,"state":"active","ping":63},{"user_id":337,"name":"Combez","steam_id":76561198215028184,"connected_time":3130000000000,"state":"active","ping":75},{"user_id":294,"name":"TheSecretNewbie","steam_id":76561198194671218,"connected_time":5347000000000,"state":"active","ping":58},{"user_id":302,"name":"Clean Lines","steam_id":76561197960691518,"connected_time":4938000000000,"state":"active","ping":51},{"user_id":324,"name":"Juan Pablo Gonzalez 2023","steam_id":76561199197961413,"connected_time":3322000000000,"state":"active","ping":59},{"user_id":338,"name":"Goose of Wisdom","steam_id":76561198233465044,"connected_time":3124000000000,"state":"active","ping":89},{"user_id":365,"name":"WheelockWarlock","steam_id":76561198171456553,"connected_time":163000000000,"state":"active","ping":97}]},{"server_id":403,"name":"Uncletopia | Chicago | 4 | All Maps","name_short":"chi-4","host":"chi-1.us.uncletopia.com","port":27045,"enabled":true,"region":"us-central","cc":"us","latitude":41.881832,"longitude":-87.62318,"reserved":0,"last_update":"0001-01-01T00:00:00Z","name_a2s":"Uncletopia | Chicago | 4 | All Maps","protocol":17,"map":"pl_thundermountain","folder":"tf","game":"Team Fortress","app_id":440,"player_count":24,"max_players":24,"Bots":0,"server_type":"Dedicated","server_os":"Linux","password":true,"vac":true,"version":"7757534","steam_id":85568392924515193,"keywords":["nocrits","nodmgspread","payload","uncletopia"],"game_id":440,"stv_port":27046,"stv_name":"Uncletopia | Chicago | 4 | All Maps | STV","players":[{"user_id":359,"name":"Xurany","steam_id":76561199005012427,"connected_time":489000000000,"state":"active","ping":76},{"user_id":357,"name":"The local hobo","steam_id":76561198289650060,"connected_time":601000000000,"state":"active","ping":89},{"user_id":363,"name":"JefferyDahmer17","steam_id":76561198121581363,"connected_time":175000000000,"state":"active","ping":58},{"user_id":310,"name":"MilkMuncher","steam_id":76561198103055485,"connected_time":4042000000000,"state":"active","ping":56},{"user_id":358,"name":"money getter","steam_id":76561199065645094,"connected_time":594000000000,"state":"active","ping":81},{"user_id":342,"name":"annastasisxxxxxxxxxxxxxxxxxxxxx","steam_id":76561197994492154,"connected_time":1704000000000,"state":"active","ping":170},{"user_id":332,"name":"Not_Luke_Once_More","steam_id":76561198180891187,"connected_time":2291000000000,"state":"active","ping":71},{"user_id":362,"name":"Flyfriend28","steam_id":76561198131983415,"connected_time":267000000000,"state":"active","ping":62},{"user_id":313,"name":"gαвє ησëℓ","steam_id":76561198067342352,"connected_time":4017000000000,"state":"active","ping":149},{"user_id":302,"name":"StraySheep","steam_id":76561198256003811,"connected_time":4470000000000,"state":"active","ping":62},{"user_id":346,"name":"Thequirka","steam_id":76561198968058652,"connected_time":1679000000000,"state":"active","ping":99},{"user_id":344,"name":"Satan-2","steam_id":76561199231742764,"connected_time":1690000000000,"state":"active","ping":72},{"user_id":345,"name":"Samplee","steam_id":76561198063406140,"connected_time":1689000000000,"state":"active","ping":150},{"user_id":314,"name":"GayRichThug17","steam_id":76561198880396651,"connected_time":4012000000000,"state":"active","ping":84},{"user_id":339,"name":"a e i o u","steam_id":76561198822328368,"connected_time":1737000000000,"state":"active","ping":130},{"user_id":355,"name":"Sturt","steam_id":76561198418100672,"connected_time":624000000000,"state":"active","ping":57},{"user_id":352,"name":"Kriss","steam_id":76561198855556991,"connected_time":1025000000000,"state":"active","ping":106},{"user_id":354,"name":"Biggest Bird","steam_id":76561198378503656,"connected_time":948000000000,"state":"active","ping":45},{"user_id":338,"name":"Subderhenge","steam_id":76561198090955892,"connected_time":2006000000000,"state":"active","ping":96},{"user_id":353,"name":"Nodin","steam_id":76561198135757376,"connected_time":965000000000,"state":"active","ping":50},{"user_id":360,"name":"CEOlifestyle","steam_id":76561198025747866,"connected_time":480000000000,"state":"active","ping":89},{"user_id":323,"name":"Tanner Jarring","steam_id":76561198172024365,"connected_time":3840000000000,"state":"active","ping":60},{"user_id":324,"name":"Aegis XIII","steam_id":76561198295006002,"connected_time":3820000000000,"state":"active","ping":56},{"user_id":361,"name":"Error 4 Oh Four","steam_id":76561198121637567,"connected_time":478000000000,"state":"active","ping":83}]},{"server_id":36,"name":"Uncletopia | Chicago | 5 | All Maps","name_short":"chi-5","host":"chi-2.us.uncletopia.com","port":27015,"enabled":true,"region":"us-central","cc":"us","latitude":41.881832,"longitude":-87.62318,"reserved":0,"last_update":"0001-01-01T00:00:00Z","name_a2s":"Uncletopia | Chicago | 5 | All Maps","protocol":17,"map":"pl_badwater","folder":"tf","game":"Team Fortress","app_id":440,"player_count":21,"max_players":24,"Bots":0,"server_type":"Dedicated","server_os":"Linux","password":true,"vac":true,"version":"7757534","steam_id":85568392924866362,"keywords":["nocrits","nodmgspread","payload","uncletopia"],"game_id":440,"stv_port":27016,"stv_name":"Uncletopia | Chicago | 5 | All Maps | STV","players":[{"user_id":623,"name":"Rudy","steam_id":76561198013456828,"connected_time":447000000000,"state":"spawning","ping":66},{"user_id":609,"name":"Tforcer3519","steam_id":76561198383268065,"connected_time":1135000000000,"state":"spawning","ping":47},{"user_id":626,"name":"RURU","steam_id":76561198039758987,"connected_time":9000000000,"state":"spawning","ping":126},{"user_id":610,"name":"jimbo","steam_id":76561198046059770,"connected_time":1117000000000,"state":"spawning","ping":76},{"user_id":621,"name":"Dog Deodorant","steam_id":76561199225832228,"connected_time":819000000000,"state":"spawning","ping":96},{"user_id":622,"name":"MedRed™ #IATAH","steam_id":76561198002962970,"connected_time":502000000000,"state":"spawning","ping":107},{"user_id":586,"name":"Shylo","steam_id":76561199276858045,"connected_time":4787000000000,"state":"spawning","ping":62},{"user_id":625,"name":"Swshbcklr","steam_id":76561197969421355,"connected_time":259000000000,"state":"spawning","ping":66},{"user_id":607,"name":"Your neighborhood Hobo","steam_id":76561198431446386,"connected_time":1222000000000,"state":"spawning","ping":48},{"user_id":617,"name":"Ze_Über_Nerd","steam_id":76561198091148675,"connected_time":929000000000,"state":"spawning","ping":64},{"user_id":589,"name":"Gibby","steam_id":76561199336569123,"connected_time":4689000000000,"state":"spawning","ping":142},{"user_id":613,"name":"psy","steam_id":76561198013195018,"connected_time":1112000000000,"state":"spawning","ping":74},{"user_id":624,"name":"Belloq","steam_id":76561198060279052,"connected_time":306000000000,"state":"spawning","ping":48},{"user_id":618,"name":"hej","steam_id":76561197996366940,"connected_time":907000000000,"state":"spawning","ping":63},{"user_id":615,"name":"PyroToaster","steam_id":76561198053057346,"connected_time":1062000000000,"state":"spawning","ping":79},{"user_id":616,"name":"caption cool","steam_id":76561197990612056,"connected_time":972000000000,"state":"spawning","ping":49},{"user_id":576,"name":"Sabag3D","steam_id":76561198094402240,"connected_time":5654000000000,"state":"spawning","ping":100},{"user_id":567,"name":"SIGMA [BS]","steam_id":76561197962604879,"connected_time":6445000000000,"state":"spawning","ping":67},{"user_id":595,"name":"HeisenBurger","steam_id":76561198040632080,"connected_time":3937000000000,"state":"spawning","ping":52},{"user_id":538,"name":"Ramadan Steve","steam_id":76561198138568488,"connected_time":7785000000000,"state":"spawning","ping":77},{"user_id":590,"name":"Kaboob","steam_id":76561199121870665,"connected_time":4679000000000,"state":"spawning","ping":113}]},{"server_id":37,"name":"Uncletopia | Chicago | 6 | All Maps","name_short":"chi-6","host":"chi-2.us.uncletopia.com","port":27025,"enabled":true,"region":"us-central","cc":"us","latitude":41.881832,"longitude":-87.62318,"reserved":0,"last_update":"0001-01-01T00:00:00Z","name_a2s":"Uncletopia | Chicago | 6 | All Maps","protocol":17,"map":"pl_barnblitz","folder":"tf","game":"Team Fortress","app_id":440,"player_count":24,"max_players":24,"Bots":0,"server_type":"Dedicated","server_os":"Linux","password":true,"vac":true,"version":"7757534","steam_id":85568392924866363,"keywords":["nocrits","nodmgspread","payload","uncletopia"],"game_id":440,"stv_port":27026,"stv_name":"Uncletopia | Chicago | 6 | All Maps | STV","players":[{"user_id":126,"name":"A/funny/dream","steam_id":76561198354481597,"connected_time":2677000000000,"state":"active","ping":89},{"user_id":146,"name":"Bx2az","steam_id":76561198832477468,"connected_time":689000000000,"state":"active","ping":98},{"user_id":104,"name":"Shuu","steam_id":76561199199180558,"connected_time":4610000000000,"state":"active","ping":73},{"user_id":147,"name":"Quark","steam_id":76561198328155605,"connected_time":273000000000,"state":"active","ping":54},{"user_id":127,"name":"Mr_Frosty","steam_id":76561199380389079,"connected_time":2675000000000,"state":"active","ping":121},{"user_id":142,"name":"Snow","steam_id":76561198151556270,"connected_time":1315000000000,"state":"active","ping":91},{"user_id":108,"name":"InchMan","steam_id":76561198272658825,"connected_time":4155000000000,"state":"active","ping":84},{"user_id":140,"name":"Vani","steam_id":76561198089874662,"connected_time":1407000000000,"state":"active","ping":111},{"user_id":133,"name":"Love Being an Owl","steam_id":76561198293422282,"connected_time":1903000000000,"state":"active","ping":86},{"user_id":109,"name":"kaibow","steam_id":76561199245270298,"connected_time":4141000000000,"state":"active","ping":79},{"user_id":122,"name":"Mr. Rogers","steam_id":76561198296190438,"connected_time":2996000000000,"state":"active","ping":51},{"user_id":136,"name":"WokToYou","steam_id":76561198049693624,"connected_time":1683000000000,"state":"active","ping":59},{"user_id":22,"name":"Zin","steam_id":76561199041369507,"connected_time":9235000000000,"state":"active","ping":96},{"user_id":105,"name":"I am a mooshroom","steam_id":76561198104198295,"connected_time":4520000000000,"state":"active","ping":82},{"user_id":137,"name":"Kafururu","steam_id":76561198031864565,"connected_time":1675000000000,"state":"active","ping":65},{"user_id":110,"name":"Periculosum PhD in Funny","steam_id":76561198123370914,"connected_time":4086000000000,"state":"active","ping":75},{"user_id":95,"name":"picnic blanket","steam_id":76561198308186037,"connected_time":5100000000000,"state":"active","ping":64},{"user_id":135,"name":"Doc Romie","steam_id":76561198953778878,"connected_time":1843000000000,"state":"active","ping":55},{"user_id":141,"name":"Honda Element","steam_id":76561198086907573,"connected_time":1372000000000,"state":"active","ping":75},{"user_id":131,"name":"Peter Popoff","steam_id":76561198027171160,"connected_time":2122000000000,"state":"active","ping":48},{"user_id":101,"name":"EJ 2 u","steam_id":76561198242738174,"connected_time":4713000000000,"state":"active","ping":49},{"user_id":121,"name":"Ace Chromatica","steam_id":76561198042211131,"connected_time":3110000000000,"state":"active","ping":56},{"user_id":111,"name":"Meenctory","steam_id":76561198268374166,"connected_time":4075000000000,"state":"active","ping":191},{"user_id":145,"name":".9 lg","steam_id":76561198092238353,"connected_time":992000000000,"state":"active","ping":72}]},{"server_id":38,"name":"Uncletopia | Chicago | 7 | Stopwatch Beta","name_short":"chi-7","host":"chi-2.us.uncletopia.com","port":27035,"enabled":true,"region":"us-central","cc":"us","latitude":41.881832,"longitude":-87.62318,"reserved":0,"last_update":"0001-01-01T00:00:00Z","name_a2s":"Uncletopia | Chicago | 7 | Stopwatch Beta","protocol":17,"map":"workshop/koth_clearcut_b15.ugc2107050255","folder":"tf","game":"Team Fortress","app_id":440,"player_count":0,"max_players":24,"Bots":0,"server_type":"Dedicated","server_os":"Linux","password":true,"vac":true,"version":"7757534","steam_id":85568392924866364,"keywords":["cp","nocrits","nodmgspread","uncletopia"],"game_id":440,"stv_port":27036,"stv_name":"Uncletopia | Chicago | 7 | Stopwatch Beta | STV","players":null},{"server_id":39,"name":"Uncletopia | Chicago | 8 | Community","name_short":"chi-8","host":"chi-2.us.uncletopia.com","port":27045,"enabled":true,"region":"us-central","cc":"us","latitude":41.881832,"longitude":-87.62318,"reserved":0,"last_update":"0001-01-01T00:00:00Z","name_a2s":"Uncletopia | Chicago | 8 | Community","protocol":17,"map":"koth_cascade","folder":"tf","game":"Team Fortress","app_id":440,"player_count":0,"max_players":24,"Bots":0,"server_type":"Dedicated","server_os":"Linux","password":true,"vac":true,"version":"7757534","steam_id":85568392924866365,"keywords":["cp","nocrits","nodmgspread","uncletopia"],"game_id":440,"stv_port":27046,"stv_name":"Uncletopia | Chicago | 8 | Community | STV","players":null},{"server_id":8,"name":"Uncletopia | Dallas | 1 | All Maps","name_short":"dal-1","host":"dal-1.us.uncletopia.com","port":27015,"enabled":true,"region":"us-central","cc":"us","latitude":32.779167,"longitude":-96.80889,"reserved":0,"last_update":"0001-01-01T00:00:00Z","name_a2s":"Uncletopia | Dallas | 1 | All Maps","protocol":17,"map":"pl_badwater","folder":"tf","game":"Team Fortress","app_id":440,"player_count":24,"max_players":24,"Bots":0,"server_type":"Dedicated","server_os":"Linux","password":true,"vac":true,"version":"7757534","steam_id":85568392924469986,"keywords":["nocrits","nodmgspread","payload","uncletopia"],"game_id":440,"stv_port":27016,"stv_name":"Uncletopia | Dallas | 1 | All Maps | STV","players":[{"user_id":486,"name":"Megaxonic","steam_id":76561198996548641,"connected_time":541000000000,"state":"active","ping":44},{"user_id":447,"name":"mkl","steam_id":76561197986401685,"connected_time":4550000000000,"state":"active","ping":59},{"user_id":470,"name":"Normalux","steam_id":76561198293891426,"connected_time":3150000000000,"state":"active","ping":111},{"user_id":484,"name":"Lube","steam_id":76561199110893188,"connected_time":544000000000,"state":"active","ping":88},{"user_id":454,"name":"Chimpish","steam_id":76561199263493270,"connected_time":3901000000000,"state":"active","ping":91},{"user_id":453,"name":"barker bill","steam_id":76561198018451994,"connected_time":3930000000000,"state":"active","ping":54},{"user_id":413,"name":"DargaribdusPersonOfLordlyCalibe","steam_id":76561198020876416,"connected_time":6822000000000,"state":"active","ping":58},{"user_id":487,"name":"Herobrineclone7","steam_id":76561199193733613,"connected_time":503000000000,"state":"active","ping":105},{"user_id":476,"name":"Psych03","steam_id":76561198061753667,"connected_time":1948000000000,"state":"active","ping":75},{"user_id":483,"name":"Ballista","steam_id":76561197983182562,"connected_time":618000000000,"state":"active","ping":49},{"user_id":388,"name":"Goblin Merchant (50 OFF)","steam_id":76561199323707429,"connected_time":8603000000000,"state":"active","ping":88},{"user_id":468,"name":"Fishstall","steam_id":76561198038126034,"connected_time":3308000000000,"state":"active","ping":68},{"user_id":478,"name":"Malevo","steam_id":76561198148606522,"connected_time":1904000000000,"state":"active","ping":57},{"user_id":481,"name":"im trying my best","steam_id":76561198919095185,"connected_time":938000000000,"state":"active","ping":96},{"user_id":466,"name":"luckifan774","steam_id":76561198378537143,"connected_time":3431000000000,"state":"active","ping":96},{"user_id":480,"name":"Mischief of Rats","steam_id":76561198106307068,"connected_time":1203000000000,"state":"active","ping":81},{"user_id":485,"name":"Concolor","steam_id":76561198027734150,"connected_time":543000000000,"state":"active","ping":92},{"user_id":482,"name":"HavocGDI","steam_id":76561199388371914,"connected_time":803000000000,"state":"active","ping":127},{"user_id":441,"name":"tonyforshyr","steam_id":76561198846474978,"connected_time":4945000000000,"state":"active","ping":70},{"user_id":488,"name":"CaptainK","steam_id":76561198018979695,"connected_time":502000000000,"state":"active","ping":86},{"user_id":439,"name":"bolainassr0","steam_id":76561199079078845,"connected_time":5132000000000,"state":"active","ping":103},{"user_id":461,"name":"DocLucky","steam_id":76561199093899249,"connected_time":3632000000000,"state":"active","ping":162},{"user_id":462,"name":"Ironaka","steam_id":76561198029993183,"connected_time":3628000000000,"state":"active","ping":95},{"user_id":477,"name":"私は不正行為をしてい","steam_id":76561199465653959,"connected_time":1948000000000,"state":"active","ping":140}]},{"server_id":108,"name":"Uncletopia | Dallas | 2 | All Maps","name_short":"dal-2","host":"dal-1.us.uncletopia.com","port":27025,"enabled":true,"region":"us-central","cc":"us","latitude":32.779167,"longitude":-96.80889,"reserved":0,"last_update":"0001-01-01T00:00:00Z","name_a2s":"Uncletopia | Dallas | 2 | All Maps","protocol":17,"map":"cp_process_final","folder":"tf","game":"Team Fortress","app_id":440,"player_count":24,"max_players":24,"Bots":0,"server_type":"Dedicated","server_os":"Linux","password":true,"vac":true,"version":"7757534","steam_id":85568392924469988,"keywords":["cp","nocrits","nodmgspread","uncletopia"],"game_id":440,"stv_port":27026,"stv_name":"Uncletopia | Dallas | 2 | All Maps | STV","players":[{"user_id":440,"name":"CreativeCoffeeCake","steam_id":76561198323542875,"connected_time":3650000000000,"state":"active","ping":86},{"user_id":487,"name":"Pixeled","steam_id":76561198088917077,"connected_time":23000000000,"state":"active","ping":89},{"user_id":395,"name":"High Tier Mortal","steam_id":76561198138347045,"connected_time":7358000000000,"state":"active","ping":77},{"user_id":481,"name":"cherry29","steam_id":76561198110449171,"connected_time":451000000000,"state":"active","ping":86},{"user_id":380,"name":"moe5x","steam_id":76561198316877833,"connected_time":7896000000000,"state":"active","ping":81},{"user_id":484,"name":"Moregun Freeman | trade.tf","steam_id":76561198159772617,"connected_time":310000000000,"state":"active","ping":43},{"user_id":467,"name":"tacofever","steam_id":76561198010966507,"connected_time":1635000000000,"state":"active","ping":87},{"user_id":396,"name":"TypicalGiftig","steam_id":76561198170372495,"connected_time":7330000000000,"state":"active","ping":63},{"user_id":482,"name":"Zigadox","steam_id":76561198079813479,"connected_time":382000000000,"state":"active","ping":91},{"user_id":465,"name":"Sup m8","steam_id":76561198081659121,"connected_time":1811000000000,"state":"active","ping":45},{"user_id":485,"name":"dayman fighter of the nightman","steam_id":76561198010019214,"connected_time":298000000000,"state":"active","ping":69},{"user_id":466,"name":"Kirbothebrony","steam_id":76561198971911330,"connected_time":1700000000000,"state":"active","ping":66},{"user_id":454,"name":"Pixel JC","steam_id":76561198014618589,"connected_time":3066000000000,"state":"active","ping":123},{"user_id":474,"name":"xZackAttack27x","steam_id":76561198035446639,"connected_time":936000000000,"state":"active","ping":37},{"user_id":476,"name":"Superseee","steam_id":76561198199919747,"connected_time":636000000000,"state":"active","ping":122},{"user_id":450,"name":"java","steam_id":76561198030276792,"connected_time":3175000000000,"state":"active","ping":60},{"user_id":455,"name":"Voodo133","steam_id":76561198042670351,"connected_time":3053000000000,"state":"active","ping":103},{"user_id":483,"name":"Kirby","steam_id":76561199161858008,"connected_time":344000000000,"state":"active","ping":71},{"user_id":464,"name":"Anor","steam_id":76561198356139775,"connected_time":1978000000000,"state":"active","ping":77},{"user_id":430,"name":"cheezits face","steam_id":76561198000564263,"connected_time":4000000000000,"state":"active","ping":75},{"user_id":437,"name":"proud owner of a large tongue","steam_id":76561198106690989,"connected_time":3850000000000,"state":"active","ping":91},{"user_id":480,"name":"The Potato Romancer","steam_id":76561198204197648,"connected_time":531000000000,"state":"active","ping":86},{"user_id":438,"name":"Cofi","steam_id":76561199026721822,"connected_time":3774000000000,"state":"active","ping":87},{"user_id":432,"name":"lanoc","steam_id":76561198055415367,"connected_time":3996000000000,"state":"active","ping":60}]},{"server_id":5,"name":"Uncletopia | Frankfurt | 1 | All Maps","name_short":"frk-1","host":"frk-1.de.uncletopia.com","port":27015,"enabled":true,"region":"eu","cc":"de","latitude":50.110924,"longitude":8.682127,"reserved":0,"last_update":"0001-01-01T00:00:00Z","name_a2s":"Uncletopia | Frankfurt | 1 | All Maps","protocol":17,"map":"pl_swiftwater_final1","folder":"tf","game":"Team Fortress","app_id":440,"player_count":0,"max_players":24,"Bots":0,"server_type":"Dedicated","server_os":"Linux","password":true,"vac":true,"version":"7757534","steam_id":85568392924469989,"keywords":["nocrits","nodmgspread","payload","uncletopia"],"game_id":440,"stv_port":27016,"stv_name":"Uncletopia | Frankfurt | 1 | All Maps | STV","players":null},{"server_id":110,"name":"Uncletopia | Frankfurt | 2 | All Maps","name_short":"frk-2","host":"frk-1.de.uncletopia.com","port":27025,"enabled":true,"region":"eu","cc":"de","latitude":50.110924,"longitude":8.682127,"reserved":0,"last_update":"0001-01-01T00:00:00Z","name_a2s":"Uncletopia | Frankfurt | 2 | All Maps","protocol":17,"map":"koth_king","folder":"tf","game":"Team Fortress","app_id":440,"player_count":0,"max_players":24,"Bots":0,"server_type":"Dedicated","server_os":"Linux","password":true,"vac":true,"version":"7757534","steam_id":85568392924469990,"keywords":["cp","nocrits","nodmgspread","uncletopia"],"game_id":440,"stv_port":27026,"stv_name":"Uncletopia | Frankfurt | 2 | All Maps | STV","players":null},{"server_id":308,"name":"Uncletopia | Frankfurt | 3 | All Maps","name_short":"frk-3","host":"frk-1.de.uncletopia.com","port":27035,"enabled":true,"region":"eu","cc":"de","latitude":50.110924,"longitude":8.682127,"reserved":0,"last_update":"0001-01-01T00:00:00Z","name_a2s":"Uncletopia | Frankfurt | 3 | All Maps","protocol":17,"map":"cp_altitude","folder":"tf","game":"Team Fortress","app_id":440,"player_count":0,"max_players":24,"Bots":0,"server_type":"Dedicated","server_os":"Linux","password":true,"vac":true,"version":"7757534","steam_id":85568392924504274,"keywords":["cp","nocrits","nodmgspread","uncletopia"],"game_id":440,"stv_port":27036,"stv_name":"Uncletopia | Frankfurt | 3 | All Maps | STV","players":null},{"server_id":309,"name":"Uncletopia | Frankfurt | 4 | All Maps","name_short":"frk-4","host":"frk-1.de.uncletopia.com","port":27045,"enabled":true,"region":"eu","cc":"de","latitude":50.110924,"longitude":8.682127,"reserved":0,"last_update":"0001-01-01T00:00:00Z","name_a2s":"Uncletopia | Frankfurt | 4 | All Maps","protocol":17,"map":"koth_lakeside_final","folder":"tf","game":"Team Fortress","app_id":440,"player_count":0,"max_players":24,"Bots":0,"server_type":"Dedicated","server_os":"Linux","password":true,"vac":true,"version":"7757534","steam_id":85568392924504275,"keywords":["cp","nocrits","nodmgspread","uncletopia"],"game_id":440,"stv_port":27046,"stv_name":"Uncletopia | Frankfurt | 4 | All Maps | STV","players":null},{"server_id":310,"name":"Uncletopia | Frankfurt | 5 | All Maps","name_short":"frk-5","host":"frk-1.de.uncletopia.com","port":27055,"enabled":true,"region":"eu","cc":"de","latitude":50.110924,"longitude":8.682127,"reserved":0,"last_update":"0001-01-01T00:00:00Z","name_a2s":"Uncletopia | Frankfurt | 5 | All Maps","protocol":17,"map":"koth_lakeside_final","folder":"tf","game":"Team Fortress","app_id":440,"player_count":0,"max_players":24,"Bots":0,"server_type":"Dedicated","server_os":"Linux","password":true,"vac":true,"version":"7757534","steam_id":85568392924504277,"keywords":["cp","nocrits","nodmgspread","uncletopia"],"game_id":440,"stv_port":27056,"stv_name":"Uncletopia | Frankfurt | 5 | All Maps | STV","players":null},{"server_id":311,"name":"Uncletopia | Frankfurt | 6 | All Maps","name_short":"frk-6","host":"frk-1.de.uncletopia.com","port":27065,"enabled":true,"region":"eu","cc":"de","latitude":50.110924,"longitude":8.682127,"reserved":0,"last_update":"0001-01-01T00:00:00Z","name_a2s":"Uncletopia | Frankfurt | 6 | All Maps","protocol":17,"map":"koth_viaduct","folder":"tf","game":"Team Fortress","app_id":440,"player_count":0,"max_players":24,"Bots":0,"server_type":"Dedicated","server_os":"Linux","password":true,"vac":true,"version":"7757534","steam_id":85568392924504278,"keywords":["cp","nocrits","nodmgspread","uncletopia"],"game_id":440,"stv_port":27066,"stv_name":"Uncletopia | Frankfurt | 6 | All Maps | STV","players":null},{"server_id":23,"name":"Uncletopia | Frankfurt | 7 | Stopwatch Beta","name_short":"frk-7","host":"frk-1.de.uncletopia.com","port":27075,"enabled":true,"region":"eu","cc":"de","latitude":50.110924,"longitude":8.682127,"reserved":0,"last_update":"0001-01-01T00:00:00Z","name_a2s":"Uncletopia | Frankfurt | 7 | Stopwatch Beta","protocol":17,"map":"pl_upward","folder":"tf","game":"Team Fortress","app_id":440,"player_count":0,"max_players":24,"Bots":0,"server_type":"Dedicated","server_os":"Linux","password":true,"vac":true,"version":"7757534","steam_id":85568392924742827,"keywords":["nocrits","nodmgspread","payload","uncletopia"],"game_id":440,"stv_port":27076,"stv_name":"Uncletopia | Frankfurt | 7 | Stopwatch Beta | STV","players":null},{"server_id":24,"name":"Uncletopia | Frankfurt | 8 | Community","name_short":"frk-8","host":"frk-1.de.uncletopia.com","port":27085,"enabled":true,"region":"eu","cc":"de","latitude":50.110924,"longitude":8.682127,"reserved":0,"last_update":"0001-01-01T00:00:00Z","name_a2s":"Uncletopia | Frankfurt | 8 | Community","protocol":17,"map":"workshop/cp_mannbase_rc2a.ugc1900737467","folder":"tf","game":"Team Fortress","app_id":440,"player_count":0,"max_players":24,"Bots":0,"server_type":"Dedicated","server_os":"Linux","password":true,"vac":true,"version":"7757534","steam_id":85568392924742828,"keywords":["cp","nocrits","nodmgspread","uncletopia"],"game_id":440,"stv_port":27086,"stv_name":"Uncletopia | Frankfurt | 8 | Community | STV","players":null},{"server_id":202,"name":"Uncletopia | Hong Kong | 1 | All Maps","name_short":"hgk-1","host":"hgk-1.hk.uncletopia.com","port":27015,"enabled":true,"region":"asia","cc":"hk","latitude":22.302711,"longitude":114.177216,"reserved":0,"last_update":"0001-01-01T00:00:00Z","name_a2s":"Uncletopia | Hong Kong | 1 | All Maps","protocol":17,"map":"pl_pier","folder":"tf","game":"Team Fortress","app_id":440,"player_count":0,"max_players":24,"Bots":0,"server_type":"Dedicated","server_os":"Linux","password":true,"vac":true,"version":"7757534","steam_id":85568392924494504,"keywords":["nocrits","nodmgspread","payload","uncletopia"],"game_id":440,"stv_port":27016,"stv_name":"Uncletopia | Hong Kong | 1 | All Maps | STV","players":null},{"server_id":1,"name":"Uncletopia | Los Angeles | 1 | All Maps","name_short":"lax-1","host":"lax-1.us.uncletopia.com","port":27015,"enabled":true,"region":"us-west","cc":"us","latitude":33.94279,"longitude":-118.41004,"reserved":0,"last_update":"0001-01-01T00:00:00Z","name_a2s":"Uncletopia | Los Angeles | 1 | All Maps","protocol":17,"map":"pl_badwater","folder":"tf","game":"Team Fortress","app_id":440,"player_count":24,"max_players":24,"Bots":0,"server_type":"Dedicated","server_os":"Linux","password":true,"vac":true,"version":"7757534","steam_id":85568392924469991,"keywords":["nocrits","nodmgspread","payload","uncletopia"],"game_id":440,"stv_port":27016,"stv_name":"Uncletopia | Los Angeles | 1 | All Maps | STV","players":[{"user_id":245,"name":"sweaterfan","steam_id":76561199389567214,"connected_time":2175000000000,"state":"active","ping":97},{"user_id":246,"name":"Nikki","steam_id":76561199069832535,"connected_time":2126000000000,"state":"active","ping":126},{"user_id":270,"name":"DaBeatGoOff?","steam_id":76561198106507400,"connected_time":403000000000,"state":"active","ping":51},{"user_id":267,"name":"nile","steam_id":76561197980035714,"connected_time":1018000000000,"state":"active","ping":90},{"user_id":238,"name":"Schnitz","steam_id":76561198265484253,"connected_time":2909000000000,"state":"active","ping":52},{"user_id":254,"name":"vanillain","steam_id":76561198058617608,"connected_time":1832000000000,"state":"active","ping":55},{"user_id":243,"name":"Pumpkin Spice","steam_id":76561199016285746,"connected_time":2493000000000,"state":"active","ping":98},{"user_id":259,"name":"rxqueen","steam_id":76561198049258493,"connected_time":1207000000000,"state":"active","ping":83},{"user_id":248,"name":"huiei","steam_id":76561198073763735,"connected_time":2098000000000,"state":"active","ping":69},{"user_id":273,"name":"The Champagne of Mayonnaise","steam_id":76561197961107982,"connected_time":147000000000,"state":"active","ping":121},{"user_id":251,"name":"EAT SPIT!","steam_id":76561198096836451,"connected_time":2049000000000,"state":"active","ping":46},{"user_id":255,"name":"nothowon","steam_id":76561198937601452,"connected_time":1529000000000,"state":"active","ping":100},{"user_id":260,"name":"golia","steam_id":76561198000264266,"connected_time":1205000000000,"state":"active","ping":70},{"user_id":197,"name":"Zero","steam_id":76561199383267408,"connected_time":5431000000000,"state":"active","ping":85},{"user_id":258,"name":"sleepy","steam_id":76561198064149348,"connected_time":1258000000000,"state":"active","ping":57},{"user_id":252,"name":"jimmyfortnite2014","steam_id":76561198987713830,"connected_time":2046000000000,"state":"active","ping":157},{"user_id":250,"name":"Kraul","steam_id":76561198043682060,"connected_time":2090000000000,"state":"active","ping":96},{"user_id":244,"name":"Bomb Squirtle™","steam_id":76561197998931145,"connected_time":2477000000000,"state":"active","ping":128},{"user_id":264,"name":"pathulhu","steam_id":76561198323941614,"connected_time":1097000000000,"state":"active","ping":72},{"user_id":262,"name":"TF2 IS BACK","steam_id":76561198412786186,"connected_time":1170000000000,"state":"active","ping":94},{"user_id":175,"name":"Isn't Water","steam_id":76561199253511650,"connected_time":6903000000000,"state":"active","ping":97},{"user_id":235,"name":"MyMonkeyBaby","steam_id":76561198046896670,"connected_time":3119000000000,"state":"active","ping":85},{"user_id":269,"name":"nice shot mate!","steam_id":76561198206922028,"connected_time":467000000000,"state":"active","ping":54},{"user_id":272,"name":"LordZahe","steam_id":76561198241749034,"connected_time":215000000000,"state":"active","ping":121}]},{"server_id":112,"name":"Uncletopia | Los Angeles | 2 | All Maps","name_short":"lax-2","host":"lax-1.us.uncletopia.com","port":27025,"enabled":true,"region":"us-west","cc":"us","latitude":33.94279,"longitude":-118.41004,"reserved":0,"last_update":"0001-01-01T00:00:00Z","name_a2s":"Uncletopia | Los Angeles | 2 | All Maps","protocol":17,"map":"pl_badwater","folder":"tf","game":"Team Fortress","app_id":440,"player_count":24,"max_players":24,"Bots":0,"server_type":"Dedicated","server_os":"Linux","password":true,"vac":true,"version":"7757534","steam_id":85568392924469992,"keywords":["nocrits","nodmgspread","payload","uncletopia"],"game_id":440,"stv_port":27026,"stv_name":"Uncletopia | Los Angeles | 2 | All Maps | STV","players":[{"user_id":362,"name":"ICESPROCKET","steam_id":76561198320452169,"connected_time":3685000000000,"state":"active","ping":59},{"user_id":353,"name":"harmless_nerd","steam_id":76561199470510373,"connected_time":4157000000000,"state":"active","ping":116},{"user_id":402,"name":"chilis baby back ribs","steam_id":76561198813516435,"connected_time":297000000000,"state":"active","ping":44},{"user_id":403,"name":"Gruntic","steam_id":76561198170396647,"connected_time":292000000000,"state":"active","ping":52},{"user_id":391,"name":"Master Cannoli","steam_id":76561198272327518,"connected_time":1142000000000,"state":"active","ping":69},{"user_id":407,"name":"Mediocre","steam_id":76561198056352693,"connected_time":69000000000,"state":"active","ping":55},{"user_id":384,"name":"wubber","steam_id":76561198286627157,"connected_time":1563000000000,"state":"active","ping":47},{"user_id":317,"name":"Crazy Hungarian","steam_id":76561198025498172,"connected_time":5540000000000,"state":"active","ping":74},{"user_id":404,"name":"MadeIn2005","steam_id":76561198186929317,"connected_time":272000000000,"state":"active","ping":99},{"user_id":356,"name":"A Shiny Meat Bicycle","steam_id":76561198358757709,"connected_time":4112000000000,"state":"active","ping":122},{"user_id":374,"name":"tie dye die guy","steam_id":76561198049845337,"connected_time":2672000000000,"state":"active","ping":75},{"user_id":397,"name":"throat_man","steam_id":76561199321657653,"connected_time":670000000000,"state":"active","ping":60},{"user_id":375,"name":"Buswolley","steam_id":76561197995205571,"connected_time":2644000000000,"state":"active","ping":54},{"user_id":405,"name":"Bombat","steam_id":76561198083096946,"connected_time":132000000000,"state":"active","ping":67},{"user_id":400,"name":"SuperCeleste❤️Trans Rights","steam_id":76561198167207053,"connected_time":383000000000,"state":"active","ping":172},{"user_id":398,"name":"bob","steam_id":76561198261060542,"connected_time":547000000000,"state":"active","ping":120},{"user_id":393,"name":"Notation","steam_id":76561198119509319,"connected_time":1133000000000,"state":"active","ping":98},{"user_id":399,"name":"wait no stop dont do that","steam_id":76561199117157198,"connected_time":468000000000,"state":"active","ping":75},{"user_id":378,"name":"the bron jame","steam_id":76561198371235518,"connected_time":2557000000000,"state":"active","ping":105},{"user_id":406,"name":"Leroy Brown","steam_id":76561197993007841,"connected_time":117000000000,"state":"active","ping":118},{"user_id":314,"name":"Nicolas Cage Kisses Mace Windu","steam_id":76561198046127710,"connected_time":5628000000000,"state":"active","ping":111},{"user_id":333,"name":"mentos14","steam_id":76561198097993629,"connected_time":4983000000000,"state":"active","ping":52},{"user_id":396,"name":"Bongo John","steam_id":76561198045309016,"connected_time":888000000000,"state":"active","ping":79},{"user_id":401,"name":"MR. GAMING","steam_id":76561198051368310,"connected_time":333000000000,"state":"active","ping":59}]},{"server_id":324,"name":"Uncletopia | Los Angeles | 3 | All Maps","name_short":"lax-3","host":"lax-1.us.uncletopia.com","port":27035,"enabled":true,"region":"us-west","cc":"us","latitude":33.94279,"longitude":-118.41004,"reserved":0,"last_update":"0001-01-01T00:00:00Z","name_a2s":"Uncletopia | Los Angeles | 3 | All Maps","protocol":17,"map":"pl_frontier_final","folder":"tf","game":"Team Fortress","app_id":440,"player_count":24,"max_players":24,"Bots":0,"server_type":"Dedicated","server_os":"Linux","password":true,"vac":true,"version":"7757534","steam_id":85568392924510198,"keywords":["nocrits","nodmgspread","payload","uncletopia"],"game_id":440,"stv_port":27036,"stv_name":"Uncletopia | Los Angeles | 3 | All Maps | STV","players":[{"user_id":133,"name":"eau:","steam_id":76561198110020262,"connected_time":574000000000,"state":"active","ping":36},{"user_id":131,"name":"Npenplz","steam_id":76561197999605423,"connected_time":592000000000,"state":"active","ping":58},{"user_id":112,"name":"PinguEnjoyer6","steam_id":76561199186723516,"connected_time":2190000000000,"state":"active","ping":49},{"user_id":30,"name":"sera.","steam_id":76561198312571585,"connected_time":7544000000000,"state":"active","ping":38},{"user_id":31,"name":"Lily 百合🌸","steam_id":76561199441294927,"connected_time":7323000000000,"state":"active","ping":126},{"user_id":33,"name":"OG_WaterFish","steam_id":76561199188811808,"connected_time":7173000000000,"state":"active","ping":116},{"user_id":141,"name":"Spearmint","steam_id":76561198134215373,"connected_time":315000000000,"state":"active","ping":106},{"user_id":132,"name":"Mom","steam_id":76561198207936000,"connected_time":591000000000,"state":"active","ping":48},{"user_id":129,"name":"Huzoop","steam_id":76561199249278873,"connected_time":763000000000,"state":"active","ping":88},{"user_id":114,"name":"Zykron","steam_id":76561199056400800,"connected_time":2129000000000,"state":"active","ping":56},{"user_id":123,"name":"Seanvich","steam_id":76561198065805500,"connected_time":1519000000000,"state":"active","ping":97},{"user_id":96,"name":"Enrique","steam_id":76561198151531499,"connected_time":3630000000000,"state":"active","ping":84},{"user_id":121,"name":"futanari","steam_id":76561198066268854,"connected_time":1816000000000,"state":"active","ping":90},{"user_id":125,"name":"Quibbli","steam_id":76561199214866732,"connected_time":1038000000000,"state":"active","ping":120},{"user_id":134,"name":"oil","steam_id":76561198099980149,"connected_time":569000000000,"state":"active","ping":57},{"user_id":137,"name":"멍청한 미국인","steam_id":76561198041986461,"connected_time":532000000000,"state":"active","ping":65},{"user_id":138,"name":"John Wick's puppy","steam_id":76561198064662875,"connected_time":529000000000,"state":"active","ping":58},{"user_id":117,"name":"Backpack","steam_id":76561198037121083,"connected_time":2120000000000,"state":"active","ping":45},{"user_id":50,"name":"SolarusD","steam_id":76561198029279861,"connected_time":6323000000000,"state":"active","ping":57},{"user_id":118,"name":"senzzz","steam_id":76561198089674742,"connected_time":2111000000000,"state":"active","ping":67},{"user_id":83,"name":"RyInc","steam_id":76561198874261643,"connected_time":5109000000000,"state":"active","ping":96},{"user_id":95,"name":"Lambchop","steam_id":76561198043900363,"connected_time":3678000000000,"state":"active","ping":74},{"user_id":139,"name":"Scoliosis King","steam_id":76561199143329892,"connected_time":493000000000,"state":"active","ping":82},{"user_id":130,"name":"01samflynn01","steam_id":76561198166834787,"connected_time":739000000000,"state":"active","ping":50}]},{"server_id":25,"name":"Uncletopia | Los Angeles | 4 | Stopwatch Beta","name_short":"lax-4","host":"lax-1.us.uncletopia.com","port":27045,"enabled":true,"region":"us-west","cc":"us","latitude":33.94279,"longitude":-118.41004,"reserved":0,"last_update":"0001-01-01T00:00:00Z","name_a2s":"Uncletopia | Los Angeles | 4 | Stopwatch Beta","protocol":17,"map":"pl_swiftwater_final1","folder":"tf","game":"Team Fortress","app_id":440,"player_count":0,"max_players":24,"Bots":0,"server_type":"Dedicated","server_os":"Linux","password":true,"vac":true,"version":"7757534","steam_id":85568392924510199,"keywords":["nocrits","nodmgspread","payload","uncletopia"],"game_id":440,"stv_port":27046,"stv_name":"Uncletopia | Los Angeles | 4 | Stopwatch Beta | STV","players":null},{"server_id":11,"name":"Uncletopia | London | 1 | All Maps","name_short":"lon-1","host":"lon-1.uk.uncletopia.com","port":27015,"enabled":true,"region":"eu","cc":"gb","latitude":51.509865,"longitude":-0.118092,"reserved":0,"last_update":"0001-01-01T00:00:00Z","name_a2s":"Uncletopia | London | 1 | All Maps","protocol":17,"map":"pl_upward","folder":"tf","game":"Team Fortress","app_id":440,"player_count":24,"max_players":24,"Bots":0,"server_type":"Dedicated","server_os":"Linux","password":true,"vac":true,"version":"7757534","steam_id":85568392924367362,"keywords":["nocrits","nodmgspread","payload","uncletopia"],"game_id":440,"stv_port":27016,"stv_name":"Uncletopia | London | 1 | All Maps | STV","players":[{"user_id":982,"name":"Dingle","steam_id":76561198104806338,"connected_time":758000000000,"state":"active","ping":86},{"user_id":964,"name":"Wilddagz","steam_id":76561199112468265,"connected_time":1807000000000,"state":"active","ping":63},{"user_id":970,"name":"regimiro","steam_id":76561198120457008,"connected_time":1408000000000,"state":"active","ping":55},{"user_id":938,"name":"PlasticVoid","steam_id":76561197997870306,"connected_time":4407000000000,"state":"active","ping":53},{"user_id":967,"name":"Borat","steam_id":76561198122226417,"connected_time":1460000000000,"state":"active","ping":42},{"user_id":947,"name":"Shift","steam_id":76561198028296732,"connected_time":3636000000000,"state":"active","ping":54},{"user_id":971,"name":"WhoIsFrosty","steam_id":76561198880588117,"connected_time":1380000000000,"state":"active","ping":141},{"user_id":975,"name":"❤ToxicAngel❤","steam_id":76561198062208751,"connected_time":1228000000000,"state":"active","ping":46},{"user_id":973,"name":"MadClutches","steam_id":76561198978204906,"connected_time":1342000000000,"state":"active","ping":178},{"user_id":985,"name":"ozzy","steam_id":76561199065575328,"connected_time":185000000000,"state":"active","ping":55},{"user_id":932,"name":"Gnaisse","steam_id":76561198010560642,"connected_time":5028000000000,"state":"active","ping":75},{"user_id":984,"name":"random_player691","steam_id":76561199209946306,"connected_time":491000000000,"state":"active","ping":51},{"user_id":956,"name":"AsuX","steam_id":76561197990333289,"connected_time":2671000000000,"state":"active","ping":60},{"user_id":974,"name":"Proto-arc","steam_id":76561198012776747,"connected_time":1250000000000,"state":"active","ping":45},{"user_id":980,"name":"rag","steam_id":76561198083505031,"connected_time":943000000000,"state":"active","ping":30},{"user_id":981,"name":"Defrost","steam_id":76561197960639639,"connected_time":897000000000,"state":"active","ping":41},{"user_id":978,"name":"Heal","steam_id":76561198209803809,"connected_time":1083000000000,"state":"active","ping":58},{"user_id":906,"name":"MoeruKurowassan","steam_id":76561198319349647,"connected_time":7247000000000,"state":"active","ping":75},{"user_id":952,"name":"✪ Danny","steam_id":76561198104483241,"connected_time":3199000000000,"state":"active","ping":50},{"user_id":965,"name":"Maske","steam_id":76561198078100812,"connected_time":1699000000000,"state":"active","ping":69},{"user_id":954,"name":"Q","steam_id":76561198276440993,"connected_time":3009000000000,"state":"active","ping":44},{"user_id":983,"name":"AntiAnimus","steam_id":76561198039074432,"connected_time":752000000000,"state":"active","ping":168},{"user_id":939,"name":"Gopnik Shroom Poot","steam_id":76561198025922146,"connected_time":4267000000000,"state":"active","ping":72},{"user_id":957,"name":"Omeven","steam_id":76561198256387155,"connected_time":2620000000000,"state":"active","ping":59}]},{"server_id":114,"name":"Uncletopia | London | 2 | All Maps","name_short":"lon-2","host":"lon-1.uk.uncletopia.com","port":27025,"enabled":true,"region":"eu","cc":"gb","latitude":51.509865,"longitude":-0.118092,"reserved":0,"last_update":"0001-01-01T00:00:00Z","name_a2s":"Uncletopia | London | 2 | All Maps","protocol":17,"map":"koth_lakeside_final","folder":"tf","game":"Team Fortress","app_id":440,"player_count":0,"max_players":24,"Bots":0,"server_type":"Dedicated","server_os":"Linux","password":true,"vac":true,"version":"7757534","steam_id":85568392924470941,"keywords":["cp","nocrits","nodmgspread","uncletopia"],"game_id":440,"stv_port":27026,"stv_name":"Uncletopia | London | 2 | All Maps | STV","players":null},{"server_id":320,"name":"Uncletopia | London | 3 | All Maps","name_short":"lon-3","host":"lon-1.uk.uncletopia.com","port":27035,"enabled":true,"region":"eu","cc":"gb","latitude":51.509865,"longitude":-0.118092,"reserved":0,"last_update":"0001-01-01T00:00:00Z","name_a2s":"Uncletopia | London | 3 | All Maps","protocol":17,"map":"pl_pier","folder":"tf","game":"Team Fortress","app_id":440,"player_count":3,"max_players":24,"Bots":0,"server_type":"Dedicated","server_os":"Linux","password":true,"vac":true,"version":"7757534","steam_id":85568392924510192,"keywords":["nocrits","nodmgspread","payload","uncletopia"],"game_id":440,"stv_port":27036,"stv_name":"Uncletopia | London | 3 | All Maps | STV","players":[{"user_id":676,"name":"hmscole09","steam_id":76561198811362788,"connected_time":153000000000,"state":"active","ping":52},{"user_id":669,"name":"Труп Володя","steam_id":76561198035718457,"connected_time":1726000000000,"state":"active","ping":86},{"user_id":670,"name":"Neoantox","steam_id":76561198216828713,"connected_time":1544000000000,"state":"active","ping":95}]},{"server_id":321,"name":"Uncletopia | London | 4 | All Maps","name_short":"lon-4","host":"lon-1.uk.uncletopia.com","port":27045,"enabled":true,"region":"eu","cc":"gb","latitude":51.509865,"longitude":-0.118092,"reserved":0,"last_update":"0001-01-01T00:00:00Z","name_a2s":"Uncletopia | London | 4 | All Maps","protocol":17,"map":"koth_cascade","folder":"tf","game":"Team Fortress","app_id":440,"player_count":23,"max_players":24,"Bots":0,"server_type":"Dedicated","server_os":"Linux","password":true,"vac":true,"version":"7757534","steam_id":85568392924510193,"keywords":["cp","nocrits","nodmgspread","uncletopia"],"game_id":440,"stv_port":27046,"stv_name":"Uncletopia | London | 4 | All Maps | STV","players":[{"user_id":690,"name":"SaltySugar","steam_id":76561198171209758,"connected_time":4105000000000,"state":"active","ping":41},{"user_id":738,"name":"marcus","steam_id":76561198127738021,"connected_time":1231000000000,"state":"active","ping":74},{"user_id":748,"name":"Catastrophic","steam_id":76561198441720523,"connected_time":225000000000,"state":"active","ping":159},{"user_id":726,"name":"S'all good, man","steam_id":76561198363882056,"connected_time":1734000000000,"state":"active","ping":44},{"user_id":749,"name":"The Tallest Boi","steam_id":76561198337996833,"connected_time":70000000000,"state":"active","ping":192},{"user_id":747,"name":"Unstable Goat","steam_id":76561197985788557,"connected_time":297000000000,"state":"active","ping":86},{"user_id":698,"name":"Vibing Wave","steam_id":76561198866358613,"connected_time":2978000000000,"state":"active","ping":159},{"user_id":743,"name":"Pingutaro","steam_id":76561198112803718,"connected_time":670000000000,"state":"active","ping":54},{"user_id":728,"name":"Turtle Fuckers 2","steam_id":76561198071938027,"connected_time":1566000000000,"state":"active","ping":41},{"user_id":713,"name":"don cheadle","steam_id":76561198032841675,"connected_time":2184000000000,"state":"active","ping":56},{"user_id":734,"name":"chloë❀♡","steam_id":76561198147199613,"connected_time":1309000000000,"state":"active","ping":74},{"user_id":714,"name":"ActuallyMike","steam_id":76561198083465346,"connected_time":2083000000000,"state":"active","ping":44},{"user_id":718,"name":"schaffi","steam_id":76561198061369274,"connected_time":1990000000000,"state":"active","ping":89},{"user_id":709,"name":"Dunte","steam_id":76561199100863648,"connected_time":2466000000000,"state":"active","ping":98},{"user_id":746,"name":"Dude Time","steam_id":76561198092991160,"connected_time":311000000000,"state":"active","ping":164},{"user_id":733,"name":"★","steam_id":76561198080168182,"connected_time":1352000000000,"state":"active","ping":95},{"user_id":731,"name":"krzak-chan [AVE ŚCIANA]","steam_id":76561198851428398,"connected_time":1494000000000,"state":"active","ping":106},{"user_id":719,"name":"lol","steam_id":76561198104438656,"connected_time":1968000000000,"state":"active","ping":68},{"user_id":745,"name":"Forklift Certified","steam_id":76561198001816577,"connected_time":486000000000,"state":"active","ping":95},{"user_id":744,"name":"Can I get a Beep Beep","steam_id":76561198010730967,"connected_time":642000000000,"state":"active","ping":65},{"user_id":721,"name":"davegrohl","steam_id":76561198138458704,"connected_time":1965000000000,"state":"active","ping":47},{"user_id":722,"name":"Ushlus","steam_id":76561199225270732,"connected_time":1928000000000,"state":"active","ping":108},{"user_id":742,"name":"God's Silliest Little Jester","steam_id":76561197987168654,"connected_time":701000000000,"state":"active","ping":59}]},{"server_id":21,"name":"Uncletopia | London | 5 | All Maps","name_short":"lon-5","host":"lon-1.uk.uncletopia.com","port":27055,"enabled":true,"region":"eu","cc":"gb","latitude":51.509865,"longitude":-0.118092,"reserved":0,"last_update":"0001-01-01T00:00:00Z","name_a2s":"Uncletopia | London | 5 | All Maps","protocol":17,"map":"koth_viaduct","folder":"tf","game":"Team Fortress","app_id":440,"player_count":0,"max_players":24,"Bots":0,"server_type":"Dedicated","server_os":"Linux","password":true,"vac":true,"version":"7757534","steam_id":85568392924742829,"keywords":["cp","nocrits","nodmgspread","uncletopia"],"game_id":440,"stv_port":27056,"stv_name":"Uncletopia | London | 5 | All Maps | STV","players":null},{"server_id":22,"name":"Uncletopia | London | 6 | All Maps","name_short":"lon-6","host":"lon-1.uk.uncletopia.com","port":27065,"enabled":true,"region":"eu","cc":"gb","latitude":51.509865,"longitude":-0.118092,"reserved":0,"last_update":"0001-01-01T00:00:00Z","name_a2s":"Uncletopia | London | 6 | All Maps","protocol":17,"map":"koth_highpass","folder":"tf","game":"Team Fortress","app_id":440,"player_count":0,"max_players":24,"Bots":0,"server_type":"Dedicated","server_os":"Linux","password":true,"vac":true,"version":"7757534","steam_id":85568392924742830,"keywords":["cp","nocrits","nodmgspread","uncletopia"],"game_id":440,"stv_port":27066,"stv_name":"Uncletopia | London | 6 | All Maps | STV","players":null},{"server_id":40,"name":"Uncletopia | London | 7 | No Payload","name_short":"lon-7","host":"lon-1.uk.uncletopia.com","port":27075,"enabled":true,"region":"eu","cc":"gb","latitude":51.509865,"longitude":-0.118092,"reserved":0,"last_update":"0001-01-01T00:00:00Z","name_a2s":"Uncletopia | London | 7 | No Payload","protocol":17,"map":"cp_badlands","folder":"tf","game":"Team Fortress","app_id":440,"player_count":0,"max_players":24,"Bots":0,"server_type":"Dedicated","server_os":"Linux","password":true,"vac":true,"version":"7757534","steam_id":85568392924964314,"keywords":["cp","nocrits","nodmgspread","uncletopia"],"game_id":440,"stv_port":27076,"stv_name":"Uncletopia | London | 7 | No Payload | STV","players":null},{"server_id":41,"name":"Uncletopia | London | 8 | Community","name_short":"lon-8","host":"lon-1.uk.uncletopia.com","port":27085,"enabled":true,"region":"eu","cc":"gb","latitude":51.509865,"longitude":-0.118092,"reserved":0,"last_update":"0001-01-01T00:00:00Z","name_a2s":"Uncletopia | London | 8 | Community","protocol":17,"map":"workshop/cp_glassworks_rc6a.ugc454118349","folder":"tf","game":"Team Fortress","app_id":440,"player_count":0,"max_players":24,"Bots":0,"server_type":"Dedicated","server_os":"Linux","password":true,"vac":true,"version":"7757534","steam_id":85568392924964315,"keywords":["cp","nocrits","nodmgspread","uncletopia"],"game_id":440,"stv_port":27086,"stv_name":"Uncletopia | London | 8 | Community | STV","players":null},{"server_id":300,"name":"Uncletopia | Montréal | 1 | All Maps","name_short":"mtl-1","host":"mtl-1.ca.uncletopia.com","port":27015,"enabled":true,"region":"us-east","cc":"ca","latitude":45.50889,"longitude":-73.56167,"reserved":0,"last_update":"0001-01-01T00:00:00Z","name_a2s":"Uncletopia | Montréal | 1 | All Maps","protocol":17,"map":"pl_frontier_final","folder":"tf","game":"Team Fortress","app_id":440,"player_count":1,"max_players":24,"Bots":0,"server_type":"Dedicated","server_os":"Linux","password":true,"vac":true,"version":"7757534","steam_id":85568392924500087,"keywords":["nocrits","nodmgspread","payload","uncletopia"],"game_id":440,"stv_port":27016,"stv_name":"Uncletopia | Montréal | 1 | All Maps | STV","players":[{"user_id":232,"name":"thomasciaranpegg","steam_id":76561199229873363,"connected_time":52000000000,"state":"spawning","ping":49}]},{"server_id":301,"name":"Uncletopia | Montréal | 2 | All Maps","name_short":"mtl-2","host":"mtl-1.ca.uncletopia.com","port":27025,"enabled":true,"region":"us-east","cc":"ca","latitude":45.50889,"longitude":-73.56167,"reserved":0,"last_update":"0001-01-01T00:00:00Z","name_a2s":"Uncletopia | Montréal | 2 | All Maps","protocol":17,"map":"pl_pier","folder":"tf","game":"Team Fortress","app_id":440,"player_count":24,"max_players":24,"Bots":0,"server_type":"Dedicated","server_os":"Linux","password":true,"vac":true,"version":"7757534","steam_id":85568392924500088,"keywords":["nocrits","nodmgspread","payload","uncletopia"],"game_id":440,"stv_port":27026,"stv_name":"Uncletopia | Montréal | 2 | All Maps | STV","players":[{"user_id":166,"name":"Enterim","steam_id":76561197996226428,"connected_time":3295000000000,"state":"active","ping":54},{"user_id":198,"name":"Kaguya Houraisan","steam_id":76561199120845371,"connected_time":961000000000,"state":"active","ping":44},{"user_id":199,"name":"st3shk4a","steam_id":76561198025322638,"connected_time":955000000000,"state":"active","ping":79},{"user_id":195,"name":"rlty","steam_id":76561198009395055,"connected_time":1629000000000,"state":"active","ping":58},{"user_id":164,"name":"orneps489","steam_id":76561199124755916,"connected_time":3386000000000,"state":"active","ping":70},{"user_id":188,"name":"Tea Enthusiast","steam_id":76561198185583925,"connected_time":2602000000000,"state":"active","ping":42},{"user_id":167,"name":"owlyoop cockatoo","steam_id":76561197987175275,"connected_time":3256000000000,"state":"active","ping":83},{"user_id":168,"name":"Boots","steam_id":76561197990529613,"connected_time":3250000000000,"state":"active","ping":44},{"user_id":169,"name":"The_Bipartisan_Gamer","steam_id":76561198066810339,"connected_time":3236000000000,"state":"active","ping":58},{"user_id":174,"name":"Sock","steam_id":76561197971714165,"connected_time":3078000000000,"state":"active","ping":54},{"user_id":193,"name":"alex","steam_id":76561198095203229,"connected_time":1731000000000,"state":"active","ping":62},{"user_id":172,"name":"Captain Kacho","steam_id":76561197971929908,"connected_time":3137000000000,"state":"active","ping":137},{"user_id":173,"name":"blues traveler","steam_id":76561198044187324,"connected_time":3129000000000,"state":"active","ping":55},{"user_id":200,"name":"unsubtract","steam_id":76561198865158742,"connected_time":937000000000,"state":"active","ping":51},{"user_id":191,"name":"The Squeeble","steam_id":76561198881635850,"connected_time":1911000000000,"state":"active","ping":159},{"user_id":177,"name":"uhooter","steam_id":76561198007829078,"connected_time":3043000000000,"state":"active","ping":43},{"user_id":178,"name":"worker","steam_id":76561198039608940,"connected_time":3038000000000,"state":"active","ping":131},{"user_id":205,"name":"Cement Eater","steam_id":76561198080890217,"connected_time":328000000000,"state":"active","ping":58},{"user_id":179,"name":"Whatup","steam_id":76561198061383979,"connected_time":3034000000000,"state":"active","ping":124},{"user_id":202,"name":"BoredReaper2","steam_id":76561199009671010,"connected_time":861000000000,"state":"active","ping":80},{"user_id":183,"name":"big ol' buford","steam_id":76561198290675957,"connected_time":2948000000000,"state":"active","ping":77},{"user_id":190,"name":"RekTek249","steam_id":76561198118901719,"connected_time":2089000000000,"state":"active","ping":62},{"user_id":206,"name":"Seeno","steam_id":76561198288904513,"connected_time":144000000000,"state":"active","ping":80},{"user_id":196,"name":"pipebombrater","steam_id":76561199029030831,"connected_time":1553000000000,"state":"active","ping":81}]},{"server_id":302,"name":"Uncletopia | Montréal | 3 | All Maps","name_short":"mtl-3","host":"mtl-1.ca.uncletopia.com","port":27035,"enabled":true,"region":"us-east","cc":"ca","latitude":45.50889,"longitude":-73.56167,"reserved":0,"last_update":"0001-01-01T00:00:00Z","name_a2s":"Uncletopia | Montréal | 3 | All Maps","protocol":17,"map":"pl_upward","folder":"tf","game":"Team Fortress","app_id":440,"player_count":0,"max_players":24,"Bots":0,"server_type":"Dedicated","server_os":"Linux","password":true,"vac":true,"version":"7757534","steam_id":85568392924500089,"keywords":["nocrits","nodmgspread","payload","uncletopia"],"game_id":440,"stv_port":27036,"stv_name":"Uncletopia | Montréal | 3 | All Maps | STV","players":null},{"server_id":303,"name":"Uncletopia | Montréal | 4 | No Payload","name_short":"mtl-4","host":"mtl-1.ca.uncletopia.com","port":27045,"enabled":true,"region":"us-east","cc":"ca","latitude":45.50889,"longitude":-73.56167,"reserved":0,"last_update":"0001-01-01T00:00:00Z","name_a2s":"Uncletopia | Montréal | 4 | No Payload","protocol":17,"map":"cp_altitude","folder":"tf","game":"Team Fortress","app_id":440,"player_count":0,"max_players":24,"Bots":0,"server_type":"Dedicated","server_os":"Linux","password":true,"vac":true,"version":"7757534","steam_id":85568392924500090,"keywords":["cp","nocrits","nodmgspread","uncletopia"],"game_id":440,"stv_port":27046,"stv_name":"Uncletopia | Montréal | 4 | No Payload | STV","players":null},{"server_id":13,"name":"Uncletopia | New York City | 1 | All Maps","name_short":"nyc-1","host":"nyc-1.us.uncletopia.com","port":27015,"enabled":true,"region":"us-east","cc":"us","latitude":40.73061,"longitude":-73.93524,"reserved":0,"last_update":"0001-01-01T00:00:00Z","name_a2s":"Uncletopia | New York City | 1 | All Maps","protocol":17,"map":"cp_snakewater_final1","folder":"tf","game":"Team Fortress","app_id":440,"player_count":24,"max_players":24,"Bots":0,"server_type":"Dedicated","server_os":"Linux","password":true,"vac":true,"version":"7757534","steam_id":85568392924469993,"keywords":["cp","nocrits","nodmgspread","uncletopia"],"game_id":440,"stv_port":27016,"stv_name":"Uncletopia | New York City | 1 | All Maps | STV","players":[{"user_id":505,"name":"Weasel Smack","steam_id":76561198023116430,"connected_time":3068000000000,"state":"active","ping":117},{"user_id":502,"name":"Raiden","steam_id":76561198936412406,"connected_time":3247000000000,"state":"active","ping":86},{"user_id":481,"name":"DaMultiversalist","steam_id":76561198239552412,"connected_time":4159000000000,"state":"active","ping":80},{"user_id":503,"name":"CesarSalad","steam_id":76561198985356050,"connected_time":3141000000000,"state":"active","ping":63},{"user_id":443,"name":"Vivid Hut 64","steam_id":76561198170050059,"connected_time":6739000000000,"state":"active","ping":52},{"user_id":535,"name":"cleanlaundry","steam_id":76561199165098525,"connected_time":919000000000,"state":"active","ping":61},{"user_id":530,"name":"Citron","steam_id":76561198278687374,"connected_time":1139000000000,"state":"active","ping":45},{"user_id":516,"name":"Dr Spaceman","steam_id":76561197969755657,"connected_time":2175000000000,"state":"active","ping":73},{"user_id":537,"name":"whoopsydoodle","steam_id":76561198045145360,"connected_time":490000000000,"state":"active","ping":45},{"user_id":539,"name":"JacrispyVulcano","steam_id":76561198966980576,"connected_time":475000000000,"state":"active","ping":37},{"user_id":515,"name":"Winter the Witchie","steam_id":76561198151971178,"connected_time":2205000000000,"state":"active","ping":73},{"user_id":536,"name":"insafjaleel","steam_id":76561198239445570,"connected_time":506000000000,"state":"active","ping":58},{"user_id":451,"name":"Agent Hugh Jass","steam_id":76561199097744991,"connected_time":6513000000000,"state":"active","ping":60},{"user_id":524,"name":"CheeseCake488","steam_id":76561199407617942,"connected_time":2065000000000,"state":"active","ping":197},{"user_id":540,"name":"Lowly Worm","steam_id":76561197970450546,"connected_time":221000000000,"state":"active","ping":133},{"user_id":541,"name":"Shoomsie","steam_id":76561198047405791,"connected_time":205000000000,"state":"active","ping":74},{"user_id":529,"name":"yougotsauled","steam_id":76561198880754695,"connected_time":1174000000000,"state":"active","ping":50},{"user_id":531,"name":"Bastard_Yanisaur","steam_id":76561199134114075,"connected_time":1112000000000,"state":"active","ping":85},{"user_id":520,"name":"shibaba bababool","steam_id":76561197972601902,"connected_time":2130000000000,"state":"active","ping":107},{"user_id":542,"name":"BUNGACOWA","steam_id":76561198979176018,"connected_time":181000000000,"state":"active","ping":87},{"user_id":522,"name":"Naegleria","steam_id":76561197965633183,"connected_time":2115000000000,"state":"active","ping":105},{"user_id":538,"name":"yoshido","steam_id":76561198846313229,"connected_time":485000000000,"state":"active","ping":69},{"user_id":521,"name":"toastman","steam_id":76561198207073088,"connected_time":2127000000000,"state":"active","ping":102},{"user_id":526,"name":"NegaNote","steam_id":76561198038213176,"connected_time":1983000000000,"state":"active","ping":73}]},{"server_id":14,"name":"Uncletopia | New York City | 2 | All Maps","name_short":"nyc-2","host":"nyc-1.us.uncletopia.com","port":27025,"enabled":true,"region":"us-east","cc":"us","latitude":40.73061,"longitude":-73.93524,"reserved":0,"last_update":"0001-01-01T00:00:00Z","name_a2s":"Uncletopia | New York City | 2 | All Maps","protocol":17,"map":"pl_borneo","folder":"tf","game":"Team Fortress","app_id":440,"player_count":24,"max_players":24,"Bots":0,"server_type":"Dedicated","server_os":"Linux","password":true,"vac":true,"version":"7757534","steam_id":85568392924469994,"keywords":["nocrits","nodmgspread","payload","uncletopia"],"game_id":440,"stv_port":27026,"stv_name":"Uncletopia | New York City | 2 | All Maps | STV","players":[{"user_id":810,"name":"test","steam_id":76561198197388678,"connected_time":663000000000,"state":"active","ping":64},{"user_id":803,"name":"Sir Quacksalot","steam_id":76561198048942777,"connected_time":1444000000000,"state":"active","ping":91},{"user_id":808,"name":"Baconmancer","steam_id":76561198008931323,"connected_time":712000000000,"state":"active","ping":130},{"user_id":749,"name":"a triflin' shawty","steam_id":76561198081944653,"connected_time":5129000000000,"state":"active","ping":85},{"user_id":790,"name":"requiem","steam_id":76561198345158758,"connected_time":1952000000000,"state":"active","ping":72},{"user_id":729,"name":"illious","steam_id":76561198169925494,"connected_time":6136000000000,"state":"active","ping":70},{"user_id":796,"name":"Defiant Statement.","steam_id":76561199101373436,"connected_time":1667000000000,"state":"active","ping":63},{"user_id":806,"name":"Saul Goodman","steam_id":76561198958881101,"connected_time":777000000000,"state":"active","ping":70},{"user_id":792,"name":"Hoss Delgado","steam_id":76561197995328504,"connected_time":1796000000000,"state":"active","ping":95},{"user_id":797,"name":"Misswj","steam_id":76561198070989722,"connected_time":1642000000000,"state":"active","ping":54},{"user_id":811,"name":"Sexual Butt","steam_id":76561198102241399,"connected_time":490000000000,"state":"active","ping":67},{"user_id":800,"name":"Braamklauw","steam_id":76561198283287697,"connected_time":1610000000000,"state":"active","ping":145},{"user_id":805,"name":"Kidzbopsicle","steam_id":76561198047660691,"connected_time":818000000000,"state":"active","ping":42},{"user_id":812,"name":"Teleporter (Evil_Elephant)","steam_id":76561199055338631,"connected_time":171000000000,"state":"active","ping":90},{"user_id":777,"name":"Discourse","steam_id":76561198984286678,"connected_time":2829000000000,"state":"active","ping":75},{"user_id":752,"name":"bungo","steam_id":76561198065145850,"connected_time":4865000000000,"state":"active","ping":61},{"user_id":807,"name":"Hey! I'm Walkin 'ere!","steam_id":76561198882785912,"connected_time":776000000000,"state":"active","ping":62},{"user_id":781,"name":"Cola","steam_id":76561198171893399,"connected_time":2313000000000,"state":"active","ping":56},{"user_id":776,"name":"Gingayy ♥","steam_id":76561198196495977,"connected_time":2843000000000,"state":"active","ping":104},{"user_id":786,"name":"confused","steam_id":76561198042236165,"connected_time":2135000000000,"state":"active","ping":43},{"user_id":761,"name":"Chicken Joe","steam_id":76561198278185182,"connected_time":4449000000000,"state":"active","ping":57},{"user_id":696,"name":"Snoopy","steam_id":76561198273735974,"connected_time":9024000000000,"state":"active","ping":118},{"user_id":780,"name":"pass","steam_id":76561199453841197,"connected_time":2398000000000,"state":"active","ping":89},{"user_id":809,"name":"4d4","steam_id":76561198402360789,"connected_time":711000000000,"state":"active","ping":73}]},{"server_id":15,"name":"Uncletopia | New York City | 3 | Stopwatch Beta","name_short":"nyc-3","host":"nyc-1.us.uncletopia.com","port":27035,"enabled":true,"region":"us-east","cc":"us","latitude":40.73061,"longitude":-73.93524,"reserved":0,"last_update":"0001-01-01T00:00:00Z","name_a2s":"Uncletopia | New York City | 3 | Stopwatch Beta","protocol":17,"map":"workshop/pl_barnblitz_pro7.ugc582280235","folder":"tf","game":"Team Fortress","app_id":440,"player_count":13,"max_players":24,"Bots":0,"server_type":"Dedicated","server_os":"Linux","password":true,"vac":true,"version":"7757534","steam_id":85568392924742820,"keywords":["nocrits","nodmgspread","payload","uncletopia"],"game_id":440,"stv_port":27036,"stv_name":"Uncletopia | New York City | 3 | Stopwatch Beta | STV","players":[{"user_id":33,"name":"spades.w","steam_id":76561199099653719,"connected_time":3044000000000,"state":"active","ping":74},{"user_id":34,"name":"xGordon_Gaming_TF2x","steam_id":76561198120930750,"connected_time":2954000000000,"state":"active","ping":51},{"user_id":36,"name":"Chillin Turt","steam_id":76561198025796849,"connected_time":2431000000000,"state":"active","ping":75},{"user_id":37,"name":"ribbonborn","steam_id":76561198001195423,"connected_time":1422000000000,"state":"active","ping":96},{"user_id":38,"name":"Voon","steam_id":76561198166843533,"connected_time":1372000000000,"state":"active","ping":51},{"user_id":47,"name":"Riggamortis","steam_id":76561199237017378,"connected_time":421000000000,"state":"spawning","ping":276},{"user_id":42,"name":"badhorse4444","steam_id":76561198979008266,"connected_time":958000000000,"state":"active","ping":78},{"user_id":48,"name":"Waffle Wannabe","steam_id":76561198064510650,"connected_time":420000000000,"state":"active","ping":52},{"user_id":49,"name":"Eevee2334","steam_id":76561199095479336,"connected_time":328000000000,"state":"active","ping":96},{"user_id":50,"name":"DJ Absolute Garbage","steam_id":76561198068000747,"connected_time":258000000000,"state":"active","ping":45},{"user_id":51,"name":"ashelin praxis nude mod","steam_id":76561198167907089,"connected_time":243000000000,"state":"active","ping":76},{"user_id":52,"name":"Zoratunictoon","steam_id":76561199475066871,"connected_time":225000000000,"state":"active","ping":164},{"user_id":55,"name":"Simply_Komeiji","steam_id":76561198354177703,"connected_time":107000000000,"state":"active","ping":87}]},{"server_id":16,"name":"Uncletopia | New York City | 4 | Community","name_short":"nyc-4","host":"nyc-1.us.uncletopia.com","port":27045,"enabled":true,"region":"us-east","cc":"us","latitude":40.73061,"longitude":-73.93524,"reserved":0,"last_update":"0001-01-01T00:00:00Z","name_a2s":"Uncletopia | New York City | 4 | Community","protocol":17,"map":"workshop/koth_kemptown_rc1.ugc767410655","folder":"tf","game":"Team Fortress","app_id":440,"player_count":0,"max_players":24,"Bots":0,"server_type":"Dedicated","server_os":"Linux","password":true,"vac":true,"version":"7757534","steam_id":85568392924742821,"keywords":["cp","nocrits","nodmgspread","uncletopia"],"game_id":440,"stv_port":27046,"stv_name":"Uncletopia | New York City | 4 | Community | STV","players":null},{"server_id":142,"name":"Uncletopia | São Paulo | 1 | All Maps","name_short":"sao-1","host":"sao-1.br.uncletopia.com","port":27015,"enabled":true,"region":"sa","cc":"br","latitude":-23.533773,"longitude":-46.62529,"reserved":0,"last_update":"0001-01-01T00:00:00Z","name_a2s":"Uncletopia | São Paulo | 1 | All Maps","protocol":17,"map":"koth_viaduct","folder":"tf","game":"Team Fortress","app_id":440,"player_count":1,"max_players":24,"Bots":0,"server_type":"Dedicated","server_os":"Linux","password":true,"vac":true,"version":"7757534","steam_id":85568392924469996,"keywords":["cp","nocrits","nodmgspread","uncletopia"],"game_id":440,"stv_port":27016,"stv_name":"Uncletopia | São Paulo | 1 | All Maps | STV","players":[{"user_id":83,"name":"SynerJuice","steam_id":76561198403864060,"connected_time":397000000000,"state":"active","ping":176}]},{"server_id":143,"name":"Uncletopia | São Paulo | 2 | All Maps","name_short":"sao-2","host":"sao-2.br.uncletopia.com","port":27015,"enabled":true,"region":"sa","cc":"br","latitude":-23.533773,"longitude":-46.62529,"reserved":0,"last_update":"0001-01-01T00:00:00Z","name_a2s":"Uncletopia | São Paulo | 2 | All Maps","protocol":17,"map":"koth_harvest_final","folder":"tf","game":"Team Fortress","app_id":440,"player_count":0,"max_players":24,"Bots":0,"server_type":"Dedicated","server_os":"Linux","password":true,"vac":true,"version":"7757534","steam_id":85568392924485349,"keywords":["cp","nocrits","nodmgspread","uncletopia"],"game_id":440,"stv_port":27016,"stv_name":"Uncletopia | São Paulo | 2 | All Maps | STV","players":null},{"server_id":7,"name":"Uncletopia | Seattle | 1 | All Maps","name_short":"sea-1","host":"sea-1.us.uncletopia.com","port":27015,"enabled":true,"region":"us-west","cc":"us","latitude":47.608013,"longitude":-122.33517,"reserved":0,"last_update":"0001-01-01T00:00:00Z","name_a2s":"Uncletopia | Seattle | 1 | All Maps","protocol":17,"map":"pl_swiftwater_final1","folder":"tf","game":"Team Fortress","app_id":440,"player_count":24,"max_players":24,"Bots":0,"server_type":"Dedicated","server_os":"Linux","password":true,"vac":true,"version":"7757534","steam_id":85568392924469997,"keywords":["nocrits","nodmgspread","payload","uncletopia"],"game_id":440,"stv_port":27016,"stv_name":"Uncletopia | Seattle | 1 | All Maps | STV","players":[{"user_id":627,"name":"mobe","steam_id":76561198121633820,"connected_time":1497000000000,"state":"active","ping":70},{"user_id":638,"name":"Lime","steam_id":76561198080786408,"connected_time":348000000000,"state":"active","ping":55},{"user_id":560,"name":"forest","steam_id":76561198157960257,"connected_time":7764000000000,"state":"active","ping":34},{"user_id":556,"name":"makeshift_burrito","steam_id":76561198042510825,"connected_time":8118000000000,"state":"active","ping":80},{"user_id":630,"name":"comfycaffeine","steam_id":76561198058690096,"connected_time":1459000000000,"state":"active","ping":50},{"user_id":620,"name":"Dargoos","steam_id":76561198366212046,"connected_time":2321000000000,"state":"active","ping":70},{"user_id":625,"name":"AmiableNebula","steam_id":76561198094306627,"connected_time":1514000000000,"state":"active","ping":76},{"user_id":629,"name":"Strikerbolt","steam_id":76561199095622897,"connected_time":1488000000000,"state":"active","ping":91},{"user_id":632,"name":"Smile","steam_id":76561198110008786,"connected_time":1392000000000,"state":"active","ping":48},{"user_id":641,"name":"cuckboi","steam_id":76561198343060961,"connected_time":220000000000,"state":"active","ping":98},{"user_id":605,"name":"nav","steam_id":76561198872608266,"connected_time":2945000000000,"state":"active","ping":125},{"user_id":633,"name":"Mignyanne :3","steam_id":76561198048754056,"connected_time":1263000000000,"state":"active","ping":63},{"user_id":635,"name":"thanksgiving turkey","steam_id":76561198976876859,"connected_time":1074000000000,"state":"active","ping":136},{"user_id":636,"name":"Sticky Ethan","steam_id":76561198277211625,"connected_time":652000000000,"state":"active","ping":78},{"user_id":642,"name":"SaltyFlump","steam_id":76561199379601288,"connected_time":196000000000,"state":"active","ping":63},{"user_id":586,"name":"=Silver=","steam_id":76561198292307127,"connected_time":5000000000000,"state":"active","ping":68},{"user_id":637,"name":"Confirmed Bachelor","steam_id":76561198441041496,"connected_time":548000000000,"state":"active","ping":60},{"user_id":622,"name":"Petunia","steam_id":76561197995701720,"connected_time":2276000000000,"state":"active","ping":64},{"user_id":639,"name":"HDI","steam_id":76561199062715724,"connected_time":346000000000,"state":"active","ping":61},{"user_id":634,"name":"Bay of Pigs [猪湾事件]","steam_id":76561198255305326,"connected_time":1237000000000,"state":"active","ping":111},{"user_id":608,"name":"Gary, 40, soul sucking 9-5","steam_id":76561198073812888,"connected_time":2733000000000,"state":"active","ping":80},{"user_id":643,"name":"Silvercoat's Stargazer","steam_id":76561198399525329,"connected_time":33000000000,"state":"active","ping":135},{"user_id":626,"name":"Aardappel","steam_id":76561198030894676,"connected_time":1513000000000,"state":"active","ping":78},{"user_id":580,"name":"Ayayahuasca","steam_id":76561199002906056,"connected_time":5707000000000,"state":"active","ping":50}]},{"server_id":119,"name":"Uncletopia | Seattle | 2 | All Maps","name_short":"sea-2","host":"sea-1.us.uncletopia.com","port":27025,"enabled":true,"region":"us-west","cc":"us","latitude":47.608013,"longitude":-122.33517,"reserved":0,"last_update":"0001-01-01T00:00:00Z","name_a2s":"Uncletopia | Seattle | 2 | All Maps","protocol":17,"map":"pl_swiftwater_final1","folder":"tf","game":"Team Fortress","app_id":440,"player_count":24,"max_players":24,"Bots":0,"server_type":"Dedicated","server_os":"Linux","password":true,"vac":true,"version":"7757534","steam_id":85568392924469998,"keywords":["nocrits","nodmgspread","payload","uncletopia"],"game_id":440,"stv_port":27026,"stv_name":"Uncletopia | Seattle | 2 | All Maps | STV","players":[{"user_id":504,"name":"Korbi.","steam_id":76561198355711373,"connected_time":2502000000000,"state":"active","ping":71},{"user_id":476,"name":"Amish Supremacist","steam_id":76561198396181197,"connected_time":3859000000000,"state":"active","ping":131},{"user_id":505,"name":"Superbacon24","steam_id":76561198121223443,"connected_time":2268000000000,"state":"active","ping":62},{"user_id":520,"name":"Mimic","steam_id":76561198060164147,"connected_time":282000000000,"state":"active","ping":75},{"user_id":509,"name":"Thunder","steam_id":76561198795676044,"connected_time":2037000000000,"state":"active","ping":59},{"user_id":471,"name":"Len","steam_id":76561199141913673,"connected_time":4488000000000,"state":"active","ping":53},{"user_id":496,"name":"Username","steam_id":76561198855586261,"connected_time":3110000000000,"state":"active","ping":68},{"user_id":500,"name":"Patio","steam_id":76561197986082608,"connected_time":2778000000000,"state":"active","ping":55},{"user_id":511,"name":"aerolar connective tissue","steam_id":76561198057138795,"connected_time":1441000000000,"state":"active","ping":132},{"user_id":454,"name":"Dunkle","steam_id":76561198041903573,"connected_time":6806000000000,"state":"active","ping":45},{"user_id":502,"name":"Moth","steam_id":76561199214894158,"connected_time":2735000000000,"state":"active","ping":98},{"user_id":519,"name":"Daddy Topps","steam_id":76561198203594332,"connected_time":335000000000,"state":"active","ping":42},{"user_id":487,"name":"Bargain Brand Cereal","steam_id":76561198440470058,"connected_time":3618000000000,"state":"active","ping":121},{"user_id":438,"name":"blockland.fan 4","steam_id":76561198173706067,"connected_time":7714000000000,"state":"active","ping":59},{"user_id":346,"name":"mooney","steam_id":76561199110622484,"connected_time":15651000000000,"state":"active","ping":86},{"user_id":493,"name":"Sleuth","steam_id":76561198418288939,"connected_time":3378000000000,"state":"active","ping":74},{"user_id":503,"name":"Sierra Foxtrot","steam_id":76561197996667382,"connected_time":2684000000000,"state":"active","ping":99},{"user_id":517,"name":"Butterfly Pancakes","steam_id":76561198286158414,"connected_time":538000000000,"state":"active","ping":69},{"user_id":515,"name":"kodynotcody","steam_id":76561198340685758,"connected_time":1047000000000,"state":"active","ping":65},{"user_id":494,"name":"ArchmageF","steam_id":76561197992246851,"connected_time":3246000000000,"state":"active","ping":56},{"user_id":485,"name":"They/Them Rattussy","steam_id":76561198238186628,"connected_time":3687000000000,"state":"active","ping":86},{"user_id":521,"name":"Justy","steam_id":76561198044014069,"connected_time":214000000000,"state":"active","ping":77},{"user_id":514,"name":"The Goat","steam_id":76561197960432083,"connected_time":1428000000000,"state":"active","ping":92},{"user_id":495,"name":"TarSenpai","steam_id":76561199292143353,"connected_time":3135000000000,"state":"active","ping":86}]},{"server_id":406,"name":"Uncletopia | Seattle | 3 | Stopwatch Beta","name_short":"sea-3","host":"sea-1.us.uncletopia.com","port":27035,"enabled":true,"region":"us-west","cc":"us","latitude":47.608013,"longitude":-122.33517,"reserved":0,"last_update":"0001-01-01T00:00:00Z","name_a2s":"Uncletopia | Seattle | 3 | Stopwatch Beta","protocol":17,"map":"workshop/koth_ramjam_rc1.ugc459778887","folder":"tf","game":"Team Fortress","app_id":440,"player_count":0,"max_players":24,"Bots":0,"server_type":"Dedicated","server_os":"Linux","password":true,"vac":true,"version":"7757534","steam_id":85568392924515217,"keywords":["cp","nocrits","nodmgspread","uncletopia"],"game_id":440,"stv_port":27036,"stv_name":"Uncletopia | Seattle | 3 | Stopwatch Beta | STV","players":null},{"server_id":17,"name":"Uncletopia | San Francisco | 1 | All Maps","name_short":"sfo-1","host":"sfo-1.us.uncletopia.com","port":27015,"enabled":true,"region":"us-west","cc":"us","latitude":37.77397,"longitude":-122.4313,"reserved":0,"last_update":"0001-01-01T00:00:00Z","name_a2s":"Uncletopia | San Francisco | 1 | All Maps","protocol":17,"map":"cp_mountainlab","folder":"tf","game":"Team Fortress","app_id":440,"player_count":24,"max_players":24,"Bots":0,"server_type":"Dedicated","server_os":"Linux","password":true,"vac":true,"version":"7757534","steam_id":85568392924469999,"keywords":["nocrits","nodmgspread","payload","uncletopia"],"game_id":440,"stv_port":27016,"stv_name":"Uncletopia | San Francisco | 1 | All Maps | STV","players":[{"user_id":636,"name":"hyperpuppy9000 (tarns rihtgs)","steam_id":76561199250825038,"connected_time":823000000000,"state":"connecting","ping":123},{"user_id":620,"name":"ExplosiveGamer21","steam_id":76561198132370955,"connected_time":2191000000000,"state":"connecting","ping":84},{"user_id":640,"name":"zeplinnn","steam_id":76561198301300987,"connected_time":418000000000,"state":"connecting","ping":83},{"user_id":635,"name":"Fluffy \u003c3 [HUGS]","steam_id":76561198119444962,"connected_time":846000000000,"state":"connecting","ping":87},{"user_id":623,"name":"SCP - 909 babyraid","steam_id":76561198015075950,"connected_time":1468000000000,"state":"connecting","ping":139},{"user_id":645,"name":"TheOtherBrush","steam_id":76561199048222977,"connected_time":9000000000,"state":"connecting","ping":430},{"user_id":644,"name":"Nightwatcher553","steam_id":76561198991570204,"connected_time":44000000000,"state":"connecting","ping":107},{"user_id":639,"name":"I Am Alpharius","steam_id":76561198033100226,"connected_time":726000000000,"state":"connecting","ping":127},{"user_id":609,"name":"xerro","steam_id":76561198323340524,"connected_time":3115000000000,"state":"connecting","ping":118},{"user_id":614,"name":"Igrium","steam_id":76561198119549811,"connected_time":2443000000000,"state":"connecting","ping":63},{"user_id":646,"name":"POGTRONAS","steam_id":76561198061214216,"connected_time":1000000000,"state":"connecting","ping":130},{"user_id":598,"name":"HuntBunt","steam_id":76561199055381357,"connected_time":3491000000000,"state":"spawning","ping":95},{"user_id":637,"name":"norhtn sorabiba","steam_id":76561199193020423,"connected_time":810000000000,"state":"spawning","ping":78},{"user_id":643,"name":"Drake from State Farm","steam_id":76561199069029812,"connected_time":160000000000,"state":"connecting","ping":65},{"user_id":642,"name":"VicLoL","steam_id":76561198045580784,"connected_time":350000000000,"state":"connecting","ping":69},{"user_id":630,"name":"BillyOneShot242","steam_id":76561199245556843,"connected_time":903000000000,"state":"connecting","ping":90},{"user_id":606,"name":"EatSomeBEES","steam_id":76561198047334307,"connected_time":3254000000000,"state":"spawning","ping":75},{"user_id":627,"name":"Tricky","steam_id":76561198287908105,"connected_time":1171000000000,"state":"connecting","ping":98},{"user_id":608,"name":"Stapler","steam_id":76561198099295077,"connected_time":3188000000000,"state":"connecting","ping":55},{"user_id":556,"name":"wrongs","steam_id":76561198084208649,"connected_time":6670000000000,"state":"connecting","ping":88},{"user_id":617,"name":"Zogovro","steam_id":76561199163618880,"connected_time":2333000000000,"state":"spawning","ping":68},{"user_id":611,"name":"Highground","steam_id":76561199197544789,"connected_time":2718000000000,"state":"connecting","ping":180},{"user_id":538,"name":"Resh420","steam_id":76561198066619792,"connected_time":7679000000000,"state":"connecting","ping":113},{"user_id":634,"name":"tumble bee","steam_id":76561198404691203,"connected_time":861000000000,"state":"connecting","ping":61}]},{"server_id":18,"name":"Uncletopia | San Francisco | 2 | All Maps","name_short":"sfo-2","host":"sfo-1.us.uncletopia.com","port":27025,"enabled":true,"region":"us-west","cc":"us","latitude":37.77397,"longitude":-122.4313,"reserved":0,"last_update":"0001-01-01T00:00:00Z","name_a2s":"Uncletopia | San Francisco | 2 | All Maps","protocol":17,"map":"koth_highpass","folder":"tf","game":"Team Fortress","app_id":440,"player_count":0,"max_players":24,"Bots":0,"server_type":"Dedicated","server_os":"Linux","password":true,"vac":true,"version":"7757534","steam_id":85568392924470000,"keywords":["cp","nocrits","nodmgspread","uncletopia"],"game_id":440,"stv_port":27026,"stv_name":"Uncletopia | San Francisco | 2 | All Maps | STV","players":null},{"server_id":19,"name":"Uncletopia | San Francisco | 3 | Stopwatch Beta","name_short":"sfo-3","host":"sfo-1.us.uncletopia.com","port":27035,"enabled":true,"region":"us-west","cc":"us","latitude":37.77397,"longitude":-122.4313,"reserved":0,"last_update":"0001-01-01T00:00:00Z","name_a2s":"Uncletopia | San Francisco | 3 | Stopwatch Beta","protocol":17,"map":"workshop/pl_barnblitz_pro7.ugc582280235","folder":"tf","game":"Team Fortress","app_id":440,"player_count":0,"max_players":24,"Bots":0,"server_type":"Dedicated","server_os":"Linux","password":true,"vac":true,"version":"7757534","steam_id":85568392924742824,"keywords":["nocrits","nodmgspread","payload","uncletopia"],"game_id":440,"stv_port":27036,"stv_name":"Uncletopia | San Francisco | 3 | Stopwatch Beta | STV","players":null},{"server_id":20,"name":"Uncletopia | San Francisco | 4 | Community","name_short":"sfo-4","host":"sfo-1.us.uncletopia.com","port":27045,"enabled":true,"region":"us-west","cc":"us","latitude":37.77397,"longitude":-122.4313,"reserved":0,"last_update":"0001-01-01T00:00:00Z","name_a2s":"Uncletopia | San Francisco | 4 | Community","protocol":17,"map":"workshop/pl_vigil_rc9.ugc1266210012","folder":"tf","game":"Team Fortress","app_id":440,"player_count":24,"max_players":24,"Bots":0,"server_type":"Dedicated","server_os":"Linux","password":true,"vac":true,"version":"7757534","steam_id":85568392924742826,"keywords":["nocrits","nodmgspread","payload","uncletopia"],"game_id":440,"stv_port":27046,"stv_name":"Uncletopia | San Francisco | 4 | Community | STV","players":[{"user_id":110,"name":"ZeroFrosty","steam_id":76561198061681731,"connected_time":2003000000000,"state":"active","ping":132},{"user_id":103,"name":"tanavast","steam_id":76561198152297274,"connected_time":2264000000000,"state":"active","ping":105},{"user_id":104,"name":"Varak","steam_id":76561198072327235,"connected_time":2200000000000,"state":"active","ping":164},{"user_id":125,"name":"Cheif","steam_id":76561198802147518,"connected_time":818000000000,"state":"active","ping":104},{"user_id":105,"name":"inside a miku body pillow","steam_id":76561198136169355,"connected_time":2187000000000,"state":"active","ping":118},{"user_id":114,"name":"Chip","steam_id":76561198064558480,"connected_time":1678000000000,"state":"active","ping":69},{"user_id":89,"name":"Ace","steam_id":76561198041435326,"connected_time":3491000000000,"state":"active","ping":133},{"user_id":134,"name":"Joe Grumbo","steam_id":76561198048485190,"connected_time":23000000000,"state":"active","ping":1112},{"user_id":118,"name":"Sal In Haiti","steam_id":76561198055452939,"connected_time":1353000000000,"state":"active","ping":72},{"user_id":111,"name":"Hollow gamer","steam_id":76561198426798913,"connected_time":1936000000000,"state":"active","ping":73},{"user_id":116,"name":"starrk","steam_id":76561198246066894,"connected_time":1621000000000,"state":"active","ping":105},{"user_id":91,"name":"pinko stinko","steam_id":76561198011830266,"connected_time":3427000000000,"state":"active","ping":131},{"user_id":128,"name":"shady","steam_id":76561198058098509,"connected_time":524000000000,"state":"active","ping":78},{"user_id":108,"name":"ant","steam_id":76561198046574282,"connected_time":2174000000000,"state":"active","ping":132},{"user_id":120,"name":"stboncho","steam_id":76561198172275301,"connected_time":1319000000000,"state":"active","ping":58},{"user_id":97,"name":"Toasty","steam_id":76561198363417298,"connected_time":2681000000000,"state":"active","ping":117},{"user_id":129,"name":"CHIANG KAI-SHEK","steam_id":76561198281612642,"connected_time":521000000000,"state":"active","ping":69},{"user_id":46,"name":"Ahcer","steam_id":76561198125190121,"connected_time":7263000000000,"state":"active","ping":55},{"user_id":95,"name":"LtGigglebubbles","steam_id":76561198114373812,"connected_time":3033000000000,"state":"active","ping":121},{"user_id":132,"name":"vividbot","steam_id":76561198158980015,"connected_time":76000000000,"state":"active","ping":64},{"user_id":109,"name":"Strangey","steam_id":76561198122525191,"connected_time":2159000000000,"state":"active","ping":132},{"user_id":127,"name":"Corrupt","steam_id":76561198120640548,"connected_time":610000000000,"state":"active","ping":67},{"user_id":99,"name":"Funny Rat","steam_id":76561198050762621,"connected_time":2667000000000,"state":"active","ping":124},{"user_id":124,"name":"Please_insert_id","steam_id":76561198058140301,"connected_time":1134000000000,"state":"active","ping":129}]},{"server_id":141,"name":"Uncletopia | Sydney | 1 | All Maps","name_short":"syd-1","host":"syd-1.au.uncletopia.com","port":27015,"enabled":true,"region":"au","cc":"au","latitude":-33.865143,"longitude":151.2099,"reserved":0,"last_update":"0001-01-01T00:00:00Z","name_a2s":"Uncletopia | Sydney | 1 | All Maps","protocol":17,"map":"pl_snowycoast","folder":"tf","game":"Team Fortress","app_id":440,"player_count":25,"max_players":24,"Bots":0,"server_type":"Dedicated","server_os":"Linux","password":true,"vac":true,"version":"7757534","steam_id":85568392924470001,"keywords":["nocrits","nodmgspread","payload","uncletopia"],"game_id":440,"stv_port":27016,"stv_name":"Uncletopia | Sydney | 1 | All Maps | STV","players":[{"user_id":132,"name":"doctor morbin' (real)","steam_id":76561199365241695,"connected_time":1433000000000,"state":"active","ping":130},{"user_id":142,"name":"itsnothenry","steam_id":76561197966455767,"connected_time":325000000000,"state":"active","ping":60},{"user_id":86,"name":"oogeenee","steam_id":76561199224705904,"connected_time":3539000000000,"state":"active","ping":87},{"user_id":150,"name":"Mr Mahal","steam_id":76561198123234137,"connected_time":5000000000,"state":"spawning","ping":91},{"user_id":129,"name":"jim :)","steam_id":76561198127508905,"connected_time":1605000000000,"state":"active","ping":38},{"user_id":137,"name":"krandlez` (Any/All)","steam_id":76561198044839726,"connected_time":832000000000,"state":"active","ping":35},{"user_id":143,"name":"MaskedN3onTTV","steam_id":76561198861785691,"connected_time":316000000000,"state":"active","ping":102},{"user_id":105,"name":"01001110 01101111","steam_id":76561198290288735,"connected_time":2602000000000,"state":"active","ping":61},{"user_id":144,"name":"\u003e:FrozenDragon:\u003c","steam_id":76561198227960928,"connected_time":298000000000,"state":"active","ping":93},{"user_id":98,"name":"Sinister80s","steam_id":76561198343540472,"connected_time":3261000000000,"state":"active","ping":75},{"user_id":118,"name":"itsjustmarvin77","steam_id":76561199375656301,"connected_time":2211000000000,"state":"active","ping":75},{"user_id":96,"name":"T-nooki™","steam_id":76561198054135837,"connected_time":3328000000000,"state":"active","ping":53},{"user_id":106,"name":"Emanuel Augustus","steam_id":76561199081848498,"connected_time":2521000000000,"state":"active","ping":65},{"user_id":103,"name":"des_solatius","steam_id":76561198154509561,"connected_time":2856000000000,"state":"active","ping":79},{"user_id":109,"name":"Fresh Produce Gaming","steam_id":76561198358483352,"connected_time":2493000000000,"state":"active","ping":62},{"user_id":145,"name":"Zieria","steam_id":76561199261811388,"connected_time":214000000000,"state":"active","ping":45},{"user_id":146,"name":"midB","steam_id":76561198042803042,"connected_time":153000000000,"state":"active","ping":45},{"user_id":133,"name":"teejayburger","steam_id":76561198143142423,"connected_time":1410000000000,"state":"active","ping":68},{"user_id":126,"name":"Syujiji","steam_id":76561198004276345,"connected_time":1676000000000,"state":"active","ping":54},{"user_id":93,"name":"Piklz","steam_id":76561198043384139,"connected_time":3379000000000,"state":"active","ping":54},{"user_id":147,"name":"korn","steam_id":76561198022563294,"connected_time":137000000000,"state":"connecting","ping":0},{"user_id":148,"name":"Goats on a Boat","steam_id":76561198064842725,"connected_time":126000000000,"state":"active","ping":45},{"user_id":136,"name":"OMG that kick is crazy!","steam_id":76561198420572723,"connected_time":1043000000000,"state":"active","ping":80},{"user_id":131,"name":"Cup","steam_id":76561198038485845,"connected_time":1566000000000,"state":"active","ping":45},{"user_id":149,"name":"Marsguard","steam_id":76561198113775091,"connected_time":120000000000,"state":"active","ping":62}]},{"server_id":123,"name":"Uncletopia | Sydney | 2 | All Maps","name_short":"syd-2","host":"syd-1.au.uncletopia.com","port":27025,"enabled":true,"region":"au","cc":"au","latitude":-33.865143,"longitude":151.2099,"reserved":0,"last_update":"0001-01-01T00:00:00Z","name_a2s":"Uncletopia | Sydney | 2 | All Maps","protocol":17,"map":"pl_badwater","folder":"tf","game":"Team Fortress","app_id":440,"player_count":0,"max_players":24,"Bots":0,"server_type":"Dedicated","server_os":"Linux","password":true,"vac":true,"version":"7757534","steam_id":85568392924470002,"keywords":["nocrits","nodmgspread","payload","uncletopia"],"game_id":440,"stv_port":27026,"stv_name":"Uncletopia | Sydney | 2 | All Maps | STV","players":null},{"server_id":395,"name":"Uncletopia | Sydney | 3 | All Maps","name_short":"syd-3","host":"syd-1.au.uncletopia.com","port":27035,"enabled":true,"region":"au","cc":"au","latitude":-33.865143,"longitude":151.2099,"reserved":0,"last_update":"0001-01-01T00:00:00Z","name_a2s":"Uncletopia | Sydney | 3 | All Maps","protocol":17,"map":"cp_dustbowl","folder":"tf","game":"Team Fortress","app_id":440,"player_count":21,"max_players":24,"Bots":0,"server_type":"Dedicated","server_os":"Linux","password":true,"vac":true,"version":"7757534","steam_id":85568392925194467,"keywords":["cp","nocrits","nodmgspread","uncletopia"],"game_id":440,"stv_port":27036,"stv_name":"Uncletopia | Sydney | 3 | All Maps | STV","players":[{"user_id":90,"name":"Alphandiscobean","steam_id":76561198025845937,"connected_time":485000000000,"state":"active","ping":51},{"user_id":85,"name":"Tofu","steam_id":76561198025637573,"connected_time":595000000000,"state":"active","ping":40},{"user_id":78,"name":"An Exquisite Idiot","steam_id":76561199257116847,"connected_time":986000000000,"state":"active","ping":53},{"user_id":98,"name":"korn","steam_id":76561198022563294,"connected_time":107000000000,"state":"active","ping":108},{"user_id":101,"name":"harrison.avenue","steam_id":76561198037288988,"connected_time":4000000000,"state":"spawning","ping":327},{"user_id":92,"name":"Gwarp","steam_id":76561198061960926,"connected_time":330000000000,"state":"active","ping":102},{"user_id":80,"name":"perturb","steam_id":76561198085124297,"connected_time":889000000000,"state":"active","ping":59},{"user_id":46,"name":"jv","steam_id":76561198267475132,"connected_time":3319000000000,"state":"active","ping":46},{"user_id":51,"name":"Haste","steam_id":76561198173155142,"connected_time":3089000000000,"state":"active","ping":60},{"user_id":47,"name":"bobo","steam_id":76561198156622144,"connected_time":3312000000000,"state":"active","ping":60},{"user_id":58,"name":"HORIZ0N","steam_id":76561199006929134,"connected_time":2818000000000,"state":"active","ping":74},{"user_id":41,"name":"fatal exception error","steam_id":76561198115584374,"connected_time":3955000000000,"state":"active","ping":56},{"user_id":93,"name":"lavanderpumpernickle","steam_id":76561199093611800,"connected_time":319000000000,"state":"active","ping":46},{"user_id":82,"name":"pants money","steam_id":76561198066256359,"connected_time":834000000000,"state":"active","ping":50},{"user_id":94,"name":"SdreaM","steam_id":76561198413052417,"connected_time":310000000000,"state":"active","ping":86},{"user_id":74,"name":"BobTheHuminoid","steam_id":76561199241312725,"connected_time":1376000000000,"state":"active","ping":88},{"user_id":100,"name":"cedrick highsmith","steam_id":76561198380568764,"connected_time":30000000000,"state":"active","ping":66},{"user_id":95,"name":"SCHEFF","steam_id":76561198078226216,"connected_time":275000000000,"state":"active","ping":57},{"user_id":70,"name":"Wisey","steam_id":76561198120829189,"connected_time":1443000000000,"state":"active","ping":65},{"user_id":97,"name":"little raw meat boy","steam_id":76561199248254676,"connected_time":198000000000,"state":"active","ping":57},{"user_id":102,"name":"Daniel Chong","steam_id":76561199009189725,"connected_time":0,"state":"spawning","ping":0}]},{"server_id":396,"name":"Uncletopia | Sydney | 4 | All Maps","name_short":"syd-4","host":"syd-1.au.uncletopia.com","port":27045,"enabled":true,"region":"au","cc":"au","latitude":-33.865143,"longitude":151.2099,"reserved":0,"last_update":"0001-01-01T00:00:00Z","name_a2s":"Uncletopia | Sydney | 4 | All Maps","protocol":17,"map":"koth_highpass","folder":"tf","game":"Team Fortress","app_id":440,"player_count":0,"max_players":24,"Bots":0,"server_type":"Dedicated","server_os":"Linux","password":true,"vac":true,"version":"7757534","steam_id":85568392925397958,"keywords":["cp","nocrits","nodmgspread","uncletopia"],"game_id":440,"stv_port":27046,"stv_name":"Uncletopia | Sydney | 4 | All Maps | STV","players":null},{"server_id":58,"name":"Uncletopia | Sydney | 5 | Stopwatch Beta","name_short":"syd-5","host":"syd-1.au.uncletopia.com","port":27055,"enabled":true,"region":"au","cc":"au","latitude":-33.865143,"longitude":151.2099,"reserved":0,"last_update":"0001-01-01T00:00:00Z","name_a2s":"Uncletopia | Sydney | 5 | Stopwatch Beta","protocol":17,"map":"workshop/cp_reckoner_rc6.ugc674719999","folder":"tf","game":"Team Fortress","app_id":440,"player_count":0,"max_players":24,"Bots":0,"server_type":"Dedicated","server_os":"Linux","password":true,"vac":true,"version":"7757534","steam_id":85568392925397959,"keywords":["cp","nocrits","nodmgspread","uncletopia"],"game_id":440,"stv_port":27056,"stv_name":"Uncletopia | Sydney | 5 | Stopwatch Beta | STV","players":null},{"server_id":59,"name":"Uncletopia | Sydney | 6 | Community","name_short":"syd-6","host":"syd-1.au.uncletopia.com","port":27065,"enabled":true,"region":"au","cc":"au","latitude":-33.865143,"longitude":151.2099,"reserved":0,"last_update":"0001-01-01T00:00:00Z","name_a2s":"Uncletopia | Sydney | 6 | Community","protocol":17,"map":"cp_snakewater_final1","folder":"tf","game":"Team Fortress","app_id":440,"player_count":0,"max_players":24,"Bots":0,"server_type":"Dedicated","server_os":"Linux","password":true,"vac":true,"version":"7757534","steam_id":85568392925397960,"keywords":["cp","nocrits","nodmgspread","uncletopia"],"game_id":440,"stv_port":27066,"stv_name":"Uncletopia | Sydney | 6 | Community | STV","players":null},{"server_id":49,"name":"Uncletopia | Warsaw | 1 | All Maps","name_short":"waw-1","host":"waw-1.pl.uncletopia.com","port":27015,"enabled":true,"region":"eu","cc":"pl","latitude":52.2297,"longitude":21.017532,"reserved":0,"last_update":"0001-01-01T00:00:00Z","name_a2s":"","protocol":0,"map":"","folder":"","game":"","app_id":0,"player_count":0,"max_players":0,"Bots":0,"server_type":"","server_os":"","password":false,"vac":false,"version":"","steam_id":0,"keywords":null,"game_id":0,"stv_port":0,"stv_name":"","players":null},{"server_id":50,"name":"Uncletopia | Warsaw | 2 | All Maps","name_short":"waw-2","host":"waw-1.pl.uncletopia.com","port":27025,"enabled":true,"region":"eu","cc":"pl","latitude":52.2297,"longitude":21.017532,"reserved":0,"last_update":"0001-01-01T00:00:00Z","name_a2s":"Uncletopia | Warsaw | 2 | All Maps","protocol":17,"map":"koth_viaduct","folder":"tf","game":"Team Fortress","app_id":440,"player_count":0,"max_players":24,"Bots":0,"server_type":"Dedicated","server_os":"Linux","password":true,"vac":true,"version":"7757534","steam_id":85568392925397851,"keywords":["cp","nocrits","nodmgspread","uncletopia"],"game_id":440,"stv_port":27026,"stv_name":"Uncletopia | Warsaw | 2 | All Maps | STV","players":null},{"server_id":51,"name":"Uncletopia | Warsaw | 3 | All Maps","name_short":"waw-3","host":"waw-1.pl.uncletopia.com","port":27035,"enabled":true,"region":"eu","cc":"pl","latitude":52.2297,"longitude":21.017532,"reserved":0,"last_update":"0001-01-01T00:00:00Z","name_a2s":"Uncletopia | Warsaw | 3 | All Maps","protocol":17,"map":"koth_viaduct","folder":"tf","game":"Team Fortress","app_id":440,"player_count":0,"max_players":24,"Bots":0,"server_type":"Dedicated","server_os":"Linux","password":true,"vac":true,"version":"7757534","steam_id":85568392925397852,"keywords":["cp","nocrits","nodmgspread","uncletopia"],"game_id":440,"stv_port":27036,"stv_name":"Uncletopia | Warsaw | 3 | All Maps | STV","players":null},{"server_id":52,"name":"Uncletopia | Warsaw | 4 | All Maps","name_short":"waw-4","host":"waw-1.pl.uncletopia.com","port":27045,"enabled":true,"region":"eu","cc":"pl","latitude":52.2297,"longitude":21.017532,"reserved":0,"last_update":"0001-01-01T00:00:00Z","name_a2s":"Uncletopia | Warsaw | 4 | All Maps","protocol":17,"map":"koth_lakeside_final","folder":"tf","game":"Team Fortress","app_id":440,"player_count":0,"max_players":24,"Bots":0,"server_type":"Dedicated","server_os":"Linux","password":true,"vac":true,"version":"7757534","steam_id":85568392925397853,"keywords":["cp","nocrits","nodmgspread","uncletopia"],"game_id":440,"stv_port":27046,"stv_name":"Uncletopia | Warsaw | 4 | All Maps | STV","players":null},{"server_id":53,"name":"Uncletopia | Warsaw | 5 | Stopwatch Beta","name_short":"waw-5","host":"waw-1.pl.uncletopia.com","port":27055,"enabled":true,"region":"eu","cc":"pl","latitude":52.2297,"longitude":21.017532,"reserved":0,"last_update":"0001-01-01T00:00:00Z","name_a2s":"Uncletopia | Warsaw | 5 | Stopwatch Beta","protocol":17,"map":"pl_borneo","folder":"tf","game":"Team Fortress","app_id":440,"player_count":0,"max_players":24,"Bots":0,"server_type":"Dedicated","server_os":"Linux","password":true,"vac":true,"version":"7757534","steam_id":85568392925397854,"keywords":["nocrits","nodmgspread","payload","uncletopia"],"game_id":440,"stv_port":27056,"stv_name":"Uncletopia | Warsaw | 5 | Stopwatch Beta | STV","players":null},{"server_id":54,"name":"Uncletopia | Warsaw | 6 | Community","name_short":"waw-6","host":"waw-1.pl.uncletopia.com","port":27065,"enabled":true,"region":"eu","cc":"pl","latitude":52.2297,"longitude":21.017532,"reserved":0,"last_update":"0001-01-01T00:00:00Z","name_a2s":"Uncletopia | Warsaw | 6 | Community","protocol":17,"map":"koth_lakeside_final","folder":"tf","game":"Team Fortress","app_id":440,"player_count":0,"max_players":24,"Bots":0,"server_type":"Dedicated","server_os":"Linux","password":true,"vac":true,"version":"7757534","steam_id":85568392925397856,"keywords":["cp","nocrits","nodmgspread","uncletopia"],"game_id":440,"stv_port":27066,"stv_name":"Uncletopia | Warsaw | 6 | Community | STV","players":null}]}