{"status":true,"message":"","result":[{"server_id":9,"name":"Uncletopia | Atlanta | 1 | All Maps","name_short":"atl-1","host":"atl-1.us.uncletopia.com","port":27015,"enabled":true,"region":"us-east","cc":"us","latitude":33.753746,"longitude":-84.38633,"reserved":0,"last_update":"0001-01-01T00:00:00Z","name_a2s":"Uncletopia | Atlanta | 1 | All Maps","protocol":17,"map":"pl_barnblitz","folder":"tf","game":"Team Fortress","app_id":440,"player_count":12,"max_players":24,"Bots":0,"server_type":"Dedicated","server_os":"Linux","password":true,"vac":true,"version":"7882260","steam_id":85568392924469982,"keywords":["nocrits","nodmgspread","payload","uncletopia"],"game_id":440,"stv_port":27016,"stv_name":"Uncletopia | Atlanta | 1 | All Maps | STV","players":[{"user_id":632,"name":"Pascal","steam_id":76561198902657591,"connected_time":187000000000,"state":"active","ping":45},{"user_id":640,"name":"Galactamarx","steam_id":76561198028065755,"connected_time":135000000000,"state":"active","ping":89},{"user_id":604,"name":"rose","steam_id":76561198048882285,"connected_time":3756000000000,"state":"active","ping":52},{"user_id":605,"name":"Zillers","steam_id":76561198095248744,"connected_time":3283000000000,"state":"active","ping":75},{"user_id":494,"name":"joe","steam_id":76561198045781320,"connected_time":12794000000000,"state":"active","ping":63},{"user_id":630,"name":"some cringe guy","steam_id":76561198104086771,"connected_time":1782000000000,"state":"active","ping":100},{"user_id":628,"name":"OddSlaush","steam_id":76561198043898488,"connected_time":2043000000000,"state":"active","ping":83},{"user_id":635,"name":"brock","steam_id":76561199015537819,"connected_time":157000000000,"state":"active","ping":50},{"user_id":619,"name":"Ojen","steam_id":76561197998414482,"connected_time":2170000000000,"state":"active","ping":84},{"user_id":634,"name":"on1on (fried)","steam_id":76561197995304137,"connected_time":162000000000,"state":"active","ping":150},{"user_id":637,"name":"I\u003c3 DUSTBOWL STEEL AND VANGUARD","steam_id":76561198333513882,"connected_time":151000000000,"state":"active","ping":73},{"user_id":631,"name":"Mobius","steam_id":76561199121973450,"connected_time":742000000000,"state":"active","ping":57}]},{"server_id":104,"name":"Uncletopia | Atlanta | 2 | All Maps","name_short":"atl-2","host":"atl-1.us.uncletopia.com","port":27025,"enabled":true,"region":"us-east","cc":"us","latitude":33.753746,"longitude":-84.38633,"reserved":0,"last_update":"0001-01-01T00:00:00Z","name_a2s":"Uncletopia | Atlanta | 2 | All Maps","protocol":17,"map":"pl_barnblitz","folder":"tf","game":"Team Fortress","app_id":440,"player_count":0,"max_players":24,"Bots":0,"server_type":"Dedicated","server_os":"Linux","password":true,"vac":true,"version":"7882260","steam_id":85568392924469983,"keywords":["nocrits","nodmgspread","payload","uncletopia"],"game_id":440,"stv_port":27026,"stv_name":"Uncletopia | Atlanta | 2 | All Maps | STV","players":null},{"server_id":400,"name":"Uncletopia | Atlanta | 3 | Community","name_short":"atl-3","host":"atl-1.us.uncletopia.com","port":27035,"enabled":true,"region":"us-east","cc":"us","latitude":33.753746,"longitude":-84.38633,"reserved":0,"last_update":"0001-01-01T00:00:00Z","name_a2s":"Uncletopia | Atlanta | 3 | Community","protocol":17,"map":"workshop/cp_propaganda_b18.ugc1603743849","folder":"tf","game":"Team Fortress","app_id":440,"player_count":0,"max_players":24,"Bots":0,"server_type":"Dedicated","server_os":"Linux","password":true,"vac":true,"version":"7882260","steam_id":85568392924515187,"keywords":["cp","nocrits","nodmgspread","uncletopia"],"game_id":440,"stv_port":27036,"stv_name":"Uncletopia | Atlanta | 3 | Community | STV","players":null},{"server_id":401,"name":"Uncletopia | Atlanta | 4 | No Payload","name_short":"atl-4","host":"atl-1.us.uncletopia.com","port":27045,"enabled":true,"region":"us-east","cc":"us","latitude":33.753746,"longitude":-84.38633,"reserved":0,"last_update":"0001-01-01T00:00:00Z","name_a2s":"","protocol":0,"map":"","folder":"","game":"","app_id":0,"player_count":0,"max_players":0,"Bots":0,"server_type":"","server_os":"","password":false,"vac":false,"version":"","steam_id":0,"keywords":null,"game_id":0,"stv_port":0,"stv_name":"","players":null},{"server_id":2,"name":"Uncletopia | Chicago | 1 | All Maps","name_short":"chi-1","host":"chi-1.us.uncletopia.com","port":27015,"enabled":true,"region":"us-central","cc":"us","latitude":41.881832,"longitude":-87.62318,"reserved":0,"last_update":"0001-01-01T00:00:00Z","name_a2s":"Uncletopia | Chicago | 1 | All Maps","protocol":17,"map":"pl_borneo","folder":"tf","game":"Team Fortress","app_id":440,"player_count":0,"max_players":24,"Bots":0,"server_type":"Dedicated","server_os":"Linux","password":true,"vac":true,"version":"7882260","steam_id":85568392924469984,"keywords":["nocrits","nodmgspread","payload","uncletopia"],"game_id":440,"stv_port":27016,"stv_name":"Uncletopia | Chicago | 1 | All Maps | STV","players":null},{"server_id":106,"name":"Uncletopia | Chicago | 2 | All Maps","name_short":"chi-2","host":"chi-1.us.uncletopia.com","port":27025,"enabled":true,"region":"us-central","cc":"us","latitude":41.881832,"longitude":-87.62318,"reserved":0,"last_update":"0001-01-01T00:00:00Z","name_a2s":"Uncletopia | Chicago | 2 | All Maps","protocol":17,"map":"pl_swiftwater_final1","folder":"tf","game":"Team Fortress","app_id":440,"player_count":0,"max_players":24,"Bots":0,"server_type":"Dedicated","server_os":"Linux","password":true,"vac":true,"version":"7882260","steam_id":85568392924469985,"keywords":["nocrits","nodmgspread","payload","uncletopia"],"game_id":440,"stv_port":27026,"stv_name":"Uncletopia | Chicago | 2 | All Maps | STV","players":null},{"server_id":402,"name":"Uncletopia | Chicago | 3 | All Maps","name_short":"chi-3","host":"chi-1.us.uncletopia.com","port":27035,"enabled":true,"region":"us-central","cc":"us","latitude":41.881832,"longitude":-87.62318,"reserved":0,"last_update":"0001-01-01T00:00:00Z","name_a2s":"Uncletopia | Chicago | 3 | All Maps","protocol":17,"map":"cp_dustbowl","folder":"tf","game":"Team Fortress","app_id":440,"player_count":4,"max_players":24,"Bots":0,"server_type":"Dedicated","server_os":"Linux","password":true,"vac":true,"version":"7882260","steam_id":85568392924515191,"keywords":["cp","nocrits","nodmgspread","uncletopia"],"game_id":440,"stv_port":27036,"stv_name":"Uncletopia | Chicago | 3 | All Maps | STV","players":[{"user_id":489,"name":"The Doc K","steam_id":76561198035695029,"connected_time":241000000000,"state":"active","ping":87},{"user_id":488,"name":"Wheaties","steam_id":76561198060909578,"connected_time":464000000000,"state":"active","ping":89},{"user_id":490,"name":"Feel the bern","steam_id":76561198078824519,"connected_time":178000000000,"state":"active","ping":95},{"user_id":458,"name":"JellyRoll Jerry","steam_id":76561198037149474,"connected_time":3440000000000,"state":"active","ping":101}]},{"server_id":403,"name":"Uncletopia | Chicago | 4 | All Maps","name_short":"chi-4","host":"chi-1.us.uncletopia.com","port":27045,"enabled":true,"region":"us-central","cc":"us","latitude":41.881832,"longitude":-87.62318,"reserved":0,"last_update":"0001-01-01T00:00:00Z","name_a2s":"Uncletopia | Chicago | 4 | All Maps","protocol":17,"map":"cp_sunshine","folder":"tf","game":"Team Fortress","app_id":440,"player_count":24,"max_players":24,"Bots":0,"server_type":"Dedicated","server_os":"Linux","password":true,"vac":true,"version":"7882260","steam_id":85568392924515193,"keywords":["cp","nocrits","nodmgspread","uncletopia"],"game_id":440,"stv_port":27046,"stv_name":"Uncletopia | Chicago | 4 | All Maps | STV","players":[{"user_id":412,"name":"Galvatron","steam_id":76561198093688740,"connected_time":116000000000,"state":"active","ping":68},{"user_id":410,"name":"Walla","steam_id":76561198103379757,"connected_time":361000000000,"state":"active","ping":49},{"user_id":394,"name":"You're Cheeks","steam_id":76561198065479486,"connected_time":1318000000000,"state":"active","ping":61},{"user_id":386,"name":"Ringo x Seiran","steam_id":76561198357437908,"connected_time":2121000000000,"state":"active","ping":60},{"user_id":413,"name":"coolest friend in the group cha","steam_id":76561198065103382,"connected_time":111000000000,"state":"active","ping":65},{"user_id":397,"name":"zambi","steam_id":76561198123985208,"connected_time":960000000000,"state":"active","ping":60},{"user_id":382,"name":"TOKENLIZARD","steam_id":76561198218765205,"connected_time":2363000000000,"state":"active","ping":70},{"user_id":402,"name":"TheSnipersHat","steam_id":76561198057684066,"connected_time":711000000000,"state":"active","ping":57},{"user_id":403,"name":"BattleWriter","steam_id":76561198059618706,"connected_time":696000000000,"state":"active","ping":60},{"user_id":411,"name":"Duty Enjoyer","steam_id":76561198831760421,"connected_time":228000000000,"state":"active","ping":85},{"user_id":405,"name":"Sploonbabagoosecooties","steam_id":76561198139972201,"connected_time":657000000000,"state":"active","ping":99},{"user_id":393,"name":"The Monado Satyr","steam_id":76561198153008616,"connected_time":1658000000000,"state":"active","ping":73},{"user_id":400,"name":"I, Goku LOVE weed","steam_id":76561198256886614,"connected_time":845000000000,"state":"active","ping":112},{"user_id":391,"name":"Portizz","steam_id":76561198095732366,"connected_time":1967000000000,"state":"active","ping":82},{"user_id":406,"name":"Poppet","steam_id":76561198012301951,"connected_time":639000000000,"state":"active","ping":57},{"user_id":407,"name":"King De","steam_id":76561198194427422,"connected_time":598000000000,"state":"active","ping":55},{"user_id":377,"name":"Gammaplex","steam_id":76561198981228176,"connected_time":2811000000000,"state":"active","ping":55},{"user_id":395,"name":"corq","steam_id":76561198025569815,"connected_time":1313000000000,"state":"active","ping":71},{"user_id":378,"name":"FHC | D9","steam_id":76561198149666258,"connected_time":2787000000000,"state":"active","ping":46},{"user_id":408,"name":"☂Bliffenstimmers☂","steam_id":76561198059984896,"connected_time":588000000000,"state":"active","ping":85},{"user_id":409,"name":"HK™","steam_id":76561198196793415,"connected_time":570000000000,"state":"active","ping":99},{"user_id":401,"name":"Pongallow","steam_id":76561198146876078,"connected_time":820000000000,"state":"active","ping":45},{"user_id":366,"name":"i fell in luv w dah bandz","steam_id":76561198042600523,"connected_time":3769000000000,"state":"active","ping":61},{"user_id":387,"name":"Jones","steam_id":76561198046037216,"connected_time":2095000000000,"state":"active","ping":90}]},{"server_id":36,"name":"Uncletopia | Chicago | 5 | All Maps","name_short":"chi-5","host":"chi-2.us.uncletopia.com","port":27015,"enabled":true,"region":"us-central","cc":"us","latitude":41.881832,"longitude":-87.62318,"reserved":0,"last_update":"0001-01-01T00:00:00Z","name_a2s":"Uncletopia | Chicago | 5 | All Maps","protocol":17,"map":"pl_pier","folder":"tf","game":"Team Fortress","app_id":440,"player_count":24,"max_players":24,"Bots":0,"server_type":"Dedicated","server_os":"Linux","password":true,"vac":true,"version":"7882260","steam_id":85568392924866362,"keywords":["nocrits","nodmgspread","payload","uncletopia"],"game_id":440,"stv_port":27016,"stv_name":"Uncletopia | Chicago | 5 | All Maps | STV","players":[{"user_id":484,"name":"HammerHead","steam_id":76561197975668646,"connected_time":837000000000,"state":"active","ping":79},{"user_id":451,"name":"dunnydunjo","steam_id":76561198069605283,"connected_time":2859000000000,"state":"active","ping":102},{"user_id":474,"name":"thrak","steam_id":76561198046464138,"connected_time":1657000000000,"state":"active","ping":97},{"user_id":330,"name":"Phil Collins","steam_id":76561198068868644,"connected_time":11813000000000,"state":"active","ping":103},{"user_id":475,"name":"Moth","steam_id":76561198043678734,"connected_time":1651000000000,"state":"active","ping":90},{"user_id":453,"name":"DoctorVoid","steam_id":76561198154715380,"connected_time":2847000000000,"state":"active","ping":125},{"user_id":454,"name":"Big tiddy goth medic gf","steam_id":76561198836316052,"connected_time":2835000000000,"state":"active","ping":105},{"user_id":489,"name":"Musica Universalis","steam_id":76561198184794174,"connected_time":540000000000,"state":"active","ping":118},{"user_id":476,"name":"dang it/darn it/crap","steam_id":76561198204593875,"connected_time":1628000000000,"state":"active","ping":62},{"user_id":490,"name":"TheLostPyro","steam_id":76561198099991710,"connected_time":539000000000,"state":"active","ping":90},{"user_id":486,"name":"gengarfan204932","steam_id":76561198332704108,"connected_time":750000000000,"state":"active","ping":51},{"user_id":460,"name":"Discourse","steam_id":76561198984286678,"connected_time":1910000000000,"state":"active","ping":53},{"user_id":461,"name":"psy","steam_id":76561198013195018,"connected_time":1885000000000,"state":"active","ping":76},{"user_id":491,"name":"iggybones (girl with balls)","steam_id":76561198101610291,"connected_time":460000000000,"state":"active","ping":114},{"user_id":479,"name":"Marceline","steam_id":76561198261007627,"connected_time":1570000000000,"state":"active","ping":70},{"user_id":464,"name":"Female Gamer","steam_id":76561199366482682,"connected_time":1857000000000,"state":"active","ping":167},{"user_id":465,"name":"Barney Calhoun Enjoyer","steam_id":76561198049419309,"connected_time":1854000000000,"state":"active","ping":77},{"user_id":492,"name":"Retro Phoenix","steam_id":76561198077176271,"connected_time":306000000000,"state":"active","ping":57},{"user_id":467,"name":"CHIKN","steam_id":76561198277792665,"connected_time":1801000000000,"state":"active","ping":103},{"user_id":480,"name":"TheCheeseWizard","steam_id":76561198058931315,"connected_time":1504000000000,"state":"active","ping":57},{"user_id":468,"name":"touhou2010@gmail.com","steam_id":76561198045844070,"connected_time":1800000000000,"state":"active","ping":76},{"user_id":469,"name":"Great Value Rice Crispers","steam_id":76561198211512619,"connected_time":1797000000000,"state":"active","ping":69},{"user_id":470,"name":"BreakfastTacos","steam_id":76561198847620442,"connected_time":1788000000000,"state":"active","ping":90},{"user_id":472,"name":"Veles","steam_id":76561198255964493,"connected_time":1762000000000,"state":"active","ping":59}]},{"server_id":37,"name":"Uncletopia | Chicago | 6 | All Maps","name_short":"chi-6","host":"chi-2.us.uncletopia.com","port":27025,"enabled":true,"region":"us-central","cc":"us","latitude":41.881832,"longitude":-87.62318,"reserved":0,"last_update":"0001-01-01T00:00:00Z","name_a2s":"Uncletopia | Chicago | 6 | All Maps","protocol":17,"map":"cp_sunshine","folder":"tf","game":"Team Fortress","app_id":440,"player_count":0,"max_players":24,"Bots":0,"server_type":"Dedicated","server_os":"Linux","password":true,"vac":true,"version":"7882260","steam_id":85568392924866363,"keywords":["cp","nocrits","nodmgspread","uncletopia"],"game_id":440,"stv_port":27026,"stv_name":"Uncletopia | Chicago | 6 | All Maps | STV","players":null},{"server_id":38,"name":"Uncletopia | Chicago | 7 | Stopwatch Beta","name_short":"chi-7","host":"chi-2.us.uncletopia.com","port":27035,"enabled":true,"region":"us-central","cc":"us","latitude":41.881832,"longitude":-87.62318,"reserved":0,"last_update":"0001-01-01T00:00:00Z","name_a2s":"Uncletopia | Chicago | 7 | Stopwatch Beta","protocol":17,"map":"workshop/koth_ramjam_rc1.ugc459778887","folder":"tf","game":"Team Fortress","app_id":440,"player_count":0,"max_players":24,"Bots":0,"server_type":"Dedicated","server_os":"Linux","password":true,"vac":true,"version":"7882260","steam_id":85568392924866364,"keywords":["cp","nocrits","nodmgspread","uncletopia"],"game_id":440,"stv_port":27036,"stv_name":"Uncletopia | Chicago | 7 | Stopwatch Beta | STV","players":null},{"server_id":39,"name":"Uncletopia | Chicago | 8 | Community","name_short":"chi-8","host":"chi-2.us.uncletopia.com","port":27045,"enabled":true,"region":"us-central","cc":"us","latitude":41.881832,"longitude":-87.62318,"reserved":0,"last_update":"0001-01-01T00:00:00Z","name_a2s":"Uncletopia | Chicago | 8 | Community","protocol":17,"map":"workshop/koth_synthetic_rc6a.ugc1549817316","folder":"tf","game":"Team Fortress","app_id":440,"player_count":0,"max_players":24,"Bots":0,"server_type":"Dedicated","server_os":"Linux","password":true,"vac":true,"version":"7882260","steam_id":85568392924866365,"keywords":["cp","nocrits","nodmgspread","uncletopia"],"game_id":440,"stv_port":27046,"stv_name":"Uncletopia | Chicago | 8 | Community | STV","players":null},{"server_id":8,"name":"Uncletopia | Dallas | 1 | All Maps","name_short":"dal-1","host":"dal-1.us.uncletopia.com","port":27015,"enabled":true,"region":"us-central","cc":"us","latitude":32.779167,"longitude":-96.80889,"reserved":0,"last_update":"0001-01-01T00:00:00Z","name_a2s":"Uncletopia | Dallas | 1 | All Maps","protocol":17,"map":"koth_highpass","folder":"tf","game":"Team Fortress","app_id":440,"player_count":24,"max_players":24,"Bots":0,"server_type":"Dedicated","server_os":"Linux","password":true,"vac":true,"version":"7882260","steam_id":85568392924469986,"keywords":["cp","nocrits","nodmgspread","uncletopia"],"game_id":440,"stv_port":27016,"stv_name":"Uncletopia | Dallas | 1 | All Maps | STV","players":[{"user_id":581,"name":"Panda ツ","steam_id":76561198004491689,"connected_time":4613000000000,"state":"active","ping":58},{"user_id":600,"name":"Pornelius Hubert","steam_id":76561198186128723,"connected_time":2674000000000,"state":"active","ping":48},{"user_id":591,"name":"owen","steam_id":76561198121517871,"connected_time":3483000000000,"state":"active","ping":49},{"user_id":550,"name":"Microsoft Office Word 2012","steam_id":76561198292049624,"connected_time":7245000000000,"state":"active","ping":64},{"user_id":605,"name":"cilo","steam_id":76561198046163502,"connected_time":1755000000000,"state":"active","ping":60},{"user_id":615,"name":"bangy","steam_id":76561198043889301,"connected_time":978000000000,"state":"active","ping":61},{"user_id":608,"name":"Luigi Jackson","steam_id":76561198267877246,"connected_time":1645000000000,"state":"active","ping":95},{"user_id":598,"name":"DeckofDragons","steam_id":76561198057398213,"connected_time":2721000000000,"state":"active","ping":74},{"user_id":561,"name":"Spinch","steam_id":76561198296224166,"connected_time":6186000000000,"state":"active","ping":83},{"user_id":610,"name":"BRINGO","steam_id":76561198045273979,"connected_time":1634000000000,"state":"active","ping":73},{"user_id":596,"name":"Remy the rat","steam_id":76561198080519558,"connected_time":2965000000000,"state":"active","ping":55},{"user_id":601,"name":"LovingKindne2z","steam_id":76561199064932372,"connected_time":2394000000000,"state":"active","ping":79},{"user_id":613,"name":"goooot","steam_id":76561198155591052,"connected_time":1429000000000,"state":"active","ping":50},{"user_id":590,"name":"FluttyPutty","steam_id":76561198218446556,"connected_time":3484000000000,"state":"active","ping":58},{"user_id":616,"name":"TheMightyGod","steam_id":76561198220055968,"connected_time":370000000000,"state":"active","ping":62},{"user_id":383,"name":"Publo","steam_id":76561198161777140,"connected_time":20492000000000,"state":"active","ping":55},{"user_id":572,"name":"roleycoley","steam_id":76561198069574107,"connected_time":5058000000000,"state":"active","ping":53},{"user_id":617,"name":"sobaka","steam_id":76561198116008934,"connected_time":327000000000,"state":"active","ping":81},{"user_id":575,"name":"plink","steam_id":76561198057829889,"connected_time":5014000000000,"state":"active","ping":70},{"user_id":614,"name":"TheEmeraldLiker","steam_id":76561198323926464,"connected_time":1261000000000,"state":"active","ping":129},{"user_id":612,"name":"SQbuilder","steam_id":76561198076473375,"connected_time":1491000000000,"state":"active","ping":83},{"user_id":584,"name":"CreepyCook","steam_id":76561198242874622,"connected_time":4472000000000,"state":"active","ping":63},{"user_id":602,"name":"fish lover woman fearer","steam_id":76561198241061928,"connected_time":2219000000000,"state":"active","ping":68},{"user_id":479,"name":"AzuriousAlex","steam_id":76561198158026405,"connected_time":12320000000000,"state":"active","ping":78}]},{"server_id":108,"name":"Uncletopia | Dallas | 2 | All Maps","name_short":"dal-2","host":"dal-1.us.uncletopia.com","port":27025,"enabled":true,"region":"us-central","cc":"us","latitude":32.779167,"longitude":-96.80889,"reserved":0,"last_update":"0001-01-01T00:00:00Z","name_a2s":"Uncletopia | Dallas | 2 | All Maps","protocol":17,"map":"pl_barnblitz","folder":"tf","game":"Team Fortress","app_id":440,"player_count":24,"max_players":24,"Bots":0,"server_type":"Dedicated","server_os":"Linux","password":true,"vac":true,"version":"7882260","steam_id":85568392924469988,"keywords":["nocrits","nodmgspread","payload","uncletopia"],"game_id":440,"stv_port":27026,"stv_name":"Uncletopia | Dallas | 2 | All Maps | STV","players":[{"user_id":513,"name":"Redman_Echo419","steam_id":76561199482478023,"connected_time":934000000000,"state":"active","ping":144},{"user_id":534,"name":"Mops","steam_id":76561198058213741,"connected_time":307000000000,"state":"active","ping":81},{"user_id":501,"name":"Mr. Dick™","steam_id":76561198047309044,"connected_time":2341000000000,"state":"active","ping":58},{"user_id":505,"name":"Draven","steam_id":76561198074776388,"connected_time":1220000000000,"state":"active","ping":55},{"user_id":506,"name":"DaveGhostman #SaveTF2","steam_id":76561198293806628,"connected_time":1049000000000,"state":"active","ping":75},{"user_id":492,"name":"30-3600Seconds","steam_id":76561198116398274,"connected_time":3574000000000,"state":"active","ping":47},{"user_id":507,"name":"dinky little beanie baby","steam_id":76561197999318398,"connected_time":1020000000000,"state":"active","ping":117},{"user_id":508,"name":"счизяѳ","steam_id":76561199182960322,"connected_time":1003000000000,"state":"active","ping":59},{"user_id":509,"name":"Chunky Little Chongus","steam_id":76561199094873145,"connected_time":992000000000,"state":"active","ping":115},{"user_id":510,"name":"V0ltage","steam_id":76561198307656089,"connected_time":958000000000,"state":"active","ping":62},{"user_id":511,"name":"Didn't Ask","steam_id":76561198017009322,"connected_time":957000000000,"state":"active","ping":93},{"user_id":512,"name":"LOL767LOL","steam_id":76561199441270073,"connected_time":952000000000,"state":"active","ping":154},{"user_id":533,"name":"creechure!","steam_id":76561198804556517,"connected_time":323000000000,"state":"active","ping":56},{"user_id":517,"name":"Who","steam_id":76561198130693111,"connected_time":726000000000,"state":"active","ping":98},{"user_id":528,"name":"Daanish","steam_id":76561198080556773,"connected_time":518000000000,"state":"active","ping":86},{"user_id":519,"name":"Lowvast","steam_id":76561198068455981,"connected_time":700000000000,"state":"active","ping":66},{"user_id":524,"name":"Vimchi","steam_id":76561198151927029,"connected_time":545000000000,"state":"active","ping":115},{"user_id":526,"name":"gawab3","steam_id":76561198370459596,"connected_time":537000000000,"state":"active","ping":87},{"user_id":525,"name":"Gwando","steam_id":76561198294629124,"connected_time":538000000000,"state":"active","ping":54},{"user_id":527,"name":"Wall Beavers","steam_id":76561198154813241,"connected_time":530000000000,"state":"active","ping":87},{"user_id":529,"name":"BigNugs","steam_id":76561198056402610,"connected_time":517000000000,"state":"active","ping":92},{"user_id":530,"name":"MEGATRON","steam_id":76561198820480684,"connected_time":516000000000,"state":"active","ping":65},{"user_id":531,"name":"Feistypanda34","steam_id":76561198260910134,"connected_time":510000000000,"state":"active","ping":78},{"user_id":532,"name":"DanteLatte","steam_id":76561198148675409,"connected_time":497000000000,"state":"active","ping":90}]},{"server_id":5,"name":"Uncletopia | Frankfurt | 1 | All Maps","name_short":"frk-1","host":"frk-1.de.uncletopia.com","port":27015,"enabled":true,"region":"eu","cc":"de","latitude":50.110924,"longitude":8.682127,"reserved":0,"last_update":"0001-01-01T00:00:00Z","name_a2s":"Uncletopia | Frankfurt | 1 | All Maps","protocol":17,"map":"cp_process_final","folder":"tf","game":"Team Fortress","app_id":440,"player_count":0,"max_players":24,"Bots":0,"server_type":"Dedicated","server_os":"Linux","password":true,"vac":true,"version":"7882260","steam_id":85568392924469989,"keywords":["cp","nocrits","nodmgspread","uncletopia"],"game_id":440,"stv_port":27016,"stv_name":"Uncletopia | Frankfurt | 1 | All Maps | STV","players":null},{"server_id":110,"name":"Uncletopia | Frankfurt | 2 | All Maps","name_short":"frk-2","host":"frk-1.de.uncletopia.com","port":27025,"enabled":true,"region":"eu","cc":"de","latitude":50.110924,"longitude":8.682127,"reserved":0,"last_update":"0001-01-01T00:00:00Z","name_a2s":"Uncletopia | Frankfurt | 2 | All Maps","protocol":17,"map":"pl_swiftwater_final1","folder":"tf","game":"Team Fortress","app_id":440,"player_count":0,"max_players":24,"Bots":0,"server_type":"Dedicated","server_os":"Linux","password":true,"vac":true,"version":"7882260","steam_id":85568392924469990,"keywords":["nocrits","nodmgspread","payload","uncletopia"],"game_id":440,"stv_port":27026,"stv_name":"Uncletopia | Frankfurt | 2 | All Maps | STV","players":null},{"server_id":308,"name":"Uncletopia | Frankfurt | 3 | All Maps","name_short":"frk-3","host":"frk-1.de.uncletopia.com","port":27035,"enabled":true,"region":"eu","cc":"de","latitude":50.110924,"longitude":8.682127,"reserved":0,"last_update":"0001-01-01T00:00:00Z","name_a2s":"Uncletopia | Frankfurt | 3 | All Maps","protocol":17,"map":"pl_snowycoast","folder":"tf","game":"Team Fortress","app_id":440,"player_count":0,"max_players":24,"Bots":0,"server_type":"Dedicated","server_os":"Linux","password":true,"vac":true,"version":"7882260","steam_id":85568392924504274,"keywords":["nocrits","nodmgspread","payload","uncletopia"],"game_id":440,"stv_port":27036,"stv_name":"Uncletopia | Frankfurt | 3 | All Maps | STV","players":null},{"server_id":309,"name":"Uncletopia | Frankfurt | 4 | All Maps","name_short":"frk-4","host":"frk-1.de.uncletopia.com","port":27045,"enabled":true,"region":"eu","cc":"de","latitude":50.110924,"longitude":8.682127,"reserved":0,"last_update":"0001-01-01T00:00:00Z","name_a2s":"Uncletopia | Frankfurt | 4 | All Maps","protocol":17,"map":"pl_badwater","folder":"tf","game":"Team Fortress","app_id":440,"player_count":0,"max_players":24,"Bots":0,"server_type":"Dedicated","server_os":"Linux","password":true,"vac":true,"version":"7882260","steam_id":85568392924504275,"keywords":["nocrits","nodmgspread","payload","uncletopia"],"game_id":440,"stv_port":27046,"stv_name":"Uncletopia | Frankfurt | 4 | All Maps | STV","players":null},{"server_id":310,"name":"Uncletopia | Frankfurt | 5 | All Maps","name_short":"frk-5","host":"frk-1.de.uncletopia.com","port":27055,"enabled":true,"region":"eu","cc":"de","latitude":50.110924,"longitude":8.682127,"reserved":0,"last_update":"0001-01-01T00:00:00Z","name_a2s":"Uncletopia | Frankfurt | 5 | All Maps","protocol":17,"map":"cp_mountainlab","folder":"tf","game":"Team Fortress","app_id":440,"player_count":0,"max_players":24,"Bots":0,"server_type":"Dedicated","server_os":"Linux","password":true,"vac":true,"version":"7882260","steam_id":85568392924504277,"keywords":["cp","nocrits","nodmgspread","uncletopia"],"game_id":440,"stv_port":27056,"stv_name":"Uncletopia | Frankfurt | 5 | All Maps | STV","players":null},{"server_id":311,"name":"Uncletopia | Frankfurt | 6 | All Maps","name_short":"frk-6","host":"frk-1.de.uncletopia.com","port":27065,"enabled":true,"region":"eu","cc":"de","latitude":50.110924,"longitude":8.682127,"reserved":0,"last_update":"0001-01-01T00:00:00Z","name_a2s":"Uncletopia | Frankfurt | 6 | All Maps","protocol":17,"map":"pl_badwater","folder":"tf","game":"Team Fortress","app_id":440,"player_count":0,"max_players":24,"Bots":0,"server_type":"Dedicated","server_os":"Linux","password":true,"vac":true,"version":"7882260","steam_id":85568392924504278,"keywords":["nocrits","nodmgspread","payload","uncletopia"],"game_id":440,"stv_port":27066,"stv_name":"Uncletopia | Frankfurt | 6 | All Maps | STV","players":null},{"server_id":23,"name":"Uncletopia | Frankfurt | 7 | Stopwatch Beta","name_short":"frk-7","host":"frk-1.de.uncletopia.com","port":27075,"enabled":true,"region":"eu","cc":"de","latitude":50.110924,"longitude":8.682127,"reserved":0,"last_update":"0001-01-01T00:00:00Z","name_a2s":"Uncletopia | Frankfurt | 7 | Stopwatch Beta","protocol":17,"map":"cp_dustbowl","folder":"tf","game":"Team Fortress","app_id":440,"player_count":0,"max_players":24,"Bots":0,"server_type":"Dedicated","server_os":"Linux","password":true,"vac":true,"version":"7882260","steam_id":85568392924742827,"keywords":["cp","nocrits","nodmgspread","uncletopia"],"game_id":440,"stv_port":27076,"stv_name":"Uncletopia | Frankfurt | 7 | Stopwatch Beta | STV","players":null},{"server_id":24,"name":"Uncletopia | Frankfurt | 8 | Community","name_short":"frk-8","host":"frk-1.de.uncletopia.com","port":27085,"enabled":true,"region":"eu","cc":"de","latitude":50.110924,"longitude":8.682127,"reserved":0,"last_update":"0001-01-01T00:00:00Z","name_a2s":"Uncletopia | Frankfurt | 8 | Community","protocol":17,"map":"koth_cascade","folder":"tf","game":"Team Fortress","app_id":440,"player_count":0,"max_players":24,"Bots":0,"server_type":"Dedicated","server_os":"Linux","password":true,"vac":true,"version":"7882260","steam_id":85568392924742828,"keywords":["cp","nocrits","nodmgspread","uncletopia"],"game_id":440,"stv_port":27086,"stv_name":"Uncletopia | Frankfurt | 8 | Community | STV","players":null},{"server_id":202,"name":"Uncletopia | Hong Kong | 1 | All Maps","name_short":"hgk-1","host":"hgk-1.hk.uncletopia.com","port":27015,"enabled":true,"region":"asia","cc":"hk","latitude":22.302711,"longitude":114.177216,"reserved":0,"last_update":"0001-01-01T00:00:00Z","name_a2s":"Uncletopia | Hong Kong | 1 | All Maps","protocol":17,"map":"koth_cascade","folder":"tf","game":"Team Fortress","app_id":440,"player_count":4,"max_players":24,"Bots":0,"server_type":"Dedicated","server_os":"Linux","password":true,"vac":true,"version":"7882260","steam_id":85568392924494504,"keywords":["cp","nocrits","nodmgspread","uncletopia"],"game_id":440,"stv_port":27016,"stv_name":"Uncletopia | Hong Kong | 1 | All Maps | STV","players":[{"user_id":22,"name":"4th Wall \"Breaker\"","steam_id":76561199328855877,"connected_time":267000000000,"state":"active","ping":104},{"user_id":23,"name":"Fhoon","steam_id":76561199198665314,"connected_time":163000000000,"state":"active","ping":71},{"user_id":24,"name":"FragmantizedLemon","steam_id":76561198313580674,"connected_time":154000000000,"state":"active","ping":69},{"user_id":25,"name":"プロゲーマー","steam_id":76561199017344476,"connected_time":21000000000,"state":"active","ping":111}]},{"server_id":1,"name":"Uncletopia | Los Angeles | 1 | All Maps","name_short":"lax-1","host":"lax-1.us.uncletopia.com","port":27015,"enabled":true,"region":"us-west","cc":"us","latitude":33.94279,"longitude":-118.41004,"reserved":0,"last_update":"0001-01-01T00:00:00Z","name_a2s":"Uncletopia | Los Angeles | 1 | All Maps","protocol":17,"map":"cp_dustbowl","folder":"tf","game":"Team Fortress","app_id":440,"player_count":24,"max_players":24,"Bots":0,"server_type":"Dedicated","server_os":"Linux","password":true,"vac":true,"version":"7882260","steam_id":85568392924469991,"keywords":["cp","nocrits","nodmgspread","uncletopia"],"game_id":440,"stv_port":27016,"stv_name":"Uncletopia | Los Angeles | 1 | All Maps | STV","players":[{"user_id":395,"name":"Scrux","steam_id":76561198129763115,"connected_time":4826000000000,"state":"active","ping":53},{"user_id":460,"name":"FrozenFroh","steam_id":76561198065987572,"connected_time":1212000000000,"state":"active","ping":51},{"user_id":456,"name":"Stale Bread","steam_id":76561198085618127,"connected_time":1280000000000,"state":"active","ping":59},{"user_id":457,"name":"The Notorious T.A.F.T.","steam_id":76561198073012352,"connected_time":1277000000000,"state":"active","ping":89},{"user_id":412,"name":"stanky leg enthusiast","steam_id":76561198816746861,"connected_time":3747000000000,"state":"active","ping":47},{"user_id":462,"name":"bobbymcbobington","steam_id":76561199089411172,"connected_time":1168000000000,"state":"active","ping":147},{"user_id":430,"name":"Mr defrost","steam_id":76561198322125657,"connected_time":2988000000000,"state":"active","ping":92},{"user_id":440,"name":"Super crak 202 9","steam_id":76561199176207530,"connected_time":2416000000000,"state":"active","ping":69},{"user_id":359,"name":"ragnarok","steam_id":76561198273579889,"connected_time":8286000000000,"state":"active","ping":66},{"user_id":463,"name":"Zebulon","steam_id":76561198025719753,"connected_time":991000000000,"state":"active","ping":60},{"user_id":431,"name":"The Caber Connoiseur","steam_id":76561198112635823,"connected_time":2984000000000,"state":"active","ping":109},{"user_id":449,"name":"Mr. Positive","steam_id":76561198147725777,"connected_time":2103000000000,"state":"active","ping":70},{"user_id":458,"name":"YaBoyUlyssesG","steam_id":76561198042482742,"connected_time":1261000000000,"state":"active","ping":95},{"user_id":464,"name":"elephant thumb","steam_id":76561198118859752,"connected_time":462000000000,"state":"active","ping":46},{"user_id":452,"name":"Maid 'n' China","steam_id":76561198423392976,"connected_time":1604000000000,"state":"active","ping":59},{"user_id":426,"name":"i cant aim","steam_id":76561198065873462,"connected_time":3161000000000,"state":"active","ping":44},{"user_id":466,"name":"blossom","steam_id":76561198042735130,"connected_time":214000000000,"state":"active","ping":92},{"user_id":433,"name":"Chicken Joe","steam_id":76561198095143020,"connected_time":2938000000000,"state":"active","ping":62},{"user_id":413,"name":"Mr Baseball","steam_id":76561198960521363,"connected_time":3661000000000,"state":"active","ping":80},{"user_id":455,"name":"Whisper!","steam_id":76561198119609795,"connected_time":1296000000000,"state":"active","ping":48},{"user_id":450,"name":"beblonski","steam_id":76561198067053408,"connected_time":2068000000000,"state":"active","ping":47},{"user_id":437,"name":"Slim Charles","steam_id":76561197981687895,"connected_time":2474000000000,"state":"active","ping":73},{"user_id":461,"name":"Team Fartpiss Poo","steam_id":76561199163591880,"connected_time":1193000000000,"state":"active","ping":114},{"user_id":406,"name":"garbo","steam_id":76561198149280150,"connected_time":4517000000000,"state":"active","ping":47}]},{"server_id":112,"name":"Uncletopia | Los Angeles | 2 | All Maps","name_short":"lax-2","host":"lax-1.us.uncletopia.com","port":27025,"enabled":true,"region":"us-west","cc":"us","latitude":33.94279,"longitude":-118.41004,"reserved":0,"last_update":"0001-01-01T00:00:00Z","name_a2s":"Uncletopia | Los Angeles | 2 | All Maps","protocol":17,"map":"pl_frontier_final","folder":"tf","game":"Team Fortress","app_id":440,"player_count":24,"max_players":24,"Bots":0,"server_type":"Dedicated","server_os":"Linux","password":true,"vac":true,"version":"7882260","steam_id":85568392924469992,"keywords":["nocrits","nodmgspread","payload","uncletopia"],"game_id":440,"stv_port":27026,"stv_name":"Uncletopia | Los Angeles | 2 | All Maps | STV","players":[{"user_id":854,"name":"ScoutSecoTF2","steam_id":76561198366212156,"connected_time":2105000000000,"state":"active","ping":91},{"user_id":856,"name":"ScrockCat","steam_id":76561198012882208,"connected_time":1991000000000,"state":"active","ping":80},{"user_id":880,"name":"game","steam_id":76561198334059206,"connected_time":1133000000000,"state":"active","ping":57},{"user_id":857,"name":"cool beans","steam_id":76561198045758072,"connected_time":1909000000000,"state":"active","ping":57},{"user_id":852,"name":"DemoLiberTF2","steam_id":76561198095378689,"connected_time":2144000000000,"state":"active","ping":87},{"user_id":858,"name":"Rinsworth","steam_id":76561198071110753,"connected_time":1894000000000,"state":"active","ping":55},{"user_id":886,"name":"Renota","steam_id":76561198058224488,"connected_time":861000000000,"state":"active","ping":116},{"user_id":879,"name":"FROYO b4nny","steam_id":76561197970669109,"connected_time":1163000000000,"state":"active","ping":45},{"user_id":881,"name":"sneer","steam_id":76561199483226748,"connected_time":1122000000000,"state":"active","ping":112},{"user_id":860,"name":"pjammer101","steam_id":76561198129606644,"connected_time":1880000000000,"state":"active","ping":117},{"user_id":887,"name":"Camaleon","steam_id":76561198041329791,"connected_time":375000000000,"state":"active","ping":46},{"user_id":872,"name":"DuramborosLord","steam_id":76561198330475333,"connected_time":1629000000000,"state":"active","ping":60},{"user_id":838,"name":"poole party","steam_id":76561198099234665,"connected_time":3498000000000,"state":"active","ping":48},{"user_id":843,"name":"Twombly","steam_id":76561198056532348,"connected_time":2772000000000,"state":"active","ping":56},{"user_id":861,"name":"AcmeBox","steam_id":76561198135665600,"connected_time":1870000000000,"state":"active","ping":89},{"user_id":862,"name":"Auggy","steam_id":76561198041816037,"connected_time":1848000000000,"state":"active","ping":68},{"user_id":863,"name":"The Professor","steam_id":76561198046165617,"connected_time":1846000000000,"state":"active","ping":80},{"user_id":873,"name":"Pah-Wraith Gul Dukat","steam_id":76561198033918106,"connected_time":1615000000000,"state":"active","ping":48},{"user_id":882,"name":"miguelrodriguez2013","steam_id":76561198269253587,"connected_time":1058000000000,"state":"active","ping":52},{"user_id":883,"name":"Mothership","steam_id":76561198044029501,"connected_time":1053000000000,"state":"active","ping":99},{"user_id":884,"name":"♦♣Quadric♥♠","steam_id":76561198061003853,"connected_time":1040000000000,"state":"active","ping":112},{"user_id":877,"name":"[TC] Lag","steam_id":76561198983494186,"connected_time":1365000000000,"state":"active","ping":107},{"user_id":870,"name":"Michael Pilkington","steam_id":76561198307839694,"connected_time":1721000000000,"state":"active","ping":62},{"user_id":840,"name":"blozet","steam_id":76561199120161035,"connected_time":3339000000000,"state":"active","ping":111}]},{"server_id":324,"name":"Uncletopia | Los Angeles | 3 | All Maps","name_short":"lax-3","host":"lax-1.us.uncletopia.com","port":27035,"enabled":true,"region":"us-west","cc":"us","latitude":33.94279,"longitude":-118.41004,"reserved":0,"last_update":"0001-01-01T00:00:00Z","name_a2s":"Uncletopia | Los Angeles | 3 | All Maps","protocol":17,"map":"cp_sunshine","folder":"tf","game":"Team Fortress","app_id":440,"player_count":24,"max_players":24,"Bots":0,"server_type":"Dedicated","server_os":"Linux","password":true,"vac":true,"version":"7882260","steam_id":85568392924510198,"keywords":["cp","nocrits","nodmgspread","uncletopia"],"game_id":440,"stv_port":27036,"stv_name":"Uncletopia | Los Angeles | 3 | All Maps | STV","players":[{"user_id":885,"name":"triph","steam_id":76561198067196509,"connected_time":8917000000000,"state":"active","ping":45},{"user_id":1000,"name":"stboncho","steam_id":76561198172275301,"connected_time":876000000000,"state":"active","ping":69},{"user_id":992,"name":"Gumpy","steam_id":76561198144747235,"connected_time":1168000000000,"state":"active","ping":68},{"user_id":948,"name":"Antony Bologne","steam_id":76561198249274908,"connected_time":4872000000000,"state":"active","ping":84},{"user_id":1001,"name":"I hope your family has a nice C","steam_id":76561198206922028,"connected_time":786000000000,"state":"active","ping":45},{"user_id":1002,"name":"DAYTONA","steam_id":76561198061975847,"connected_time":785000000000,"state":"active","ping":70},{"user_id":1003,"name":"bocaJ","steam_id":76561198374535092,"connected_time":766000000000,"state":"active","ping":30},{"user_id":990,"name":"Saturday Satan","steam_id":76561199127590316,"connected_time":1445000000000,"state":"active","ping":64},{"user_id":988,"name":"b4nny can i get my orignnal bac","steam_id":76561198150137369,"connected_time":1528000000000,"state":"active","ping":53},{"user_id":960,"name":"333Funny","steam_id":76561198084123976,"connected_time":3608000000000,"state":"active","ping":97},{"user_id":1010,"name":"Excrement","steam_id":76561198167740127,"connected_time":211000000000,"state":"active","ping":72},{"user_id":905,"name":"Lightning Bolt 1O1","steam_id":76561199099630600,"connected_time":6914000000000,"state":"active","ping":71},{"user_id":974,"name":"★SuperBurgerBoy★","steam_id":76561198856387197,"connected_time":2554000000000,"state":"active","ping":58},{"user_id":1008,"name":"Perfectly Dreadful","steam_id":76561198165728680,"connected_time":370000000000,"state":"active","ping":72},{"user_id":963,"name":"Mr. Yoshida","steam_id":76561198263829831,"connected_time":3081000000000,"state":"active","ping":73},{"user_id":961,"name":"Jimmy","steam_id":76561198857959855,"connected_time":3607000000000,"state":"active","ping":40},{"user_id":1005,"name":"FedSmoker","steam_id":76561198255854081,"connected_time":708000000000,"state":"active","ping":85},{"user_id":1006,"name":"i am off oxycontins","steam_id":76561198389005732,"connected_time":693000000000,"state":"active","ping":44},{"user_id":1007,"name":"Tap W","steam_id":76561198136337899,"connected_time":692000000000,"state":"active","ping":56},{"user_id":997,"name":"hatsune miku","steam_id":76561199445009981,"connected_time":1089000000000,"state":"active","ping":70},{"user_id":998,"name":"twin","steam_id":76561198055626638,"connected_time":1087000000000,"state":"active","ping":135},{"user_id":986,"name":"keysopendoors","steam_id":76561198175858151,"connected_time":1600000000000,"state":"active","ping":72},{"user_id":989,"name":"face in the dark","steam_id":76561198132755619,"connected_time":1520000000000,"state":"active","ping":43},{"user_id":999,"name":"dare","steam_id":76561197960977496,"connected_time":1073000000000,"state":"active","ping":66}]},{"server_id":25,"name":"Uncletopia | Los Angeles | 4 | Stopwatch Beta","name_short":"lax-4","host":"lax-1.us.uncletopia.com","port":27045,"enabled":true,"region":"us-west","cc":"us","latitude":33.94279,"longitude":-118.41004,"reserved":0,"last_update":"0001-01-01T00:00:00Z","name_a2s":"Uncletopia | Los Angeles | 4 | Stopwatch Beta","protocol":17,"map":"workshop/pl_barnblitz_pro7.ugc582280235","folder":"tf","game":"Team Fortress","app_id":440,"player_count":0,"max_players":24,"Bots":0,"server_type":"Dedicated","server_os":"Linux","password":true,"vac":true,"version":"7882260","steam_id":85568392924510199,"keywords":["nocrits","nodmgspread","payload","uncletopia"],"game_id":440,"stv_port":27046,"stv_name":"Uncletopia | Los Angeles | 4 | Stopwatch Beta | STV","players":null},{"server_id":11,"name":"Uncletopia | London | 1 | All Maps","name_short":"lon-1","host":"lon-1.uk.uncletopia.com","port":27015,"enabled":true,"region":"eu","cc":"gb","latitude":51.509865,"longitude":-0.118092,"reserved":0,"last_update":"0001-01-01T00:00:00Z","name_a2s":"Uncletopia | London | 1 | All Maps","protocol":17,"map":"cp_process_final","folder":"tf","game":"Team Fortress","app_id":440,"player_count":0,"max_players":24,"Bots":0,"server_type":"Dedicated","server_os":"Linux","password":true,"vac":true,"version":"7882260","steam_id":85568392924367362,"keywords":["cp","nocrits","nodmgspread","uncletopia"],"game_id":440,"stv_port":27016,"stv_name":"Uncletopia | London | 1 | All Maps | STV","players":null},{"server_id":114,"name":"Uncletopia | London | 2 | All Maps","name_short":"lon-2","host":"lon-1.uk.uncletopia.com","port":27025,"enabled":true,"region":"eu","cc":"gb","latitude":51.509865,"longitude":-0.118092,"reserved":0,"last_update":"0001-01-01T00:00:00Z","name_a2s":"Uncletopia | London | 2 | All Maps","protocol":17,"map":"pl_swiftwater_final1","folder":"tf","game":"Team Fortress","app_id":440,"player_count":0,"max_players":24,"Bots":0,"server_type":"Dedicated","server_os":"Linux","password":true,"vac":true,"version":"7882260","steam_id":85568392924470941,"keywords":["nocrits","nodmgspread","payload","uncletopia"],"game_id":440,"stv_port":27026,"stv_name":"Uncletopia | London | 2 | All Maps | STV","players":null},{"server_id":320,"name":"Uncletopia | London | 3 | All Maps","name_short":"lon-3","host":"lon-1.uk.uncletopia.com","port":27035,"enabled":true,"region":"eu","cc":"gb","latitude":51.509865,"longitude":-0.118092,"reserved":0,"last_update":"0001-01-01T00:00:00Z","name_a2s":"Uncletopia | London | 3 | All Maps","protocol":17,"map":"koth_highpass","folder":"tf","game":"Team Fortress","app_id":440,"player_count":0,"max_players":24,"Bots":0,"server_type":"Dedicated","server_os":"Linux","password":true,"vac":true,"version":"7882260","steam_id":85568392924510192,"keywords":["cp","nocrits","nodmgspread","uncletopia"],"game_id":440,"stv_port":27036,"stv_name":"Uncletopia | London | 3 | All Maps | STV","players":null},{"server_id":321,"name":"Uncletopia | London | 4 | All Maps","name_short":"lon-4","host":"lon-1.uk.uncletopia.com","port":27045,"enabled":true,"region":"eu","cc":"gb","latitude":51.509865,"longitude":-0.118092,"reserved":0,"last_update":"0001-01-01T00:00:00Z","name_a2s":"Uncletopia | London | 4 | All Maps","protocol":17,"map":"pl_upward","folder":"tf","game":"Team Fortress","app_id":440,"player_count":0,"max_players":24,"Bots":0,"server_type":"Dedicated","server_os":"Linux","password":true,"vac":true,"version":"7882260","steam_id":85568392924510193,"keywords":["nocrits","nodmgspread","payload","uncletopia"],"game_id":440,"stv_port":27046,"stv_name":"Uncletopia | London | 4 | All Maps | STV","players":null},{"server_id":21,"name":"Uncletopia | London | 5 | All Maps","name_short":"lon-5","host":"lon-1.uk.uncletopia.com","port":27055,"enabled":true,"region":"eu","cc":"gb","latitude":51.509865,"longitude":-0.118092,"reserved":0,"last_update":"0001-01-01T00:00:00Z","name_a2s":"Uncletopia | London | 5 | All Maps","protocol":17,"map":"pl_frontier_final","folder":"tf","game":"Team Fortress","app_id":440,"player_count":0,"max_players":24,"Bots":0,"server_type":"Dedicated","server_os":"Linux","password":true,"vac":true,"version":"7882260","steam_id":85568392924742829,"keywords":["nocrits","nodmgspread","payload","uncletopia"],"game_id":440,"stv_port":27056,"stv_name":"Uncletopia | London | 5 | All Maps | STV","players":null},{"server_id":22,"name":"Uncletopia | London | 6 | All Maps","name_short":"lon-6","host":"lon-1.uk.uncletopia.com","port":27065,"enabled":true,"region":"eu","cc":"gb","latitude":51.509865,"longitude":-0.118092,"reserved":0,"last_update":"0001-01-01T00:00:00Z","name_a2s":"Uncletopia | London | 6 | All Maps","protocol":17,"map":"cp_altitude","folder":"tf","game":"Team Fortress","app_id":440,"player_count":0,"max_players":24,"Bots":0,"server_type":"Dedicated","server_os":"Linux","password":true,"vac":true,"version":"7882260","steam_id":85568392924742830,"keywords":["cp","nocrits","nodmgspread","uncletopia"],"game_id":440,"stv_port":27066,"stv_name":"Uncletopia | London | 6 | All Maps | STV","players":null},{"server_id":40,"name":"Uncletopia | London | 7 | No Payload","name_short":"lon-7","host":"lon-1.uk.uncletopia.com","port":27075,"enabled":true,"region":"eu","cc":"gb","latitude":51.509865,"longitude":-0.118092,"reserved":0,"last_update":"0001-01-01T00:00:00Z","name_a2s":"Uncletopia | London | 7 | No Payload","protocol":17,"map":"pl_pier","folder":"tf","game":"Team Fortress","app_id":440,"player_count":0,"max_players":24,"Bots":0,"server_type":"Dedicated","server_os":"Linux","password":true,"vac":true,"version":"7882260","steam_id":85568392924964314,"keywords":["nocrits","nodmgspread","payload","uncletopia"],"game_id":440,"stv_port":27076,"stv_name":"Uncletopia | London | 7 | No Payload | STV","players":null},{"server_id":41,"name":"Uncletopia | London | 8 | Community","name_short":"lon-8","host":"lon-1.uk.uncletopia.com","port":27085,"enabled":true,"region":"eu","cc":"gb","latitude":51.509865,"longitude":-0.118092,"reserved":0,"last_update":"0001-01-01T00:00:00Z","name_a2s":"Uncletopia | London | 8 | Community","protocol":17,"map":"pl_swiftwater_final1","folder":"tf","game":"Team Fortress","app_id":440,"player_count":0,"max_players":24,"Bots":0,"server_type":"Dedicated","server_os":"Linux","password":true,"vac":true,"version":"7882260","steam_id":85568392924964315,"keywords":["nocrits","nodmgspread","payload","uncletopia"],"game_id":440,"stv_port":27086,"stv_name":"Uncletopia | London | 8 | Community | STV","players":null},{"server_id":300,"name":"Uncletopia | Montréal | 1 | All Maps","name_short":"mtl-1","host":"mtl-1.ca.uncletopia.com","port":27015,"enabled":true,"region":"us-east","cc":"ca","latitude":45.50889,"longitude":-73.56167,"reserved":0,"last_update":"0001-01-01T00:00:00Z","name_a2s":"Uncletopia | Montréal | 1 | All Maps","protocol":17,"map":"koth_viaduct","folder":"tf","game":"Team Fortress","app_id":440,"player_count":0,"max_players":24,"Bots":0,"server_type":"Dedicated","server_os":"Linux","password":true,"vac":true,"version":"7882260","steam_id":85568392924500087,"keywords":["cp","nocrits","nodmgspread","uncletopia"],"game_id":440,"stv_port":27016,"stv_name":"Uncletopia | Montréal | 1 | All Maps | STV","players":null},{"server_id":301,"name":"Uncletopia | Montréal | 2 | All Maps","name_short":"mtl-2","host":"mtl-1.ca.uncletopia.com","port":27025,"enabled":true,"region":"us-east","cc":"ca","latitude":45.50889,"longitude":-73.56167,"reserved":0,"last_update":"0001-01-01T00:00:00Z","name_a2s":"Uncletopia | Montréal | 2 | All Maps","protocol":17,"map":"cp_sunshine","folder":"tf","game":"Team Fortress","app_id":440,"player_count":0,"max_players":24,"Bots":0,"server_type":"Dedicated","server_os":"Linux","password":true,"vac":true,"version":"7882260","steam_id":85568392924500088,"keywords":["cp","nocrits","nodmgspread","uncletopia"],"game_id":440,"stv_port":27026,"stv_name":"Uncletopia | Montréal | 2 | All Maps | STV","players":null},{"server_id":302,"name":"Uncletopia | Montréal | 3 | All Maps","name_short":"mtl-3","host":"mtl-1.ca.uncletopia.com","port":27035,"enabled":true,"region":"us-east","cc":"ca","latitude":45.50889,"longitude":-73.56167,"reserved":0,"last_update":"0001-01-01T00:00:00Z","name_a2s":"Uncletopia | Montréal | 3 | All Maps","protocol":17,"map":"cp_metalworks","folder":"tf","game":"Team Fortress","app_id":440,"player_count":0,"max_players":24,"Bots":0,"server_type":"Dedicated","server_os":"Linux","password":true,"vac":true,"version":"7882260","steam_id":85568392924500089,"keywords":["cp","nocrits","nodmgspread","uncletopia"],"game_id":440,"stv_port":27036,"stv_name":"Uncletopia | Montréal | 3 | All Maps | STV","players":null},{"server_id":303,"name":"Uncletopia | Montréal | 4 | No Payload","name_short":"mtl-4","host":"mtl-1.ca.uncletopia.com","port":27045,"enabled":true,"region":"us-east","cc":"ca","latitude":45.50889,"longitude":-73.56167,"reserved":0,"last_update":"0001-01-01T00:00:00Z","name_a2s":"Uncletopia | Montréal | 4 | No Payload","protocol":17,"map":"cp_mercenarypark","folder":"tf","game":"Team Fortress","app_id":440,"player_count":0,"max_players":24,"Bots":0,"server_type":"Dedicated","server_os":"Linux","password":true,"vac":true,"version":"7882260","steam_id":85568392924500090,"keywords":["cp","nocrits","nodmgspread","uncletopia"],"game_id":440,"stv_port":27046,"stv_name":"Uncletopia | Montréal | 4 | No Payload | STV","players":null},{"server_id":13,"name":"Uncletopia | New York City | 1 | All Maps","name_short":"nyc-1","host":"nyc-1.us.uncletopia.com","port":27015,"enabled":true,"region":"us-east","cc":"us","latitude":40.73061,"longitude":-73.93524,"reserved":0,"last_update":"0001-01-01T00:00:00Z","name_a2s":"Uncletopia | New York City | 1 | All Maps","protocol":17,"map":"pl_borneo","folder":"tf","game":"Team Fortress","app_id":440,"player_count":0,"max_players":24,"Bots":0,"server_type":"Dedicated","server_os":"Linux","password":true,"vac":true,"version":"7882260","steam_id":85568392924469993,"keywords":["nocrits","nodmgspread","payload","uncletopia"],"game_id":440,"stv_port":27016,"stv_name":"Uncletopia | New York City | 1 | All Maps | STV","players":null},{"server_id":14,"name":"Uncletopia | New York City | 2 | All Maps","name_short":"nyc-2","host":"nyc-1.us.uncletopia.com","port":27025,"enabled":true,"region":"us-east","cc":"us","latitude":40.73061,"longitude":-73.93524,"reserved":0,"last_update":"0001-01-01T00:00:00Z","name_a2s":"Uncletopia | New York City | 2 | All Maps","protocol":17,"map":"pl_swiftwater_final1","folder":"tf","game":"Team Fortress","app_id":440,"player_count":24,"max_players":24,"Bots":0,"server_type":"Dedicated","server_os":"Linux","password":true,"vac":true,"version":"7882260","steam_id":85568392924469994,"keywords":["nocrits","nodmgspread","payload","uncletopia"],"game_id":440,"stv_port":27026,"stv_name":"Uncletopia | New York City | 2 | All Maps | STV","players":[{"user_id":618,"name":"Liberty Prime [Dexgod]","steam_id":76561198017130786,"connected_time":506000000000,"state":"active","ping":69},{"user_id":619,"name":"GuyGoom","steam_id":76561198254522178,"connected_time":498000000000,"state":"active","ping":77},{"user_id":603,"name":"uncle 'ardboss","steam_id":76561198055490732,"connected_time":931000000000,"state":"active","ping":167},{"user_id":609,"name":"Weeb","steam_id":76561198935795395,"connected_time":832000000000,"state":"active","ping":121},{"user_id":563,"name":"Ludcmorais","steam_id":76561198359217809,"connected_time":3797000000000,"state":"active","ping":178},{"user_id":554,"name":"goldgardian","steam_id":76561198319471339,"connected_time":4284000000000,"state":"active","ping":85},{"user_id":551,"name":"Two-Teste Tommy","steam_id":76561198064308936,"connected_time":4499000000000,"state":"active","ping":55},{"user_id":601,"name":"Raizen","steam_id":76561199092445367,"connected_time":1664000000000,"state":"active","ping":58},{"user_id":593,"name":"larguu","steam_id":76561197994336210,"connected_time":2045000000000,"state":"active","ping":43},{"user_id":612,"name":"Jakk","steam_id":76561198041537908,"connected_time":799000000000,"state":"active","ping":135},{"user_id":595,"name":"tesagi","steam_id":76561198026664629,"connected_time":1998000000000,"state":"active","ping":51},{"user_id":623,"name":"Zirael","steam_id":76561198057143358,"connected_time":365000000000,"state":"active","ping":63},{"user_id":605,"name":"Jeddef","steam_id":76561198040012616,"connected_time":911000000000,"state":"active","ping":165},{"user_id":620,"name":"Shoggoth Pinup","steam_id":76561197996204388,"connected_time":479000000000,"state":"active","ping":63},{"user_id":586,"name":"BigDeac","steam_id":76561198091237274,"connected_time":2531000000000,"state":"active","ping":70},{"user_id":626,"name":"portal2trollin","steam_id":76561198046869828,"connected_time":170000000000,"state":"active","ping":97},{"user_id":621,"name":"the.land.of.avalon","steam_id":76561198245431668,"connected_time":476000000000,"state":"active","ping":87},{"user_id":613,"name":"noah","steam_id":76561198173310157,"connected_time":787000000000,"state":"active","ping":67},{"user_id":625,"name":"🤨","steam_id":76561199365672047,"connected_time":221000000000,"state":"active","ping":68},{"user_id":624,"name":"TransFUNKe","steam_id":76561199234098237,"connected_time":346000000000,"state":"active","ping":88},{"user_id":615,"name":"Kaluka","steam_id":76561198036861445,"connected_time":701000000000,"state":"active","ping":58},{"user_id":622,"name":"grandma mode","steam_id":76561198155824631,"connected_time":442000000000,"state":"active","ping":117},{"user_id":616,"name":"demoknight tf2","steam_id":76561198070393998,"connected_time":681000000000,"state":"active","ping":62},{"user_id":627,"name":"ECCO","steam_id":76561198002821513,"connected_time":98000000000,"state":"active","ping":74}]},{"server_id":15,"name":"Uncletopia | New York City | 3 | Stopwatch Beta","name_short":"nyc-3","host":"nyc-1.us.uncletopia.com","port":27035,"enabled":true,"region":"us-east","cc":"us","latitude":40.73061,"longitude":-73.93524,"reserved":0,"last_update":"0001-01-01T00:00:00Z","name_a2s":"Uncletopia | New York City | 3 | Stopwatch Beta","protocol":17,"map":"workshop/pl_badwater_pro_v12.ugc2142942074","folder":"tf","game":"Team Fortress","app_id":440,"player_count":0,"max_players":24,"Bots":0,"server_type":"Dedicated","server_os":"Linux","password":true,"vac":true,"version":"7882260","steam_id":85568392924742820,"keywords":["nocrits","nodmgspread","payload","uncletopia"],"game_id":440,"stv_port":27036,"stv_name":"Uncletopia | New York City | 3 | Stopwatch Beta | STV","players":null},{"server_id":16,"name":"Uncletopia | New York City | 4 | Community","name_short":"nyc-4","host":"nyc-1.us.uncletopia.com","port":27045,"enabled":true,"region":"us-east","cc":"us","latitude":40.73061,"longitude":-73.93524,"reserved":0,"last_update":"0001-01-01T00:00:00Z","name_a2s":"Uncletopia | New York City | 4 | Community","protocol":17,"map":"workshop/koth_trenchfoot_b1a.ugc731436616","folder":"tf","game":"Team Fortress","app_id":440,"player_count":0,"max_players":24,"Bots":0,"server_type":"Dedicated","server_os":"Linux","password":true,"vac":true,"version":"7882260","steam_id":85568392924742821,"keywords":["cp","nocrits","nodmgspread","uncletopia"],"game_id":440,"stv_port":27046,"stv_name":"Uncletopia | New York City | 4 | Community | STV","players":null},{"server_id":142,"name":"Uncletopia | São Paulo | 1 | All Maps","name_short":"sao-1","host":"sao-1.br.uncletopia.com","port":27015,"enabled":true,"region":"sa","cc":"br","latitude":-23.533773,"longitude":-46.62529,"reserved":0,"last_update":"0001-01-01T00:00:00Z","name_a2s":"Uncletopia | São Paulo | 1 | All Maps","protocol":17,"map":"koth_cascade","folder":"tf","game":"Team Fortress","app_id":440,"player_count":0,"max_players":24,"Bots":0,"server_type":"Dedicated","server_os":"Linux","password":true,"vac":true,"version":"7882260","steam_id":85568392924469996,"keywords":["cp","nocrits","nodmgspread","uncletopia"],"game_id":440,"stv_port":27016,"stv_name":"Uncletopia | São Paulo | 1 | All Maps | STV","players":null},{"server_id":143,"name":"Uncletopia | São Paulo | 2 | All Maps","name_short":"sao-2","host":"sao-2.br.uncletopia.com","port":27015,"enabled":true,"region":"sa","cc":"br","latitude":-23.533773,"longitude":-46.62529,"reserved":0,"last_update":"0001-01-01T00:00:00Z","name_a2s":"Uncletopia | São Paulo | 2 | All Maps","protocol":17,"map":"koth_viaduct","folder":"tf","game":"Team Fortress","app_id":440,"player_count":0,"max_players":24,"Bots":0,"server_type":"Dedicated","server_os":"Linux","password":true,"vac":true,"version":"7882260","steam_id":85568392924485349,"keywords":["cp","nocrits","nodmgspread","uncletopia"],"game_id":440,"stv_port":27016,"stv_name":"Uncletopia | São Paulo | 2 | All Maps | STV","players":null},{"server_id":7,"name":"Uncletopia | Seattle | 1 | All Maps","name_short":"sea-1","host":"sea-1.us.uncletopia.com","port":27015,"enabled":true,"region":"us-west","cc":"us","latitude":47.608013,"longitude":-122.33517,"reserved":0,"last_update":"0001-01-01T00:00:00Z","name_a2s":"Uncletopia | Seattle | 1 | All Maps","protocol":17,"map":"pl_goldrush","folder":"tf","game":"Team Fortress","app_id":440,"player_count":24,"max_players":24,"Bots":0,"server_type":"Dedicated","server_os":"Linux","password":true,"vac":true,"version":"7882260","steam_id":85568392924469997,"keywords":["nocrits","nodmgspread","payload","uncletopia"],"game_id":440,"stv_port":27016,"stv_name":"Uncletopia | Seattle | 1 | All Maps | STV","players":[{"user_id":500,"name":"Sorbis The Grungler","steam_id":76561198057138795,"connected_time":2876000000000,"state":"active","ping":165},{"user_id":416,"name":"Level 99 Mudcrab","steam_id":76561198077452771,"connected_time":10650000000000,"state":"active","ping":59},{"user_id":529,"name":"Nakasmacka","steam_id":76561198049787270,"connected_time":1108000000000,"state":"active","ping":33},{"user_id":504,"name":"Chronic Bad At Game Disease","steam_id":76561198179387139,"connected_time":2840000000000,"state":"active","ping":64},{"user_id":502,"name":"Peppy","steam_id":76561198866629645,"connected_time":2852000000000,"state":"active","ping":64},{"user_id":496,"name":"AtomSQRRL","steam_id":76561199151951364,"connected_time":3051000000000,"state":"active","ping":63},{"user_id":490,"name":"SolarusD","steam_id":76561198029279861,"connected_time":3842000000000,"state":"active","ping":64},{"user_id":511,"name":"my monitor is off","steam_id":76561198074499537,"connected_time":1268000000000,"state":"active","ping":71},{"user_id":498,"name":"lavender","steam_id":76561199069518286,"connected_time":2906000000000,"state":"active","ping":74},{"user_id":477,"name":"Iwantuppies","steam_id":76561198206752128,"connected_time":4642000000000,"state":"active","ping":150},{"user_id":497,"name":"ferby","steam_id":76561198028229594,"connected_time":2915000000000,"state":"active","ping":66},{"user_id":531,"name":"Lambchop","steam_id":76561198043900363,"connected_time":673000000000,"state":"active","ping":89},{"user_id":483,"name":"Thexx ❤","steam_id":76561198113823050,"connected_time":4228000000000,"state":"active","ping":54},{"user_id":524,"name":"LunchTray ©","steam_id":76561197993337109,"connected_time":1178000000000,"state":"active","ping":49},{"user_id":507,"name":"Sierra Foxtrot","steam_id":76561197996667382,"connected_time":2803000000000,"state":"active","ping":90},{"user_id":536,"name":"lowkey","steam_id":76561199481279842,"connected_time":44000000000,"state":"active","ping":149},{"user_id":530,"name":"Underscore Paul","steam_id":76561198070300902,"connected_time":824000000000,"state":"active","ping":72},{"user_id":453,"name":"Ayayayayayahuasca","steam_id":76561199002906056,"connected_time":7284000000000,"state":"active","ping":51},{"user_id":492,"name":"rat gets the cheese","steam_id":76561198031234032,"connected_time":3650000000000,"state":"active","ping":91},{"user_id":475,"name":"♥haunti","steam_id":76561199235580556,"connected_time":4903000000000,"state":"active","ping":47},{"user_id":528,"name":"Saikyo","steam_id":76561198212461467,"connected_time":1163000000000,"state":"active","ping":119},{"user_id":535,"name":"Alpdhuez [✚]","steam_id":76561198013808837,"connected_time":148000000000,"state":"active","ping":65},{"user_id":488,"name":"Robogineer","steam_id":76561198026994739,"connected_time":3880000000000,"state":"active","ping":83}]},{"server_id":119,"name":"Uncletopia | Seattle | 2 | All Maps","name_short":"sea-2","host":"sea-1.us.uncletopia.com","port":27025,"enabled":true,"region":"us-west","cc":"us","latitude":47.608013,"longitude":-122.33517,"reserved":0,"last_update":"0001-01-01T00:00:00Z","name_a2s":"Uncletopia | Seattle | 2 | All Maps","protocol":17,"map":"pl_frontier_final","folder":"tf","game":"Team Fortress","app_id":440,"player_count":24,"max_players":24,"Bots":0,"server_type":"Dedicated","server_os":"Linux","password":true,"vac":true,"version":"7882260","steam_id":85568392924469998,"keywords":["nocrits","nodmgspread","payload","uncletopia"],"game_id":440,"stv_port":27026,"stv_name":"Uncletopia | Seattle | 2 | All Maps | STV","players":[{"user_id":292,"name":"Dunkle","steam_id":76561198041903573,"connected_time":7279000000000,"state":"active","ping":44},{"user_id":373,"name":"FlamingManiac","steam_id":76561198361996837,"connected_time":737000000000,"state":"active","ping":115},{"user_id":374,"name":"oil","steam_id":76561198099980149,"connected_time":340000000000,"state":"active","ping":80},{"user_id":367,"name":"Hat Man","steam_id":76561198188350151,"connected_time":1179000000000,"state":"active","ping":50},{"user_id":351,"name":"Monsieur Pequeño","steam_id":76561198327271041,"connected_time":2502000000000,"state":"active","ping":44},{"user_id":321,"name":"THAT CAT","steam_id":76561198010828625,"connected_time":4633000000000,"state":"active","ping":43},{"user_id":352,"name":"BlazedBunny","steam_id":76561198243610560,"connected_time":2462000000000,"state":"active","ping":126},{"user_id":363,"name":"♦Benji♦","steam_id":76561198313529973,"connected_time":1202000000000,"state":"active","ping":45},{"user_id":364,"name":"moe","steam_id":76561198929586245,"connected_time":1200000000000,"state":"active","ping":65},{"user_id":354,"name":"Flex Pexico","steam_id":76561198041838930,"connected_time":2422000000000,"state":"active","ping":61},{"user_id":375,"name":"Thanks Ants","steam_id":76561197966221018,"connected_time":158000000000,"state":"active","ping":51},{"user_id":359,"name":"strbry","steam_id":76561198155133601,"connected_time":1683000000000,"state":"active","ping":55},{"user_id":355,"name":"Amogous Supreme","steam_id":76561198025476774,"connected_time":2393000000000,"state":"active","ping":81},{"user_id":360,"name":"Swag5","steam_id":76561198065311356,"connected_time":1647000000000,"state":"active","ping":69},{"user_id":369,"name":"PeesTi2","steam_id":76561199016865192,"connected_time":1129000000000,"state":"active","ping":65},{"user_id":372,"name":"Los Trollos Hermanos","steam_id":76561198861711988,"connected_time":990000000000,"state":"active","ping":48},{"user_id":337,"name":"exephur","steam_id":76561198135763234,"connected_time":3956000000000,"state":"active","ping":68},{"user_id":309,"name":"Surfing Garchomp","steam_id":76561199107236884,"connected_time":5932000000000,"state":"active","ping":74},{"user_id":346,"name":"cirmona tuwoka","steam_id":76561198213385439,"connected_time":3436000000000,"state":"active","ping":77},{"user_id":317,"name":"S Q U I S H E  T H A T  C A T","steam_id":76561198293865429,"connected_time":5592000000000,"state":"active","ping":45},{"user_id":361,"name":"SIMAX","steam_id":76561199243011400,"connected_time":1471000000000,"state":"active","ping":86},{"user_id":362,"name":"1986","steam_id":76561198203330566,"connected_time":1463000000000,"state":"active","ping":58},{"user_id":280,"name":"Swag6","steam_id":76561198064110837,"connected_time":8983000000000,"state":"active","ping":73},{"user_id":341,"name":"SvicidalBug","steam_id":76561198221390504,"connected_time":3514000000000,"state":"active","ping":67}]},{"server_id":406,"name":"Uncletopia | Seattle | 3 | Stopwatch Beta","name_short":"sea-3","host":"sea-1.us.uncletopia.com","port":27035,"enabled":true,"region":"us-west","cc":"us","latitude":47.608013,"longitude":-122.33517,"reserved":0,"last_update":"0001-01-01T00:00:00Z","name_a2s":"Uncletopia | Seattle | 3 | Stopwatch Beta","protocol":17,"map":"cp_process_final","folder":"tf","game":"Team Fortress","app_id":440,"player_count":24,"max_players":24,"Bots":0,"server_type":"Dedicated","server_os":"Linux","password":true,"vac":true,"version":"7882260","steam_id":85568392924515217,"keywords":["cp","nocrits","nodmgspread","uncletopia"],"game_id":440,"stv_port":27036,"stv_name":"Uncletopia | Seattle | 3 | Stopwatch Beta | STV","players":[{"user_id":273,"name":"PJROCK101","steam_id":76561198070616561,"connected_time":5376000000000,"state":"active","ping":60},{"user_id":351,"name":"♥ Milo Stefferson ♥ (Soupca","steam_id":76561198056269538,"connected_time":912000000000,"state":"active","ping":58},{"user_id":358,"name":"Alley_YAMBO","steam_id":76561198055651850,"connected_time":246000000000,"state":"active","ping":70},{"user_id":325,"name":"benji","steam_id":76561198084417967,"connected_time":2210000000000,"state":"active","ping":70},{"user_id":343,"name":"ena - d","steam_id":76561198072329335,"connected_time":1351000000000,"state":"active","ping":110},{"user_id":344,"name":"iSaH","steam_id":76561198305136202,"connected_time":1276000000000,"state":"active","ping":92},{"user_id":333,"name":"Some Dood on the Internet","steam_id":76561198054657687,"connected_time":1867000000000,"state":"active","ping":60},{"user_id":349,"name":"senor exbee","steam_id":76561198817612850,"connected_time":1156000000000,"state":"active","ping":89},{"user_id":359,"name":"jim awesome","steam_id":76561198337486020,"connected_time":219000000000,"state":"active","ping":74},{"user_id":356,"name":"Facehurt","steam_id":76561198028504034,"connected_time":801000000000,"state":"active","ping":102},{"user_id":345,"name":"parmesan","steam_id":76561198118304061,"connected_time":1218000000000,"state":"active","ping":83},{"user_id":338,"name":"Vandhoming","steam_id":76561198183775386,"connected_time":1611000000000,"state":"active","ping":57},{"user_id":331,"name":"for the king","steam_id":76561197973488858,"connected_time":1911000000000,"state":"active","ping":107},{"user_id":311,"name":"noellehound","steam_id":76561198108844158,"connected_time":3779000000000,"state":"active","ping":83},{"user_id":355,"name":"[DEEP]able","steam_id":76561198292552182,"connected_time":819000000000,"state":"active","ping":105},{"user_id":324,"name":"Duck","steam_id":76561198129983430,"connected_time":2216000000000,"state":"active","ping":67},{"user_id":346,"name":"Blackbeard","steam_id":76561198046952265,"connected_time":1211000000000,"state":"active","ping":56},{"user_id":316,"name":"Toooru","steam_id":76561198857237473,"connected_time":3065000000000,"state":"active","ping":45},{"user_id":357,"name":"Trips","steam_id":76561198054581597,"connected_time":569000000000,"state":"active","ping":64},{"user_id":216,"name":"dP | I'm in a Wookie Suit","steam_id":76561198083307644,"connected_time":8042000000000,"state":"active","ping":60},{"user_id":320,"name":"dozy","steam_id":76561199470933385,"connected_time":2961000000000,"state":"active","ping":113},{"user_id":354,"name":"KellyKapoor","steam_id":76561198040828123,"connected_time":861000000000,"state":"active","ping":54},{"user_id":350,"name":"Pho","steam_id":76561198306515742,"connected_time":1088000000000,"state":"active","ping":69},{"user_id":337,"name":"Antwan","steam_id":76561198246200638,"connected_time":1664000000000,"state":"active","ping":98}]},{"server_id":17,"name":"Uncletopia | San Francisco | 1 | All Maps","name_short":"sfo-1","host":"sfo-1.us.uncletopia.com","port":27015,"enabled":true,"region":"us-west","cc":"us","latitude":37.77397,"longitude":-122.4313,"reserved":0,"last_update":"0001-01-01T00:00:00Z","name_a2s":"Uncletopia | San Francisco | 1 | All Maps","protocol":17,"map":"cp_process_final","folder":"tf","game":"Team Fortress","app_id":440,"player_count":0,"max_players":24,"Bots":0,"server_type":"Dedicated","server_os":"Linux","password":true,"vac":true,"version":"7757534","steam_id":85568392924469999,"keywords":["cp","nocrits","nodmgspread","uncletopia"],"game_id":440,"stv_port":27016,"stv_name":"Uncletopia | San Francisco | 1 | All Maps | STV","players":null},{"server_id":18,"name":"Uncletopia | San Francisco | 2 | All Maps","name_short":"sfo-2","host":"sfo-1.us.uncletopia.com","port":27025,"enabled":true,"region":"us-west","cc":"us","latitude":37.77397,"longitude":-122.4313,"reserved":0,"last_update":"0001-01-01T00:00:00Z","name_a2s":"Uncletopia | San Francisco | 2 | All Maps","protocol":17,"map":"koth_highpass","folder":"tf","game":"Team Fortress","app_id":440,"player_count":0,"max_players":24,"Bots":0,"server_type":"Dedicated","server_os":"Linux","password":true,"vac":true,"version":"7757534","steam_id":85568392924470000,"keywords":["cp","nocrits","nodmgspread","uncletopia"],"game_id":440,"stv_port":27026,"stv_name":"Uncletopia | San Francisco | 2 | All Maps | STV","players":null},{"server_id":19,"name":"Uncletopia | San Francisco | 3 | Stopwatch Beta","name_short":"sfo-3","host":"sfo-1.us.uncletopia.com","port":27035,"enabled":true,"region":"us-west","cc":"us","latitude":37.77397,"longitude":-122.4313,"reserved":0,"last_update":"0001-01-01T00:00:00Z","name_a2s":"Uncletopia | San Francisco | 3 | Stopwatch Beta","protocol":17,"map":"koth_lakeside_final","folder":"tf","game":"Team Fortress","app_id":440,"player_count":0,"max_players":24,"Bots":0,"server_type":"Dedicated","server_os":"Linux","password":true,"vac":true,"version":"7757534","steam_id":85568392924742824,"keywords":["cp","nocrits","nodmgspread","uncletopia"],"game_id":440,"stv_port":27036,"stv_name":"Uncletopia | San Francisco | 3 | Stopwatch Beta | STV","players":null},{"server_id":20,"name":"Uncletopia | San Francisco | 4 | Community","name_short":"sfo-4","host":"sfo-1.us.uncletopia.com","port":27045,"enabled":true,"region":"us-west","cc":"us","latitude":37.77397,"longitude":-122.4313,"reserved":0,"last_update":"0001-01-01T00:00:00Z","name_a2s":"Uncletopia | San Francisco | 4 | Community","protocol":17,"map":"cp_altitude","folder":"tf","game":"Team Fortress","app_id":440,"player_count":0,"max_players":24,"Bots":0,"server_type":"Dedicated","server_os":"Linux","password":true,"vac":true,"version":"7757534","steam_id":85568392924742826,"keywords":["cp","nocrits","nodmgspread","uncletopia"],"game_id":440,"stv_port":27046,"stv_name":"Uncletopia | San Francisco | 4 | Community | STV","players":null},{"server_id":141,"name":"Uncletopia | Sydney | 1 | All Maps","name_short":"syd-1","host":"syd-1.au.uncletopia.com","port":27015,"enabled":true,"region":"au","cc":"au","latitude":-33.865143,"longitude":151.2099,"reserved":0,"last_update":"0001-01-01T00:00:00Z","name_a2s":"Uncletopia | Sydney | 1 | All Maps","protocol":17,"map":"pl_barnblitz","folder":"tf","game":"Team Fortress","app_id":440,"player_count":24,"max_players":24,"Bots":0,"server_type":"Dedicated","server_os":"Linux","password":true,"vac":true,"version":"7882260","steam_id":85568392924470001,"keywords":["nocrits","nodmgspread","payload","uncletopia"],"game_id":440,"stv_port":27016,"stv_name":"Uncletopia | Sydney | 1 | All Maps | STV","players":[{"user_id":149,"name":"durcy","steam_id":76561198049037327,"connected_time":2561000000000,"state":"active","ping":91},{"user_id":175,"name":"CHOIB","steam_id":76561198387938667,"connected_time":937000000000,"state":"active","ping":45},{"user_id":168,"name":"Judgement Kazzy","steam_id":76561199122334686,"connected_time":1256000000000,"state":"active","ping":93},{"user_id":106,"name":"toblue","steam_id":76561198189137465,"connected_time":4931000000000,"state":"active","ping":84},{"user_id":180,"name":"AzureFox","steam_id":76561198108179408,"connected_time":805000000000,"state":"active","ping":78},{"user_id":165,"name":"kitkat","steam_id":76561198442601104,"connected_time":1571000000000,"state":"active","ping":59},{"user_id":141,"name":"IZ*","steam_id":76561198834621927,"connected_time":3028000000000,"state":"active","ping":150},{"user_id":157,"name":"Sinistral","steam_id":76561197989807279,"connected_time":1975000000000,"state":"active","ping":49},{"user_id":181,"name":"BoxingRoo","steam_id":76561198089647685,"connected_time":789000000000,"state":"active","ping":92},{"user_id":130,"name":"TheCloraxLorax","steam_id":76561198061344330,"connected_time":3851000000000,"state":"active","ping":61},{"user_id":174,"name":"fred","steam_id":76561199482732718,"connected_time":943000000000,"state":"active","ping":45},{"user_id":155,"name":"Mizzo","steam_id":76561198070362813,"connected_time":2029000000000,"state":"active","ping":103},{"user_id":148,"name":"marink","steam_id":76561198446126519,"connected_time":2673000000000,"state":"active","ping":46},{"user_id":184,"name":"weezer","steam_id":76561199439508788,"connected_time":212000000000,"state":"active","ping":66},{"user_id":159,"name":"perturb","steam_id":76561198085124297,"connected_time":1931000000000,"state":"active","ping":54},{"user_id":172,"name":"CypressFluff (She/Her)","steam_id":76561198174667818,"connected_time":952000000000,"state":"active","ping":66},{"user_id":185,"name":"Snowy","steam_id":76561198255720598,"connected_time":211000000000,"state":"active","ping":50},{"user_id":132,"name":"tom :D","steam_id":76561198073393715,"connected_time":3693000000000,"state":"active","ping":123},{"user_id":182,"name":"Withdrawal Agreement Kell of Li","steam_id":76561198168184440,"connected_time":754000000000,"state":"active","ping":76},{"user_id":169,"name":"cas ganister","steam_id":76561198879023728,"connected_time":1224000000000,"state":"active","ping":55},{"user_id":164,"name":"reverze bass","steam_id":76561198420572723,"connected_time":1704000000000,"state":"active","ping":85},{"user_id":183,"name":"Dupiter","steam_id":76561198108820767,"connected_time":688000000000,"state":"active","ping":58},{"user_id":178,"name":"budoo","steam_id":76561198946898233,"connected_time":921000000000,"state":"active","ping":49},{"user_id":187,"name":"Sentry Gun (EpicGuy4227)","steam_id":76561198094132328,"connected_time":103000000000,"state":"active","ping":70}]},{"server_id":123,"name":"Uncletopia | Sydney | 2 | All Maps","name_short":"syd-2","host":"syd-1.au.uncletopia.com","port":27025,"enabled":true,"region":"au","cc":"au","latitude":-33.865143,"longitude":151.2099,"reserved":0,"last_update":"0001-01-01T00:00:00Z","name_a2s":"Uncletopia | Sydney | 2 | All Maps","protocol":17,"map":"pl_swiftwater_final1","folder":"tf","game":"Team Fortress","app_id":440,"player_count":0,"max_players":24,"Bots":0,"server_type":"Dedicated","server_os":"Linux","password":true,"vac":true,"version":"7882260","steam_id":85568392924470002,"keywords":["nocrits","nodmgspread","payload","uncletopia"],"game_id":440,"stv_port":27026,"stv_name":"Uncletopia | Sydney | 2 | All Maps | STV","players":null},{"server_id":395,"name":"Uncletopia | Sydney | 3 | All Maps","name_short":"syd-3","host":"syd-1.au.uncletopia.com","port":27035,"enabled":true,"region":"au","cc":"au","latitude":-33.865143,"longitude":151.2099,"reserved":0,"last_update":"0001-01-01T00:00:00Z","name_a2s":"Uncletopia | Sydney | 3 | All Maps","protocol":17,"map":"koth_cascade","folder":"tf","game":"Team Fortress","app_id":440,"player_count":0,"max_players":24,"Bots":0,"server_type":"Dedicated","server_os":"Linux","password":true,"vac":true,"version":"7882260","steam_id":85568392925194467,"keywords":["cp","nocrits","nodmgspread","uncletopia"],"game_id":440,"stv_port":27036,"stv_name":"Uncletopia | Sydney | 3 | All Maps | STV","players":null},{"server_id":396,"name":"Uncletopia | Sydney | 4 | All Maps","name_short":"syd-4","host":"syd-1.au.uncletopia.com","port":27045,"enabled":true,"region":"au","cc":"au","latitude":-33.865143,"longitude":151.2099,"reserved":0,"last_update":"0001-01-01T00:00:00Z","name_a2s":"Uncletopia | Sydney | 4 | All Maps","protocol":17,"map":"cp_dustbowl","folder":"tf","game":"Team Fortress","app_id":440,"player_count":0,"max_players":24,"Bots":0,"server_type":"Dedicated","server_os":"Linux","password":true,"vac":true,"version":"7882260","steam_id":85568392925397958,"keywords":["cp","nocrits","nodmgspread","uncletopia"],"game_id":440,"stv_port":27046,"stv_name":"Uncletopia | Sydney | 4 | All Maps | STV","players":null},{"server_id":58,"name":"Uncletopia | Sydney | 5 | Stopwatch Beta","name_short":"syd-5","host":"syd-1.au.uncletopia.com","port":27055,"enabled":true,"region":"au","cc":"au","latitude":-33.865143,"longitude":151.2099,"reserved":0,"last_update":"0001-01-01T00:00:00Z","name_a2s":"Uncletopia | Sydney | 5 | Stopwatch Beta","protocol":17,"map":"workshop/pl_barnblitz_pro7.ugc582280235","folder":"tf","game":"Team Fortress","app_id":440,"player_count":0,"max_players":24,"Bots":0,"server_type":"Dedicated","server_os":"Linux","password":true,"vac":true,"version":"7882260","steam_id":85568392925397959,"keywords":["nocrits","nodmgspread","payload","uncletopia"],"game_id":440,"stv_port":27056,"stv_name":"Uncletopia | Sydney | 5 | Stopwatch Beta | STV","players":null},{"server_id":59,"name":"Uncletopia | Sydney | 6 | Community","name_short":"syd-6","host":"syd-1.au.uncletopia.com","port":27065,"enabled":true,"region":"au","cc":"au","latitude":-33.865143,"longitude":151.2099,"reserved":0,"last_update":"0001-01-01T00:00:00Z","name_a2s":"Uncletopia | Sydney | 6 | Community","protocol":17,"map":"pl_snowycoast","folder":"tf","game":"Team Fortress","app_id":440,"player_count":0,"max_players":24,"Bots":0,"server_type":"Dedicated","server_os":"Linux","password":true,"vac":true,"version":"7882260","steam_id":85568392925397960,"keywords":["nocrits","nodmgspread","payload","uncletopia"],"game_id":440,"stv_port":27066,"stv_name":"Uncletopia | Sydney | 6 | Community | STV","players":null},{"server_id":49,"name":"Uncletopia | Warsaw | 1 | All Maps","name_short":"waw-1","host":"waw-1.pl.uncletopia.com","port":27015,"enabled":true,"region":"eu","cc":"pl","latitude":52.2297,"longitude":21.017532,"reserved":0,"last_update":"0001-01-01T00:00:00Z","name_a2s":"","protocol":0,"map":"","folder":"","game":"","app_id":0,"player_count":0,"max_players":0,"Bots":0,"server_type":"","server_os":"","password":false,"vac":false,"version":"","steam_id":0,"keywords":null,"game_id":0,"stv_port":0,"stv_name":"","players":null},{"server_id":50,"name":"Uncletopia | Warsaw | 2 | All Maps","name_short":"waw-2","host":"waw-1.pl.uncletopia.com","port":27025,"enabled":true,"region":"eu","cc":"pl","latitude":52.2297,"longitude":21.017532,"reserved":0,"last_update":"0001-01-01T00:00:00Z","name_a2s":"Uncletopia | Warsaw | 2 | All Maps","protocol":17,"map":"pl_swiftwater_final1","folder":"tf","game":"Team Fortress","app_id":440,"player_count":0,"max_players":24,"Bots":0,"server_type":"Dedicated","server_os":"Linux","password":true,"vac":true,"version":"7882260","steam_id":85568392925397851,"keywords":["nocrits","nodmgspread","payload","uncletopia"],"game_id":440,"stv_port":27026,"stv_name":"Uncletopia | Warsaw | 2 | All Maps | STV","players":null},{"server_id":51,"name":"Uncletopia | Warsaw | 3 | All Maps","name_short":"waw-3","host":"waw-1.pl.uncletopia.com","port":27035,"enabled":true,"region":"eu","cc":"pl","latitude":52.2297,"longitude":21.017532,"reserved":0,"last_update":"0001-01-01T00:00:00Z","name_a2s":"Uncletopia | Warsaw | 3 | All Maps","protocol":17,"map":"koth_viaduct","folder":"tf","game":"Team Fortress","app_id":440,"player_count":0,"max_players":24,"Bots":0,"server_type":"Dedicated","server_os":"Linux","password":true,"vac":true,"version":"7882260","steam_id":85568392925397852,"keywords":["cp","nocrits","nodmgspread","uncletopia"],"game_id":440,"stv_port":27036,"stv_name":"Uncletopia | Warsaw | 3 | All Maps | STV","players":null},{"server_id":52,"name":"Uncletopia | Warsaw | 4 | All Maps","name_short":"waw-4","host":"waw-1.pl.uncletopia.com","port":27045,"enabled":true,"region":"eu","cc":"pl","latitude":52.2297,"longitude":21.017532,"reserved":0,"last_update":"0001-01-01T00:00:00Z","name_a2s":"Uncletopia | Warsaw | 4 | All Maps","protocol":17,"map":"koth_highpass","folder":"tf","game":"Team Fortress","app_id":440,"player_count":0,"max_players":24,"Bots":0,"server_type":"Dedicated","server_os":"Linux","password":true,"vac":true,"version":"7882260","steam_id":85568392925397853,"keywords":["cp","nocrits","nodmgspread","uncletopia"],"game_id":440,"stv_port":27046,"stv_name":"Uncletopia | Warsaw | 4 | All Maps | STV","players":null},{"server_id":53,"name":"Uncletopia | Warsaw | 5 | Stopwatch Beta","name_short":"waw-5","host":"waw-1.pl.uncletopia.com","port":27055,"enabled":true,"region":"eu","cc":"pl","latitude":52.2297,"longitude":21.017532,"reserved":0,"last_update":"0001-01-01T00:00:00Z","name_a2s":"Uncletopia | Warsaw | 5 | Stopwatch Beta","protocol":17,"map":"cp_mountainlab","folder":"tf","game":"Team Fortress","app_id":440,"player_count":0,"max_players":24,"Bots":0,"server_type":"Dedicated","server_os":"Linux","password":true,"vac":true,"version":"7882260","steam_id":85568392925397854,"keywords":["cp","nocrits","nodmgspread","uncletopia"],"game_id":440,"stv_port":27056,"stv_name":"Uncletopia | Warsaw | 5 | Stopwatch Beta | STV","players":null},{"server_id":54,"name":"Uncletopia | Warsaw | 6 | Community","name_short":"waw-6","host":"waw-1.pl.uncletopia.com","port":27065,"enabled":true,"region":"eu","cc":"pl","latitude":52.2297,"longitude":21.017532,"reserved":0,"last_update":"0001-01-01T00:00:00Z","name_a2s":"Uncletopia | Warsaw | 6 | Community","protocol":17,"map":"koth_viaduct","folder":"tf","game":"Team Fortress","app_id":440,"player_count":0,"max_players":24,"Bots":0,"server_type":"Dedicated","server_os":"Linux","password":true,"vac":true,"version":"7882260","steam_id":85568392925397856,"keywords":["cp","nocrits","nodmgspread","uncletopia"],"game_id":440,"stv_port":27066,"stv_name":"Uncletopia | Warsaw | 6 | Community | STV","players":null}]}