{"status":true,"message":"","result":[{"server_id":9,"name":"Uncletopia | Atlanta | 1 | All Maps","name_short":"atl-1","host":"atl-1.us.uncletopia.com","port":27015,"enabled":true,"region":"us-east","cc":"us","latitude":33.753746,"longitude":-84.38633,"reserved":0,"last_update":"0001-01-01T00:00:00Z","name_a2s":"Uncletopia | Atlanta | 1 | All Maps","protocol":17,"map":"pl_upward","folder":"tf","game":"Team Fortress","app_id":440,"player_count":24,"max_players":24,"Bots":0,"server_type":"Dedicated","server_os":"Linux","password":true,"vac":true,"version":"7757534","steam_id":85568392924469982,"keywords":["nocrits","nodmgspread","payload","uncletopia"],"game_id":440,"stv_port":27016,"stv_name":"Uncletopia | Atlanta | 1 | All Maps | STV","players":[{"user_id":559,"name":"Stoa","steam_id":76561198332519926,"connected_time":1553000000000,"state":"active","ping":58},{"user_id":538,"name":"WarMace","steam_id":76561198395937853,"connected_time":3176000000000,"state":"active","ping":88},{"user_id":554,"name":"Driving Cat Orange (real cat)","steam_id":76561199067771554,"connected_time":1770000000000,"state":"active","ping":59},{"user_id":542,"name":"Gichael","steam_id":76561198040602075,"connected_time":2700000000000,"state":"active","ping":93},{"user_id":564,"name":"dabob","steam_id":76561198133102865,"connected_time":539000000000,"state":"active","ping":59},{"user_id":502,"name":"BIG HOG","steam_id":76561198079923652,"connected_time":8074000000000,"state":"active","ping":74},{"user_id":557,"name":"destroylonely","steam_id":76561198349941380,"connected_time":1600000000000,"state":"active","ping":59},{"user_id":475,"name":"Sm0ky","steam_id":76561198418262145,"connected_time":9231000000000,"state":"active","ping":145},{"user_id":560,"name":"Sauce Boss","steam_id":76561198000156997,"connected_time":1543000000000,"state":"active","ping":70},{"user_id":490,"name":"Darkdrake","steam_id":76561198107200600,"connected_time":8744000000000,"state":"active","ping":56},{"user_id":563,"name":"Eternal Neckbeard","steam_id":76561198201862415,"connected_time":998000000000,"state":"active","ping":47},{"user_id":565,"name":"chasing california","steam_id":76561198079488962,"connected_time":536000000000,"state":"active","ping":134},{"user_id":556,"name":"b","steam_id":76561198376231372,"connected_time":1662000000000,"state":"active","ping":75},{"user_id":558,"name":"Intro Bonito","steam_id":76561198119478838,"connected_time":1585000000000,"state":"active","ping":51},{"user_id":524,"name":"lil hog","steam_id":76561199230929836,"connected_time":5223000000000,"state":"active","ping":77},{"user_id":494,"name":"wire-guided","steam_id":76561198055407168,"connected_time":8528000000000,"state":"active","ping":60},{"user_id":566,"name":"namI washedpants","steam_id":76561198063677510,"connected_time":524000000000,"state":"active","ping":83},{"user_id":572,"name":"mountain*✩‧₊˚","steam_id":76561198078395002,"connected_time":324000000000,"state":"active","ping":83},{"user_id":533,"name":"--_Cook_--","steam_id":76561198080855748,"connected_time":4047000000000,"state":"active","ping":45},{"user_id":530,"name":"ATL1 | on my hunting trip","steam_id":76561198315341646,"connected_time":4072000000000,"state":"active","ping":73},{"user_id":573,"name":"Aniz","steam_id":76561199226665024,"connected_time":264000000000,"state":"active","ping":151},{"user_id":537,"name":"big tiddy dragon gf","steam_id":76561198406992885,"connected_time":3349000000000,"state":"active","ping":60},{"user_id":519,"name":"kohlhagen","steam_id":76561198120440587,"connected_time":6028000000000,"state":"active","ping":45},{"user_id":526,"name":"chubbbo","steam_id":76561198943598378,"connected_time":5209000000000,"state":"active","ping":45}]},{"server_id":104,"name":"Uncletopia | Atlanta | 2 | All Maps","name_short":"atl-2","host":"atl-1.us.uncletopia.com","port":27025,"enabled":true,"region":"us-east","cc":"us","latitude":33.753746,"longitude":-84.38633,"reserved":0,"last_update":"0001-01-01T00:00:00Z","name_a2s":"Uncletopia | Atlanta | 2 | All Maps","protocol":17,"map":"pl_badwater","folder":"tf","game":"Team Fortress","app_id":440,"player_count":24,"max_players":24,"Bots":0,"server_type":"Dedicated","server_os":"Linux","password":true,"vac":true,"version":"7757534","steam_id":85568392924469983,"keywords":["nocrits","nodmgspread","payload","uncletopia"],"game_id":440,"stv_port":27026,"stv_name":"Uncletopia | Atlanta | 2 | All Maps | STV","players":[{"user_id":460,"name":"Lipton","steam_id":76561198135397441,"connected_time":421000000000,"state":"active","ping":76},{"user_id":462,"name":"Fang Lopez","steam_id":76561198141800967,"connected_time":244000000000,"state":"active","ping":88},{"user_id":437,"name":"Smiles","steam_id":76561198107197973,"connected_time":1566000000000,"state":"active","ping":90},{"user_id":441,"name":"Tone","steam_id":76561198139386202,"connected_time":1484000000000,"state":"active","ping":64},{"user_id":422,"name":"Mount Wannahockaloogie","steam_id":76561198924316615,"connected_time":2865000000000,"state":"active","ping":80},{"user_id":458,"name":"DD_440","steam_id":76561199135978082,"connected_time":629000000000,"state":"active","ping":69},{"user_id":464,"name":"WillieMakit","steam_id":76561197985391684,"connected_time":10000000000,"state":"spawning","ping":101},{"user_id":461,"name":"Pyro","steam_id":76561198312228050,"connected_time":262000000000,"state":"active","ping":56},{"user_id":449,"name":"Noticeme","steam_id":76561198393790024,"connected_time":1283000000000,"state":"active","ping":146},{"user_id":418,"name":"Chanoler","steam_id":76561198041259130,"connected_time":3735000000000,"state":"active","ping":76},{"user_id":432,"name":"Triple Lizard","steam_id":76561198188459654,"connected_time":2199000000000,"state":"active","ping":71},{"user_id":445,"name":"ƐՌѴƳ","steam_id":76561198099470277,"connected_time":1381000000000,"state":"active","ping":94},{"user_id":446,"name":"hideyochest","steam_id":76561198090366059,"connected_time":1359000000000,"state":"active","ping":54},{"user_id":408,"name":"cheers2x","steam_id":76561198366299848,"connected_time":4420000000000,"state":"active","ping":54},{"user_id":429,"name":"Future Gohan's Missing Arm","steam_id":76561198065614782,"connected_time":2555000000000,"state":"active","ping":98},{"user_id":433,"name":"The Builder","steam_id":76561198093432863,"connected_time":1946000000000,"state":"active","ping":72},{"user_id":463,"name":"CollDragon","steam_id":76561198067534450,"connected_time":107000000000,"state":"active","ping":62},{"user_id":428,"name":"VexT","steam_id":76561199471734115,"connected_time":2584000000000,"state":"active","ping":78},{"user_id":451,"name":"ShadowWasUhOh","steam_id":76561198400361935,"connected_time":1233000000000,"state":"active","ping":50},{"user_id":454,"name":"I Came","steam_id":76561198082938358,"connected_time":1147000000000,"state":"active","ping":88},{"user_id":452,"name":"Torbjorn","steam_id":76561198121023233,"connected_time":1209000000000,"state":"active","ping":76},{"user_id":448,"name":"Dispenser 2","steam_id":76561198163290322,"connected_time":1344000000000,"state":"active","ping":78},{"user_id":457,"name":"i eat pallet","steam_id":76561198101378377,"connected_time":656000000000,"state":"active","ping":93},{"user_id":456,"name":"Biflexual","steam_id":76561198317718938,"connected_time":1124000000000,"state":"active","ping":92}]},{"server_id":400,"name":"Uncletopia | Atlanta | 3 | Community","name_short":"atl-3","host":"atl-1.us.uncletopia.com","port":27035,"enabled":true,"region":"us-east","cc":"us","latitude":33.753746,"longitude":-84.38633,"reserved":0,"last_update":"0001-01-01T00:00:00Z","name_a2s":"Uncletopia | Atlanta | 3 | Community","protocol":17,"map":"workshop/cp_glacier_rc6.ugc2905735376","folder":"tf","game":"Team Fortress","app_id":440,"player_count":0,"max_players":24,"Bots":0,"server_type":"Dedicated","server_os":"Linux","password":true,"vac":true,"version":"7757534","steam_id":85568392924515187,"keywords":["cp","nocrits","nodmgspread","uncletopia"],"game_id":440,"stv_port":27036,"stv_name":"Uncletopia | Atlanta | 3 | Community | STV","players":null},{"server_id":401,"name":"Uncletopia | Atlanta | 4 | No Payload","name_short":"atl-4","host":"atl-1.us.uncletopia.com","port":27045,"enabled":true,"region":"us-east","cc":"us","latitude":33.753746,"longitude":-84.38633,"reserved":0,"last_update":"0001-01-01T00:00:00Z","name_a2s":"","protocol":0,"map":"","folder":"","game":"","app_id":0,"player_count":0,"max_players":0,"Bots":0,"server_type":"","server_os":"","password":false,"vac":false,"version":"","steam_id":0,"keywords":null,"game_id":0,"stv_port":0,"stv_name":"","players":null},{"server_id":2,"name":"Uncletopia | Chicago | 1 | All Maps","name_short":"chi-1","host":"chi-1.us.uncletopia.com","port":27015,"enabled":true,"region":"us-central","cc":"us","latitude":41.881832,"longitude":-87.62318,"reserved":0,"last_update":"0001-01-01T00:00:00Z","name_a2s":"Uncletopia | Chicago | 1 | All Maps","protocol":17,"map":"pl_frontier_final","folder":"tf","game":"Team Fortress","app_id":440,"player_count":24,"max_players":24,"Bots":0,"server_type":"Dedicated","server_os":"Linux","password":true,"vac":true,"version":"7757534","steam_id":85568392924469984,"keywords":["nocrits","nodmgspread","payload","uncletopia"],"game_id":440,"stv_port":27016,"stv_name":"Uncletopia | Chicago | 1 | All Maps | STV","players":[{"user_id":651,"name":"Nani?","steam_id":76561198130982692,"connected_time":2083000000000,"state":"active","ping":55},{"user_id":634,"name":"Javis","steam_id":76561198204163123,"connected_time":3243000000000,"state":"active","ping":59},{"user_id":673,"name":"boob","steam_id":76561198117256239,"connected_time":14000000000,"state":"spawning","ping":48},{"user_id":661,"name":"Buff Wizard","steam_id":76561198151397667,"connected_time":1063000000000,"state":"active","ping":112},{"user_id":650,"name":"snark","steam_id":76561198132980859,"connected_time":2146000000000,"state":"active","ping":56},{"user_id":620,"name":"WatchWill","steam_id":76561198157237945,"connected_time":5177000000000,"state":"active","ping":70},{"user_id":654,"name":"Piccadilly Willy","steam_id":76561198000312126,"connected_time":1356000000000,"state":"active","ping":47},{"user_id":635,"name":"DuckKey","steam_id":76561198904477889,"connected_time":3235000000000,"state":"active","ping":57},{"user_id":665,"name":"BernardBull","steam_id":76561198036138813,"connected_time":994000000000,"state":"active","ping":77},{"user_id":671,"name":"Yoshimelon","steam_id":76561198253054325,"connected_time":873000000000,"state":"active","ping":74},{"user_id":655,"name":"raw chicken enjoyer","steam_id":76561198986943063,"connected_time":1334000000000,"state":"active","ping":54},{"user_id":662,"name":"Orc peon","steam_id":76561198208567789,"connected_time":1045000000000,"state":"active","ping":83},{"user_id":666,"name":"I am a mooshroom","steam_id":76561198104198295,"connected_time":989000000000,"state":"active","ping":79},{"user_id":672,"name":"Funkadilla","steam_id":76561198420639264,"connected_time":29000000000,"state":"active","ping":71},{"user_id":649,"name":"sunny","steam_id":76561198069380992,"connected_time":2169000000000,"state":"active","ping":106},{"user_id":664,"name":"James Cordon","steam_id":76561198089294060,"connected_time":996000000000,"state":"active","ping":74},{"user_id":619,"name":"Grilled Of The Cheese","steam_id":76561198145066749,"connected_time":5201000000000,"state":"active","ping":77},{"user_id":639,"name":"Robo Intern","steam_id":76561199067098696,"connected_time":3210000000000,"state":"active","ping":102},{"user_id":674,"name":"01000101","steam_id":76561198027981956,"connected_time":12000000000,"state":"active","ping":85},{"user_id":593,"name":"i really like this dog :)","steam_id":76561198882404753,"connected_time":7719000000000,"state":"active","ping":76},{"user_id":668,"name":"Antwan","steam_id":76561198246200638,"connected_time":988000000000,"state":"active","ping":62},{"user_id":669,"name":"Queen Frau the Round","steam_id":76561197999942134,"connected_time":986000000000,"state":"active","ping":46},{"user_id":670,"name":"Golumpus","steam_id":76561198053549635,"connected_time":986000000000,"state":"active","ping":98},{"user_id":630,"name":"Mixomin","steam_id":76561198295061570,"connected_time":4003000000000,"state":"active","ping":48}]},{"server_id":106,"name":"Uncletopia | Chicago | 2 | All Maps","name_short":"chi-2","host":"chi-1.us.uncletopia.com","port":27025,"enabled":true,"region":"us-central","cc":"us","latitude":41.881832,"longitude":-87.62318,"reserved":0,"last_update":"0001-01-01T00:00:00Z","name_a2s":"Uncletopia | Chicago | 2 | All Maps","protocol":17,"map":"pl_borneo","folder":"tf","game":"Team Fortress","app_id":440,"player_count":23,"max_players":24,"Bots":0,"server_type":"Dedicated","server_os":"Linux","password":true,"vac":true,"version":"7757534","steam_id":85568392924469985,"keywords":["nocrits","nodmgspread","payload","uncletopia"],"game_id":440,"stv_port":27026,"stv_name":"Uncletopia | Chicago | 2 | All Maps | STV","players":[{"user_id":705,"name":"nnobi","steam_id":76561198878729277,"connected_time":3393000000000,"state":"active","ping":75},{"user_id":728,"name":"I hate spy so much","steam_id":76561198148724163,"connected_time":1826000000000,"state":"active","ping":123},{"user_id":766,"name":"Baka!⑨⑨⑨⑨","steam_id":76561198152948254,"connected_time":112000000000,"state":"active","ping":69},{"user_id":724,"name":"Krome","steam_id":76561198087317232,"connected_time":2263000000000,"state":"active","ping":60},{"user_id":739,"name":"Rukks","steam_id":76561197993918954,"connected_time":1021000000000,"state":"active","ping":90},{"user_id":770,"name":"TwinAirplane959","steam_id":76561198866756840,"connected_time":60000000000,"state":"active","ping":116},{"user_id":768,"name":"frank","steam_id":76561198137777483,"connected_time":97000000000,"state":"active","ping":60},{"user_id":743,"name":"CFGU || RAWRWAFL","steam_id":76561198032118386,"connected_time":860000000000,"state":"active","ping":90},{"user_id":686,"name":"Wardin","steam_id":76561198096881855,"connected_time":4696000000000,"state":"active","ping":64},{"user_id":719,"name":"Jombi","steam_id":76561198427813097,"connected_time":2638000000000,"state":"active","ping":71},{"user_id":708,"name":"FiddyFoMike","steam_id":76561198057072581,"connected_time":3369000000000,"state":"active","ping":100},{"user_id":713,"name":"MankTKO","steam_id":76561198189421005,"connected_time":3203000000000,"state":"active","ping":47},{"user_id":769,"name":"Wizard Raccoon","steam_id":76561198072562591,"connected_time":67000000000,"state":"active","ping":85},{"user_id":723,"name":"GAMBU","steam_id":76561198320866421,"connected_time":2399000000000,"state":"active","ping":65},{"user_id":742,"name":"Elm","steam_id":76561198127972568,"connected_time":925000000000,"state":"active","ping":76},{"user_id":738,"name":"American_Fungus","steam_id":76561198060319921,"connected_time":1304000000000,"state":"active","ping":75},{"user_id":750,"name":"Lil' Achiever","steam_id":76561197970450546,"connected_time":700000000000,"state":"active","ping":107},{"user_id":747,"name":"earthbound393","steam_id":76561199444276547,"connected_time":816000000000,"state":"active","ping":102},{"user_id":720,"name":"noided","steam_id":76561198353924837,"connected_time":2546000000000,"state":"active","ping":89},{"user_id":700,"name":"Locoangster","steam_id":76561198235987404,"connected_time":3924000000000,"state":"active","ping":108},{"user_id":759,"name":"BroBama","steam_id":76561198203732587,"connected_time":333000000000,"state":"active","ping":79},{"user_id":772,"name":"Mush","steam_id":76561198393461065,"connected_time":34000000000,"state":"active","ping":78},{"user_id":773,"name":"Shazi","steam_id":76561198091906889,"connected_time":33000000000,"state":"active","ping":88}]},{"server_id":402,"name":"Uncletopia | Chicago | 3 | All Maps","name_short":"chi-3","host":"chi-1.us.uncletopia.com","port":27035,"enabled":true,"region":"us-central","cc":"us","latitude":41.881832,"longitude":-87.62318,"reserved":0,"last_update":"0001-01-01T00:00:00Z","name_a2s":"Uncletopia | Chicago | 3 | All Maps","protocol":17,"map":"pl_badwater","folder":"tf","game":"Team Fortress","app_id":440,"player_count":24,"max_players":24,"Bots":0,"server_type":"Dedicated","server_os":"Linux","password":true,"vac":true,"version":"7757534","steam_id":85568392924515191,"keywords":["nocrits","nodmgspread","payload","uncletopia"],"game_id":440,"stv_port":27036,"stv_name":"Uncletopia | Chicago | 3 | All Maps | STV","players":[{"user_id":348,"name":"The local hobo","steam_id":76561198289650060,"connected_time":210000000000,"state":"active","ping":77},{"user_id":337,"name":"luu","steam_id":76561197994492154,"connected_time":1047000000000,"state":"active","ping":166},{"user_id":346,"name":"TÖZI","steam_id":76561198045268695,"connected_time":296000000000,"state":"active","ping":57},{"user_id":297,"name":"hack fraud","steam_id":76561198015036066,"connected_time":4188000000000,"state":"active","ping":91},{"user_id":323,"name":"GreekGoat_Coffee","steam_id":76561198129331088,"connected_time":1671000000000,"state":"active","ping":45},{"user_id":324,"name":"Thequirka","steam_id":76561198968058652,"connected_time":1552000000000,"state":"active","ping":93},{"user_id":301,"name":"mike\"3loavesofbread\"jones","steam_id":76561198064342804,"connected_time":3291000000000,"state":"active","ping":174},{"user_id":311,"name":"XBOX 360","steam_id":76561198066590783,"connected_time":2279000000000,"state":"active","ping":69},{"user_id":347,"name":"Raydn","steam_id":76561198418414338,"connected_time":276000000000,"state":"active","ping":81},{"user_id":354,"name":"crypltingh","steam_id":76561199008585183,"connected_time":141000000000,"state":"active","ping":75},{"user_id":355,"name":"Littlebean","steam_id":76561198087597267,"connected_time":138000000000,"state":"active","ping":78},{"user_id":344,"name":"i hate car seat headrest","steam_id":76561198055186751,"connected_time":845000000000,"state":"active","ping":73},{"user_id":353,"name":"Hovg9000.TV","steam_id":76561199191556710,"connected_time":150000000000,"state":"active","ping":92},{"user_id":306,"name":"Samplee","steam_id":76561198063406140,"connected_time":2635000000000,"state":"active","ping":149},{"user_id":341,"name":"The Angel of Death","steam_id":76561198026079349,"connected_time":994000000000,"state":"active","ping":111},{"user_id":351,"name":"ultralisk52","steam_id":76561198051666604,"connected_time":157000000000,"state":"active","ping":64},{"user_id":296,"name":"Biosock Infiknit","steam_id":76561198072693794,"connected_time":4371000000000,"state":"active","ping":56},{"user_id":314,"name":"jibby","steam_id":76561198046872382,"connected_time":2232000000000,"state":"active","ping":54},{"user_id":334,"name":"Herdez Hot Salsa","steam_id":76561197991740906,"connected_time":1194000000000,"state":"active","ping":68},{"user_id":328,"name":"UrFavFemboy","steam_id":76561199140460467,"connected_time":1514000000000,"state":"active","ping":162},{"user_id":329,"name":"bur","steam_id":76561198004231658,"connected_time":1467000000000,"state":"active","ping":63},{"user_id":258,"name":"The Mayo Man","steam_id":76561197995377425,"connected_time":6502000000000,"state":"active","ping":70},{"user_id":335,"name":"shplurmff","steam_id":76561198116003315,"connected_time":1180000000000,"state":"active","ping":48},{"user_id":349,"name":"snugglesupafresh","steam_id":76561197999666480,"connected_time":187000000000,"state":"active","ping":92}]},{"server_id":403,"name":"Uncletopia | Chicago | 4 | All Maps","name_short":"chi-4","host":"chi-1.us.uncletopia.com","port":27045,"enabled":true,"region":"us-central","cc":"us","latitude":41.881832,"longitude":-87.62318,"reserved":0,"last_update":"0001-01-01T00:00:00Z","name_a2s":"Uncletopia | Chicago | 4 | All Maps","protocol":17,"map":"cp_process_final","folder":"tf","game":"Team Fortress","app_id":440,"player_count":24,"max_players":24,"Bots":0,"server_type":"Dedicated","server_os":"Linux","password":true,"vac":true,"version":"7757534","steam_id":85568392924515193,"keywords":["cp","nocrits","nodmgspread","uncletopia"],"game_id":440,"stv_port":27046,"stv_name":"Uncletopia | Chicago | 4 | All Maps | STV","players":[{"user_id":656,"name":"Oneal","steam_id":76561198026564095,"connected_time":1348000000000,"state":"active","ping":50},{"user_id":626,"name":"griff928","steam_id":76561198149614679,"connected_time":3277000000000,"state":"active","ping":47},{"user_id":641,"name":"spooky kabuki","steam_id":76561198030361635,"connected_time":2522000000000,"state":"active","ping":47},{"user_id":663,"name":"Cleaver Scout","steam_id":76561198140517330,"connected_time":933000000000,"state":"active","ping":93},{"user_id":669,"name":"quacked!","steam_id":76561198970819395,"connected_time":690000000000,"state":"active","ping":77},{"user_id":570,"name":"Kng","steam_id":76561198993248203,"connected_time":5948000000000,"state":"active","ping":90},{"user_id":670,"name":"God of bread","steam_id":76561198373688035,"connected_time":681000000000,"state":"active","ping":55},{"user_id":592,"name":"BIG CHIP","steam_id":76561198023680617,"connected_time":4741000000000,"state":"active","ping":45},{"user_id":657,"name":"DoubleTee","steam_id":76561198018980347,"connected_time":1333000000000,"state":"active","ping":71},{"user_id":671,"name":"Romo","steam_id":76561198243101572,"connected_time":661000000000,"state":"active","ping":82},{"user_id":556,"name":"Jake from FedEx","steam_id":76561198051258256,"connected_time":7467000000000,"state":"active","ping":84},{"user_id":676,"name":"James","steam_id":76561198081313916,"connected_time":398000000000,"state":"active","ping":65},{"user_id":648,"name":"REALLINUSJEWTIP.","steam_id":76561198056647983,"connected_time":2095000000000,"state":"active","ping":75},{"user_id":672,"name":"hashmap","steam_id":76561198043794014,"connected_time":635000000000,"state":"active","ping":50},{"user_id":646,"name":"Spike Bones","steam_id":76561198234926120,"connected_time":2187000000000,"state":"active","ping":81},{"user_id":637,"name":"who is gavin?","steam_id":76561198069415057,"connected_time":2742000000000,"state":"active","ping":62},{"user_id":655,"name":"Mr. House's Pubic Louses","steam_id":76561198022358047,"connected_time":1624000000000,"state":"active","ping":60},{"user_id":678,"name":"he munch","steam_id":76561198339644583,"connected_time":118000000000,"state":"active","ping":52},{"user_id":645,"name":"Motorbung87","steam_id":76561198976821898,"connected_time":2212000000000,"state":"active","ping":97},{"user_id":649,"name":"paisano","steam_id":76561198065575472,"connected_time":2079000000000,"state":"active","ping":61},{"user_id":679,"name":"Stick","steam_id":76561198001509374,"connected_time":25000000000,"state":"active","ping":74},{"user_id":651,"name":"threethree","steam_id":76561198177354155,"connected_time":2067000000000,"state":"active","ping":63},{"user_id":677,"name":"Frontier Psychiatrist","steam_id":76561198038689088,"connected_time":233000000000,"state":"active","ping":91},{"user_id":675,"name":"Rockgraham101","steam_id":76561198171740458,"connected_time":584000000000,"state":"active","ping":60}]},{"server_id":36,"name":"Uncletopia | Chicago | 5 | All Maps","name_short":"chi-5","host":"chi-2.us.uncletopia.com","port":27015,"enabled":true,"region":"us-central","cc":"us","latitude":41.881832,"longitude":-87.62318,"reserved":0,"last_update":"0001-01-01T00:00:00Z","name_a2s":"Uncletopia | Chicago | 5 | All Maps","protocol":17,"map":"pl_goldrush","folder":"tf","game":"Team Fortress","app_id":440,"player_count":25,"max_players":24,"Bots":0,"server_type":"Dedicated","server_os":"Linux","password":true,"vac":true,"version":"7757534","steam_id":85568392924866362,"keywords":["nocrits","nodmgspread","payload","uncletopia"],"game_id":440,"stv_port":27016,"stv_name":"Uncletopia | Chicago | 5 | All Maps | STV","players":[{"user_id":383,"name":"BootyOcho1","steam_id":76561199035019199,"connected_time":1849000000000,"state":"active","ping":116},{"user_id":411,"name":"tyg","steam_id":76561198056246867,"connected_time":538000000000,"state":"active","ping":75},{"user_id":412,"name":"RarestGuide","steam_id":76561198050338923,"connected_time":451000000000,"state":"active","ping":76},{"user_id":413,"name":"Mr. Dry Lips","steam_id":76561198028157625,"connected_time":434000000000,"state":"active","ping":90},{"user_id":330,"name":"Carl","steam_id":76561198285931413,"connected_time":2917000000000,"state":"active","ping":64},{"user_id":425,"name":"bkiller","steam_id":76561198029265697,"connected_time":292000000000,"state":"active","ping":82},{"user_id":302,"name":"monsterkill4567","steam_id":76561198272986367,"connected_time":3510000000000,"state":"active","ping":116},{"user_id":415,"name":"Yosh","steam_id":76561198027078899,"connected_time":386000000000,"state":"active","ping":76},{"user_id":212,"name":"RX 6500 XT","steam_id":76561197999657118,"connected_time":10103000000000,"state":"active","ping":90},{"user_id":422,"name":"Glass Joe","steam_id":76561198317365741,"connected_time":347000000000,"state":"active","ping":66},{"user_id":426,"name":"DiÇkson","steam_id":76561198006044216,"connected_time":264000000000,"state":"connecting","ping":0},{"user_id":382,"name":"chef_hatchet","steam_id":76561198154906329,"connected_time":1865000000000,"state":"active","ping":59},{"user_id":431,"name":"haxxorman","steam_id":76561199155156400,"connected_time":216000000000,"state":"active","ping":59},{"user_id":387,"name":"Habba","steam_id":76561197986096340,"connected_time":1580000000000,"state":"active","ping":81},{"user_id":347,"name":"ReliableSoup","steam_id":76561199012909908,"connected_time":2514000000000,"state":"active","ping":59},{"user_id":388,"name":"corntent","steam_id":76561198824847948,"connected_time":1538000000000,"state":"active","ping":55},{"user_id":281,"name":"ZofoJackson","steam_id":76561197998366861,"connected_time":5218000000000,"state":"active","ping":65},{"user_id":424,"name":"rachel","steam_id":76561198052588144,"connected_time":302000000000,"state":"active","ping":78},{"user_id":420,"name":"STEVE","steam_id":76561198063475894,"connected_time":350000000000,"state":"active","ping":70},{"user_id":381,"name":"Mug Moment Gaming","steam_id":76561198233098136,"connected_time":1866000000000,"state":"active","ping":56},{"user_id":310,"name":"pog frog","steam_id":76561198985071114,"connected_time":3431000000000,"state":"active","ping":130},{"user_id":289,"name":"greeno","steam_id":76561198109901138,"connected_time":4471000000000,"state":"active","ping":77},{"user_id":423,"name":"Marzbee115","steam_id":76561198095821025,"connected_time":334000000000,"state":"active","ping":88},{"user_id":295,"name":"Motreir","steam_id":76561198151717946,"connected_time":3943000000000,"state":"active","ping":87},{"user_id":379,"name":"Aviyarn","steam_id":76561199074194652,"connected_time":1936000000000,"state":"active","ping":80}]},{"server_id":37,"name":"Uncletopia | Chicago | 6 | All Maps","name_short":"chi-6","host":"chi-2.us.uncletopia.com","port":27025,"enabled":true,"region":"us-central","cc":"us","latitude":41.881832,"longitude":-87.62318,"reserved":0,"last_update":"0001-01-01T00:00:00Z","name_a2s":"Uncletopia | Chicago | 6 | All Maps","protocol":17,"map":"pl_borneo","folder":"tf","game":"Team Fortress","app_id":440,"player_count":24,"max_players":24,"Bots":0,"server_type":"Dedicated","server_os":"Linux","password":true,"vac":true,"version":"7757534","steam_id":85568392924866363,"keywords":["nocrits","nodmgspread","payload","uncletopia"],"game_id":440,"stv_port":27026,"stv_name":"Uncletopia | Chicago | 6 | All Maps | STV","players":[{"user_id":292,"name":"Bow_","steam_id":76561198109608134,"connected_time":6828000000000,"state":"active","ping":79},{"user_id":372,"name":"james may","steam_id":76561198043857339,"connected_time":2356000000000,"state":"active","ping":102},{"user_id":369,"name":"Jankyo","steam_id":76561198083339492,"connected_time":2868000000000,"state":"active","ping":82},{"user_id":393,"name":"Jawn Fetterman","steam_id":76561198035631000,"connected_time":785000000000,"state":"active","ping":85},{"user_id":383,"name":"SKForm","steam_id":76561198381500437,"connected_time":1119000000000,"state":"active","ping":55},{"user_id":382,"name":"bagel_man","steam_id":76561198164640460,"connected_time":1135000000000,"state":"active","ping":107},{"user_id":385,"name":"Mister Fister","steam_id":76561199059653595,"connected_time":989000000000,"state":"active","ping":99},{"user_id":396,"name":"Spearmint","steam_id":76561198134215373,"connected_time":688000000000,"state":"active","ping":61},{"user_id":366,"name":"enmgxcltayiqoacx","steam_id":76561197974965536,"connected_time":2958000000000,"state":"active","ping":60},{"user_id":399,"name":"the inventor of sex","steam_id":76561198074624639,"connected_time":115000000000,"state":"active","ping":53},{"user_id":370,"name":"mir #Q$C","steam_id":76561198061734546,"connected_time":2863000000000,"state":"active","ping":67},{"user_id":397,"name":"log","steam_id":76561198977633937,"connected_time":215000000000,"state":"active","ping":61},{"user_id":387,"name":"vertical orientation correction","steam_id":76561198007464245,"connected_time":929000000000,"state":"active","ping":78},{"user_id":388,"name":"Smokey","steam_id":76561198071523590,"connected_time":919000000000,"state":"active","ping":77},{"user_id":398,"name":"Kurg","steam_id":76561198143381218,"connected_time":160000000000,"state":"active","ping":51},{"user_id":229,"name":"Hammerhead","steam_id":76561198897122890,"connected_time":13283000000000,"state":"active","ping":58},{"user_id":379,"name":"Jezzus","steam_id":76561199289676387,"connected_time":1588000000000,"state":"active","ping":88},{"user_id":390,"name":"Carpicious","steam_id":76561198426619665,"connected_time":818000000000,"state":"active","ping":109},{"user_id":368,"name":"scribbles","steam_id":76561197972690440,"connected_time":2931000000000,"state":"active","ping":94},{"user_id":331,"name":"Chin","steam_id":76561198247426906,"connected_time":5157000000000,"state":"active","ping":80},{"user_id":203,"name":"ror!","steam_id":76561198021227843,"connected_time":15131000000000,"state":"active","ping":53},{"user_id":392,"name":"*****setget","steam_id":76561198118824188,"connected_time":812000000000,"state":"active","ping":122},{"user_id":400,"name":"Aeri","steam_id":76561197996522919,"connected_time":109000000000,"state":"active","ping":84}]},{"server_id":38,"name":"Uncletopia | Chicago | 7 | Stopwatch Beta","name_short":"chi-7","host":"chi-2.us.uncletopia.com","port":27035,"enabled":true,"region":"us-central","cc":"us","latitude":41.881832,"longitude":-87.62318,"reserved":0,"last_update":"0001-01-01T00:00:00Z","name_a2s":"Uncletopia | Chicago | 7 | Stopwatch Beta","protocol":17,"map":"cp_granary","folder":"tf","game":"Team Fortress","app_id":440,"player_count":24,"max_players":24,"Bots":0,"server_type":"Dedicated","server_os":"Linux","password":true,"vac":true,"version":"7757534","steam_id":85568392924866364,"keywords":["cp","nocrits","nodmgspread","uncletopia"],"game_id":440,"stv_port":27036,"stv_name":"Uncletopia | Chicago | 7 | Stopwatch Beta | STV","players":[{"user_id":211,"name":"Nuwrox1","steam_id":76561198406951007,"connected_time":550000000000,"state":"active","ping":69},{"user_id":207,"name":"craven","steam_id":76561198088191503,"connected_time":687000000000,"state":"active","ping":75},{"user_id":210,"name":"spaghetti","steam_id":76561198010019214,"connected_time":647000000000,"state":"active","ping":45},{"user_id":208,"name":"java","steam_id":76561198030276792,"connected_time":678000000000,"state":"active","ping":67},{"user_id":196,"name":"Dot.","steam_id":76561198149463984,"connected_time":1993000000000,"state":"active","ping":52},{"user_id":130,"name":"Chad","steam_id":76561198222313772,"connected_time":5740000000000,"state":"active","ping":76},{"user_id":185,"name":"steggy","steam_id":76561198000564263,"connected_time":2286000000000,"state":"active","ping":71},{"user_id":194,"name":"checkswing","steam_id":76561198999816132,"connected_time":2096000000000,"state":"active","ping":72},{"user_id":199,"name":"krwax","steam_id":76561198272053849,"connected_time":1711000000000,"state":"active","ping":59},{"user_id":167,"name":"Caoticaos","steam_id":76561198114800227,"connected_time":3684000000000,"state":"active","ping":155},{"user_id":212,"name":"leumas","steam_id":76561198240408540,"connected_time":537000000000,"state":"active","ping":57},{"user_id":213,"name":"gummygeek","steam_id":76561198244543486,"connected_time":481000000000,"state":"active","ping":112},{"user_id":201,"name":"Fever Dreams","steam_id":76561198116614620,"connected_time":1347000000000,"state":"active","ping":70},{"user_id":188,"name":"lanoc","steam_id":76561198055415367,"connected_time":2208000000000,"state":"active","ping":63},{"user_id":214,"name":"pie","steam_id":76561199411517965,"connected_time":448000000000,"state":"active","ping":125},{"user_id":179,"name":"Richiebeans","steam_id":76561198026558654,"connected_time":2670000000000,"state":"active","ping":70},{"user_id":198,"name":"jayhong","steam_id":76561198046772832,"connected_time":1846000000000,"state":"active","ping":44},{"user_id":197,"name":"PlasmaElk","steam_id":76561198823281802,"connected_time":1989000000000,"state":"active","ping":73},{"user_id":191,"name":"tylermsmith14","steam_id":76561199380191638,"connected_time":2150000000000,"state":"active","ping":76},{"user_id":215,"name":"kratomSnorter.1quarter","steam_id":76561198946987511,"connected_time":399000000000,"state":"active","ping":77},{"user_id":216,"name":"noahjwarner09","steam_id":76561199444479988,"connected_time":363000000000,"state":"active","ping":62},{"user_id":217,"name":"minerkid2004","steam_id":76561198044262827,"connected_time":362000000000,"state":"active","ping":100},{"user_id":218,"name":"Blitz3k","steam_id":76561198055758741,"connected_time":357000000000,"state":"active","ping":67},{"user_id":219,"name":"Tick","steam_id":76561198184161214,"connected_time":253000000000,"state":"active","ping":44}]},{"server_id":39,"name":"Uncletopia | Chicago | 8 | Community","name_short":"chi-8","host":"chi-2.us.uncletopia.com","port":27045,"enabled":true,"region":"us-central","cc":"us","latitude":41.881832,"longitude":-87.62318,"reserved":0,"last_update":"0001-01-01T00:00:00Z","name_a2s":"Uncletopia | Chicago | 8 | Community","protocol":17,"map":"workshop/koth_bagel_rc6.ugc2514036946","folder":"tf","game":"Team Fortress","app_id":440,"player_count":0,"max_players":24,"Bots":0,"server_type":"Dedicated","server_os":"Linux","password":true,"vac":true,"version":"7757534","steam_id":85568392924866365,"keywords":["cp","nocrits","nodmgspread","uncletopia"],"game_id":440,"stv_port":27046,"stv_name":"Uncletopia | Chicago | 8 | Community | STV","players":null},{"server_id":8,"name":"Uncletopia | Dallas | 1 | All Maps","name_short":"dal-1","host":"dal-1.us.uncletopia.com","port":27015,"enabled":true,"region":"us-central","cc":"us","latitude":32.779167,"longitude":-96.80889,"reserved":0,"last_update":"0001-01-01T00:00:00Z","name_a2s":"Uncletopia | Dallas | 1 | All Maps","protocol":17,"map":"pl_frontier_final","folder":"tf","game":"Team Fortress","app_id":440,"player_count":24,"max_players":24,"Bots":0,"server_type":"Dedicated","server_os":"Linux","password":true,"vac":true,"version":"7757534","steam_id":85568392924469986,"keywords":["nocrits","nodmgspread","payload","uncletopia"],"game_id":440,"stv_port":27016,"stv_name":"Uncletopia | Dallas | 1 | All Maps | STV","players":[{"user_id":538,"name":"roleycoley","steam_id":76561198069574107,"connected_time":800000000000,"state":"active","ping":49},{"user_id":528,"name":"GhostFreak","steam_id":76561198325306224,"connected_time":2044000000000,"state":"active","ping":74},{"user_id":526,"name":"Jello","steam_id":76561198890633732,"connected_time":2389000000000,"state":"active","ping":64},{"user_id":531,"name":"roody","steam_id":76561198066260405,"connected_time":1637000000000,"state":"active","ping":95},{"user_id":533,"name":"Z71Jeffrey05","steam_id":76561198045992418,"connected_time":1589000000000,"state":"active","ping":110},{"user_id":537,"name":"rubber","steam_id":76561198041235345,"connected_time":1148000000000,"state":"active","ping":82},{"user_id":519,"name":"boobies arc","steam_id":76561198316753540,"connected_time":3279000000000,"state":"active","ping":33},{"user_id":517,"name":"Bullwinkle J. Moose","steam_id":76561198075977196,"connected_time":3332000000000,"state":"active","ping":55},{"user_id":540,"name":"goblin'n around","steam_id":76561199455732510,"connected_time":515000000000,"state":"active","ping":82},{"user_id":514,"name":"SEX HAVER EXTRAORDINAIRE","steam_id":76561198167816516,"connected_time":3388000000000,"state":"active","ping":71},{"user_id":483,"name":"iluvtoust","steam_id":76561198869269207,"connected_time":5724000000000,"state":"active","ping":54},{"user_id":539,"name":"TheDieeg","steam_id":76561199443116996,"connected_time":541000000000,"state":"active","ping":77},{"user_id":534,"name":"Prof. Eggnog","steam_id":76561198193389166,"connected_time":1582000000000,"state":"active","ping":97},{"user_id":500,"name":"pipeline","steam_id":76561198212263380,"connected_time":4349000000000,"state":"active","ping":37},{"user_id":515,"name":"aidan long","steam_id":76561198073022833,"connected_time":3376000000000,"state":"active","ping":45},{"user_id":520,"name":"carter","steam_id":76561198173565391,"connected_time":3197000000000,"state":"active","ping":86},{"user_id":502,"name":"Gian","steam_id":76561198041434512,"connected_time":4340000000000,"state":"active","ping":114},{"user_id":525,"name":"Arrluk","steam_id":76561198396679452,"connected_time":2557000000000,"state":"active","ping":90},{"user_id":541,"name":"The Horselords and Animal Gods","steam_id":76561197975094050,"connected_time":438000000000,"state":"active","ping":86},{"user_id":503,"name":"MuppetMangler","steam_id":76561198260425452,"connected_time":4337000000000,"state":"active","ping":60},{"user_id":509,"name":"RokkitFrog","steam_id":76561198046465850,"connected_time":4037000000000,"state":"active","ping":58},{"user_id":535,"name":"Webs","steam_id":76561198041705007,"connected_time":1561000000000,"state":"active","ping":156},{"user_id":536,"name":"duddlee","steam_id":76561198030052564,"connected_time":1552000000000,"state":"active","ping":107},{"user_id":524,"name":"owen","steam_id":76561198121517871,"connected_time":2596000000000,"state":"active","ping":56}]},{"server_id":108,"name":"Uncletopia | Dallas | 2 | All Maps","name_short":"dal-2","host":"dal-1.us.uncletopia.com","port":27025,"enabled":true,"region":"us-central","cc":"us","latitude":32.779167,"longitude":-96.80889,"reserved":0,"last_update":"0001-01-01T00:00:00Z","name_a2s":"Uncletopia | Dallas | 2 | All Maps","protocol":17,"map":"pl_frontier_final","folder":"tf","game":"Team Fortress","app_id":440,"player_count":24,"max_players":24,"Bots":0,"server_type":"Dedicated","server_os":"Linux","password":true,"vac":true,"version":"7757534","steam_id":85568392924469988,"keywords":["nocrits","nodmgspread","payload","uncletopia"],"game_id":440,"stv_port":27026,"stv_name":"Uncletopia | Dallas | 2 | All Maps | STV","players":[{"user_id":367,"name":"Person","steam_id":76561198093244204,"connected_time":3847000000000,"state":"active","ping":94},{"user_id":353,"name":"Joe Dada","steam_id":76561199387807583,"connected_time":5620000000000,"state":"active","ping":106},{"user_id":402,"name":"Shmish","steam_id":76561197966078491,"connected_time":2595000000000,"state":"active","ping":107},{"user_id":429,"name":"Swaus","steam_id":76561198035761308,"connected_time":909000000000,"state":"active","ping":75},{"user_id":397,"name":"678-999-8212","steam_id":76561198084260378,"connected_time":2789000000000,"state":"active","ping":42},{"user_id":370,"name":"UnkownGamerLOL","steam_id":76561198225902368,"connected_time":3769000000000,"state":"active","ping":72},{"user_id":436,"name":"smugmirk","steam_id":76561198880748680,"connected_time":284000000000,"state":"active","ping":81},{"user_id":413,"name":"Peter Muskrat (racist)","steam_id":76561198857749738,"connected_time":2004000000000,"state":"active","ping":86},{"user_id":405,"name":"AlwaysChilling","steam_id":76561198054236546,"connected_time":2536000000000,"state":"active","ping":90},{"user_id":395,"name":"austintacious","steam_id":76561198054118061,"connected_time":2847000000000,"state":"active","ping":67},{"user_id":416,"name":"Danshaku","steam_id":76561198101626716,"connected_time":1946000000000,"state":"active","ping":79},{"user_id":421,"name":"FatCuddlyBear","steam_id":76561198133613253,"connected_time":1568000000000,"state":"active","ping":86},{"user_id":434,"name":"floofy","steam_id":76561198389769098,"connected_time":305000000000,"state":"active","ping":85},{"user_id":417,"name":"homestuck","steam_id":76561198085042338,"connected_time":1933000000000,"state":"active","ping":86},{"user_id":338,"name":"xZackAttack27x","steam_id":76561198035446639,"connected_time":6783000000000,"state":"active","ping":40},{"user_id":389,"name":"BimmyBohns","steam_id":76561198175895250,"connected_time":2924000000000,"state":"active","ping":54},{"user_id":431,"name":"Lezabel","steam_id":76561198970753261,"connected_time":385000000000,"state":"active","ping":75},{"user_id":426,"name":"oxbudy","steam_id":76561198022120207,"connected_time":1465000000000,"state":"active","ping":64},{"user_id":408,"name":"Chelevera","steam_id":76561198164811438,"connected_time":2378000000000,"state":"active","ping":118},{"user_id":414,"name":"Danger McHazard","steam_id":76561198059451274,"connected_time":1982000000000,"state":"active","ping":81},{"user_id":428,"name":"Chance","steam_id":76561198360789770,"connected_time":1178000000000,"state":"active","ping":86},{"user_id":435,"name":"Final_MarioXD","steam_id":76561199184862419,"connected_time":297000000000,"state":"active","ping":84},{"user_id":427,"name":"Lambchop","steam_id":76561198043900363,"connected_time":1447000000000,"state":"active","ping":102},{"user_id":401,"name":"[DATS➡] Sugar Meowth","steam_id":76561197995251793,"connected_time":2617000000000,"state":"active","ping":97}]},{"server_id":5,"name":"Uncletopia | Frankfurt | 1 | All Maps","name_short":"frk-1","host":"frk-1.de.uncletopia.com","port":27015,"enabled":true,"region":"eu","cc":"de","latitude":50.110924,"longitude":8.682127,"reserved":0,"last_update":"0001-01-01T00:00:00Z","name_a2s":"Uncletopia | Frankfurt | 1 | All Maps","protocol":17,"map":"koth_cascade","folder":"tf","game":"Team Fortress","app_id":440,"player_count":0,"max_players":24,"Bots":0,"server_type":"Dedicated","server_os":"Linux","password":true,"vac":true,"version":"7757534","steam_id":85568392924469989,"keywords":["cp","nocrits","nodmgspread","uncletopia"],"game_id":440,"stv_port":27016,"stv_name":"Uncletopia | Frankfurt | 1 | All Maps | STV","players":null},{"server_id":110,"name":"Uncletopia | Frankfurt | 2 | All Maps","name_short":"frk-2","host":"frk-1.de.uncletopia.com","port":27025,"enabled":true,"region":"eu","cc":"de","latitude":50.110924,"longitude":8.682127,"reserved":0,"last_update":"0001-01-01T00:00:00Z","name_a2s":"Uncletopia | Frankfurt | 2 | All Maps","protocol":17,"map":"koth_cascade","folder":"tf","game":"Team Fortress","app_id":440,"player_count":0,"max_players":24,"Bots":0,"server_type":"Dedicated","server_os":"Linux","password":true,"vac":true,"version":"7757534","steam_id":85568392924469990,"keywords":["cp","nocrits","nodmgspread","uncletopia"],"game_id":440,"stv_port":27026,"stv_name":"Uncletopia | Frankfurt | 2 | All Maps | STV","players":null},{"server_id":308,"name":"Uncletopia | Frankfurt | 3 | All Maps","name_short":"frk-3","host":"frk-1.de.uncletopia.com","port":27035,"enabled":true,"region":"eu","cc":"de","latitude":50.110924,"longitude":8.682127,"reserved":0,"last_update":"0001-01-01T00:00:00Z","name_a2s":"Uncletopia | Frankfurt | 3 | All Maps","protocol":17,"map":"koth_lakeside_final","folder":"tf","game":"Team Fortress","app_id":440,"player_count":0,"max_players":24,"Bots":0,"server_type":"Dedicated","server_os":"Linux","password":true,"vac":true,"version":"7757534","steam_id":85568392924504274,"keywords":["cp","nocrits","nodmgspread","uncletopia"],"game_id":440,"stv_port":27036,"stv_name":"Uncletopia | Frankfurt | 3 | All Maps | STV","players":null},{"server_id":309,"name":"Uncletopia | Frankfurt | 4 | All Maps","name_short":"frk-4","host":"frk-1.de.uncletopia.com","port":27045,"enabled":true,"region":"eu","cc":"de","latitude":50.110924,"longitude":8.682127,"reserved":0,"last_update":"0001-01-01T00:00:00Z","name_a2s":"Uncletopia | Frankfurt | 4 | All Maps","protocol":17,"map":"koth_viaduct","folder":"tf","game":"Team Fortress","app_id":440,"player_count":0,"max_players":24,"Bots":0,"server_type":"Dedicated","server_os":"Linux","password":true,"vac":true,"version":"7757534","steam_id":85568392924504275,"keywords":["cp","nocrits","nodmgspread","uncletopia"],"game_id":440,"stv_port":27046,"stv_name":"Uncletopia | Frankfurt | 4 | All Maps | STV","players":null},{"server_id":310,"name":"Uncletopia | Frankfurt | 5 | All Maps","name_short":"frk-5","host":"frk-1.de.uncletopia.com","port":27055,"enabled":true,"region":"eu","cc":"de","latitude":50.110924,"longitude":8.682127,"reserved":0,"last_update":"0001-01-01T00:00:00Z","name_a2s":"Uncletopia | Frankfurt | 5 | All Maps","protocol":17,"map":"koth_highpass","folder":"tf","game":"Team Fortress","app_id":440,"player_count":0,"max_players":24,"Bots":0,"server_type":"Dedicated","server_os":"Linux","password":true,"vac":true,"version":"7757534","steam_id":85568392924504277,"keywords":["cp","nocrits","nodmgspread","uncletopia"],"game_id":440,"stv_port":27056,"stv_name":"Uncletopia | Frankfurt | 5 | All Maps | STV","players":null},{"server_id":311,"name":"Uncletopia | Frankfurt | 6 | All Maps","name_short":"frk-6","host":"frk-1.de.uncletopia.com","port":27065,"enabled":true,"region":"eu","cc":"de","latitude":50.110924,"longitude":8.682127,"reserved":0,"last_update":"0001-01-01T00:00:00Z","name_a2s":"Uncletopia | Frankfurt | 6 | All Maps","protocol":17,"map":"cp_sunshine","folder":"tf","game":"Team Fortress","app_id":440,"player_count":0,"max_players":24,"Bots":0,"server_type":"Dedicated","server_os":"Linux","password":true,"vac":true,"version":"7757534","steam_id":85568392924504278,"keywords":["cp","nocrits","nodmgspread","uncletopia"],"game_id":440,"stv_port":27066,"stv_name":"Uncletopia | Frankfurt | 6 | All Maps | STV","players":null},{"server_id":23,"name":"Uncletopia | Frankfurt | 7 | Stopwatch Beta","name_short":"frk-7","host":"frk-1.de.uncletopia.com","port":27075,"enabled":true,"region":"eu","cc":"de","latitude":50.110924,"longitude":8.682127,"reserved":0,"last_update":"0001-01-01T00:00:00Z","name_a2s":"Uncletopia | Frankfurt | 7 | Stopwatch Beta","protocol":17,"map":"workshop/pl_barnblitz_pro7.ugc582280235","folder":"tf","game":"Team Fortress","app_id":440,"player_count":0,"max_players":24,"Bots":0,"server_type":"Dedicated","server_os":"Linux","password":true,"vac":true,"version":"7757534","steam_id":85568392924742827,"keywords":["nocrits","nodmgspread","payload","uncletopia"],"game_id":440,"stv_port":27076,"stv_name":"Uncletopia | Frankfurt | 7 | Stopwatch Beta | STV","players":null},{"server_id":24,"name":"Uncletopia | Frankfurt | 8 | Community","name_short":"frk-8","host":"frk-1.de.uncletopia.com","port":27085,"enabled":true,"region":"eu","cc":"de","latitude":50.110924,"longitude":8.682127,"reserved":0,"last_update":"0001-01-01T00:00:00Z","name_a2s":"Uncletopia | Frankfurt | 8 | Community","protocol":17,"map":"workshop/koth_ashville_final.ugc2130459942","folder":"tf","game":"Team Fortress","app_id":440,"player_count":0,"max_players":24,"Bots":0,"server_type":"Dedicated","server_os":"Linux","password":true,"vac":true,"version":"7757534","steam_id":85568392924742828,"keywords":["cp","nocrits","nodmgspread","uncletopia"],"game_id":440,"stv_port":27086,"stv_name":"Uncletopia | Frankfurt | 8 | Community | STV","players":null},{"server_id":202,"name":"Uncletopia | Hong Kong | 1 | All Maps","name_short":"hgk-1","host":"hgk-1.hk.uncletopia.com","port":27015,"enabled":true,"region":"asia","cc":"hk","latitude":22.302711,"longitude":114.177216,"reserved":0,"last_update":"0001-01-01T00:00:00Z","name_a2s":"Uncletopia | Hong Kong | 1 | All Maps","protocol":17,"map":"cp_snakewater_final1","folder":"tf","game":"Team Fortress","app_id":440,"player_count":2,"max_players":24,"Bots":0,"server_type":"Dedicated","server_os":"Linux","password":true,"vac":true,"version":"7757534","steam_id":85568392924494504,"keywords":["cp","nocrits","nodmgspread","uncletopia"],"game_id":440,"stv_port":27016,"stv_name":"Uncletopia | Hong Kong | 1 | All Maps | STV","players":[{"user_id":20,"name":"Xx_EpicTrickstabber_xX","steam_id":76561199024960087,"connected_time":1675000000000,"state":"active","ping":60},{"user_id":21,"name":"プロゲーマー","steam_id":76561199017344476,"connected_time":1645000000000,"state":"active","ping":77}]},{"server_id":1,"name":"Uncletopia | Los Angeles | 1 | All Maps","name_short":"lax-1","host":"lax-1.us.uncletopia.com","port":27015,"enabled":true,"region":"us-west","cc":"us","latitude":33.94279,"longitude":-118.41004,"reserved":0,"last_update":"0001-01-01T00:00:00Z","name_a2s":"Uncletopia | Los Angeles | 1 | All Maps","protocol":17,"map":"koth_viaduct","folder":"tf","game":"Team Fortress","app_id":440,"player_count":25,"max_players":24,"Bots":0,"server_type":"Dedicated","server_os":"Linux","password":true,"vac":true,"version":"7757534","steam_id":85568392924469991,"keywords":["cp","nocrits","nodmgspread","uncletopia"],"game_id":440,"stv_port":27016,"stv_name":"Uncletopia | Los Angeles | 1 | All Maps | STV","players":[{"user_id":261,"name":"KYAUW","steam_id":76561198246971940,"connected_time":5696000000000,"state":"active","ping":88},{"user_id":319,"name":"VicLoL","steam_id":76561198045580784,"connected_time":1919000000000,"state":"active","ping":54},{"user_id":211,"name":"Hindmost","steam_id":76561199081837220,"connected_time":9620000000000,"state":"active","ping":97},{"user_id":317,"name":"tomiz","steam_id":76561198827013832,"connected_time":2225000000000,"state":"active","ping":54},{"user_id":227,"name":"Larry Koopa","steam_id":76561199433618989,"connected_time":8632000000000,"state":"active","ping":81},{"user_id":329,"name":"HeroOfTime","steam_id":76561199096218001,"connected_time":857000000000,"state":"active","ping":56},{"user_id":313,"name":"Jovi Boy","steam_id":76561198046605691,"connected_time":2423000000000,"state":"active","ping":63},{"user_id":334,"name":"K.A.R.M.A.","steam_id":76561198240750142,"connected_time":208000000000,"state":"active","ping":46},{"user_id":320,"name":"Volati!e","steam_id":76561198020147226,"connected_time":1808000000000,"state":"active","ping":93},{"user_id":333,"name":"Dat_Idiot","steam_id":76561198305729837,"connected_time":380000000000,"state":"active","ping":88},{"user_id":325,"name":"MightyRectangle","steam_id":76561198094236144,"connected_time":1205000000000,"state":"active","ping":48},{"user_id":306,"name":"Two-Ton Heavy Thing","steam_id":76561198201724274,"connected_time":2899000000000,"state":"active","ping":122},{"user_id":323,"name":"Dopteros","steam_id":76561198096732072,"connected_time":1235000000000,"state":"active","ping":62},{"user_id":307,"name":"❤ Ashley ❤","steam_id":76561198056428303,"connected_time":2809000000000,"state":"active","ping":46},{"user_id":266,"name":"SPOROKEK","steam_id":76561198371370128,"connected_time":5547000000000,"state":"active","ping":145},{"user_id":328,"name":"Spruce","steam_id":76561198081684676,"connected_time":1064000000000,"state":"active","ping":100},{"user_id":308,"name":"self sufficient kitten","steam_id":76561197960592612,"connected_time":2798000000000,"state":"active","ping":78},{"user_id":316,"name":"Desmodus","steam_id":76561197977573971,"connected_time":2317000000000,"state":"active","ping":88},{"user_id":318,"name":"ttv/californjoe","steam_id":76561197965047795,"connected_time":2215000000000,"state":"active","ping":52},{"user_id":326,"name":"FI LO","steam_id":76561198976530881,"connected_time":1164000000000,"state":"active","ping":40},{"user_id":222,"name":"BrightOrangeMango","steam_id":76561198023144607,"connected_time":9025000000000,"state":"active","ping":65},{"user_id":327,"name":"Kurtle","steam_id":76561199099898602,"connected_time":1106000000000,"state":"active","ping":100},{"user_id":331,"name":"xbox record that","steam_id":76561198150117455,"connected_time":634000000000,"state":"active","ping":55},{"user_id":304,"name":"Pinto","steam_id":76561199105386998,"connected_time":3072000000000,"state":"active","ping":125},{"user_id":335,"name":"h20verdrive","steam_id":76561198115957085,"connected_time":103000000000,"state":"active","ping":45}]},{"server_id":112,"name":"Uncletopia | Los Angeles | 2 | All Maps","name_short":"lax-2","host":"lax-1.us.uncletopia.com","port":27025,"enabled":true,"region":"us-west","cc":"us","latitude":33.94279,"longitude":-118.41004,"reserved":0,"last_update":"0001-01-01T00:00:00Z","name_a2s":"Uncletopia | Los Angeles | 2 | All Maps","protocol":17,"map":"pl_upward","folder":"tf","game":"Team Fortress","app_id":440,"player_count":24,"max_players":24,"Bots":0,"server_type":"Dedicated","server_os":"Linux","password":true,"vac":true,"version":"7757534","steam_id":85568392924469992,"keywords":["nocrits","nodmgspread","payload","uncletopia"],"game_id":440,"stv_port":27026,"stv_name":"Uncletopia | Los Angeles | 2 | All Maps | STV","players":[{"user_id":430,"name":"meat.","steam_id":76561198256154493,"connected_time":4597000000000,"state":"active","ping":115},{"user_id":487,"name":"Vintage TV","steam_id":76561198800334545,"connected_time":1257000000000,"state":"active","ping":49},{"user_id":456,"name":"Mr. Blubber","steam_id":76561198338906916,"connected_time":2704000000000,"state":"active","ping":46},{"user_id":431,"name":"HundchenTanque","steam_id":76561198122692754,"connected_time":4596000000000,"state":"active","ping":106},{"user_id":491,"name":"GlossyBat","steam_id":76561198929313869,"connected_time":689000000000,"state":"active","ping":57},{"user_id":480,"name":"kentoran","steam_id":76561198116113779,"connected_time":1752000000000,"state":"active","ping":86},{"user_id":458,"name":"cactus eater","steam_id":76561199107499844,"connected_time":2597000000000,"state":"active","ping":58},{"user_id":481,"name":"flo rida","steam_id":76561198226169704,"connected_time":1662000000000,"state":"active","ping":56},{"user_id":459,"name":"Hey, It's Me! Goku!","steam_id":76561199103120314,"connected_time":2593000000000,"state":"active","ping":54},{"user_id":502,"name":"HOG RIDER","steam_id":76561198298589502,"connected_time":191000000000,"state":"active","ping":49},{"user_id":500,"name":"voidpuppy","steam_id":76561198799922000,"connected_time":212000000000,"state":"active","ping":48},{"user_id":485,"name":"GlizzLord","steam_id":76561198321010427,"connected_time":1454000000000,"state":"active","ping":65},{"user_id":493,"name":"Kasporov","steam_id":76561198196466046,"connected_time":529000000000,"state":"active","ping":47},{"user_id":432,"name":"89","steam_id":76561198106308056,"connected_time":4580000000000,"state":"active","ping":45},{"user_id":462,"name":"gaming ground_atclicker","steam_id":76561198233978116,"connected_time":2507000000000,"state":"active","ping":91},{"user_id":503,"name":"ChocoCrispChunks","steam_id":76561198881926539,"connected_time":159000000000,"state":"active","ping":54},{"user_id":505,"name":"HoaroBatty","steam_id":76561198120361221,"connected_time":94000000000,"state":"active","ping":76},{"user_id":494,"name":"xXx420YoloSwaggins69xXx","steam_id":76561198054889312,"connected_time":524000000000,"state":"active","ping":104},{"user_id":506,"name":"cass","steam_id":76561198074502046,"connected_time":70000000000,"state":"active","ping":106},{"user_id":466,"name":"I:AM:FULL:OF:FRICKIN:POTASSIUM","steam_id":76561199262432664,"connected_time":2411000000000,"state":"active","ping":59},{"user_id":495,"name":"whiteout","steam_id":76561198049017271,"connected_time":502000000000,"state":"active","ping":56},{"user_id":440,"name":"mellowhype","steam_id":76561198040675606,"connected_time":4338000000000,"state":"active","ping":76},{"user_id":498,"name":"burger king hypnosis ego death ","steam_id":76561198070136627,"connected_time":341000000000,"state":"active","ping":47},{"user_id":477,"name":"6' 4\" 270 lbs ALL MUSCLE","steam_id":76561198021308963,"connected_time":1797000000000,"state":"active","ping":84}]},{"server_id":324,"name":"Uncletopia | Los Angeles | 3 | All Maps","name_short":"lax-3","host":"lax-1.us.uncletopia.com","port":27035,"enabled":true,"region":"us-west","cc":"us","latitude":33.94279,"longitude":-118.41004,"reserved":0,"last_update":"0001-01-01T00:00:00Z","name_a2s":"Uncletopia | Los Angeles | 3 | All Maps","protocol":17,"map":"cp_steel","folder":"tf","game":"Team Fortress","app_id":440,"player_count":24,"max_players":24,"Bots":0,"server_type":"Dedicated","server_os":"Linux","password":true,"vac":true,"version":"7757534","steam_id":85568392924510198,"keywords":["cp","nocrits","nodmgspread","uncletopia"],"game_id":440,"stv_port":27036,"stv_name":"Uncletopia | Los Angeles | 3 | All Maps | STV","players":[{"user_id":154,"name":"Nugakku","steam_id":76561198082346219,"connected_time":1002000000000,"state":"active","ping":54},{"user_id":110,"name":"ketsu","steam_id":76561197966171554,"connected_time":3846000000000,"state":"active","ping":165},{"user_id":168,"name":"Stormclout","steam_id":76561198060543123,"connected_time":109000000000,"state":"active","ping":90},{"user_id":139,"name":"› Pikmeir","steam_id":76561198027373503,"connected_time":1605000000000,"state":"active","ping":47},{"user_id":147,"name":"Drakon","steam_id":76561198078210822,"connected_time":1343000000000,"state":"active","ping":65},{"user_id":155,"name":"Blazing Hyena","steam_id":76561199121852680,"connected_time":982000000000,"state":"active","ping":58},{"user_id":128,"name":"Mageminx","steam_id":76561198165182749,"connected_time":2860000000000,"state":"active","ping":45},{"user_id":143,"name":"eau:","steam_id":76561198110020262,"connected_time":1492000000000,"state":"active","ping":36},{"user_id":158,"name":"MonkeyNobody","steam_id":76561199451266605,"connected_time":453000000000,"state":"active","ping":56},{"user_id":167,"name":"Kdash","steam_id":76561198043829155,"connected_time":263000000000,"state":"active","ping":76},{"user_id":169,"name":"Dr_Minty","steam_id":76561199043644449,"connected_time":74000000000,"state":"active","ping":83},{"user_id":159,"name":"Deeply","steam_id":76561199000786530,"connected_time":430000000000,"state":"active","ping":93},{"user_id":125,"name":"rimbl","steam_id":76561198150137369,"connected_time":2997000000000,"state":"active","ping":45},{"user_id":144,"name":"Minimal Wage Worker","steam_id":76561198879600285,"connected_time":1474000000000,"state":"active","ping":61},{"user_id":160,"name":"Loaf","steam_id":76561199220083136,"connected_time":429000000000,"state":"active","ping":85},{"user_id":170,"name":"Leaves","steam_id":76561199023269516,"connected_time":59000000000,"state":"active","ping":73},{"user_id":149,"name":"Burnt Socks","steam_id":76561198365780724,"connected_time":1337000000000,"state":"active","ping":54},{"user_id":151,"name":"Anhkrehg","steam_id":76561197963201684,"connected_time":1321000000000,"state":"active","ping":134},{"user_id":166,"name":"Lotusberry","steam_id":76561198058506867,"connected_time":310000000000,"state":"active","ping":80},{"user_id":163,"name":"Scrux","steam_id":76561198129763115,"connected_time":386000000000,"state":"active","ping":53},{"user_id":164,"name":"D0VE","steam_id":76561198151618566,"connected_time":372000000000,"state":"active","ping":86},{"user_id":105,"name":"bigman1","steam_id":76561198050225055,"connected_time":4484000000000,"state":"active","ping":45},{"user_id":133,"name":"dabbed out","steam_id":76561198357132470,"connected_time":2185000000000,"state":"active","ping":71},{"user_id":137,"name":"dogwater","steam_id":76561199416942289,"connected_time":1962000000000,"state":"active","ping":53}]},{"server_id":25,"name":"Uncletopia | Los Angeles | 4 | Stopwatch Beta","name_short":"lax-4","host":"lax-1.us.uncletopia.com","port":27045,"enabled":true,"region":"us-west","cc":"us","latitude":33.94279,"longitude":-118.41004,"reserved":0,"last_update":"0001-01-01T00:00:00Z","name_a2s":"Uncletopia | Los Angeles | 4 | Stopwatch Beta","protocol":17,"map":"pl_swiftwater_final1","folder":"tf","game":"Team Fortress","app_id":440,"player_count":0,"max_players":24,"Bots":0,"server_type":"Dedicated","server_os":"Linux","password":true,"vac":true,"version":"7757534","steam_id":85568392924510199,"keywords":["nocrits","nodmgspread","payload","uncletopia"],"game_id":440,"stv_port":27046,"stv_name":"Uncletopia | Los Angeles | 4 | Stopwatch Beta | STV","players":null},{"server_id":11,"name":"Uncletopia | London | 1 | All Maps","name_short":"lon-1","host":"lon-1.uk.uncletopia.com","port":27015,"enabled":true,"region":"eu","cc":"gb","latitude":51.509865,"longitude":-0.118092,"reserved":0,"last_update":"0001-01-01T00:00:00Z","name_a2s":"Uncletopia | London | 1 | All Maps","protocol":17,"map":"pl_swiftwater_final1","folder":"tf","game":"Team Fortress","app_id":440,"player_count":0,"max_players":24,"Bots":0,"server_type":"Dedicated","server_os":"Linux","password":true,"vac":true,"version":"7757534","steam_id":85568392924367362,"keywords":["nocrits","nodmgspread","payload","uncletopia"],"game_id":440,"stv_port":27016,"stv_name":"Uncletopia | London | 1 | All Maps | STV","players":null},{"server_id":114,"name":"Uncletopia | London | 2 | All Maps","name_short":"lon-2","host":"lon-1.uk.uncletopia.com","port":27025,"enabled":true,"region":"eu","cc":"gb","latitude":51.509865,"longitude":-0.118092,"reserved":0,"last_update":"0001-01-01T00:00:00Z","name_a2s":"Uncletopia | London | 2 | All Maps","protocol":17,"map":"cp_mountainlab","folder":"tf","game":"Team Fortress","app_id":440,"player_count":0,"max_players":24,"Bots":0,"server_type":"Dedicated","server_os":"Linux","password":true,"vac":true,"version":"7757534","steam_id":85568392924470941,"keywords":["cp","nocrits","nodmgspread","uncletopia"],"game_id":440,"stv_port":27026,"stv_name":"Uncletopia | London | 2 | All Maps | STV","players":null},{"server_id":320,"name":"Uncletopia | London | 3 | All Maps","name_short":"lon-3","host":"lon-1.uk.uncletopia.com","port":27035,"enabled":true,"region":"eu","cc":"gb","latitude":51.509865,"longitude":-0.118092,"reserved":0,"last_update":"0001-01-01T00:00:00Z","name_a2s":"Uncletopia | London | 3 | All Maps","protocol":17,"map":"pl_badwater","folder":"tf","game":"Team Fortress","app_id":440,"player_count":0,"max_players":24,"Bots":0,"server_type":"Dedicated","server_os":"Linux","password":true,"vac":true,"version":"7757534","steam_id":85568392924510192,"keywords":["nocrits","nodmgspread","payload","uncletopia"],"game_id":440,"stv_port":27036,"stv_name":"Uncletopia | London | 3 | All Maps | STV","players":null},{"server_id":321,"name":"Uncletopia | London | 4 | All Maps","name_short":"lon-4","host":"lon-1.uk.uncletopia.com","port":27045,"enabled":true,"region":"eu","cc":"gb","latitude":51.509865,"longitude":-0.118092,"reserved":0,"last_update":"0001-01-01T00:00:00Z","name_a2s":"Uncletopia | London | 4 | All Maps","protocol":17,"map":"pl_borneo","folder":"tf","game":"Team Fortress","app_id":440,"player_count":0,"max_players":24,"Bots":0,"server_type":"Dedicated","server_os":"Linux","password":true,"vac":true,"version":"7757534","steam_id":85568392924510193,"keywords":["nocrits","nodmgspread","payload","uncletopia"],"game_id":440,"stv_port":27046,"stv_name":"Uncletopia | London | 4 | All Maps | STV","players":null},{"server_id":21,"name":"Uncletopia | London | 5 | All Maps","name_short":"lon-5","host":"lon-1.uk.uncletopia.com","port":27055,"enabled":true,"region":"eu","cc":"gb","latitude":51.509865,"longitude":-0.118092,"reserved":0,"last_update":"0001-01-01T00:00:00Z","name_a2s":"Uncletopia | London | 5 | All Maps","protocol":17,"map":"cp_mountainlab","folder":"tf","game":"Team Fortress","app_id":440,"player_count":0,"max_players":24,"Bots":0,"server_type":"Dedicated","server_os":"Linux","password":true,"vac":true,"version":"7757534","steam_id":85568392924742829,"keywords":["cp","nocrits","nodmgspread","uncletopia"],"game_id":440,"stv_port":27056,"stv_name":"Uncletopia | London | 5 | All Maps | STV","players":null},{"server_id":22,"name":"Uncletopia | London | 6 | All Maps","name_short":"lon-6","host":"lon-1.uk.uncletopia.com","port":27065,"enabled":true,"region":"eu","cc":"gb","latitude":51.509865,"longitude":-0.118092,"reserved":0,"last_update":"0001-01-01T00:00:00Z","name_a2s":"Uncletopia | London | 6 | All Maps","protocol":17,"map":"cp_altitude","folder":"tf","game":"Team Fortress","app_id":440,"player_count":0,"max_players":24,"Bots":0,"server_type":"Dedicated","server_os":"Linux","password":true,"vac":true,"version":"7757534","steam_id":85568392924742830,"keywords":["cp","nocrits","nodmgspread","uncletopia"],"game_id":440,"stv_port":27066,"stv_name":"Uncletopia | London | 6 | All Maps | STV","players":null},{"server_id":40,"name":"Uncletopia | London | 7 | No Payload","name_short":"lon-7","host":"lon-1.uk.uncletopia.com","port":27075,"enabled":true,"region":"eu","cc":"gb","latitude":51.509865,"longitude":-0.118092,"reserved":0,"last_update":"0001-01-01T00:00:00Z","name_a2s":"Uncletopia | London | 7 | No Payload","protocol":17,"map":"koth_sawmill","folder":"tf","game":"Team Fortress","app_id":440,"player_count":0,"max_players":24,"Bots":0,"server_type":"Dedicated","server_os":"Linux","password":true,"vac":true,"version":"7757534","steam_id":85568392924964314,"keywords":["cp","nocrits","nodmgspread","uncletopia"],"game_id":440,"stv_port":27076,"stv_name":"Uncletopia | London | 7 | No Payload | STV","players":null},{"server_id":41,"name":"Uncletopia | London | 8 | Community","name_short":"lon-8","host":"lon-1.uk.uncletopia.com","port":27085,"enabled":true,"region":"eu","cc":"gb","latitude":51.509865,"longitude":-0.118092,"reserved":0,"last_update":"0001-01-01T00:00:00Z","name_a2s":"Uncletopia | London | 8 | Community","protocol":17,"map":"pl_barnblitz","folder":"tf","game":"Team Fortress","app_id":440,"player_count":0,"max_players":24,"Bots":0,"server_type":"Dedicated","server_os":"Linux","password":true,"vac":true,"version":"7757534","steam_id":85568392924964315,"keywords":["nocrits","nodmgspread","payload","uncletopia"],"game_id":440,"stv_port":27086,"stv_name":"Uncletopia | London | 8 | Community | STV","players":null},{"server_id":300,"name":"Uncletopia | Montréal | 1 | All Maps","name_short":"mtl-1","host":"mtl-1.ca.uncletopia.com","port":27015,"enabled":true,"region":"us-east","cc":"ca","latitude":45.50889,"longitude":-73.56167,"reserved":0,"last_update":"0001-01-01T00:00:00Z","name_a2s":"Uncletopia | Montréal | 1 | All Maps","protocol":17,"map":"pl_upward","folder":"tf","game":"Team Fortress","app_id":440,"player_count":3,"max_players":24,"Bots":0,"server_type":"Dedicated","server_os":"Linux","password":true,"vac":true,"version":"7757534","steam_id":85568392924500087,"keywords":["nocrits","nodmgspread","payload","uncletopia"],"game_id":440,"stv_port":27016,"stv_name":"Uncletopia | Montréal | 1 | All Maps | STV","players":[{"user_id":172,"name":"narcist 🔥","steam_id":76561198255705632,"connected_time":2057000000000,"state":"active","ping":58},{"user_id":105,"name":"The Pencil Cunts","steam_id":76561198272606252,"connected_time":6339000000000,"state":"active","ping":75},{"user_id":169,"name":"Spooky","steam_id":76561198317988296,"connected_time":2565000000000,"state":"active","ping":38}]},{"server_id":301,"name":"Uncletopia | Montréal | 2 | All Maps","name_short":"mtl-2","host":"mtl-1.ca.uncletopia.com","port":27025,"enabled":true,"region":"us-east","cc":"ca","latitude":45.50889,"longitude":-73.56167,"reserved":0,"last_update":"0001-01-01T00:00:00Z","name_a2s":"Uncletopia | Montréal | 2 | All Maps","protocol":17,"map":"cp_sunshine","folder":"tf","game":"Team Fortress","app_id":440,"player_count":11,"max_players":24,"Bots":0,"server_type":"Dedicated","server_os":"Linux","password":true,"vac":true,"version":"7757534","steam_id":85568392924500088,"keywords":["cp","nocrits","nodmgspread","uncletopia"],"game_id":440,"stv_port":27026,"stv_name":"Uncletopia | Montréal | 2 | All Maps | STV","players":[{"user_id":27,"name":"Chechens Spotted","steam_id":76561199028910893,"connected_time":226000000000,"state":"active","ping":89},{"user_id":4,"name":"averagesoldiermain","steam_id":76561198158447466,"connected_time":4830000000000,"state":"active","ping":83},{"user_id":5,"name":"Bip","steam_id":76561199022962204,"connected_time":4793000000000,"state":"active","ping":65},{"user_id":29,"name":"Steem Bengine","steam_id":76561198131685172,"connected_time":207000000000,"state":"active","ping":128},{"user_id":7,"name":"CivilWarMike","steam_id":76561198141188839,"connected_time":4459000000000,"state":"active","ping":82},{"user_id":30,"name":"i are steve","steam_id":76561198867457465,"connected_time":61000000000,"state":"active","ping":100},{"user_id":16,"name":"KrautCakes!","steam_id":76561198133973878,"connected_time":1902000000000,"state":"active","ping":88},{"user_id":11,"name":"You Know, Lucas","steam_id":76561198046350957,"connected_time":2630000000000,"state":"active","ping":73},{"user_id":12,"name":"punaise","steam_id":76561198095105411,"connected_time":2567000000000,"state":"active","ping":50},{"user_id":22,"name":"fart","steam_id":76561199256981432,"connected_time":1491000000000,"state":"active","ping":93},{"user_id":18,"name":"MetalKidDoc","steam_id":76561198108741986,"connected_time":1842000000000,"state":"active","ping":86}]},{"server_id":302,"name":"Uncletopia | Montréal | 3 | All Maps","name_short":"mtl-3","host":"mtl-1.ca.uncletopia.com","port":27035,"enabled":true,"region":"us-east","cc":"ca","latitude":45.50889,"longitude":-73.56167,"reserved":0,"last_update":"0001-01-01T00:00:00Z","name_a2s":"Uncletopia | Montréal | 3 | All Maps","protocol":17,"map":"pl_swiftwater_final1","folder":"tf","game":"Team Fortress","app_id":440,"player_count":0,"max_players":24,"Bots":0,"server_type":"Dedicated","server_os":"Linux","password":true,"vac":true,"version":"7757534","steam_id":85568392924500089,"keywords":["nocrits","nodmgspread","payload","uncletopia"],"game_id":440,"stv_port":27036,"stv_name":"Uncletopia | Montréal | 3 | All Maps | STV","players":null},{"server_id":303,"name":"Uncletopia | Montréal | 4 | No Payload","name_short":"mtl-4","host":"mtl-1.ca.uncletopia.com","port":27045,"enabled":true,"region":"us-east","cc":"ca","latitude":45.50889,"longitude":-73.56167,"reserved":0,"last_update":"0001-01-01T00:00:00Z","name_a2s":"Uncletopia | Montréal | 4 | No Payload","protocol":17,"map":"cp_steel","folder":"tf","game":"Team Fortress","app_id":440,"player_count":0,"max_players":24,"Bots":0,"server_type":"Dedicated","server_os":"Linux","password":true,"vac":true,"version":"7757534","steam_id":85568392924500090,"keywords":["cp","nocrits","nodmgspread","uncletopia"],"game_id":440,"stv_port":27046,"stv_name":"Uncletopia | Montréal | 4 | No Payload | STV","players":null},{"server_id":13,"name":"Uncletopia | New York City | 1 | All Maps","name_short":"nyc-1","host":"nyc-1.us.uncletopia.com","port":27015,"enabled":true,"region":"us-east","cc":"us","latitude":40.73061,"longitude":-73.93524,"reserved":0,"last_update":"0001-01-01T00:00:00Z","name_a2s":"Uncletopia | New York City | 1 | All Maps","protocol":17,"map":"pl_barnblitz","folder":"tf","game":"Team Fortress","app_id":440,"player_count":24,"max_players":24,"Bots":0,"server_type":"Dedicated","server_os":"Linux","password":true,"vac":true,"version":"7757534","steam_id":85568392924469993,"keywords":["nocrits","nodmgspread","payload","uncletopia"],"game_id":440,"stv_port":27016,"stv_name":"Uncletopia | New York City | 1 | All Maps | STV","players":[{"user_id":623,"name":"Samercam","steam_id":76561198189403190,"connected_time":594000000000,"state":"active","ping":61},{"user_id":608,"name":"Lore","steam_id":76561198098407538,"connected_time":2430000000000,"state":"active","ping":60},{"user_id":606,"name":"totally not a pile of beans","steam_id":76561198119851931,"connected_time":2438000000000,"state":"active","ping":67},{"user_id":624,"name":"-BRH- Tangled up in Bluegrass","steam_id":76561197987181139,"connected_time":562000000000,"state":"active","ping":87},{"user_id":567,"name":"WeedGod72","steam_id":76561198124311404,"connected_time":6085000000000,"state":"active","ping":75},{"user_id":598,"name":"AJTarcza","steam_id":76561198070800190,"connected_time":3933000000000,"state":"active","ping":71},{"user_id":533,"name":"chiswola","steam_id":76561198046920142,"connected_time":8870000000000,"state":"active","ping":89},{"user_id":596,"name":"Weebmcgee","steam_id":76561198081231557,"connected_time":4066000000000,"state":"active","ping":60},{"user_id":625,"name":"[BBW] Justario","steam_id":76561198016095410,"connected_time":560000000000,"state":"active","ping":45},{"user_id":597,"name":"Flowers","steam_id":76561198031669899,"connected_time":4031000000000,"state":"active","ping":76},{"user_id":421,"name":"light finder","steam_id":76561198368646092,"connected_time":17299000000000,"state":"active","ping":46},{"user_id":628,"name":"CHILL WEED VIBE😎🍁","steam_id":76561198150678492,"connected_time":429000000000,"state":"active","ping":75},{"user_id":627,"name":"Eine Kleine","steam_id":76561198394787270,"connected_time":539000000000,"state":"active","ping":86},{"user_id":592,"name":"Zack","steam_id":76561198308083836,"connected_time":4289000000000,"state":"active","ping":56},{"user_id":616,"name":"Maddy","steam_id":76561198348941784,"connected_time":1616000000000,"state":"active","ping":88},{"user_id":620,"name":"Ozirion","steam_id":76561198108901767,"connected_time":1268000000000,"state":"active","ping":86},{"user_id":599,"name":"Skeleton Man","steam_id":76561198099287775,"connected_time":3858000000000,"state":"active","ping":38},{"user_id":621,"name":"WibbyOne","steam_id":76561198052843846,"connected_time":1070000000000,"state":"active","ping":34},{"user_id":622,"name":"Victor Skull","steam_id":76561198352212864,"connected_time":1069000000000,"state":"active","ping":40},{"user_id":617,"name":"niko","steam_id":76561198891556913,"connected_time":1466000000000,"state":"active","ping":74},{"user_id":626,"name":"Five","steam_id":76561198026640473,"connected_time":558000000000,"state":"active","ping":89},{"user_id":601,"name":"Lin","steam_id":76561198143746480,"connected_time":3505000000000,"state":"active","ping":128},{"user_id":611,"name":"A Shiny Meat Bicycle","steam_id":76561198358757709,"connected_time":2403000000000,"state":"active","ping":91},{"user_id":614,"name":"Mr. Mime","steam_id":76561199197676776,"connected_time":2308000000000,"state":"active","ping":82}]},{"server_id":14,"name":"Uncletopia | New York City | 2 | All Maps","name_short":"nyc-2","host":"nyc-1.us.uncletopia.com","port":27025,"enabled":true,"region":"us-east","cc":"us","latitude":40.73061,"longitude":-73.93524,"reserved":0,"last_update":"0001-01-01T00:00:00Z","name_a2s":"Uncletopia | New York City | 2 | All Maps","protocol":17,"map":"pl_barnblitz","folder":"tf","game":"Team Fortress","app_id":440,"player_count":24,"max_players":24,"Bots":0,"server_type":"Dedicated","server_os":"Linux","password":true,"vac":true,"version":"7757534","steam_id":85568392924469994,"keywords":["nocrits","nodmgspread","payload","uncletopia"],"game_id":440,"stv_port":27026,"stv_name":"Uncletopia | New York City | 2 | All Maps | STV","players":[{"user_id":594,"name":"Tuchpi","steam_id":76561197967581205,"connected_time":738000000000,"state":"active","ping":72},{"user_id":554,"name":"SkyOnPC","steam_id":76561198077900044,"connected_time":3138000000000,"state":"active","ping":54},{"user_id":595,"name":"Maxyyt","steam_id":76561198062309005,"connected_time":523000000000,"state":"active","ping":53},{"user_id":513,"name":"Ramblet","steam_id":76561199026783260,"connected_time":6777000000000,"state":"active","ping":58},{"user_id":578,"name":"Devoid","steam_id":76561198254039012,"connected_time":1561000000000,"state":"active","ping":34},{"user_id":572,"name":"the pest","steam_id":76561198826298849,"connected_time":1853000000000,"state":"active","ping":91},{"user_id":584,"name":"Aegis","steam_id":76561198272052750,"connected_time":1358000000000,"state":"active","ping":74},{"user_id":571,"name":"Thai Cobra-Snake","steam_id":76561198128928443,"connected_time":1944000000000,"state":"active","ping":58},{"user_id":590,"name":"tailorturtle","steam_id":76561198107481127,"connected_time":1046000000000,"state":"active","ping":63},{"user_id":579,"name":"Matayankis","steam_id":76561198024513380,"connected_time":1507000000000,"state":"active","ping":143},{"user_id":445,"name":"ECCO","steam_id":76561198002821513,"connected_time":11177000000000,"state":"active","ping":77},{"user_id":588,"name":"EDJRMorpheus95","steam_id":76561198830669778,"connected_time":1264000000000,"state":"active","ping":68},{"user_id":537,"name":"volkiano","steam_id":76561198319802031,"connected_time":4731000000000,"state":"active","ping":142},{"user_id":561,"name":"jamirocarter","steam_id":76561197999663001,"connected_time":2429000000000,"state":"active","ping":86},{"user_id":586,"name":"Truffleoil","steam_id":76561198114689041,"connected_time":1313000000000,"state":"active","ping":63},{"user_id":580,"name":"Maxley","steam_id":76561198148602225,"connected_time":1437000000000,"state":"active","ping":73},{"user_id":581,"name":"tesagi","steam_id":76561198026664629,"connected_time":1395000000000,"state":"active","ping":57},{"user_id":566,"name":"Zeek","steam_id":76561197987204351,"connected_time":2246000000000,"state":"active","ping":47},{"user_id":559,"name":"wool","steam_id":76561198869689933,"connected_time":2641000000000,"state":"active","ping":59},{"user_id":570,"name":"Discourse","steam_id":76561198984286678,"connected_time":2011000000000,"state":"active","ping":74},{"user_id":593,"name":"Reed.Dook","steam_id":76561198046625664,"connected_time":884000000000,"state":"active","ping":84},{"user_id":583,"name":"franky","steam_id":76561198070903328,"connected_time":1376000000000,"state":"active","ping":59},{"user_id":587,"name":"Snotty!","steam_id":76561199086731683,"connected_time":1311000000000,"state":"active","ping":59},{"user_id":591,"name":"murderous deer","steam_id":76561198350832152,"connected_time":931000000000,"state":"active","ping":118}]},{"server_id":15,"name":"Uncletopia | New York City | 3 | Stopwatch Beta","name_short":"nyc-3","host":"nyc-1.us.uncletopia.com","port":27035,"enabled":true,"region":"us-east","cc":"us","latitude":40.73061,"longitude":-73.93524,"reserved":0,"last_update":"0001-01-01T00:00:00Z","name_a2s":"Uncletopia | New York City | 3 | Stopwatch Beta","protocol":17,"map":"workshop/koth_ashville_final.ugc2130459942","folder":"tf","game":"Team Fortress","app_id":440,"player_count":0,"max_players":24,"Bots":0,"server_type":"Dedicated","server_os":"Linux","password":true,"vac":true,"version":"7757534","steam_id":85568392924742820,"keywords":["cp","nocrits","nodmgspread","uncletopia"],"game_id":440,"stv_port":27036,"stv_name":"Uncletopia | New York City | 3 | Stopwatch Beta | STV","players":null},{"server_id":16,"name":"Uncletopia | New York City | 4 | Community","name_short":"nyc-4","host":"nyc-1.us.uncletopia.com","port":27045,"enabled":true,"region":"us-east","cc":"us","latitude":40.73061,"longitude":-73.93524,"reserved":0,"last_update":"0001-01-01T00:00:00Z","name_a2s":"Uncletopia | New York City | 4 | Community","protocol":17,"map":"workshop/pl_emerge_rc2.ugc888027758","folder":"tf","game":"Team Fortress","app_id":440,"player_count":24,"max_players":24,"Bots":0,"server_type":"Dedicated","server_os":"Linux","password":true,"vac":true,"version":"7757534","steam_id":85568392924742821,"keywords":["nocrits","nodmgspread","payload","uncletopia"],"game_id":440,"stv_port":27046,"stv_name":"Uncletopia | New York City | 4 | Community | STV","players":[{"user_id":231,"name":"Slashes","steam_id":76561197968573499,"connected_time":139000000000,"state":"active","ping":43},{"user_id":202,"name":"teamspeakisbeter","steam_id":76561198994349483,"connected_time":2500000000000,"state":"active","ping":110},{"user_id":182,"name":"GiraffeMan","steam_id":76561198042104084,"connected_time":4085000000000,"state":"active","ping":52},{"user_id":219,"name":"🅜🅔🅔🅚🅢🅣🅔\ufffd\ufffd\ufffd","steam_id":76561197999748343,"connected_time":1023000000000,"state":"active","ping":76},{"user_id":222,"name":"Colin102004","steam_id":76561198202384334,"connected_time":827000000000,"state":"active","ping":30},{"user_id":215,"name":"tomatofrog","steam_id":76561199166803296,"connected_time":1343000000000,"state":"active","ping":96},{"user_id":216,"name":"the boat","steam_id":76561198145240819,"connected_time":1204000000000,"state":"active","ping":110},{"user_id":223,"name":"med took 40","steam_id":76561198260306443,"connected_time":789000000000,"state":"active","ping":67},{"user_id":230,"name":"Sniper is snipe here","steam_id":76561198430871842,"connected_time":269000000000,"state":"active","ping":57},{"user_id":205,"name":"Barlon","steam_id":76561198023717515,"connected_time":2165000000000,"state":"active","ping":58},{"user_id":232,"name":"Hi, I'm Jesus","steam_id":76561198015327152,"connected_time":84000000000,"state":"active","ping":54},{"user_id":142,"name":"Monkey","steam_id":76561198031015186,"connected_time":6965000000000,"state":"active","ping":69},{"user_id":233,"name":"k1tty","steam_id":76561198869348268,"connected_time":81000000000,"state":"active","ping":134},{"user_id":161,"name":"Kick Down Door 6:00AM TUCK☃RO","steam_id":76561197976146738,"connected_time":5596000000000,"state":"active","ping":82},{"user_id":170,"name":"Sexual Butt","steam_id":76561198102241399,"connected_time":4820000000000,"state":"active","ping":77},{"user_id":221,"name":"Speemsh","steam_id":76561198305126510,"connected_time":947000000000,"state":"active","ping":87},{"user_id":229,"name":"Large Man","steam_id":76561198880396651,"connected_time":402000000000,"state":"active","ping":74},{"user_id":220,"name":"Garrison Ford","steam_id":76561198060411325,"connected_time":988000000000,"state":"active","ping":83},{"user_id":224,"name":"Shen (c1a0)","steam_id":76561198135616766,"connected_time":761000000000,"state":"active","ping":97},{"user_id":213,"name":"seems_fishy","steam_id":76561199028846656,"connected_time":1665000000000,"state":"active","ping":70},{"user_id":225,"name":"Sh0gun","steam_id":76561198273894515,"connected_time":755000000000,"state":"active","ping":76},{"user_id":226,"name":"Big Eggus","steam_id":76561198268626523,"connected_time":753000000000,"state":"active","ping":58},{"user_id":227,"name":"moe5x","steam_id":76561198316877833,"connected_time":737000000000,"state":"active","ping":171},{"user_id":228,"name":"bojack from the show bojack hor","steam_id":76561198053006712,"connected_time":687000000000,"state":"active","ping":46}]},{"server_id":142,"name":"Uncletopia | São Paulo | 1 | All Maps","name_short":"sao-1","host":"sao-1.br.uncletopia.com","port":27015,"enabled":true,"region":"sa","cc":"br","latitude":-23.533773,"longitude":-46.62529,"reserved":0,"last_update":"0001-01-01T00:00:00Z","name_a2s":"Uncletopia | São Paulo | 1 | All Maps","protocol":17,"map":"cp_process_final","folder":"tf","game":"Team Fortress","app_id":440,"player_count":0,"max_players":24,"Bots":0,"server_type":"Dedicated","server_os":"Linux","password":true,"vac":true,"version":"7757534","steam_id":85568392924469996,"keywords":["cp","nocrits","nodmgspread","uncletopia"],"game_id":440,"stv_port":27016,"stv_name":"Uncletopia | São Paulo | 1 | All Maps | STV","players":null},{"server_id":143,"name":"Uncletopia | São Paulo | 2 | All Maps","name_short":"sao-2","host":"sao-2.br.uncletopia.com","port":27015,"enabled":true,"region":"sa","cc":"br","latitude":-23.533773,"longitude":-46.62529,"reserved":0,"last_update":"0001-01-01T00:00:00Z","name_a2s":"Uncletopia | São Paulo | 2 | All Maps","protocol":17,"map":"cp_mountainlab","folder":"tf","game":"Team Fortress","app_id":440,"player_count":0,"max_players":24,"Bots":0,"server_type":"Dedicated","server_os":"Linux","password":true,"vac":true,"version":"7757534","steam_id":85568392924485349,"keywords":["cp","nocrits","nodmgspread","uncletopia"],"game_id":440,"stv_port":27016,"stv_name":"Uncletopia | São Paulo | 2 | All Maps | STV","players":null},{"server_id":7,"name":"Uncletopia | Seattle | 1 | All Maps","name_short":"sea-1","host":"sea-1.us.uncletopia.com","port":27015,"enabled":true,"region":"us-west","cc":"us","latitude":47.608013,"longitude":-122.33517,"reserved":0,"last_update":"0001-01-01T00:00:00Z","name_a2s":"Uncletopia | Seattle | 1 | All Maps","protocol":17,"map":"koth_nucleus","folder":"tf","game":"Team Fortress","app_id":440,"player_count":24,"max_players":24,"Bots":0,"server_type":"Dedicated","server_os":"Linux","password":true,"vac":true,"version":"7757534","steam_id":85568392924469997,"keywords":["cp","nocrits","nodmgspread","uncletopia"],"game_id":440,"stv_port":27016,"stv_name":"Uncletopia | Seattle | 1 | All Maps | STV","players":[{"user_id":635,"name":"Idontknow","steam_id":76561199207044048,"connected_time":1813000000000,"state":"active","ping":43},{"user_id":625,"name":"smeasly","steam_id":76561198028718812,"connected_time":3042000000000,"state":"active","ping":43},{"user_id":618,"name":"Snorgdarf","steam_id":76561198047962582,"connected_time":3923000000000,"state":"active","ping":49},{"user_id":616,"name":"Matidaus Tauntulas Greenwoodicu","steam_id":76561197992059815,"connected_time":4616000000000,"state":"active","ping":63},{"user_id":598,"name":"lili ezili","steam_id":76561199391478575,"connected_time":5929000000000,"state":"active","ping":72},{"user_id":614,"name":"Freak","steam_id":76561197999782172,"connected_time":4674000000000,"state":"active","ping":116},{"user_id":620,"name":"HiFivr","steam_id":76561198285190162,"connected_time":3094000000000,"state":"active","ping":65},{"user_id":623,"name":"5392vin","steam_id":76561198880493511,"connected_time":3068000000000,"state":"active","ping":61},{"user_id":652,"name":"trackpad gaming | f2p","steam_id":76561198840414371,"connected_time":25000000000,"state":"active","ping":52},{"user_id":591,"name":"Hassium","steam_id":76561198162541373,"connected_time":6031000000000,"state":"active","ping":56},{"user_id":648,"name":"namnepic","steam_id":76561198254905383,"connected_time":631000000000,"state":"active","ping":105},{"user_id":650,"name":"Username","steam_id":76561198855586261,"connected_time":451000000000,"state":"active","ping":64},{"user_id":624,"name":"[TrC] Nosy","steam_id":76561197978859310,"connected_time":3058000000000,"state":"active","ping":59},{"user_id":644,"name":"Why am I the only person who","steam_id":76561198139634916,"connected_time":1385000000000,"state":"active","ping":48},{"user_id":647,"name":"toilet thief","steam_id":76561198057486874,"connected_time":711000000000,"state":"active","ping":74},{"user_id":651,"name":"dougrocks421","steam_id":76561198165063918,"connected_time":383000000000,"state":"active","ping":45},{"user_id":593,"name":"rat gets the cheese","steam_id":76561198031234032,"connected_time":6019000000000,"state":"active","ping":102},{"user_id":641,"name":"The King of Piss World","steam_id":76561198082806956,"connected_time":1610000000000,"state":"active","ping":112},{"user_id":619,"name":"[TrC] Dackstrus","steam_id":76561197973518509,"connected_time":3917000000000,"state":"active","ping":59},{"user_id":643,"name":"Succeed by Failing","steam_id":76561198159852193,"connected_time":1537000000000,"state":"active","ping":85},{"user_id":628,"name":"Reb","steam_id":76561198144756713,"connected_time":2859000000000,"state":"active","ping":79},{"user_id":621,"name":"William P. Ennis","steam_id":76561198073464877,"connected_time":3094000000000,"state":"active","ping":91},{"user_id":649,"name":"Arathyn","steam_id":76561198179955586,"connected_time":605000000000,"state":"active","ping":97},{"user_id":634,"name":"Mr Mcguffin","steam_id":76561199059310006,"connected_time":2444000000000,"state":"active","ping":68}]},{"server_id":119,"name":"Uncletopia | Seattle | 2 | All Maps","name_short":"sea-2","host":"sea-1.us.uncletopia.com","port":27025,"enabled":true,"region":"us-west","cc":"us","latitude":47.608013,"longitude":-122.33517,"reserved":0,"last_update":"0001-01-01T00:00:00Z","name_a2s":"Uncletopia | Seattle | 2 | All Maps","protocol":17,"map":"pl_frontier_final","folder":"tf","game":"Team Fortress","app_id":440,"player_count":24,"max_players":24,"Bots":0,"server_type":"Dedicated","server_os":"Linux","password":true,"vac":true,"version":"7757534","steam_id":85568392924469998,"keywords":["nocrits","nodmgspread","payload","uncletopia"],"game_id":440,"stv_port":27026,"stv_name":"Uncletopia | Seattle | 2 | All Maps | STV","players":[{"user_id":605,"name":"Wheaties","steam_id":76561198060909578,"connected_time":2628000000000,"state":"active","ping":61},{"user_id":598,"name":"DaBigA","steam_id":76561198326492538,"connected_time":3502000000000,"state":"active","ping":54},{"user_id":615,"name":"TROY","steam_id":76561197983852176,"connected_time":1281000000000,"state":"active","ping":75},{"user_id":604,"name":"Lentil Soup","steam_id":76561198051834684,"connected_time":2999000000000,"state":"active","ping":61},{"user_id":603,"name":"gorlab","steam_id":76561198025089694,"connected_time":3052000000000,"state":"active","ping":60},{"user_id":619,"name":"O","steam_id":76561198450073779,"connected_time":804000000000,"state":"active","ping":45},{"user_id":582,"name":"DoctorHa","steam_id":76561198044026008,"connected_time":4496000000000,"state":"active","ping":86},{"user_id":614,"name":"Tom Skirrett","steam_id":76561198014600788,"connected_time":1317000000000,"state":"active","ping":61},{"user_id":623,"name":"ed","steam_id":76561198080475712,"connected_time":392000000000,"state":"active","ping":74},{"user_id":534,"name":"bobbymcbobington","steam_id":76561199089411172,"connected_time":9199000000000,"state":"active","ping":166},{"user_id":584,"name":"♥ Danny Hollow ♥","steam_id":76561198059010255,"connected_time":3823000000000,"state":"active","ping":178},{"user_id":592,"name":"ChunkWispy","steam_id":76561198799316908,"connected_time":3686000000000,"state":"active","ping":76},{"user_id":587,"name":"Agent86","steam_id":76561198046794593,"connected_time":3809000000000,"state":"active","ping":146},{"user_id":585,"name":"FlamingManiac","steam_id":76561198361996837,"connected_time":3821000000000,"state":"active","ping":121},{"user_id":579,"name":"Keamy","steam_id":76561199471434875,"connected_time":4740000000000,"state":"active","ping":41},{"user_id":624,"name":"S Q U I S H E  T H A T  C A T","steam_id":76561198293865429,"connected_time":13000000000,"state":"spawning","ping":38},{"user_id":620,"name":"ThatWACK","steam_id":76561198995415153,"connected_time":799000000000,"state":"active","ping":100},{"user_id":621,"name":"150cc lightning cup andy","steam_id":76561198121268007,"connected_time":756000000000,"state":"active","ping":81},{"user_id":554,"name":"Drainbow","steam_id":76561198421913648,"connected_time":8046000000000,"state":"active","ping":52},{"user_id":622,"name":"twitch.tv/rainzang2","steam_id":76561198143912191,"connected_time":536000000000,"state":"active","ping":84},{"user_id":618,"name":"squash","steam_id":76561198150281353,"connected_time":953000000000,"state":"active","ping":56},{"user_id":612,"name":"cat (real)","steam_id":76561198885041703,"connected_time":1895000000000,"state":"active","ping":124},{"user_id":578,"name":"Skaði","steam_id":76561198063949642,"connected_time":5091000000000,"state":"active","ping":43},{"user_id":601,"name":"jorts","steam_id":76561199041179985,"connected_time":3346000000000,"state":"active","ping":68}]},{"server_id":406,"name":"Uncletopia | Seattle | 3 | Stopwatch Beta","name_short":"sea-3","host":"sea-1.us.uncletopia.com","port":27035,"enabled":true,"region":"us-west","cc":"us","latitude":47.608013,"longitude":-122.33517,"reserved":0,"last_update":"0001-01-01T00:00:00Z","name_a2s":"Uncletopia | Seattle | 3 | Stopwatch Beta","protocol":17,"map":"koth_lakeside_final","folder":"tf","game":"Team Fortress","app_id":440,"player_count":0,"max_players":24,"Bots":0,"server_type":"Dedicated","server_os":"Linux","password":true,"vac":true,"version":"7757534","steam_id":85568392924515217,"keywords":["cp","nocrits","nodmgspread","uncletopia"],"game_id":440,"stv_port":27036,"stv_name":"Uncletopia | Seattle | 3 | Stopwatch Beta | STV","players":null},{"server_id":17,"name":"Uncletopia | San Francisco | 1 | All Maps","name_short":"sfo-1","host":"sfo-1.us.uncletopia.com","port":27015,"enabled":true,"region":"us-west","cc":"us","latitude":37.77397,"longitude":-122.4313,"reserved":0,"last_update":"0001-01-01T00:00:00Z","name_a2s":"Uncletopia | San Francisco | 1 | All Maps","protocol":17,"map":"pl_pier","folder":"tf","game":"Team Fortress","app_id":440,"player_count":24,"max_players":24,"Bots":0,"server_type":"Dedicated","server_os":"Linux","password":true,"vac":true,"version":"7757534","steam_id":85568392924469999,"keywords":["nocrits","nodmgspread","payload","uncletopia"],"game_id":440,"stv_port":27016,"stv_name":"Uncletopia | San Francisco | 1 | All Maps | STV","players":[{"user_id":458,"name":"BlitzB@t","steam_id":76561198299318000,"connected_time":22000000000,"state":"spawning","ping":72},{"user_id":430,"name":"Jonatello","steam_id":76561198045699189,"connected_time":1246000000000,"state":"active","ping":99},{"user_id":435,"name":"NEЯO","steam_id":76561197965450216,"connected_time":1116000000000,"state":"active","ping":72},{"user_id":380,"name":"Thunder","steam_id":76561198097721532,"connected_time":6116000000000,"state":"active","ping":53},{"user_id":304,"name":"DemoLiberTF2","steam_id":76561198095378689,"connected_time":11521000000000,"state":"active","ping":91},{"user_id":444,"name":"ุ","steam_id":76561199140164173,"connected_time":839000000000,"state":"active","ping":49},{"user_id":331,"name":"Grassman (Cc)","steam_id":76561198026488532,"connected_time":9446000000000,"state":"active","ping":47},{"user_id":405,"name":"Frank Ugly","steam_id":76561198247002810,"connected_time":4575000000000,"state":"active","ping":72},{"user_id":453,"name":"CHIKN","steam_id":76561198277792665,"connected_time":270000000000,"state":"active","ping":54},{"user_id":446,"name":"pudding","steam_id":76561199089788373,"connected_time":653000000000,"state":"active","ping":100},{"user_id":448,"name":"hudd","steam_id":76561198847873816,"connected_time":573000000000,"state":"active","ping":76},{"user_id":452,"name":"Funkmaster Yee","steam_id":76561198037738918,"connected_time":313000000000,"state":"active","ping":61},{"user_id":433,"name":"Banzailizard","steam_id":76561197986785469,"connected_time":1160000000000,"state":"active","ping":99},{"user_id":412,"name":"Engynier Gaimeang (F2P)","steam_id":76561199013888779,"connected_time":3699000000000,"state":"active","ping":55},{"user_id":454,"name":"The Assistant Regional Manager","steam_id":76561199221484936,"connected_time":269000000000,"state":"active","ping":69},{"user_id":441,"name":"chrome","steam_id":76561198158053923,"connected_time":968000000000,"state":"active","ping":57},{"user_id":451,"name":"awesomebrololo","steam_id":76561198374283489,"connected_time":319000000000,"state":"active","ping":95},{"user_id":438,"name":"Frogzilla","steam_id":76561198077657538,"connected_time":1086000000000,"state":"active","ping":88},{"user_id":417,"name":"Dangerously Cheesy","steam_id":76561198169768539,"connected_time":3569000000000,"state":"active","ping":72},{"user_id":419,"name":"mug","steam_id":76561198098905708,"connected_time":3159000000000,"state":"active","ping":77},{"user_id":455,"name":"ArnoldGamingﾠٴ","steam_id":76561198040140247,"connected_time":260000000000,"state":"active","ping":134},{"user_id":426,"name":"Sonny","steam_id":76561198042243689,"connected_time":2616000000000,"state":"active","ping":45},{"user_id":427,"name":"Summer's Snowman","steam_id":76561198057140854,"connected_time":2179000000000,"state":"active","ping":56},{"user_id":307,"name":"ScoutSecoTF2","steam_id":76561198366212156,"connected_time":11509000000000,"state":"active","ping":115}]},{"server_id":18,"name":"Uncletopia | San Francisco | 2 | All Maps","name_short":"sfo-2","host":"sfo-1.us.uncletopia.com","port":27025,"enabled":true,"region":"us-west","cc":"us","latitude":37.77397,"longitude":-122.4313,"reserved":0,"last_update":"0001-01-01T00:00:00Z","name_a2s":"Uncletopia | San Francisco | 2 | All Maps","protocol":17,"map":"pl_borneo","folder":"tf","game":"Team Fortress","app_id":440,"player_count":24,"max_players":24,"Bots":0,"server_type":"Dedicated","server_os":"Linux","password":true,"vac":true,"version":"7757534","steam_id":85568392924470000,"keywords":["nocrits","nodmgspread","payload","uncletopia"],"game_id":440,"stv_port":27026,"stv_name":"Uncletopia | San Francisco | 2 | All Maps | STV","players":[{"user_id":220,"name":"chimplicity","steam_id":76561198012097062,"connected_time":954000000000,"state":"active","ping":84},{"user_id":183,"name":"GarboBeans","steam_id":76561198089127316,"connected_time":4102000000000,"state":"active","ping":66},{"user_id":228,"name":"⛤","steam_id":76561198212421513,"connected_time":221000000000,"state":"active","ping":58},{"user_id":230,"name":"Arthur","steam_id":76561198075996414,"connected_time":199000000000,"state":"active","ping":107},{"user_id":189,"name":"bucue","steam_id":76561198053364136,"connected_time":3446000000000,"state":"active","ping":65},{"user_id":206,"name":"ghostglitch","steam_id":76561197991608573,"connected_time":2089000000000,"state":"active","ping":39},{"user_id":211,"name":"H4V0C","steam_id":76561199129350925,"connected_time":1672000000000,"state":"active","ping":68},{"user_id":233,"name":"fuxxy","steam_id":76561198136458736,"connected_time":146000000000,"state":"active","ping":76},{"user_id":217,"name":"John Wick's puppy","steam_id":76561198064662875,"connected_time":1008000000000,"state":"active","ping":52},{"user_id":229,"name":"Ghoulbreath","steam_id":76561198062517442,"connected_time":219000000000,"state":"active","ping":71},{"user_id":202,"name":"Cactus","steam_id":76561198149762619,"connected_time":2625000000000,"state":"active","ping":73},{"user_id":224,"name":"Nukeboy","steam_id":76561198147058560,"connected_time":703000000000,"state":"active","ping":72},{"user_id":219,"name":"Nitro","steam_id":76561198044877244,"connected_time":986000000000,"state":"active","ping":86},{"user_id":234,"name":"[ibb™]Shadow20X6-ENGI","steam_id":76561198019292755,"connected_time":123000000000,"state":"active","ping":60},{"user_id":214,"name":"Squid","steam_id":76561198197045587,"connected_time":1032000000000,"state":"active","ping":161},{"user_id":225,"name":"YASAI JUICE","steam_id":76561198131971992,"connected_time":539000000000,"state":"active","ping":90},{"user_id":196,"name":"Meth Goblin","steam_id":76561198086355221,"connected_time":3228000000000,"state":"active","ping":101},{"user_id":185,"name":"Jpzarde","steam_id":76561197978240364,"connected_time":3900000000000,"state":"active","ping":71},{"user_id":222,"name":"the dueling man","steam_id":76561198174589878,"connected_time":765000000000,"state":"active","ping":52},{"user_id":221,"name":"post traumatic swag disorder","steam_id":76561198093105234,"connected_time":931000000000,"state":"active","ping":92},{"user_id":161,"name":"Rusty","steam_id":76561198178868626,"connected_time":5215000000000,"state":"active","ping":85},{"user_id":209,"name":"GKEmperor","steam_id":76561197995187011,"connected_time":2057000000000,"state":"active","ping":63},{"user_id":232,"name":"Dilbert Garfunkel","steam_id":76561198088318184,"connected_time":179000000000,"state":"active","ping":65},{"user_id":226,"name":"Dongus","steam_id":76561197979056451,"connected_time":466000000000,"state":"active","ping":72}]},{"server_id":19,"name":"Uncletopia | San Francisco | 3 | Stopwatch Beta","name_short":"sfo-3","host":"sfo-1.us.uncletopia.com","port":27035,"enabled":true,"region":"us-west","cc":"us","latitude":37.77397,"longitude":-122.4313,"reserved":0,"last_update":"0001-01-01T00:00:00Z","name_a2s":"Uncletopia | San Francisco | 3 | Stopwatch Beta","protocol":17,"map":"koth_lakeside_final","folder":"tf","game":"Team Fortress","app_id":440,"player_count":0,"max_players":24,"Bots":0,"server_type":"Dedicated","server_os":"Linux","password":true,"vac":true,"version":"7757534","steam_id":85568392924742824,"keywords":["cp","nocrits","nodmgspread","uncletopia"],"game_id":440,"stv_port":27036,"stv_name":"Uncletopia | San Francisco | 3 | Stopwatch Beta | STV","players":null},{"server_id":20,"name":"Uncletopia | San Francisco | 4 | Community","name_short":"sfo-4","host":"sfo-1.us.uncletopia.com","port":27045,"enabled":true,"region":"us-west","cc":"us","latitude":37.77397,"longitude":-122.4313,"reserved":0,"last_update":"0001-01-01T00:00:00Z","name_a2s":"Uncletopia | San Francisco | 4 | Community","protocol":17,"map":"workshop/koth_slaughter_rc1.ugc1712845210","folder":"tf","game":"Team Fortress","app_id":440,"player_count":0,"max_players":24,"Bots":0,"server_type":"Dedicated","server_os":"Linux","password":true,"vac":true,"version":"7757534","steam_id":85568392924742826,"keywords":["cp","nocrits","nodmgspread","uncletopia"],"game_id":440,"stv_port":27046,"stv_name":"Uncletopia | San Francisco | 4 | Community | STV","players":null},{"server_id":141,"name":"Uncletopia | Sydney | 1 | All Maps","name_short":"syd-1","host":"syd-1.au.uncletopia.com","port":27015,"enabled":true,"region":"au","cc":"au","latitude":-33.865143,"longitude":151.2099,"reserved":0,"last_update":"0001-01-01T00:00:00Z","name_a2s":"Uncletopia | Sydney | 1 | All Maps","protocol":17,"map":"pl_upward","folder":"tf","game":"Team Fortress","app_id":440,"player_count":23,"max_players":24,"Bots":0,"server_type":"Dedicated","server_os":"Linux","password":true,"vac":true,"version":"7757534","steam_id":85568392924470001,"keywords":["nocrits","nodmgspread","payload","uncletopia"],"game_id":440,"stv_port":27016,"stv_name":"Uncletopia | Sydney | 1 | All Maps | STV","players":[{"user_id":17,"name":"ExcludedSum9","steam_id":76561198406429041,"connected_time":2710000000000,"state":"active","ping":79},{"user_id":20,"name":"Lukey","steam_id":76561197999887960,"connected_time":2247000000000,"state":"active","ping":66},{"user_id":19,"name":"GreyShirt","steam_id":76561198260628412,"connected_time":2419000000000,"state":"active","ping":60},{"user_id":31,"name":"Lobarté","steam_id":76561198090116136,"connected_time":1421000000000,"state":"active","ping":59},{"user_id":14,"name":"Enchanted Cat","steam_id":76561198866538028,"connected_time":3233000000000,"state":"active","ping":87},{"user_id":23,"name":"Tsolis","steam_id":76561198013950614,"connected_time":1932000000000,"state":"active","ping":64},{"user_id":24,"name":"Jodelkönig Franzl Lang","steam_id":76561198007667830,"connected_time":1916000000000,"state":"active","ping":45},{"user_id":26,"name":"exceptional hygiene","steam_id":76561198039920735,"connected_time":1797000000000,"state":"active","ping":41},{"user_id":65,"name":"floop flub","steam_id":76561198418968979,"connected_time":127000000000,"state":"active","ping":104},{"user_id":48,"name":"Warmwalker","steam_id":76561198025089589,"connected_time":619000000000,"state":"active","ping":129},{"user_id":34,"name":"Celph","steam_id":76561197993987500,"connected_time":1202000000000,"state":"active","ping":51},{"user_id":66,"name":"Pathetic Coward","steam_id":76561197968304462,"connected_time":82000000000,"state":"active","ping":55},{"user_id":35,"name":"Zieria","steam_id":76561199261811388,"connected_time":1183000000000,"state":"active","ping":41},{"user_id":46,"name":"A Burnt Cheeseburger","steam_id":76561198044178223,"connected_time":797000000000,"state":"active","ping":61},{"user_id":38,"name":"GattlingGoose","steam_id":76561199021498300,"connected_time":1032000000000,"state":"active","ping":71},{"user_id":39,"name":"soupy","steam_id":76561198073734936,"connected_time":946000000000,"state":"active","ping":85},{"user_id":49,"name":"thepixel","steam_id":76561198155396809,"connected_time":611000000000,"state":"active","ping":52},{"user_id":67,"name":"itsnothenry","steam_id":76561197966455767,"connected_time":30000000000,"state":"active","ping":56},{"user_id":64,"name":"Borgooskulleater","steam_id":76561198347646513,"connected_time":255000000000,"state":"active","ping":55},{"user_id":45,"name":"Sinister80s","steam_id":76561198343540472,"connected_time":809000000000,"state":"active","ping":73},{"user_id":68,"name":"Conrad Murray","steam_id":76561198141682876,"connected_time":15000000000,"state":"spawning","ping":240},{"user_id":54,"name":"robor","steam_id":76561198084686835,"connected_time":498000000000,"state":"active","ping":44},{"user_id":69,"name":"squrrel","steam_id":76561198083429611,"connected_time":5000000000,"state":"spawning","ping":106}]},{"server_id":123,"name":"Uncletopia | Sydney | 2 | All Maps","name_short":"syd-2","host":"syd-1.au.uncletopia.com","port":27025,"enabled":true,"region":"au","cc":"au","latitude":-33.865143,"longitude":151.2099,"reserved":0,"last_update":"0001-01-01T00:00:00Z","name_a2s":"Uncletopia | Sydney | 2 | All Maps","protocol":17,"map":"cp_dustbowl","folder":"tf","game":"Team Fortress","app_id":440,"player_count":0,"max_players":24,"Bots":0,"server_type":"Dedicated","server_os":"Linux","password":true,"vac":true,"version":"7757534","steam_id":85568392924470002,"keywords":["cp","nocrits","nodmgspread","uncletopia"],"game_id":440,"stv_port":27026,"stv_name":"Uncletopia | Sydney | 2 | All Maps | STV","players":null},{"server_id":395,"name":"Uncletopia | Sydney | 3 | All Maps","name_short":"syd-3","host":"syd-1.au.uncletopia.com","port":27035,"enabled":true,"region":"au","cc":"au","latitude":-33.865143,"longitude":151.2099,"reserved":0,"last_update":"0001-01-01T00:00:00Z","name_a2s":"Uncletopia | Sydney | 3 | All Maps","protocol":17,"map":"cp_sunshine","folder":"tf","game":"Team Fortress","app_id":440,"player_count":0,"max_players":24,"Bots":0,"server_type":"Dedicated","server_os":"Linux","password":true,"vac":true,"version":"7757534","steam_id":85568392925194467,"keywords":["cp","nocrits","nodmgspread","uncletopia"],"game_id":440,"stv_port":27036,"stv_name":"Uncletopia | Sydney | 3 | All Maps | STV","players":null},{"server_id":396,"name":"Uncletopia | Sydney | 4 | All Maps","name_short":"syd-4","host":"syd-1.au.uncletopia.com","port":27045,"enabled":true,"region":"au","cc":"au","latitude":-33.865143,"longitude":151.2099,"reserved":0,"last_update":"0001-01-01T00:00:00Z","name_a2s":"Uncletopia | Sydney | 4 | All Maps","protocol":17,"map":"koth_highpass","folder":"tf","game":"Team Fortress","app_id":440,"player_count":0,"max_players":24,"Bots":0,"server_type":"Dedicated","server_os":"Linux","password":true,"vac":true,"version":"7757534","steam_id":85568392925397958,"keywords":["cp","nocrits","nodmgspread","uncletopia"],"game_id":440,"stv_port":27046,"stv_name":"Uncletopia | Sydney | 4 | All Maps | STV","players":null},{"server_id":58,"name":"Uncletopia | Sydney | 5 | Stopwatch Beta","name_short":"syd-5","host":"syd-1.au.uncletopia.com","port":27055,"enabled":true,"region":"au","cc":"au","latitude":-33.865143,"longitude":151.2099,"reserved":0,"last_update":"0001-01-01T00:00:00Z","name_a2s":"Uncletopia | Sydney | 5 | Stopwatch Beta","protocol":17,"map":"koth_cascade","folder":"tf","game":"Team Fortress","app_id":440,"player_count":0,"max_players":24,"Bots":0,"server_type":"Dedicated","server_os":"Linux","password":true,"vac":true,"version":"7757534","steam_id":85568392925397959,"keywords":["cp","nocrits","nodmgspread","uncletopia"],"game_id":440,"stv_port":27056,"stv_name":"Uncletopia | Sydney | 5 | Stopwatch Beta | STV","players":null},{"server_id":59,"name":"Uncletopia | Sydney | 6 | Community","name_short":"syd-6","host":"syd-1.au.uncletopia.com","port":27065,"enabled":true,"region":"au","cc":"au","latitude":-33.865143,"longitude":151.2099,"reserved":0,"last_update":"0001-01-01T00:00:00Z","name_a2s":"Uncletopia | Sydney | 6 | Community","protocol":17,"map":"cp_snakewater_final1","folder":"tf","game":"Team Fortress","app_id":440,"player_count":0,"max_players":24,"Bots":0,"server_type":"Dedicated","server_os":"Linux","password":true,"vac":true,"version":"7757534","steam_id":85568392925397960,"keywords":["cp","nocrits","nodmgspread","uncletopia"],"game_id":440,"stv_port":27066,"stv_name":"Uncletopia | Sydney | 6 | Community | STV","players":null},{"server_id":49,"name":"Uncletopia | Warsaw | 1 | All Maps","name_short":"waw-1","host":"waw-1.pl.uncletopia.com","port":27015,"enabled":true,"region":"eu","cc":"pl","latitude":52.2297,"longitude":21.017532,"reserved":0,"last_update":"0001-01-01T00:00:00Z","name_a2s":"","protocol":0,"map":"","folder":"","game":"","app_id":0,"player_count":0,"max_players":0,"Bots":0,"server_type":"","server_os":"","password":false,"vac":false,"version":"","steam_id":0,"keywords":null,"game_id":0,"stv_port":0,"stv_name":"","players":null},{"server_id":50,"name":"Uncletopia | Warsaw | 2 | All Maps","name_short":"waw-2","host":"waw-1.pl.uncletopia.com","port":27025,"enabled":true,"region":"eu","cc":"pl","latitude":52.2297,"longitude":21.017532,"reserved":0,"last_update":"0001-01-01T00:00:00Z","name_a2s":"Uncletopia | Warsaw | 2 | All Maps","protocol":17,"map":"pl_frontier_final","folder":"tf","game":"Team Fortress","app_id":440,"player_count":0,"max_players":24,"Bots":0,"server_type":"Dedicated","server_os":"Linux","password":true,"vac":true,"version":"7757534","steam_id":85568392925397851,"keywords":["nocrits","nodmgspread","payload","uncletopia"],"game_id":440,"stv_port":27026,"stv_name":"Uncletopia | Warsaw | 2 | All Maps | STV","players":null},{"server_id":51,"name":"Uncletopia | Warsaw | 3 | All Maps","name_short":"waw-3","host":"waw-1.pl.uncletopia.com","port":27035,"enabled":true,"region":"eu","cc":"pl","latitude":52.2297,"longitude":21.017532,"reserved":0,"last_update":"0001-01-01T00:00:00Z","name_a2s":"Uncletopia | Warsaw | 3 | All Maps","protocol":17,"map":"cp_snakewater_final1","folder":"tf","game":"Team Fortress","app_id":440,"player_count":0,"max_players":24,"Bots":0,"server_type":"Dedicated","server_os":"Linux","password":true,"vac":true,"version":"7757534","steam_id":85568392925397852,"keywords":["cp","nocrits","nodmgspread","uncletopia"],"game_id":440,"stv_port":27036,"stv_name":"Uncletopia | Warsaw | 3 | All Maps | STV","players":null},{"server_id":52,"name":"Uncletopia | Warsaw | 4 | All Maps","name_short":"waw-4","host":"waw-1.pl.uncletopia.com","port":27045,"enabled":true,"region":"eu","cc":"pl","latitude":52.2297,"longitude":21.017532,"reserved":0,"last_update":"0001-01-01T00:00:00Z","name_a2s":"Uncletopia | Warsaw | 4 | All Maps","protocol":17,"map":"koth_lakeside_final","folder":"tf","game":"Team Fortress","app_id":440,"player_count":0,"max_players":24,"Bots":0,"server_type":"Dedicated","server_os":"Linux","password":true,"vac":true,"version":"7757534","steam_id":85568392925397853,"keywords":["cp","nocrits","nodmgspread","uncletopia"],"game_id":440,"stv_port":27046,"stv_name":"Uncletopia | Warsaw | 4 | All Maps | STV","players":null},{"server_id":53,"name":"Uncletopia | Warsaw | 5 | Stopwatch Beta","name_short":"waw-5","host":"waw-1.pl.uncletopia.com","port":27055,"enabled":true,"region":"eu","cc":"pl","latitude":52.2297,"longitude":21.017532,"reserved":0,"last_update":"0001-01-01T00:00:00Z","name_a2s":"Uncletopia | Warsaw | 5 | Stopwatch Beta","protocol":17,"map":"pl_borneo","folder":"tf","game":"Team Fortress","app_id":440,"player_count":0,"max_players":24,"Bots":0,"server_type":"Dedicated","server_os":"Linux","password":true,"vac":true,"version":"7757534","steam_id":85568392925397854,"keywords":["nocrits","nodmgspread","payload","uncletopia"],"game_id":440,"stv_port":27056,"stv_name":"Uncletopia | Warsaw | 5 | Stopwatch Beta | STV","players":null},{"server_id":54,"name":"Uncletopia | Warsaw | 6 | Community","name_short":"waw-6","host":"waw-1.pl.uncletopia.com","port":27065,"enabled":true,"region":"eu","cc":"pl","latitude":52.2297,"longitude":21.017532,"reserved":0,"last_update":"0001-01-01T00:00:00Z","name_a2s":"Uncletopia | Warsaw | 6 | Community","protocol":17,"map":"koth_lakeside_final","folder":"tf","game":"Team Fortress","app_id":440,"player_count":0,"max_players":24,"Bots":0,"server_type":"Dedicated","server_os":"Linux","password":true,"vac":true,"version":"7757534","steam_id":85568392925397856,"keywords":["cp","nocrits","nodmgspread","uncletopia"],"game_id":440,"stv_port":27066,"stv_name":"Uncletopia | Warsaw | 6 | Community | STV","players":null}]}