{"status":true,"message":"","result":[{"server_id":9,"name":"Uncletopia | Atlanta | 1 | All Maps","name_short":"atl-1","host":"atl-1.us.uncletopia.com","port":27015,"enabled":true,"region":"us-east","cc":"us","latitude":33.753746,"longitude":-84.38633,"reserved":0,"last_update":"0001-01-01T00:00:00Z","name_a2s":"Uncletopia | Atlanta | 1 | All Maps","protocol":17,"map":"cp_altitude","folder":"tf","game":"Team Fortress","app_id":440,"player_count":24,"max_players":24,"Bots":0,"server_type":"Dedicated","server_os":"Linux","password":true,"vac":true,"version":"7757534","steam_id":85568392924469982,"keywords":["cp","nocrits","nodmgspread","uncletopia"],"game_id":440,"stv_port":27016,"stv_name":"Uncletopia | Atlanta | 1 | All Maps | STV","players":[{"user_id":21,"name":"troll","steam_id":76561198040890252,"connected_time":5380000000000,"state":"active","ping":47},{"user_id":72,"name":"Chompy115","steam_id":76561199094920380,"connected_time":1179000000000,"state":"active","ping":159},{"user_id":23,"name":"‡ºò ‚ãÜÀöüéßCaffeine‚òï*Àñ¬∞","steam_id":76561199259309294,"connected_time":4973000000000,"state":"active","ping":89},{"user_id":82,"name":"Toasty","steam_id":76561198176700097,"connected_time":905000000000,"state":"active","ping":83},{"user_id":25,"name":"Belmore","steam_id":76561198009355231,"connected_time":4956000000000,"state":"active","ping":116},{"user_id":91,"name":"Just PYE","steam_id":76561199439622967,"connected_time":655000000000,"state":"active","ping":73},{"user_id":73,"name":"Pennis the Menace","steam_id":76561198254878037,"connected_time":1168000000000,"state":"active","ping":80},{"user_id":29,"name":"Quiver Cakes ._.","steam_id":76561198243155576,"connected_time":4109000000000,"state":"active","ping":74},{"user_id":69,"name":"deech","steam_id":76561198066429444,"connected_time":1473000000000,"state":"active","ping":58},{"user_id":90,"name":"Justin Roiland ( Innocent )","steam_id":76561198121926605,"connected_time":663000000000,"state":"active","ping":69},{"user_id":32,"name":"Slickk._.","steam_id":76561198803086086,"connected_time":4095000000000,"state":"active","ping":84},{"user_id":71,"name":"ItJustGetsWorse","steam_id":76561198078385108,"connected_time":1190000000000,"state":"active","ping":70},{"user_id":86,"name":"Pestcontrole","steam_id":76561198425664013,"connected_time":770000000000,"state":"active","ping":69},{"user_id":75,"name":"Compress Dong","steam_id":76561198018950826,"connected_time":1147000000000,"state":"active","ping":101},{"user_id":36,"name":"Alucardo","steam_id":76561198320866421,"connected_time":3983000000000,"state":"active","ping":44},{"user_id":87,"name":"lukethepumpkin","steam_id":76561198204158335,"connected_time":709000000000,"state":"active","ping":77},{"user_id":74,"name":"Pickle Chips","steam_id":76561198271951504,"connected_time":1154000000000,"state":"active","ping":63},{"user_id":76,"name":"ThereminCrow","steam_id":76561198798930598,"connected_time":1094000000000,"state":"active","ping":114},{"user_id":84,"name":"ted twenty-two ( Triple T )","steam_id":76561198121316868,"connected_time":870000000000,"state":"active","ping":86},{"user_id":52,"name":"vitamin","steam_id":76561198277799227,"connected_time":3303000000000,"state":"active","ping":61},{"user_id":88,"name":"Mafia","steam_id":76561198225713512,"connected_time":703000000000,"state":"active","ping":73},{"user_id":92,"name":"Dewick","steam_id":76561198178526673,"connected_time":615000000000,"state":"active","ping":90},{"user_id":96,"name":"RabbidYoshi9","steam_id":76561199349472517,"connected_time":553000000000,"state":"active","ping":90},{"user_id":98,"name":"Highphin","steam_id":76561198986584680,"connected_time":457000000000,"state":"active","ping":83}]},{"server_id":400,"name":"Uncletopia | Atlanta | 3 | Community","name_short":"atl-3","host":"atl-1.us.uncletopia.com","port":27035,"enabled":true,"region":"us-east","cc":"us","latitude":33.753746,"longitude":-84.38633,"reserved":0,"last_update":"0001-01-01T00:00:00Z","name_a2s":"Uncletopia | Atlanta | 3 | Community","protocol":17,"map":"pl_swiftwater_final1","folder":"tf","game":"Team Fortress","app_id":440,"player_count":0,"max_players":32,"Bots":0,"server_type":"Dedicated","server_os":"Linux","password":true,"vac":true,"version":"7757534","steam_id":85568392924515187,"keywords":["increased_maxplayers","nocrits","nodmgspread","payload","uncletopia"],"game_id":440,"stv_port":27036,"stv_name":"Uncletopia | Atlanta | 3 | Community | STV","players":null},{"server_id":401,"name":"Uncletopia | Atlanta | 4 | No Payload","name_short":"atl-4","host":"atl-1.us.uncletopia.com","port":27045,"enabled":true,"region":"us-east","cc":"us","latitude":33.753746,"longitude":-84.38633,"reserved":0,"last_update":"0001-01-01T00:00:00Z","name_a2s":"","protocol":0,"map":"","folder":"","game":"","app_id":0,"player_count":0,"max_players":0,"Bots":0,"server_type":"","server_os":"","password":false,"vac":false,"version":"","steam_id":0,"keywords":null,"game_id":0,"stv_port":0,"stv_name":"","players":null},{"server_id":2,"name":"Uncletopia | Chicago | 1 | All Maps","name_short":"chi-1","host":"chi-1.us.uncletopia.com","port":27015,"enabled":true,"region":"us-central","cc":"us","latitude":41.881832,"longitude":-87.62318,"reserved":0,"last_update":"0001-01-01T00:00:00Z","name_a2s":"Uncletopia | Chicago | 1 | All Maps","protocol":17,"map":"cp_dustbowl","folder":"tf","game":"Team Fortress","app_id":440,"player_count":24,"max_players":24,"Bots":0,"server_type":"Dedicated","server_os":"Linux","password":true,"vac":true,"version":"7757534","steam_id":85568392924469984,"keywords":["cp","nocrits","nodmgspread","uncletopia"],"game_id":440,"stv_port":27016,"stv_name":"Uncletopia | Chicago | 1 | All Maps | STV","players":[{"user_id":419,"name":"J. White","steam_id":76561198069535897,"connected_time":1380000000000,"state":"active","ping":66},{"user_id":254,"name":"Draconic Ballad","steam_id":76561198027191515,"connected_time":4315000000000,"state":"active","ping":51},{"user_id":266,"name":"Sealboy","steam_id":76561199063067842,"connected_time":3787000000000,"state":"active","ping":67},{"user_id":397,"name":"Smoker Lung","steam_id":76561198077167395,"connected_time":1600000000000,"state":"active","ping":48},{"user_id":350,"name":"Dispenser (Twan)","steam_id":76561197991064908,"connected_time":2329000000000,"state":"active","ping":54},{"user_id":410,"name":"Gachalover","steam_id":76561199231552074,"connected_time":1503000000000,"state":"active","ping":71},{"user_id":417,"name":"Carl, Good to see you","steam_id":76561198070574075,"connected_time":1421000000000,"state":"active","ping":69},{"user_id":321,"name":"M.L.JEW","steam_id":76561198997375055,"connected_time":2706000000000,"state":"active","ping":78},{"user_id":253,"name":"Rornir","steam_id":76561198081829615,"connected_time":4561000000000,"state":"active","ping":36},{"user_id":420,"name":"dead baby flying","steam_id":76561198144673121,"connected_time":1367000000000,"state":"active","ping":60},{"user_id":431,"name":"defs98","steam_id":76561198134813102,"connected_time":182000000000,"state":"active","ping":57},{"user_id":430,"name":"Huge","steam_id":76561199030987614,"connected_time":389000000000,"state":"active","ping":86},{"user_id":428,"name":"soccernano","steam_id":76561198116633137,"connected_time":797000000000,"state":"active","ping":60},{"user_id":346,"name":"Devoid","steam_id":76561198254039012,"connected_time":2435000000000,"state":"active","ping":52},{"user_id":155,"name":"finger","steam_id":76561198068558572,"connected_time":10471000000000,"state":"active","ping":84},{"user_id":427,"name":"Kito","steam_id":76561198394383213,"connected_time":935000000000,"state":"active","ping":98},{"user_id":270,"name":"Fiendish Frog","steam_id":76561198029478821,"connected_time":3599000000000,"state":"active","ping":61},{"user_id":370,"name":"TurtledoveJones","steam_id":76561198010200051,"connected_time":1992000000000,"state":"active","ping":45},{"user_id":414,"name":"Jon","steam_id":76561199049945120,"connected_time":1481000000000,"state":"active","ping":71},{"user_id":421,"name":"Captain Baxter","steam_id":76561198100587328,"connected_time":1351000000000,"state":"active","ping":88},{"user_id":345,"name":"every death=1+ plant fact","steam_id":76561198995705248,"connected_time":2456000000000,"state":"active","ping":86},{"user_id":274,"name":"Salih","steam_id":76561198287934839,"connected_time":3553000000000,"state":"active","ping":149},{"user_id":286,"name":"Chackie Jan","steam_id":76561199099907475,"connected_time":3328000000000,"state":"active","ping":89},{"user_id":391,"name":"yitz","steam_id":76561198375575841,"connected_time":1660000000000,"state":"active","ping":52}]},{"server_id":106,"name":"Uncletopia | Chicago | 2 | All Maps","name_short":"chi-2","host":"chi-1.us.uncletopia.com","port":27025,"enabled":true,"region":"us-central","cc":"us","latitude":41.881832,"longitude":-87.62318,"reserved":0,"last_update":"0001-01-01T00:00:00Z","name_a2s":"Uncletopia | Chicago | 2 | All Maps","protocol":17,"map":"koth_cascade","folder":"tf","game":"Team Fortress","app_id":440,"player_count":0,"max_players":24,"Bots":0,"server_type":"Dedicated","server_os":"Linux","password":true,"vac":true,"version":"7757534","steam_id":85568392924469985,"keywords":["cp","nocrits","nodmgspread","uncletopia"],"game_id":440,"stv_port":27026,"stv_name":"Uncletopia | Chicago | 2 | All Maps | STV","players":null},{"server_id":402,"name":"Uncletopia | Chicago | 3 | All Maps","name_short":"chi-3","host":"chi-1.us.uncletopia.com","port":27035,"enabled":true,"region":"us-central","cc":"us","latitude":41.881832,"longitude":-87.62318,"reserved":0,"last_update":"0001-01-01T00:00:00Z","name_a2s":"Uncletopia | Chicago | 3 | All Maps","protocol":17,"map":"koth_cascade","folder":"tf","game":"Team Fortress","app_id":440,"player_count":0,"max_players":24,"Bots":0,"server_type":"Dedicated","server_os":"Linux","password":true,"vac":true,"version":"7757534","steam_id":85568392924515191,"keywords":["cp","nocrits","nodmgspread","uncletopia"],"game_id":440,"stv_port":27036,"stv_name":"Uncletopia | Chicago | 3 | All Maps | STV","players":null},{"server_id":403,"name":"Uncletopia | Chicago | 4 | All Maps","name_short":"chi-4","host":"chi-1.us.uncletopia.com","port":27045,"enabled":true,"region":"us-central","cc":"us","latitude":41.881832,"longitude":-87.62318,"reserved":0,"last_update":"0001-01-01T00:00:00Z","name_a2s":"Uncletopia | Chicago | 4 | All Maps","protocol":17,"map":"koth_lakeside_final","folder":"tf","game":"Team Fortress","app_id":440,"player_count":0,"max_players":24,"Bots":0,"server_type":"Dedicated","server_os":"Linux","password":true,"vac":true,"version":"7757534","steam_id":85568392924515193,"keywords":["cp","nocrits","nodmgspread","uncletopia"],"game_id":440,"stv_port":27046,"stv_name":"Uncletopia | Chicago | 4 | All Maps | STV","players":null},{"server_id":36,"name":"Uncletopia | Chicago | 5 | All Maps","name_short":"chi-5","host":"chi-2.us.uncletopia.com","port":27015,"enabled":true,"region":"us-central","cc":"us","latitude":41.881832,"longitude":-87.62318,"reserved":0,"last_update":"0001-01-01T00:00:00Z","name_a2s":"Uncletopia | Chicago | 5 | All Maps","protocol":17,"map":"koth_cascade","folder":"tf","game":"Team Fortress","app_id":440,"player_count":0,"max_players":24,"Bots":0,"server_type":"Dedicated","server_os":"Linux","password":true,"vac":true,"version":"7757534","steam_id":85568392924866362,"keywords":["cp","nocrits","nodmgspread","uncletopia"],"game_id":440,"stv_port":27016,"stv_name":"Uncletopia | Chicago | 5 | All Maps | STV","players":null},{"server_id":37,"name":"Uncletopia | Chicago | 6 | All Maps","name_short":"chi-6","host":"chi-2.us.uncletopia.com","port":27025,"enabled":true,"region":"us-central","cc":"us","latitude":41.881832,"longitude":-87.62318,"reserved":0,"last_update":"0001-01-01T00:00:00Z","name_a2s":"Uncletopia | Chicago | 6 | All Maps","protocol":17,"map":"koth_cascade","folder":"tf","game":"Team Fortress","app_id":440,"player_count":0,"max_players":24,"Bots":0,"server_type":"Dedicated","server_os":"Linux","password":true,"vac":true,"version":"7757534","steam_id":85568392924866363,"keywords":["cp","nocrits","nodmgspread","uncletopia"],"game_id":440,"stv_port":27026,"stv_name":"Uncletopia | Chicago | 6 | All Maps | STV","players":null},{"server_id":38,"name":"Uncletopia | Chicago | 7 | Stopwatch Beta","name_short":"chi-7","host":"chi-2.us.uncletopia.com","port":27035,"enabled":true,"region":"us-central","cc":"us","latitude":41.881832,"longitude":-87.62318,"reserved":0,"last_update":"0001-01-01T00:00:00Z","name_a2s":"Uncletopia | Chicago | 7 | Stopwatch Beta","protocol":17,"map":"pl_upward","folder":"tf","game":"Team Fortress","app_id":440,"player_count":0,"max_players":24,"Bots":0,"server_type":"Dedicated","server_os":"Linux","password":true,"vac":true,"version":"7757534","steam_id":85568392924866364,"keywords":["nocrits","nodmgspread","payload","uncletopia"],"game_id":440,"stv_port":27036,"stv_name":"Uncletopia | Chicago | 7 | Stopwatch Beta | STV","players":null},{"server_id":39,"name":"Uncletopia | Chicago | 8 | Community","name_short":"chi-8","host":"chi-2.us.uncletopia.com","port":27045,"enabled":true,"region":"us-central","cc":"us","latitude":41.881832,"longitude":-87.62318,"reserved":0,"last_update":"0001-01-01T00:00:00Z","name_a2s":"Uncletopia | Chicago | 8 | Community","protocol":17,"map":"pl_barnblitz","folder":"tf","game":"Team Fortress","app_id":440,"player_count":0,"max_players":24,"Bots":0,"server_type":"Dedicated","server_os":"Linux","password":true,"vac":true,"version":"7757534","steam_id":85568392924866365,"keywords":["nocrits","nodmgspread","payload","uncletopia"],"game_id":440,"stv_port":27046,"stv_name":"Uncletopia | Chicago | 8 | Community | STV","players":null},{"server_id":8,"name":"Uncletopia | Dallas | 1 | All Maps","name_short":"dal-1","host":"dal-1.us.uncletopia.com","port":27015,"enabled":true,"region":"us-central","cc":"us","latitude":32.779167,"longitude":-96.80889,"reserved":0,"last_update":"0001-01-01T00:00:00Z","name_a2s":"Uncletopia | Dallas | 1 | All Maps","protocol":17,"map":"koth_cascade","folder":"tf","game":"Team Fortress","app_id":440,"player_count":0,"max_players":24,"Bots":0,"server_type":"Dedicated","server_os":"Linux","password":true,"vac":true,"version":"7757534","steam_id":85568392924469986,"keywords":["cp","nocrits","nodmgspread","uncletopia"],"game_id":440,"stv_port":27016,"stv_name":"Uncletopia | Dallas | 1 | All Maps | STV","players":null},{"server_id":108,"name":"Uncletopia | Dallas | 2 | All Maps","name_short":"dal-2","host":"dal-1.us.uncletopia.com","port":27025,"enabled":true,"region":"us-central","cc":"us","latitude":32.779167,"longitude":-96.80889,"reserved":0,"last_update":"0001-01-01T00:00:00Z","name_a2s":"Uncletopia | Dallas | 2 | All Maps","protocol":17,"map":"koth_lakeside_final","folder":"tf","game":"Team Fortress","app_id":440,"player_count":0,"max_players":24,"Bots":0,"server_type":"Dedicated","server_os":"Linux","password":true,"vac":true,"version":"7757534","steam_id":85568392924469988,"keywords":["cp","nocrits","nodmgspread","uncletopia"],"game_id":440,"stv_port":27026,"stv_name":"Uncletopia | Dallas | 2 | All Maps | STV","players":null},{"server_id":5,"name":"Uncletopia | Frankfurt | 1 | All Maps","name_short":"frk-1","host":"frk-1.de.uncletopia.com","port":27015,"enabled":true,"region":"eu","cc":"de","latitude":50.110924,"longitude":8.682127,"reserved":0,"last_update":"0001-01-01T00:00:00Z","name_a2s":"Uncletopia | Frankfurt | 1 | All Maps","protocol":17,"map":"pl_snowycoast","folder":"tf","game":"Team Fortress","app_id":440,"player_count":23,"max_players":24,"Bots":0,"server_type":"Dedicated","server_os":"Linux","password":true,"vac":true,"version":"7757534","steam_id":85568392924469989,"keywords":["nocrits","nodmgspread","payload","uncletopia"],"game_id":440,"stv_port":27016,"stv_name":"Uncletopia | Frankfurt | 1 | All Maps | STV","players":[{"user_id":171,"name":"citronous","steam_id":76561198093290934,"connected_time":10273000000000,"state":"active","ping":52},{"user_id":312,"name":"\"Sniper_Airlines\"","steam_id":76561198169443647,"connected_time":439000000000,"state":"active","ping":86},{"user_id":307,"name":"The one who knocks","steam_id":76561198089341471,"connected_time":1047000000000,"state":"active","ping":70},{"user_id":313,"name":"JohnnyRocker2050","steam_id":76561199013867872,"connected_time":386000000000,"state":"active","ping":188},{"user_id":318,"name":"Spunkepeter #TransRights","steam_id":76561198417171790,"connected_time":103000000000,"state":"active","ping":73},{"user_id":314,"name":"glyph","steam_id":76561197980736364,"connected_time":385000000000,"state":"active","ping":76},{"user_id":311,"name":"DrePow","steam_id":76561198297294413,"connected_time":695000000000,"state":"active","ping":56},{"user_id":277,"name":"Marty‚Ñ¢","steam_id":76561198060073673,"connected_time":2424000000000,"state":"active","ping":60},{"user_id":316,"name":"Lukas","steam_id":76561198009118452,"connected_time":245000000000,"state":"active","ping":56},{"user_id":302,"name":"i always miss","steam_id":76561199379233899,"connected_time":1245000000000,"state":"active","ping":92},{"user_id":269,"name":"coin dexter","steam_id":76561198092376975,"connected_time":3160000000000,"state":"active","ping":45},{"user_id":298,"name":"Rops","steam_id":76561198031608011,"connected_time":1348000000000,"state":"active","ping":78},{"user_id":243,"name":"FighterX9","steam_id":76561198832500806,"connected_time":4779000000000,"state":"active","ping":164},{"user_id":225,"name":"christmas with weezer","steam_id":76561198863788240,"connected_time":5487000000000,"state":"active","ping":77},{"user_id":264,"name":"Pestdoktor","steam_id":76561198058159271,"connected_time":3428000000000,"state":"active","ping":60},{"user_id":303,"name":"doctor amongus","steam_id":76561199096919345,"connected_time":1237000000000,"state":"active","ping":85},{"user_id":304,"name":"powej","steam_id":76561198056381418,"connected_time":1212000000000,"state":"active","ping":46},{"user_id":259,"name":"LarsInABox","steam_id":76561198028329262,"connected_time":3660000000000,"state":"active","ping":70},{"user_id":308,"name":"swueuws","steam_id":76561198020716743,"connected_time":986000000000,"state":"active","ping":51},{"user_id":317,"name":"Squid","steam_id":76561198197045587,"connected_time":172000000000,"state":"active","ping":163},{"user_id":293,"name":"–¥–∂–µ–≥–µ–º–∏ —Ö—ç–ø–∫–∏–Ω–≥—Å","steam_id":76561198131531394,"connected_time":1768000000000,"state":"active","ping":90},{"user_id":280,"name":"Solu","steam_id":76561198054652468,"connected_time":2407000000000,"state":"active","ping":72},{"user_id":305,"name":"Monsteh","steam_id":76561198325898181,"connected_time":1179000000000,"state":"active","ping":75}]},{"server_id":110,"name":"Uncletopia | Frankfurt | 2 | All Maps","name_short":"frk-2","host":"frk-1.de.uncletopia.com","port":27025,"enabled":true,"region":"eu","cc":"de","latitude":50.110924,"longitude":8.682127,"reserved":0,"last_update":"0001-01-01T00:00:00Z","name_a2s":"Uncletopia | Frankfurt | 2 | All Maps","protocol":17,"map":"pl_pier","folder":"tf","game":"Team Fortress","app_id":440,"player_count":24,"max_players":24,"Bots":0,"server_type":"Dedicated","server_os":"Linux","password":true,"vac":true,"version":"7757534","steam_id":85568392924469990,"keywords":["nocrits","nodmgspread","payload","uncletopia"],"game_id":440,"stv_port":27026,"stv_name":"Uncletopia | Frankfurt | 2 | All Maps | STV","players":[{"user_id":383,"name":"◊ú◊ï","steam_id":76561198170332885,"connected_time":2433000000000,"state":"active","ping":117},{"user_id":392,"name":"Dirt Road","steam_id":76561198210372012,"connected_time":1354000000000,"state":"active","ping":154},{"user_id":365,"name":"Daniele Antox","steam_id":76561198323879930,"connected_time":3477000000000,"state":"active","ping":60},{"user_id":398,"name":"Adrenaline","steam_id":76561197970852048,"connected_time":903000000000,"state":"active","ping":65},{"user_id":401,"name":"Artificial stupidity","steam_id":76561198157406151,"connected_time":696000000000,"state":"active","ping":54},{"user_id":274,"name":"rz-/Atomic Punch","steam_id":76561199195508541,"connected_time":9135000000000,"state":"active","ping":80},{"user_id":404,"name":"Vanta_BlackLD","steam_id":76561198346271576,"connected_time":515000000000,"state":"active","ping":57},{"user_id":389,"name":"Jon (alt)","steam_id":76561199380849468,"connected_time":1911000000000,"state":"active","ping":63},{"user_id":377,"name":"frosty","steam_id":76561198094560834,"connected_time":2536000000000,"state":"active","ping":61},{"user_id":408,"name":"gxoul","steam_id":76561199091006994,"connected_time":292000000000,"state":"active","ping":66},{"user_id":396,"name":"MARKO","steam_id":76561198065127504,"connected_time":944000000000,"state":"active","ping":59},{"user_id":388,"name":"HOTEL ROOM","steam_id":76561198048250715,"connected_time":1965000000000,"state":"active","ping":59},{"user_id":356,"name":"whatever","steam_id":76561198095943461,"connected_time":4329000000000,"state":"active","ping":59},{"user_id":405,"name":"GuSkand","steam_id":76561198043775605,"connected_time":477000000000,"state":"active","ping":77},{"user_id":390,"name":"world's best slint tribute act","steam_id":76561199064350902,"connected_time":1886000000000,"state":"active","ping":103},{"user_id":361,"name":"Qwerty","steam_id":76561198023525894,"connected_time":4278000000000,"state":"active","ping":86},{"user_id":406,"name":"Kenpachi","steam_id":76561198365750503,"connected_time":465000000000,"state":"active","ping":55},{"user_id":402,"name":"Doriian","steam_id":76561198071438810,"connected_time":556000000000,"state":"active","ping":81},{"user_id":353,"name":"cinny","steam_id":76561198832112629,"connected_time":4596000000000,"state":"active","ping":80},{"user_id":369,"name":"trk","steam_id":76561198079111788,"connected_time":3048000000000,"state":"active","ping":75},{"user_id":407,"name":"Doubl√´","steam_id":76561198257836694,"connected_time":440000000000,"state":"active","ping":57},{"user_id":386,"name":"i'm bad at this game","steam_id":76561198120166752,"connected_time":2099000000000,"state":"active","ping":75},{"user_id":403,"name":"Amoru","steam_id":76561198798161817,"connected_time":528000000000,"state":"active","ping":77},{"user_id":409,"name":"kiki","steam_id":76561198838277022,"connected_time":251000000000,"state":"active","ping":67}]},{"server_id":308,"name":"Uncletopia | Frankfurt | 3 | All Maps","name_short":"frk-3","host":"frk-1.de.uncletopia.com","port":27035,"enabled":true,"region":"eu","cc":"de","latitude":50.110924,"longitude":8.682127,"reserved":0,"last_update":"0001-01-01T00:00:00Z","name_a2s":"Uncletopia | Frankfurt | 3 | All Maps","protocol":17,"map":"pl_upward","folder":"tf","game":"Team Fortress","app_id":440,"player_count":24,"max_players":24,"Bots":0,"server_type":"Dedicated","server_os":"Linux","password":true,"vac":true,"version":"7757534","steam_id":85568392924504274,"keywords":["nocrits","nodmgspread","payload","uncletopia"],"game_id":440,"stv_port":27036,"stv_name":"Uncletopia | Frankfurt | 3 | All Maps | STV","players":[{"user_id":487,"name":"angel","steam_id":76561198121408313,"connected_time":109000000000,"state":"active","ping":70},{"user_id":452,"name":"lezginka dubstep rmx","steam_id":76561198320336543,"connected_time":2140000000000,"state":"active","ping":94},{"user_id":315,"name":"Mr.Fosty","steam_id":76561198045212783,"connected_time":11837000000000,"state":"active","ping":87},{"user_id":479,"name":"TylowStar","steam_id":76561198357107806,"connected_time":784000000000,"state":"active","ping":61},{"user_id":442,"name":"Captain Saburov","steam_id":76561198135343869,"connected_time":2983000000000,"state":"active","ping":110},{"user_id":429,"name":"Hot Bean","steam_id":76561198803639155,"connected_time":4042000000000,"state":"active","ping":85},{"user_id":486,"name":"wickEd_","steam_id":76561198048068999,"connected_time":291000000000,"state":"active","ping":165},{"user_id":483,"name":"AsuX","steam_id":76561197990333289,"connected_time":371000000000,"state":"active","ping":60},{"user_id":488,"name":"N√∂tig","steam_id":76561198150158285,"connected_time":11000000000,"state":"spawning","ping":61},{"user_id":455,"name":"pizza time","steam_id":76561199015899793,"connected_time":2019000000000,"state":"active","ping":62},{"user_id":439,"name":"Combat Wombat","steam_id":76561197994720068,"connected_time":3199000000000,"state":"active","ping":71},{"user_id":445,"name":"Vieenna Academy of Fine Arts","steam_id":76561199023559370,"connected_time":2825000000000,"state":"spawning","ping":99},{"user_id":462,"name":"night.s","steam_id":76561198326287823,"connected_time":1863000000000,"state":"active","ping":75},{"user_id":464,"name":"pAftAq","steam_id":76561198359966356,"connected_time":1769000000000,"state":"active","ping":102},{"user_id":477,"name":"Crisps","steam_id":76561198088973774,"connected_time":807000000000,"state":"active","ping":49},{"user_id":420,"name":"I was good before.","steam_id":76561198187045217,"connected_time":4650000000000,"state":"spawning","ping":64},{"user_id":459,"name":"Chromatic","steam_id":76561198355976286,"connected_time":1936000000000,"state":"active","ping":227},{"user_id":449,"name":"Pluto's Floofball(Raph)","steam_id":76561198154800858,"connected_time":2529000000000,"state":"active","ping":72},{"user_id":484,"name":"lord-carlos","steam_id":76561198025150761,"connected_time":334000000000,"state":"active","ping":54},{"user_id":485,"name":"joethefool","steam_id":76561199015436319,"connected_time":332000000000,"state":"active","ping":127},{"user_id":478,"name":"Bog TF2 Livestream","steam_id":76561199107382588,"connected_time":806000000000,"state":"active","ping":188},{"user_id":480,"name":"Fran","steam_id":76561199070516960,"connected_time":771000000000,"state":"active","ping":61},{"user_id":376,"name":"PLUTO","steam_id":76561198312436128,"connected_time":8087000000000,"state":"active","ping":289},{"user_id":406,"name":"s a i","steam_id":76561197970379754,"connected_time":6963000000000,"state":"active","ping":85}]},{"server_id":309,"name":"Uncletopia | Frankfurt | 4 | All Maps","name_short":"frk-4","host":"frk-1.de.uncletopia.com","port":27045,"enabled":true,"region":"eu","cc":"de","latitude":50.110924,"longitude":8.682127,"reserved":0,"last_update":"0001-01-01T00:00:00Z","name_a2s":"Uncletopia | Frankfurt | 4 | All Maps","protocol":17,"map":"pl_swiftwater_final1","folder":"tf","game":"Team Fortress","app_id":440,"player_count":24,"max_players":24,"Bots":0,"server_type":"Dedicated","server_os":"Linux","password":true,"vac":true,"version":"7757534","steam_id":85568392924504275,"keywords":["nocrits","nodmgspread","payload","uncletopia"],"game_id":440,"stv_port":27046,"stv_name":"Uncletopia | Frankfurt | 4 | All Maps | STV","players":[{"user_id":210,"name":"VEH-DEH-VEH","steam_id":76561198010978989,"connected_time":4250000000000,"state":"active","ping":67},{"user_id":158,"name":"my head + the wall = \u003c3","steam_id":76561198058012525,"connected_time":7345000000000,"state":"active","ping":72},{"user_id":274,"name":"20BB Raxor","steam_id":76561198239927434,"connected_time":257000000000,"state":"active","ping":90},{"user_id":269,"name":"Yony","steam_id":76561199070569941,"connected_time":915000000000,"state":"active","ping":56},{"user_id":252,"name":"lexapro dellirium","steam_id":76561199221733094,"connected_time":2090000000000,"state":"active","ping":65},{"user_id":201,"name":"mouse","steam_id":76561198349648942,"connected_time":5277000000000,"state":"active","ping":89},{"user_id":256,"name":"Ed","steam_id":76561198121365396,"connected_time":1651000000000,"state":"active","ping":86},{"user_id":250,"name":"duckels","steam_id":76561198127790695,"connected_time":2176000000000,"state":"active","ping":44},{"user_id":266,"name":"üåº HugeE","steam_id":76561198245495152,"connected_time":1075000000000,"state":"active","ping":59},{"user_id":270,"name":"Vershal Smershal","steam_id":76561198116223995,"connected_time":913000000000,"state":"active","ping":61},{"user_id":272,"name":"Pilaarius","steam_id":76561198120273212,"connected_time":269000000000,"state":"active","ping":89},{"user_id":275,"name":"blurst of times","steam_id":76561197972325640,"connected_time":255000000000,"state":"active","ping":51},{"user_id":134,"name":"( Õ° Õ°¬∞ Õú  ñ Õ° Õ°¬∞) \\ ‚òû","steam_id":76561198084597975,"connected_time":9018000000000,"state":"active","ping":58},{"user_id":224,"name":"bigwish | bmod.tf","steam_id":76561197997859723,"connected_time":3179000000000,"state":"active","ping":72},{"user_id":257,"name":"1couver","steam_id":76561198168553215,"connected_time":1644000000000,"state":"active","ping":100},{"user_id":268,"name":"Maske","steam_id":76561198078100812,"connected_time":939000000000,"state":"active","ping":56},{"user_id":231,"name":"Devil The Ass Slapper","steam_id":76561199091603721,"connected_time":2956000000000,"state":"active","ping":78},{"user_id":276,"name":"chef","steam_id":76561197991368897,"connected_time":254000000000,"state":"active","ping":78},{"user_id":277,"name":"Mi Manchi","steam_id":76561198171573129,"connected_time":62000000000,"state":"active","ping":57},{"user_id":273,"name":"Holz is sleepy","steam_id":76561197994205997,"connected_time":265000000000,"state":"active","ping":60},{"user_id":271,"name":"Magica","steam_id":76561198965200359,"connected_time":378000000000,"state":"active","ping":60},{"user_id":260,"name":"Big Trader","steam_id":76561197992364667,"connected_time":1383000000000,"state":"active","ping":78},{"user_id":259,"name":"FISH","steam_id":76561199310123231,"connected_time":1481000000000,"state":"active","ping":67},{"user_id":215,"name":"Kvicha Kvaratskhelia","steam_id":76561198179339326,"connected_time":3555000000000,"state":"active","ping":75}]},{"server_id":310,"name":"Uncletopia | Frankfurt | 5 | All Maps","name_short":"frk-5","host":"frk-1.de.uncletopia.com","port":27055,"enabled":true,"region":"eu","cc":"de","latitude":50.110924,"longitude":8.682127,"reserved":0,"last_update":"0001-01-01T00:00:00Z","name_a2s":"Uncletopia | Frankfurt | 5 | All Maps","protocol":17,"map":"cp_coldfront","folder":"tf","game":"Team Fortress","app_id":440,"player_count":0,"max_players":24,"Bots":0,"server_type":"Dedicated","server_os":"Linux","password":true,"vac":true,"version":"7757534","steam_id":85568392924504277,"keywords":["cp","nocrits","nodmgspread","uncletopia"],"game_id":440,"stv_port":27056,"stv_name":"Uncletopia | Frankfurt | 5 | All Maps | STV","players":null},{"server_id":311,"name":"Uncletopia | Frankfurt | 6 | All Maps","name_short":"frk-6","host":"frk-1.de.uncletopia.com","port":27065,"enabled":true,"region":"eu","cc":"de","latitude":50.110924,"longitude":8.682127,"reserved":0,"last_update":"0001-01-01T00:00:00Z","name_a2s":"Uncletopia | Frankfurt | 6 | All Maps","protocol":17,"map":"cp_egypt_final","folder":"tf","game":"Team Fortress","app_id":440,"player_count":23,"max_players":24,"Bots":0,"server_type":"Dedicated","server_os":"Linux","password":true,"vac":true,"version":"7757534","steam_id":85568392924504278,"keywords":["cp","nocrits","nodmgspread","uncletopia"],"game_id":440,"stv_port":27066,"stv_name":"Uncletopia | Frankfurt | 6 | All Maps | STV","players":[{"user_id":75,"name":"Lemon","steam_id":76561198188535947,"connected_time":494000000000,"state":"active","ping":77},{"user_id":35,"name":"‚òÅ Lou1smeister ‚òÅ","steam_id":76561198004032968,"connected_time":2651000000000,"state":"active","ping":75},{"user_id":60,"name":"LadyMissfit","steam_id":76561198042236349,"connected_time":2000000000000,"state":"active","ping":86},{"user_id":55,"name":"glow","steam_id":76561198086654069,"connected_time":2203000000000,"state":"active","ping":75},{"user_id":66,"name":"BRICK TOP","steam_id":76561198014366715,"connected_time":1598000000000,"state":"active","ping":61},{"user_id":72,"name":"Kotlet schabowy","steam_id":76561198048983509,"connected_time":1105000000000,"state":"active","ping":81},{"user_id":16,"name":"Lordware","steam_id":76561198022011299,"connected_time":3531000000000,"state":"active","ping":118},{"user_id":77,"name":"Pyrolander","steam_id":76561198050785450,"connected_time":280000000000,"state":"active","ping":58},{"user_id":78,"name":"Lantrax","steam_id":76561198281941835,"connected_time":103000000000,"state":"active","ping":82},{"user_id":21,"name":"Gwishin","steam_id":76561198257158275,"connected_time":3328000000000,"state":"active","ping":146},{"user_id":70,"name":"Szymus","steam_id":76561198033406957,"connected_time":1469000000000,"state":"active","ping":72},{"user_id":76,"name":"Dolcelatte","steam_id":76561198038501770,"connected_time":407000000000,"state":"active","ping":59},{"user_id":56,"name":"New","steam_id":76561198402195911,"connected_time":2160000000000,"state":"active","ping":114},{"user_id":73,"name":"unhinged","steam_id":76561198051691338,"connected_time":1097000000000,"state":"active","ping":76},{"user_id":71,"name":"AleXandriX","steam_id":76561198035203950,"connected_time":1440000000000,"state":"active","ping":60},{"user_id":27,"name":"SIR MEPHEDRONE","steam_id":76561198302623594,"connected_time":3037000000000,"state":"active","ping":93},{"user_id":37,"name":"Ohad","steam_id":76561198067989324,"connected_time":2567000000000,"state":"active","ping":110},{"user_id":31,"name":"Life Symbiont","steam_id":76561198095952777,"connected_time":2882000000000,"state":"active","ping":66},{"user_id":45,"name":"¬ªMr. dnb¬´","steam_id":76561198045589570,"connected_time":2444000000000,"state":"active","ping":85},{"user_id":69,"name":"Abhorrent","steam_id":76561198056338288,"connected_time":1548000000000,"state":"active","ping":60},{"user_id":54,"name":"zazuza","steam_id":76561198049820905,"connected_time":2285000000000,"state":"active","ping":62},{"user_id":43,"name":"tqla","steam_id":76561198073092585,"connected_time":2482000000000,"state":"active","ping":96},{"user_id":59,"name":"Faxter","steam_id":76561198011771605,"connected_time":2090000000000,"state":"active","ping":67}]},{"server_id":23,"name":"Uncletopia | Frankfurt | 7 | Stopwatch Beta","name_short":"frk-7","host":"frk-1.de.uncletopia.com","port":27075,"enabled":true,"region":"eu","cc":"de","latitude":50.110924,"longitude":8.682127,"reserved":0,"last_update":"0001-01-01T00:00:00Z","name_a2s":"Uncletopia | Frankfurt | 7 | Stopwatch Beta","protocol":17,"map":"pl_frontier_final","folder":"tf","game":"Team Fortress","app_id":440,"player_count":0,"max_players":24,"Bots":0,"server_type":"Dedicated","server_os":"Linux","password":true,"vac":true,"version":"7757534","steam_id":85568392924742827,"keywords":["nocrits","nodmgspread","payload","uncletopia"],"game_id":440,"stv_port":27076,"stv_name":"Uncletopia | Frankfurt | 7 | Stopwatch Beta | STV","players":null},{"server_id":24,"name":"Uncletopia | Frankfurt | 8 | Community","name_short":"frk-8","host":"frk-1.de.uncletopia.com","port":27085,"enabled":true,"region":"eu","cc":"de","latitude":50.110924,"longitude":8.682127,"reserved":0,"last_update":"0001-01-01T00:00:00Z","name_a2s":"Uncletopia | Frankfurt | 8 | Community","protocol":17,"map":"workshop/cp_overgrown_rc7b.ugc503939302","folder":"tf","game":"Team Fortress","app_id":440,"player_count":0,"max_players":24,"Bots":0,"server_type":"Dedicated","server_os":"Linux","password":true,"vac":true,"version":"7757534","steam_id":85568392924742828,"keywords":["cp","nocrits","nodmgspread","uncletopia"],"game_id":440,"stv_port":27086,"stv_name":"Uncletopia | Frankfurt | 8 | Community | STV","players":null},{"server_id":202,"name":"Uncletopia | Hong Kong | 1 | All Maps","name_short":"hgk-1","host":"hgk-1.hk.uncletopia.com","port":27015,"enabled":true,"region":"asia","cc":"hk","latitude":22.302711,"longitude":114.177216,"reserved":0,"last_update":"0001-01-01T00:00:00Z","name_a2s":"Uncletopia | Hong Kong | 1 | All Maps","protocol":17,"map":"pl_barnblitz","folder":"tf","game":"Team Fortress","app_id":440,"player_count":0,"max_players":24,"Bots":0,"server_type":"Dedicated","server_os":"Linux","password":true,"vac":true,"version":"7757534","steam_id":85568392924494504,"keywords":["nocrits","nodmgspread","payload","uncletopia"],"game_id":440,"stv_port":27016,"stv_name":"Uncletopia | Hong Kong | 1 | All Maps | STV","players":null},{"server_id":1,"name":"Uncletopia | Los Angeles | 1 | All Maps","name_short":"lax-1","host":"lax-1.us.uncletopia.com","port":27015,"enabled":true,"region":"us-west","cc":"us","latitude":33.94279,"longitude":-118.41004,"reserved":0,"last_update":"0001-01-01T00:00:00Z","name_a2s":"Uncletopia | Los Angeles | 1 | All Maps","protocol":17,"map":"pl_borneo","folder":"tf","game":"Team Fortress","app_id":440,"player_count":0,"max_players":24,"Bots":0,"server_type":"Dedicated","server_os":"Linux","password":true,"vac":true,"version":"7757534","steam_id":85568392924469991,"keywords":["nocrits","nodmgspread","payload","uncletopia"],"game_id":440,"stv_port":27016,"stv_name":"Uncletopia | Los Angeles | 1 | All Maps | STV","players":null},{"server_id":112,"name":"Uncletopia | Los Angeles | 2 | All Maps","name_short":"lax-2","host":"lax-1.us.uncletopia.com","port":27025,"enabled":true,"region":"us-west","cc":"us","latitude":33.94279,"longitude":-118.41004,"reserved":0,"last_update":"0001-01-01T00:00:00Z","name_a2s":"Uncletopia | Los Angeles | 2 | All Maps","protocol":17,"map":"koth_cascade","folder":"tf","game":"Team Fortress","app_id":440,"player_count":0,"max_players":24,"Bots":0,"server_type":"Dedicated","server_os":"Linux","password":true,"vac":true,"version":"7757534","steam_id":85568392924469992,"keywords":["cp","nocrits","nodmgspread","uncletopia"],"game_id":440,"stv_port":27026,"stv_name":"Uncletopia | Los Angeles | 2 | All Maps | STV","players":null},{"server_id":324,"name":"Uncletopia | Los Angeles | 3 | All Maps","name_short":"lax-3","host":"lax-1.us.uncletopia.com","port":27035,"enabled":true,"region":"us-west","cc":"us","latitude":33.94279,"longitude":-118.41004,"reserved":0,"last_update":"0001-01-01T00:00:00Z","name_a2s":"Uncletopia | Los Angeles | 3 | All Maps","protocol":17,"map":"cp_process_final","folder":"tf","game":"Team Fortress","app_id":440,"player_count":0,"max_players":24,"Bots":0,"server_type":"Dedicated","server_os":"Linux","password":true,"vac":true,"version":"7757534","steam_id":85568392924510198,"keywords":["cp","nocrits","nodmgspread","uncletopia"],"game_id":440,"stv_port":27036,"stv_name":"Uncletopia | Los Angeles | 3 | All Maps | STV","players":null},{"server_id":25,"name":"Uncletopia | Los Angeles | 4 | Stopwatch Beta","name_short":"lax-4","host":"lax-1.us.uncletopia.com","port":27045,"enabled":true,"region":"us-west","cc":"us","latitude":33.94279,"longitude":-118.41004,"reserved":0,"last_update":"0001-01-01T00:00:00Z","name_a2s":"Uncletopia | Los Angeles | 4 | Stopwatch Beta","protocol":17,"map":"pl_frontier_final","folder":"tf","game":"Team Fortress","app_id":440,"player_count":0,"max_players":24,"Bots":0,"server_type":"Dedicated","server_os":"Linux","password":true,"vac":true,"version":"7757534","steam_id":85568392924510199,"keywords":["nocrits","nodmgspread","payload","uncletopia"],"game_id":440,"stv_port":27046,"stv_name":"Uncletopia | Los Angeles | 4 | Stopwatch Beta | STV","players":null},{"server_id":11,"name":"Uncletopia | London | 1 | All Maps","name_short":"lon-1","host":"lon-1.uk.uncletopia.com","port":27015,"enabled":true,"region":"eu","cc":"gb","latitude":51.509865,"longitude":-0.118092,"reserved":0,"last_update":"0001-01-01T00:00:00Z","name_a2s":"Uncletopia | London | 1 | All Maps","protocol":17,"map":"pl_snowycoast","folder":"tf","game":"Team Fortress","app_id":440,"player_count":23,"max_players":24,"Bots":0,"server_type":"Dedicated","server_os":"Linux","password":true,"vac":true,"version":"7757534","steam_id":85568392924367362,"keywords":["nocrits","nodmgspread","payload","uncletopia"],"game_id":440,"stv_port":27016,"stv_name":"Uncletopia | London | 1 | All Maps | STV","players":[{"user_id":174,"name":"harizzment","steam_id":76561198890409949,"connected_time":2765000000000,"state":"active","ping":96},{"user_id":207,"name":"\u003eSix in swedish + y","steam_id":76561198372971096,"connected_time":526000000000,"state":"active","ping":77},{"user_id":166,"name":"Nexosert","steam_id":76561198941142018,"connected_time":3665000000000,"state":"active","ping":69},{"user_id":206,"name":"Lessoz","steam_id":76561199211572036,"connected_time":551000000000,"state":"active","ping":78},{"user_id":220,"name":"Kitfist","steam_id":76561198048559338,"connected_time":109000000000,"state":"active","ping":45},{"user_id":202,"name":"Bloody","steam_id":76561198005754592,"connected_time":975000000000,"state":"active","ping":69},{"user_id":184,"name":"Femboy Destroyer","steam_id":76561198848650365,"connected_time":1912000000000,"state":"active","ping":128},{"user_id":204,"name":"Zombi3","steam_id":76561198326290621,"connected_time":555000000000,"state":"active","ping":62},{"user_id":154,"name":"wicc","steam_id":76561198893915644,"connected_time":4064000000000,"state":"active","ping":71},{"user_id":214,"name":"Space","steam_id":76561198021572167,"connected_time":428000000000,"state":"active","ping":46},{"user_id":215,"name":"near dt, mi","steam_id":76561198163244605,"connected_time":405000000000,"state":"active","ping":69},{"user_id":171,"name":"AfricanCommie","steam_id":76561198798803845,"connected_time":3063000000000,"state":"active","ping":47},{"user_id":180,"name":"goodguydragg","steam_id":76561198305104891,"connected_time":2601000000000,"state":"active","ping":74},{"user_id":157,"name":"REDZED","steam_id":76561198419203843,"connected_time":3883000000000,"state":"active","ping":109},{"user_id":216,"name":"Gimli","steam_id":76561198004149706,"connected_time":402000000000,"state":"active","ping":66},{"user_id":203,"name":"FANTANO MELON HEAD","steam_id":76561198146194820,"connected_time":862000000000,"state":"active","ping":56},{"user_id":124,"name":"Bat in a thousand","steam_id":76561198320506848,"connected_time":6220000000000,"state":"active","ping":42},{"user_id":116,"name":"Femboy Lilli","steam_id":76561198090146457,"connected_time":6441000000000,"state":"active","ping":45},{"user_id":129,"name":"Pintarolas","steam_id":76561198124839451,"connected_time":6072000000000,"state":"active","ping":102},{"user_id":219,"name":"Wuffington","steam_id":76561198033762881,"connected_time":224000000000,"state":"active","ping":46},{"user_id":179,"name":"·òõ‚ÅêÃ§·ïê·ê∑ Orange Catface","steam_id":76561198963378933,"connected_time":2651000000000,"state":"active","ping":44},{"user_id":211,"name":"Birdseye","steam_id":76561198025852216,"connected_time":508000000000,"state":"active","ping":53},{"user_id":212,"name":"chris p. bacon","steam_id":76561198023211417,"connected_time":498000000000,"state":"active","ping":46}]},{"server_id":114,"name":"Uncletopia | London | 2 | All Maps","name_short":"lon-2","host":"lon-1.uk.uncletopia.com","port":27025,"enabled":true,"region":"eu","cc":"gb","latitude":51.509865,"longitude":-0.118092,"reserved":0,"last_update":"0001-01-01T00:00:00Z","name_a2s":"Uncletopia | London | 2 | All Maps","protocol":17,"map":"pl_borneo","folder":"tf","game":"Team Fortress","app_id":440,"player_count":0,"max_players":24,"Bots":0,"server_type":"Dedicated","server_os":"Linux","password":true,"vac":true,"version":"7757534","steam_id":85568392924470941,"keywords":["nocrits","nodmgspread","payload","uncletopia"],"game_id":440,"stv_port":27026,"stv_name":"Uncletopia | London | 2 | All Maps | STV","players":null},{"server_id":320,"name":"Uncletopia | London | 3 | All Maps","name_short":"lon-3","host":"lon-1.uk.uncletopia.com","port":27035,"enabled":true,"region":"eu","cc":"gb","latitude":51.509865,"longitude":-0.118092,"reserved":0,"last_update":"0001-01-01T00:00:00Z","name_a2s":"Uncletopia | London | 3 | All Maps","protocol":17,"map":"pl_borneo","folder":"tf","game":"Team Fortress","app_id":440,"player_count":24,"max_players":24,"Bots":0,"server_type":"Dedicated","server_os":"Linux","password":true,"vac":true,"version":"7757534","steam_id":85568392924510192,"keywords":["nocrits","nodmgspread","payload","uncletopia"],"game_id":440,"stv_port":27036,"stv_name":"Uncletopia | London | 3 | All Maps | STV","players":[{"user_id":610,"name":"Shadowmix","steam_id":76561197981176383,"connected_time":1646000000000,"state":"active","ping":63},{"user_id":646,"name":"1 Garlic Bread Hater","steam_id":76561198101451654,"connected_time":94000000000,"state":"active","ping":44},{"user_id":618,"name":"Keelan","steam_id":76561198013665543,"connected_time":1277000000000,"state":"active","ping":66},{"user_id":619,"name":"Kapitan Polska","steam_id":76561197968069413,"connected_time":1209000000000,"state":"active","ping":77},{"user_id":630,"name":"Eldritch abomination","steam_id":76561198244108784,"connected_time":870000000000,"state":"active","ping":83},{"user_id":563,"name":"cold hearted","steam_id":76561199042470246,"connected_time":3344000000000,"state":"active","ping":54},{"user_id":614,"name":"Gumit","steam_id":76561198208126512,"connected_time":1338000000000,"state":"active","ping":123},{"user_id":604,"name":"Rowan Atkinson","steam_id":76561199378865926,"connected_time":1873000000000,"state":"active","ping":78},{"user_id":612,"name":"Ballfondler","steam_id":76561199165355017,"connected_time":1409000000000,"state":"active","ping":161},{"user_id":642,"name":"pablo","steam_id":76561198089285014,"connected_time":216000000000,"state":"active","ping":86},{"user_id":617,"name":"Dyfed","steam_id":76561198055389492,"connected_time":1299000000000,"state":"active","ping":41},{"user_id":620,"name":"Pastoss","steam_id":76561198379098260,"connected_time":1193000000000,"state":"active","ping":61},{"user_id":526,"name":"Lucoa Enjoyer","steam_id":76561198842622419,"connected_time":4478000000000,"state":"active","ping":100},{"user_id":632,"name":"Swift","steam_id":76561197998799889,"connected_time":855000000000,"state":"active","ping":44},{"user_id":643,"name":"Milo≈°","steam_id":76561198129684105,"connected_time":203000000000,"state":"active","ping":72},{"user_id":644,"name":"Pingu","steam_id":76561198207966532,"connected_time":146000000000,"state":"active","ping":71},{"user_id":622,"name":"It's a me Malario","steam_id":76561198176546013,"connected_time":1162000000000,"state":"active","ping":48},{"user_id":640,"name":"yush","steam_id":76561198121688934,"connected_time":518000000000,"state":"active","ping":71},{"user_id":645,"name":"Zoinks!","steam_id":76561198357430407,"connected_time":145000000000,"state":"active","ping":51},{"user_id":625,"name":"Dwevy","steam_id":76561198090379437,"connected_time":1100000000000,"state":"active","ping":54},{"user_id":530,"name":"ThatGamingKiwi","steam_id":76561199170522237,"connected_time":4437000000000,"state":"active","ping":145},{"user_id":626,"name":"big hoops","steam_id":76561198004703799,"connected_time":1094000000000,"state":"active","ping":48},{"user_id":627,"name":"true","steam_id":76561198031145243,"connected_time":1082000000000,"state":"active","ping":75},{"user_id":635,"name":"Cotton Eye Joe","steam_id":76561198080594207,"connected_time":808000000000,"state":"active","ping":56}]},{"server_id":321,"name":"Uncletopia | London | 4 | All Maps","name_short":"lon-4","host":"lon-1.uk.uncletopia.com","port":27045,"enabled":true,"region":"eu","cc":"gb","latitude":51.509865,"longitude":-0.118092,"reserved":0,"last_update":"0001-01-01T00:00:00Z","name_a2s":"Uncletopia | London | 4 | All Maps","protocol":17,"map":"pl_borneo","folder":"tf","game":"Team Fortress","app_id":440,"player_count":20,"max_players":24,"Bots":0,"server_type":"Dedicated","server_os":"Linux","password":true,"vac":true,"version":"7757534","steam_id":85568392924510193,"keywords":["nocrits","nodmgspread","payload","uncletopia"],"game_id":440,"stv_port":27046,"stv_name":"Uncletopia | London | 4 | All Maps | STV","players":[{"user_id":282,"name":"Skepingawich","steam_id":76561198038736553,"connected_time":309000000000,"state":"active","ping":61},{"user_id":271,"name":"dominus.","steam_id":76561199065917088,"connected_time":797000000000,"state":"active","ping":54},{"user_id":283,"name":"majora's boostio","steam_id":76561198392628642,"connected_time":150000000000,"state":"active","ping":45},{"user_id":284,"name":"Aeglos","steam_id":76561198248698294,"connected_time":132000000000,"state":"active","ping":53},{"user_id":222,"name":"Only Jerry","steam_id":76561198075722968,"connected_time":2828000000000,"state":"active","ping":55},{"user_id":223,"name":"Gregtheworm","steam_id":76561198027836151,"connected_time":2826000000000,"state":"active","ping":61},{"user_id":274,"name":"Mowelic","steam_id":76561198873641222,"connected_time":704000000000,"state":"active","ping":80},{"user_id":245,"name":"MEDiUM","steam_id":76561198112328561,"connected_time":1835000000000,"state":"active","ping":83},{"user_id":287,"name":"dotdotdot","steam_id":76561198057628751,"connected_time":50000000000,"state":"active","ping":60},{"user_id":225,"name":"Concerned Mothers In Your Area","steam_id":76561198132926700,"connected_time":2790000000000,"state":"active","ping":61},{"user_id":226,"name":"Duke Fishlord","steam_id":76561198079928327,"connected_time":2742000000000,"state":"active","ping":69},{"user_id":203,"name":"ALARM","steam_id":76561198120686521,"connected_time":4142000000000,"state":"active","ping":64},{"user_id":280,"name":"GIOorno ReQuIeM","steam_id":76561199004002347,"connected_time":402000000000,"state":"active","ping":92},{"user_id":279,"name":"dreamurr36","steam_id":76561199382596019,"connected_time":490000000000,"state":"active","ping":101},{"user_id":254,"name":"Rask","steam_id":76561198052934944,"connected_time":1568000000000,"state":"active","ping":91},{"user_id":233,"name":"Harpenden, Harpenden, Harpenden","steam_id":76561198118138546,"connected_time":2364000000000,"state":"active","ping":38},{"user_id":269,"name":"Carrot","steam_id":76561198119340863,"connected_time":1074000000000,"state":"active","ping":36},{"user_id":289,"name":"perch","steam_id":76561198214849363,"connected_time":21000000000,"state":"active","ping":94},{"user_id":263,"name":"washed up","steam_id":76561198275742101,"connected_time":1229000000000,"state":"active","ping":60},{"user_id":268,"name":"Ryfili","steam_id":76561198167001433,"connected_time":1104000000000,"state":"active","ping":98}]},{"server_id":21,"name":"Uncletopia | London | 5 | All Maps","name_short":"lon-5","host":"lon-1.uk.uncletopia.com","port":27055,"enabled":true,"region":"eu","cc":"gb","latitude":51.509865,"longitude":-0.118092,"reserved":0,"last_update":"0001-01-01T00:00:00Z","name_a2s":"Uncletopia | London | 5 | All Maps","protocol":17,"map":"koth_viaduct","folder":"tf","game":"Team Fortress","app_id":440,"player_count":4,"max_players":24,"Bots":0,"server_type":"Dedicated","server_os":"Linux","password":true,"vac":true,"version":"7757534","steam_id":85568392924742829,"keywords":["cp","nocrits","nodmgspread","uncletopia"],"game_id":440,"stv_port":27056,"stv_name":"Uncletopia | London | 5 | All Maps | STV","players":[{"user_id":10,"name":"ran is running","steam_id":76561199443185667,"connected_time":401000000000,"state":"active","ping":124},{"user_id":11,"name":"Caruzon - Obismal","steam_id":76561198036211170,"connected_time":195000000000,"state":"active","ping":75},{"user_id":12,"name":"justin_ (f2p) (real)","steam_id":76561198839843428,"connected_time":137000000000,"state":"active","ping":113},{"user_id":13,"name":"Verculum","steam_id":76561198894912634,"connected_time":96000000000,"state":"active","ping":156}]},{"server_id":22,"name":"Uncletopia | London | 6 | All Maps","name_short":"lon-6","host":"lon-1.uk.uncletopia.com","port":27065,"enabled":true,"region":"eu","cc":"gb","latitude":51.509865,"longitude":-0.118092,"reserved":0,"last_update":"0001-01-01T00:00:00Z","name_a2s":"Uncletopia | London | 6 | All Maps","protocol":17,"map":"pl_swiftwater_final1","folder":"tf","game":"Team Fortress","app_id":440,"player_count":15,"max_players":24,"Bots":0,"server_type":"Dedicated","server_os":"Linux","password":true,"vac":true,"version":"7757534","steam_id":85568392924742830,"keywords":["nocrits","nodmgspread","payload","uncletopia"],"game_id":440,"stv_port":27066,"stv_name":"Uncletopia | London | 6 | All Maps | STV","players":[{"user_id":127,"name":"LOBZIK","steam_id":76561198114830120,"connected_time":3223000000000,"state":"active","ping":79},{"user_id":185,"name":"Nickbro101","steam_id":76561198044271692,"connected_time":930000000000,"state":"active","ping":49},{"user_id":187,"name":"HiiamAngel","steam_id":76561198240499888,"connected_time":125000000000,"state":"active","ping":85},{"user_id":188,"name":"totally not buying quickfixes","steam_id":76561198410955546,"connected_time":68000000000,"state":"active","ping":76},{"user_id":170,"name":"Wattseyy","steam_id":76561198248567360,"connected_time":1496000000000,"state":"active","ping":36},{"user_id":189,"name":"Jeans Plus","steam_id":76561198052125103,"connected_time":59000000000,"state":"active","ping":54},{"user_id":184,"name":"vietnamese rice bowl","steam_id":76561198023169638,"connected_time":1061000000000,"state":"active","ping":90},{"user_id":139,"name":"Nick","steam_id":76561198036109469,"connected_time":2506000000000,"state":"active","ping":95},{"user_id":119,"name":"Brynjolf","steam_id":76561198531978435,"connected_time":3688000000000,"state":"active","ping":72},{"user_id":190,"name":"\u003c blank \u003e","steam_id":76561199149307190,"connected_time":58000000000,"state":"active","ping":78},{"user_id":191,"name":"–î–µ–Ω–∏—Å –ë–∞–∑—É–∫–∞","steam_id":76561198835849082,"connected_time":46000000000,"state":"active","ping":89},{"user_id":182,"name":"Arturias","steam_id":76561198188720263,"connected_time":1083000000000,"state":"active","ping":48},{"user_id":121,"name":"twitch.tv/vision515","steam_id":76561198065293729,"connected_time":3645000000000,"state":"active","ping":150},{"user_id":183,"name":"Sylrax","steam_id":76561197981110750,"connected_time":1082000000000,"state":"active","ping":84},{"user_id":164,"name":"gibb (official)","steam_id":76561198074097655,"connected_time":1740000000000,"state":"active","ping":42}]},{"server_id":40,"name":"Uncletopia | London | 7 | No Payload","name_short":"lon-7","host":"lon-1.uk.uncletopia.com","port":27075,"enabled":true,"region":"eu","cc":"gb","latitude":51.509865,"longitude":-0.118092,"reserved":0,"last_update":"0001-01-01T00:00:00Z","name_a2s":"Uncletopia | London | 7 | No Payload","protocol":17,"map":"koth_king","folder":"tf","game":"Team Fortress","app_id":440,"player_count":0,"max_players":24,"Bots":0,"server_type":"Dedicated","server_os":"Linux","password":true,"vac":true,"version":"7757534","steam_id":85568392924964314,"keywords":["cp","nocrits","nodmgspread","uncletopia"],"game_id":440,"stv_port":27076,"stv_name":"Uncletopia | London | 7 | No Payload | STV","players":null},{"server_id":41,"name":"Uncletopia | London | 8 | Community","name_short":"lon-8","host":"lon-1.uk.uncletopia.com","port":27085,"enabled":true,"region":"eu","cc":"gb","latitude":51.509865,"longitude":-0.118092,"reserved":0,"last_update":"0001-01-01T00:00:00Z","name_a2s":"Uncletopia | London | 8 | Community","protocol":17,"map":"workshop/koth_kemptown_rc1.ugc767410655","folder":"tf","game":"Team Fortress","app_id":440,"player_count":0,"max_players":24,"Bots":0,"server_type":"Dedicated","server_os":"Linux","password":true,"vac":true,"version":"7757534","steam_id":85568392924964315,"keywords":["cp","nocrits","nodmgspread","uncletopia"],"game_id":440,"stv_port":27086,"stv_name":"Uncletopia | London | 8 | Community | STV","players":null},{"server_id":300,"name":"Uncletopia | Montr√©al | 1 | All Maps","name_short":"mtl-1","host":"mtl-1.ca.uncletopia.com","port":27015,"enabled":true,"region":"us-east","cc":"ca","latitude":45.50889,"longitude":-73.56167,"reserved":0,"last_update":"0001-01-01T00:00:00Z","name_a2s":"Uncletopia | Montr√©al | 1 | All Maps","protocol":17,"map":"pl_snowycoast","folder":"tf","game":"Team Fortress","app_id":440,"player_count":0,"max_players":24,"Bots":0,"server_type":"Dedicated","server_os":"Linux","password":true,"vac":true,"version":"7757534","steam_id":85568392924500087,"keywords":["nocrits","nodmgspread","payload","uncletopia"],"game_id":440,"stv_port":27016,"stv_name":"Uncletopia | Montr√©al | 1 | All Maps | STV","players":null},{"server_id":301,"name":"Uncletopia | Montr√©al | 2 | All Maps","name_short":"mtl-2","host":"mtl-1.ca.uncletopia.com","port":27025,"enabled":true,"region":"us-east","cc":"ca","latitude":45.50889,"longitude":-73.56167,"reserved":0,"last_update":"0001-01-01T00:00:00Z","name_a2s":"Uncletopia | Montr√©al | 2 | All Maps","protocol":17,"map":"pl_snowycoast","folder":"tf","game":"Team Fortress","app_id":440,"player_count":0,"max_players":24,"Bots":0,"server_type":"Dedicated","server_os":"Linux","password":true,"vac":true,"version":"7757534","steam_id":85568392924500088,"keywords":["nocrits","nodmgspread","payload","uncletopia"],"game_id":440,"stv_port":27026,"stv_name":"Uncletopia | Montr√©al | 2 | All Maps | STV","players":null},{"server_id":302,"name":"Uncletopia | Montr√©al | 3 | All Maps","name_short":"mtl-3","host":"mtl-1.ca.uncletopia.com","port":27035,"enabled":true,"region":"us-east","cc":"ca","latitude":45.50889,"longitude":-73.56167,"reserved":0,"last_update":"0001-01-01T00:00:00Z","name_a2s":"Uncletopia | Montr√©al | 3 | All Maps","protocol":17,"map":"cp_dustbowl","folder":"tf","game":"Team Fortress","app_id":440,"player_count":0,"max_players":24,"Bots":0,"server_type":"Dedicated","server_os":"Linux","password":true,"vac":true,"version":"7757534","steam_id":85568392924500089,"keywords":["cp","nocrits","nodmgspread","uncletopia"],"game_id":440,"stv_port":27036,"stv_name":"Uncletopia | Montr√©al | 3 | All Maps | STV","players":null},{"server_id":303,"name":"Uncletopia | Montr√©al | 4 | No Payload","name_short":"mtl-4","host":"mtl-1.ca.uncletopia.com","port":27045,"enabled":true,"region":"us-east","cc":"ca","latitude":45.50889,"longitude":-73.56167,"reserved":0,"last_update":"0001-01-01T00:00:00Z","name_a2s":"Uncletopia | Montr√©al | 4 | No Payload","protocol":17,"map":"pl_borneo","folder":"tf","game":"Team Fortress","app_id":440,"player_count":0,"max_players":24,"Bots":0,"server_type":"Dedicated","server_os":"Linux","password":true,"vac":true,"version":"7757534","steam_id":85568392924500090,"keywords":["nocrits","nodmgspread","payload","uncletopia"],"game_id":440,"stv_port":27046,"stv_name":"Uncletopia | Montr√©al | 4 | No Payload | STV","players":null},{"server_id":13,"name":"Uncletopia | New York City | 1 | All Maps","name_short":"nyc-1","host":"nyc-1.us.uncletopia.com","port":27015,"enabled":true,"region":"us-east","cc":"us","latitude":40.73061,"longitude":-73.93524,"reserved":0,"last_update":"0001-01-01T00:00:00Z","name_a2s":"Uncletopia | New York City | 1 | All Maps","protocol":17,"map":"koth_highpass","folder":"tf","game":"Team Fortress","app_id":440,"player_count":0,"max_players":24,"Bots":0,"server_type":"Dedicated","server_os":"Linux","password":true,"vac":true,"version":"7757534","steam_id":85568392924469993,"keywords":["cp","nocrits","nodmgspread","uncletopia"],"game_id":440,"stv_port":27016,"stv_name":"Uncletopia | New York City | 1 | All Maps | STV","players":null},{"server_id":14,"name":"Uncletopia | New York City | 2 | All Maps","name_short":"nyc-2","host":"nyc-1.us.uncletopia.com","port":27025,"enabled":true,"region":"us-east","cc":"us","latitude":40.73061,"longitude":-73.93524,"reserved":0,"last_update":"0001-01-01T00:00:00Z","name_a2s":"Uncletopia | New York City | 2 | All Maps","protocol":17,"map":"pl_barnblitz","folder":"tf","game":"Team Fortress","app_id":440,"player_count":24,"max_players":24,"Bots":0,"server_type":"Dedicated","server_os":"Linux","password":true,"vac":true,"version":"7757534","steam_id":85568392924469994,"keywords":["nocrits","nodmgspread","payload","uncletopia"],"game_id":440,"stv_port":27026,"stv_name":"Uncletopia | New York City | 2 | All Maps | STV","players":[{"user_id":80,"name":"stardust","steam_id":76561198413930183,"connected_time":873000000000,"state":"active","ping":39},{"user_id":87,"name":"puppyonline_","steam_id":76561198253574099,"connected_time":643000000000,"state":"active","ping":72},{"user_id":79,"name":"breesey","steam_id":76561198341658826,"connected_time":935000000000,"state":"active","ping":43},{"user_id":78,"name":"TrustyGun","steam_id":76561198022854020,"connected_time":990000000000,"state":"active","ping":44},{"user_id":96,"name":"Cobalt-60","steam_id":76561199121908507,"connected_time":73000000000,"state":"active","ping":55},{"user_id":92,"name":"Frajer","steam_id":76561198059129680,"connected_time":418000000000,"state":"active","ping":69},{"user_id":18,"name":"puffy","steam_id":76561198411347037,"connected_time":5299000000000,"state":"active","ping":57},{"user_id":33,"name":"The Lelda of Zelda","steam_id":76561199120483390,"connected_time":4801000000000,"state":"active","ping":102},{"user_id":71,"name":"PeopleOrderOurPatties","steam_id":76561198323144922,"connected_time":2188000000000,"state":"active","ping":73},{"user_id":76,"name":"barbara","steam_id":76561198072417792,"connected_time":1052000000000,"state":"active","ping":144},{"user_id":69,"name":"CUM MAN","steam_id":76561198046852298,"connected_time":2420000000000,"state":"active","ping":57},{"user_id":70,"name":"Candy Sparkles","steam_id":76561198126871264,"connected_time":2403000000000,"state":"active","ping":77},{"user_id":82,"name":"frank","steam_id":76561198045436159,"connected_time":700000000000,"state":"active","ping":68},{"user_id":57,"name":"tony fantano 2","steam_id":76561197997139225,"connected_time":3024000000000,"state":"active","ping":48},{"user_id":95,"name":"Viokik","steam_id":76561198408846602,"connected_time":130000000000,"state":"active","ping":61},{"user_id":84,"name":"Penrose42","steam_id":76561198288577396,"connected_time":655000000000,"state":"active","ping":67},{"user_id":94,"name":"hot pockets in your area","steam_id":76561198052988988,"connected_time":154000000000,"state":"active","ping":58},{"user_id":85,"name":"magotago","steam_id":76561198013650292,"connected_time":655000000000,"state":"active","ping":103},{"user_id":54,"name":"Humble Leader","steam_id":76561198169966346,"connected_time":3181000000000,"state":"active","ping":72},{"user_id":86,"name":"The Land Admiral","steam_id":76561198159356609,"connected_time":655000000000,"state":"active","ping":56},{"user_id":88,"name":"CurlyPaty - [YouTube]","steam_id":76561198125025171,"connected_time":621000000000,"state":"active","ping":161},{"user_id":72,"name":"BetoelAff es","steam_id":76561198377842585,"connected_time":1511000000000,"state":"active","ping":147},{"user_id":44,"name":"Oddjob","steam_id":76561198976160793,"connected_time":4559000000000,"state":"active","ping":64},{"user_id":93,"name":"Drilly22","steam_id":76561198068838338,"connected_time":186000000000,"state":"active","ping":100}]},{"server_id":15,"name":"Uncletopia | New York City | 3 | Stopwatch Beta","name_short":"nyc-3","host":"nyc-1.us.uncletopia.com","port":27035,"enabled":true,"region":"us-east","cc":"us","latitude":40.73061,"longitude":-73.93524,"reserved":0,"last_update":"0001-01-01T00:00:00Z","name_a2s":"Uncletopia | New York City | 3 | Stopwatch Beta","protocol":17,"map":"cp_mountainlab","folder":"tf","game":"Team Fortress","app_id":440,"player_count":0,"max_players":24,"Bots":0,"server_type":"Dedicated","server_os":"Linux","password":true,"vac":true,"version":"7757534","steam_id":85568392924742820,"keywords":["cp","nocrits","nodmgspread","uncletopia"],"game_id":440,"stv_port":27036,"stv_name":"Uncletopia | New York City | 3 | Stopwatch Beta | STV","players":null},{"server_id":16,"name":"Uncletopia | New York City | 4 | Community","name_short":"nyc-4","host":"nyc-1.us.uncletopia.com","port":27045,"enabled":true,"region":"us-east","cc":"us","latitude":40.73061,"longitude":-73.93524,"reserved":0,"last_update":"0001-01-01T00:00:00Z","name_a2s":"Uncletopia | New York City | 4 | Community","protocol":17,"map":"workshop/cp_mannbase_rc2a.ugc1900737467","folder":"tf","game":"Team Fortress","app_id":440,"player_count":0,"max_players":24,"Bots":0,"server_type":"Dedicated","server_os":"Linux","password":true,"vac":true,"version":"7757534","steam_id":85568392924742821,"keywords":["cp","nocrits","nodmgspread","uncletopia"],"game_id":440,"stv_port":27046,"stv_name":"Uncletopia | New York City | 4 | Community | STV","players":null},{"server_id":142,"name":"Uncletopia | S√£o Paulo | 1 | All Maps","name_short":"sao-1","host":"sao-1.br.uncletopia.com","port":27015,"enabled":true,"region":"sa","cc":"br","latitude":-23.533773,"longitude":-46.62529,"reserved":0,"last_update":"0001-01-01T00:00:00Z","name_a2s":"Uncletopia | S√£o Paulo | 1 | All Maps","protocol":17,"map":"koth_cascade","folder":"tf","game":"Team Fortress","app_id":440,"player_count":0,"max_players":24,"Bots":0,"server_type":"Dedicated","server_os":"Linux","password":true,"vac":true,"version":"7757534","steam_id":85568392924469996,"keywords":["cp","nocrits","nodmgspread","uncletopia"],"game_id":440,"stv_port":27016,"stv_name":"Uncletopia | S√£o Paulo | 1 | All Maps | STV","players":null},{"server_id":143,"name":"Uncletopia | S√£o Paulo | 2 | All Maps","name_short":"sao-2","host":"sao-2.br.uncletopia.com","port":27015,"enabled":true,"region":"sa","cc":"br","latitude":-23.533773,"longitude":-46.62529,"reserved":0,"last_update":"0001-01-01T00:00:00Z","name_a2s":"Uncletopia | S√£o Paulo | 2 | All Maps","protocol":17,"map":"koth_viaduct","folder":"tf","game":"Team Fortress","app_id":440,"player_count":0,"max_players":24,"Bots":0,"server_type":"Dedicated","server_os":"Linux","password":true,"vac":true,"version":"7757534","steam_id":85568392924485349,"keywords":["cp","nocrits","nodmgspread","uncletopia"],"game_id":440,"stv_port":27016,"stv_name":"Uncletopia | S√£o Paulo | 2 | All Maps | STV","players":null},{"server_id":7,"name":"Uncletopia | Seattle | 1 | All Maps","name_short":"sea-1","host":"sea-1.us.uncletopia.com","port":27015,"enabled":true,"region":"us-west","cc":"us","latitude":47.608013,"longitude":-122.33517,"reserved":0,"last_update":"0001-01-01T00:00:00Z","name_a2s":"Uncletopia | Seattle | 1 | All Maps","protocol":17,"map":"cp_process_final","folder":"tf","game":"Team Fortress","app_id":440,"player_count":23,"max_players":24,"Bots":0,"server_type":"Dedicated","server_os":"Linux","password":true,"vac":true,"version":"7757534","steam_id":85568392924469997,"keywords":["cp","nocrits","nodmgspread","uncletopia"],"game_id":440,"stv_port":27016,"stv_name":"Uncletopia | Seattle | 1 | All Maps | STV","players":[{"user_id":113,"name":"N!Tr0","steam_id":76561198256024843,"connected_time":1692000000000,"state":"active","ping":78},{"user_id":88,"name":"shy guy","steam_id":76561198151246059,"connected_time":4601000000000,"state":"active","ping":61},{"user_id":117,"name":"Chin","steam_id":76561198247426906,"connected_time":1490000000000,"state":"active","ping":138},{"user_id":120,"name":"Batso","steam_id":76561198106589452,"connected_time":1207000000000,"state":"active","ping":82},{"user_id":118,"name":"MonteJT","steam_id":76561198055409360,"connected_time":1487000000000,"state":"active","ping":43},{"user_id":147,"name":"Kit Carson","steam_id":76561198115691546,"connected_time":44000000000,"state":"active","ping":92},{"user_id":13,"name":"nnobi","steam_id":76561198878729277,"connected_time":8737000000000,"state":"active","ping":133},{"user_id":111,"name":"TheMagicMrWaffle","steam_id":76561198104357256,"connected_time":1894000000000,"state":"active","ping":69},{"user_id":75,"name":"lol","steam_id":76561198026491738,"connected_time":5911000000000,"state":"active","ping":82},{"user_id":127,"name":"gordon freeman","steam_id":76561198210412701,"connected_time":889000000000,"state":"active","ping":146},{"user_id":58,"name":"isy","steam_id":76561198068017860,"connected_time":6814000000000,"state":"active","ping":78},{"user_id":126,"name":"my monitor is off","steam_id":76561198074499537,"connected_time":912000000000,"state":"active","ping":95},{"user_id":144,"name":"chikin.sauce","steam_id":76561198042464635,"connected_time":246000000000,"state":"active","ping":113},{"user_id":48,"name":"„Ä£dust„Ä£ -she/it-","steam_id":76561198045218909,"connected_time":7003000000000,"state":"active","ping":45},{"user_id":141,"name":"FlipFlops","steam_id":76561198271700906,"connected_time":302000000000,"state":"active","ping":99},{"user_id":145,"name":"Kontray","steam_id":76561198294948653,"connected_time":175000000000,"state":"active","ping":87},{"user_id":134,"name":"white obama","steam_id":76561199465040669,"connected_time":664000000000,"state":"active","ping":46},{"user_id":95,"name":"Tom","steam_id":76561198070630154,"connected_time":4281000000000,"state":"active","ping":78},{"user_id":143,"name":"cludkydoyfoydyo","steam_id":76561198313470079,"connected_time":258000000000,"state":"active","ping":50},{"user_id":108,"name":"SomeGuyWhoLikesPotatoes","steam_id":76561198110276797,"connected_time":2789000000000,"state":"active","ping":53},{"user_id":112,"name":"A Duck With Socks","steam_id":76561198018844227,"connected_time":1792000000000,"state":"active","ping":61},{"user_id":136,"name":"gendlin","steam_id":76561199217503417,"connected_time":640000000000,"state":"active","ping":61},{"user_id":140,"name":"What are you doing?!","steam_id":76561198405248691,"connected_time":373000000000,"state":"active","ping":85}]},{"server_id":119,"name":"Uncletopia | Seattle | 2 | All Maps","name_short":"sea-2","host":"sea-1.us.uncletopia.com","port":27025,"enabled":true,"region":"us-west","cc":"us","latitude":47.608013,"longitude":-122.33517,"reserved":0,"last_update":"0001-01-01T00:00:00Z","name_a2s":"Uncletopia | Seattle | 2 | All Maps","protocol":17,"map":"cp_dustbowl","folder":"tf","game":"Team Fortress","app_id":440,"player_count":24,"max_players":24,"Bots":0,"server_type":"Dedicated","server_os":"Linux","password":true,"vac":true,"version":"7757534","steam_id":85568392924469998,"keywords":["cp","nocrits","nodmgspread","uncletopia"],"game_id":440,"stv_port":27026,"stv_name":"Uncletopia | Seattle | 2 | All Maps | STV","players":[{"user_id":162,"name":"Little Linguine","steam_id":76561198816986370,"connected_time":4964000000000,"state":"active","ping":57},{"user_id":224,"name":"ThanksterMcmeme","steam_id":76561198288893095,"connected_time":1486000000000,"state":"active","ping":142},{"user_id":204,"name":"hammond the blithering idiot","steam_id":76561199263384620,"connected_time":2910000000000,"state":"active","ping":132},{"user_id":200,"name":"Koolaid","steam_id":76561199200296010,"connected_time":3131000000000,"state":"active","ping":141},{"user_id":221,"name":"DoctorHa","steam_id":76561198044026008,"connected_time":1781000000000,"state":"active","ping":95},{"user_id":160,"name":"Lolxdloldx","steam_id":76561198136887125,"connected_time":4968000000000,"state":"active","ping":99},{"user_id":186,"name":"Scarlet Oni","steam_id":76561198059586304,"connected_time":3455000000000,"state":"active","ping":130},{"user_id":232,"name":"JadeJ888","steam_id":76561198077467045,"connected_time":474000000000,"state":"active","ping":64},{"user_id":197,"name":"420 Shrek It","steam_id":76561198399854981,"connected_time":3180000000000,"state":"active","ping":82},{"user_id":210,"name":"Goblin64","steam_id":76561198969156830,"connected_time":2450000000000,"state":"active","ping":85},{"user_id":220,"name":"Shrekenberg","steam_id":76561198272638780,"connected_time":1874000000000,"state":"active","ping":82},{"user_id":234,"name":"Mr8bittripper","steam_id":76561198133894229,"connected_time":378000000000,"state":"active","ping":57},{"user_id":150,"name":"Banzai Blitz","steam_id":76561198196503877,"connected_time":5767000000000,"state":"active","ping":49},{"user_id":175,"name":"PinguEnjoyer6","steam_id":76561199186723516,"connected_time":4212000000000,"state":"active","ping":69},{"user_id":191,"name":"cin mode","steam_id":76561199001307670,"connected_time":3265000000000,"state":"active","ping":53},{"user_id":174,"name":"Moopz","steam_id":76561198424507300,"connected_time":4597000000000,"state":"active","ping":122},{"user_id":225,"name":"Void","steam_id":76561198308290211,"connected_time":1483000000000,"state":"active","ping":90},{"user_id":193,"name":"chill frog","steam_id":76561199471943472,"connected_time":3220000000000,"state":"active","ping":92},{"user_id":228,"name":"poompis","steam_id":76561198160850933,"connected_time":906000000000,"state":"active","ping":110},{"user_id":195,"name":"Resident Thrussy Lender","steam_id":76561198071790583,"connected_time":3210000000000,"state":"active","ping":109},{"user_id":196,"name":"Dietrich","steam_id":76561198028163840,"connected_time":3209000000000,"state":"active","ping":89},{"user_id":231,"name":"ben","steam_id":76561198273165569,"connected_time":638000000000,"state":"active","ping":110},{"user_id":199,"name":"Jester‚Ñ¢","steam_id":76561198015947999,"connected_time":3149000000000,"state":"active","ping":116},{"user_id":223,"name":"SuperFresh","steam_id":76561198200723198,"connected_time":1620000000000,"state":"active","ping":94}]},{"server_id":406,"name":"Uncletopia | Seattle | 3 | Stopwatch Beta","name_short":"sea-3","host":"sea-1.us.uncletopia.com","port":27035,"enabled":true,"region":"us-west","cc":"us","latitude":47.608013,"longitude":-122.33517,"reserved":0,"last_update":"0001-01-01T00:00:00Z","name_a2s":"Uncletopia | Seattle | 3 | Stopwatch Beta","protocol":17,"map":"pl_barnblitz","folder":"tf","game":"Team Fortress","app_id":440,"player_count":0,"max_players":24,"Bots":0,"server_type":"Dedicated","server_os":"Linux","password":true,"vac":true,"version":"7757534","steam_id":85568392924515217,"keywords":["nocrits","nodmgspread","payload","uncletopia"],"game_id":440,"stv_port":27036,"stv_name":"Uncletopia | Seattle | 3 | Stopwatch Beta | STV","players":null},{"server_id":17,"name":"Uncletopia | San Francisco | 1 | All Maps","name_short":"sfo-1","host":"sfo-1.us.uncletopia.com","port":27015,"enabled":true,"region":"us-west","cc":"us","latitude":37.77397,"longitude":-122.4313,"reserved":0,"last_update":"0001-01-01T00:00:00Z","name_a2s":"Uncletopia | San Francisco | 1 | All Maps","protocol":17,"map":"cp_process_final","folder":"tf","game":"Team Fortress","app_id":440,"player_count":0,"max_players":24,"Bots":0,"server_type":"Dedicated","server_os":"Linux","password":true,"vac":true,"version":"7757534","steam_id":85568392924469999,"keywords":["cp","nocrits","nodmgspread","uncletopia"],"game_id":440,"stv_port":27016,"stv_name":"Uncletopia | San Francisco | 1 | All Maps | STV","players":null},{"server_id":18,"name":"Uncletopia | San Francisco | 2 | All Maps","name_short":"sfo-2","host":"sfo-1.us.uncletopia.com","port":27025,"enabled":true,"region":"us-west","cc":"us","latitude":37.77397,"longitude":-122.4313,"reserved":0,"last_update":"0001-01-01T00:00:00Z","name_a2s":"Uncletopia | San Francisco | 2 | All Maps","protocol":17,"map":"cp_sunshine","folder":"tf","game":"Team Fortress","app_id":440,"player_count":0,"max_players":24,"Bots":0,"server_type":"Dedicated","server_os":"Linux","password":true,"vac":true,"version":"7757534","steam_id":85568392924470000,"keywords":["cp","nocrits","nodmgspread","uncletopia"],"game_id":440,"stv_port":27026,"stv_name":"Uncletopia | San Francisco | 2 | All Maps | STV","players":null},{"server_id":19,"name":"Uncletopia | San Francisco | 3 | Stopwatch Beta","name_short":"sfo-3","host":"sfo-1.us.uncletopia.com","port":27035,"enabled":true,"region":"us-west","cc":"us","latitude":37.77397,"longitude":-122.4313,"reserved":0,"last_update":"0001-01-01T00:00:00Z","name_a2s":"Uncletopia | San Francisco | 3 | Stopwatch Beta","protocol":17,"map":"pl_borneo","folder":"tf","game":"Team Fortress","app_id":440,"player_count":0,"max_players":24,"Bots":0,"server_type":"Dedicated","server_os":"Linux","password":true,"vac":true,"version":"7757534","steam_id":85568392924742824,"keywords":["nocrits","nodmgspread","payload","uncletopia"],"game_id":440,"stv_port":27036,"stv_name":"Uncletopia | San Francisco | 3 | Stopwatch Beta | STV","players":null},{"server_id":20,"name":"Uncletopia | San Francisco | 4 | Community","name_short":"sfo-4","host":"sfo-1.us.uncletopia.com","port":27045,"enabled":true,"region":"us-west","cc":"us","latitude":37.77397,"longitude":-122.4313,"reserved":0,"last_update":"0001-01-01T00:00:00Z","name_a2s":"Uncletopia | San Francisco | 4 | Community","protocol":17,"map":"koth_highpass","folder":"tf","game":"Team Fortress","app_id":440,"player_count":0,"max_players":24,"Bots":0,"server_type":"Dedicated","server_os":"Linux","password":true,"vac":true,"version":"7757534","steam_id":85568392924742826,"keywords":["cp","nocrits","nodmgspread","uncletopia"],"game_id":440,"stv_port":27046,"stv_name":"Uncletopia | San Francisco | 4 | Community | STV","players":null},{"server_id":141,"name":"Uncletopia | Sydney | 1 | All Maps","name_short":"syd-1","host":"syd-1.au.uncletopia.com","port":27015,"enabled":true,"region":"au","cc":"au","latitude":-33.865143,"longitude":151.2099,"reserved":0,"last_update":"0001-01-01T00:00:00Z","name_a2s":"Uncletopia | Sydney | 1 | All Maps","protocol":17,"map":"cp_mountainlab","folder":"tf","game":"Team Fortress","app_id":440,"player_count":0,"max_players":24,"Bots":0,"server_type":"Dedicated","server_os":"Linux","password":true,"vac":true,"version":"7757534","steam_id":85568392924470001,"keywords":["cp","nocrits","nodmgspread","uncletopia"],"game_id":440,"stv_port":27016,"stv_name":"Uncletopia | Sydney | 1 | All Maps | STV","players":null},{"server_id":123,"name":"Uncletopia | Sydney | 2 | All Maps","name_short":"syd-2","host":"syd-1.au.uncletopia.com","port":27025,"enabled":true,"region":"au","cc":"au","latitude":-33.865143,"longitude":151.2099,"reserved":0,"last_update":"0001-01-01T00:00:00Z","name_a2s":"Uncletopia | Sydney | 2 | All Maps","protocol":17,"map":"pl_badwater","folder":"tf","game":"Team Fortress","app_id":440,"player_count":0,"max_players":24,"Bots":0,"server_type":"Dedicated","server_os":"Linux","password":true,"vac":true,"version":"7757534","steam_id":85568392924470002,"keywords":["nocrits","nodmgspread","payload","uncletopia"],"game_id":440,"stv_port":27026,"stv_name":"Uncletopia | Sydney | 2 | All Maps | STV","players":null},{"server_id":395,"name":"Uncletopia | Sydney | 3 | All Maps","name_short":"syd-3","host":"syd-1.au.uncletopia.com","port":27035,"enabled":true,"region":"au","cc":"au","latitude":-33.865143,"longitude":151.2099,"reserved":0,"last_update":"0001-01-01T00:00:00Z","name_a2s":"Uncletopia | Sydney | 3 | All Maps","protocol":17,"map":"pl_pier","folder":"tf","game":"Team Fortress","app_id":440,"player_count":0,"max_players":24,"Bots":0,"server_type":"Dedicated","server_os":"Linux","password":true,"vac":true,"version":"7757534","steam_id":85568392925194467,"keywords":["nocrits","nodmgspread","payload","uncletopia"],"game_id":440,"stv_port":27036,"stv_name":"Uncletopia | Sydney | 3 | All Maps | STV","players":null},{"server_id":396,"name":"Uncletopia | Sydney | 4 | All Maps","name_short":"syd-4","host":"syd-1.au.uncletopia.com","port":27045,"enabled":true,"region":"au","cc":"au","latitude":-33.865143,"longitude":151.2099,"reserved":0,"last_update":"0001-01-01T00:00:00Z","name_a2s":"Uncletopia | Sydney | 4 | All Maps","protocol":17,"map":"koth_cascade","folder":"tf","game":"Team Fortress","app_id":440,"player_count":0,"max_players":24,"Bots":0,"server_type":"Dedicated","server_os":"Linux","password":true,"vac":true,"version":"7757534","steam_id":85568392925397958,"keywords":["cp","nocrits","nodmgspread","uncletopia"],"game_id":440,"stv_port":27046,"stv_name":"Uncletopia | Sydney | 4 | All Maps | STV","players":null},{"server_id":58,"name":"Uncletopia | Sydney | 5 | Stopwatch Beta","name_short":"syd-5","host":"syd-1.au.uncletopia.com","port":27055,"enabled":true,"region":"au","cc":"au","latitude":-33.865143,"longitude":151.2099,"reserved":0,"last_update":"0001-01-01T00:00:00Z","name_a2s":"Uncletopia | Sydney | 5 | Stopwatch Beta","protocol":17,"map":"koth_highpass","folder":"tf","game":"Team Fortress","app_id":440,"player_count":0,"max_players":24,"Bots":0,"server_type":"Dedicated","server_os":"Linux","password":true,"vac":true,"version":"7757534","steam_id":85568392925397959,"keywords":["cp","nocrits","nodmgspread","uncletopia"],"game_id":440,"stv_port":27056,"stv_name":"Uncletopia | Sydney | 5 | Stopwatch Beta | STV","players":null},{"server_id":59,"name":"Uncletopia | Sydney | 6 | Community","name_short":"syd-6","host":"syd-1.au.uncletopia.com","port":27065,"enabled":true,"region":"au","cc":"au","latitude":-33.865143,"longitude":151.2099,"reserved":0,"last_update":"0001-01-01T00:00:00Z","name_a2s":"Uncletopia | Sydney | 6 | Community","protocol":17,"map":"workshop/koth_trenchfoot_b1a.ugc731436616","folder":"tf","game":"Team Fortress","app_id":440,"player_count":0,"max_players":24,"Bots":0,"server_type":"Dedicated","server_os":"Linux","password":true,"vac":true,"version":"7757534","steam_id":85568392925397960,"keywords":["cp","nocrits","nodmgspread","uncletopia"],"game_id":440,"stv_port":27066,"stv_name":"Uncletopia | Sydney | 6 | Community | STV","players":null},{"server_id":49,"name":"Uncletopia | Warsaw | 1 | All Maps","name_short":"waw-1","host":"waw-1.pl.uncletopia.com","port":27015,"enabled":true,"region":"eu","cc":"pl","latitude":52.2297,"longitude":21.017532,"reserved":0,"last_update":"0001-01-01T00:00:00Z","name_a2s":"","protocol":0,"map":"","folder":"","game":"","app_id":0,"player_count":0,"max_players":0,"Bots":0,"server_type":"","server_os":"","password":false,"vac":false,"version":"","steam_id":0,"keywords":null,"game_id":0,"stv_port":0,"stv_name":"","players":null},{"server_id":50,"name":"Uncletopia | Warsaw | 2 | All Maps","name_short":"waw-2","host":"waw-1.pl.uncletopia.com","port":27025,"enabled":true,"region":"eu","cc":"pl","latitude":52.2297,"longitude":21.017532,"reserved":0,"last_update":"0001-01-01T00:00:00Z","name_a2s":"Uncletopia | Warsaw | 2 | All Maps","protocol":17,"map":"cp_mountainlab","folder":"tf","game":"Team Fortress","app_id":440,"player_count":0,"max_players":24,"Bots":0,"server_type":"Dedicated","server_os":"Linux","password":true,"vac":true,"version":"7757534","steam_id":85568392925397851,"keywords":["cp","nocrits","nodmgspread","uncletopia"],"game_id":440,"stv_port":27026,"stv_name":"Uncletopia | Warsaw | 2 | All Maps | STV","players":null},{"server_id":51,"name":"Uncletopia | Warsaw | 3 | All Maps","name_short":"waw-3","host":"waw-1.pl.uncletopia.com","port":27035,"enabled":true,"region":"eu","cc":"pl","latitude":52.2297,"longitude":21.017532,"reserved":0,"last_update":"0001-01-01T00:00:00Z","name_a2s":"Uncletopia | Warsaw | 3 | All Maps","protocol":17,"map":"cp_snakewater_final1","folder":"tf","game":"Team Fortress","app_id":440,"player_count":0,"max_players":24,"Bots":0,"server_type":"Dedicated","server_os":"Linux","password":true,"vac":true,"version":"7757534","steam_id":85568392925397852,"keywords":["cp","nocrits","nodmgspread","uncletopia"],"game_id":440,"stv_port":27036,"stv_name":"Uncletopia | Warsaw | 3 | All Maps | STV","players":null},{"server_id":52,"name":"Uncletopia | Warsaw | 4 | All Maps","name_short":"waw-4","host":"waw-1.pl.uncletopia.com","port":27045,"enabled":true,"region":"eu","cc":"pl","latitude":52.2297,"longitude":21.017532,"reserved":0,"last_update":"0001-01-01T00:00:00Z","name_a2s":"Uncletopia | Warsaw | 4 | All Maps","protocol":17,"map":"pl_borneo","folder":"tf","game":"Team Fortress","app_id":440,"player_count":0,"max_players":24,"Bots":0,"server_type":"Dedicated","server_os":"Linux","password":true,"vac":true,"version":"7757534","steam_id":85568392925397853,"keywords":["nocrits","nodmgspread","payload","uncletopia"],"game_id":440,"stv_port":27046,"stv_name":"Uncletopia | Warsaw | 4 | All Maps | STV","players":null},{"server_id":53,"name":"Uncletopia | Warsaw | 5 | Stopwatch Beta","name_short":"waw-5","host":"waw-1.pl.uncletopia.com","port":27055,"enabled":true,"region":"eu","cc":"pl","latitude":52.2297,"longitude":21.017532,"reserved":0,"last_update":"0001-01-01T00:00:00Z","name_a2s":"Uncletopia | Warsaw | 5 | Stopwatch Beta","protocol":17,"map":"pl_barnblitz","folder":"tf","game":"Team Fortress","app_id":440,"player_count":0,"max_players":24,"Bots":0,"server_type":"Dedicated","server_os":"Linux","password":true,"vac":true,"version":"7757534","steam_id":85568392925397854,"keywords":["nocrits","nodmgspread","payload","uncletopia"],"game_id":440,"stv_port":27056,"stv_name":"Uncletopia | Warsaw | 5 | Stopwatch Beta | STV","players":null},{"server_id":54,"name":"Uncletopia | Warsaw | 6 | Community","name_short":"waw-6","host":"waw-1.pl.uncletopia.com","port":27065,"enabled":true,"region":"eu","cc":"pl","latitude":52.2297,"longitude":21.017532,"reserved":0,"last_update":"0001-01-01T00:00:00Z","name_a2s":"Uncletopia | Warsaw | 6 | Community","protocol":17,"map":"workshop/koth_trenchfoot_b1a.ugc731436616","folder":"tf","game":"Team Fortress","app_id":440,"player_count":0,"max_players":24,"Bots":0,"server_type":"Dedicated","server_os":"Linux","password":true,"vac":true,"version":"7757534","steam_id":85568392925397856,"keywords":["cp","nocrits","nodmgspread","uncletopia"],"game_id":440,"stv_port":27066,"stv_name":"Uncletopia | Warsaw | 6 | Community | STV","players":null}]}