{"status":true,"message":"","result":[{"server_id":9,"name":"Uncletopia | Atlanta | 1 | All Maps","name_short":"atl-1","host":"atl-1.us.uncletopia.com","port":27015,"enabled":true,"region":"us-east","cc":"us","latitude":33.753746,"longitude":-84.38633,"reserved":0,"last_update":"0001-01-01T00:00:00Z","name_a2s":"Uncletopia | Atlanta | 1 | All Maps","protocol":17,"map":"cp_steel","folder":"tf","game":"Team Fortress","app_id":440,"player_count":24,"max_players":24,"Bots":0,"server_type":"Dedicated","server_os":"Linux","password":true,"vac":true,"version":"7961495","steam_id":85568392924469982,"keywords":["cp","nocrits","nodmgspread","uncletopia"],"game_id":440,"stv_port":27016,"stv_name":"Uncletopia | Atlanta | 1 | All Maps | STV","players":[{"user_id":689,"name":"Cheese","steam_id":76561199435683727,"connected_time":1069000000000,"state":"active","ping":154},{"user_id":701,"name":"MexicanTortilla","steam_id":76561198195872719,"connected_time":722000000000,"state":"active","ping":113},{"user_id":705,"name":"Kenn","steam_id":76561198061505015,"connected_time":273000000000,"state":"active","ping":78},{"user_id":688,"name":"ballmuncher29","steam_id":76561199122915452,"connected_time":1108000000000,"state":"active","ping":109},{"user_id":687,"name":"The Ambiguous Briton","steam_id":76561198007495748,"connected_time":1117000000000,"state":"active","ping":109},{"user_id":675,"name":"ashelin praxis nude mod","steam_id":76561198167907089,"connected_time":1667000000000,"state":"active","ping":59},{"user_id":676,"name":"Real","steam_id":76561198405830028,"connected_time":1665000000000,"state":"active","ping":104},{"user_id":694,"name":"Unlimited_Trees","steam_id":76561198299141443,"connected_time":968000000000,"state":"active","ping":107},{"user_id":693,"name":"üÖ≤üÜÅüÖ∏üÜâ.üÖπ‚òπ","steam_id":76561198254337154,"connected_time":1018000000000,"state":"active","ping":136},{"user_id":706,"name":"DerpMan107","steam_id":76561198131507408,"connected_time":217000000000,"state":"active","ping":77},{"user_id":678,"name":"gallowsCalibrator","steam_id":76561198404707578,"connected_time":1655000000000,"state":"active","ping":58},{"user_id":680,"name":"zoey","steam_id":76561198084679526,"connected_time":1472000000000,"state":"active","ping":68},{"user_id":691,"name":"Cabbage","steam_id":76561198405573530,"connected_time":1038000000000,"state":"active","ping":56},{"user_id":681,"name":"Generic","steam_id":76561198092579482,"connected_time":1455000000000,"state":"active","ping":60},{"user_id":682,"name":"FinalFlash9000","steam_id":76561199092775051,"connected_time":1390000000000,"state":"active","ping":73},{"user_id":692,"name":"jek","steam_id":76561198097816136,"connected_time":1032000000000,"state":"active","ping":47},{"user_id":684,"name":"saucy jack","steam_id":76561198307012859,"connected_time":1256000000000,"state":"active","ping":101},{"user_id":698,"name":"robot with human hair","steam_id":76561198018691308,"connected_time":871000000000,"state":"active","ping":90},{"user_id":685,"name":"eevee","steam_id":76561198447072392,"connected_time":1215000000000,"state":"active","ping":194},{"user_id":686,"name":"Scrux","steam_id":76561198129763115,"connected_time":1211000000000,"state":"active","ping":94},{"user_id":695,"name":"Doctorking9","steam_id":76561198124418360,"connected_time":951000000000,"state":"active","ping":90},{"user_id":696,"name":"Cecilian","steam_id":76561198092582478,"connected_time":935000000000,"state":"active","ping":64},{"user_id":697,"name":"dax","steam_id":76561198045335319,"connected_time":897000000000,"state":"active","ping":56},{"user_id":700,"name":"Mad{}Mouse","steam_id":76561198162576354,"connected_time":832000000000,"state":"active","ping":79}]},{"server_id":104,"name":"Uncletopia | Atlanta | 2 | All Maps","name_short":"atl-2","host":"atl-1.us.uncletopia.com","port":27025,"enabled":true,"region":"us-east","cc":"us","latitude":33.753746,"longitude":-84.38633,"reserved":0,"last_update":"0001-01-01T00:00:00Z","name_a2s":"Uncletopia | Atlanta | 2 | All Maps","protocol":17,"map":"pl_thundermountain","folder":"tf","game":"Team Fortress","app_id":440,"player_count":12,"max_players":24,"Bots":0,"server_type":"Dedicated","server_os":"Linux","password":true,"vac":true,"version":"7961495","steam_id":85568392924469983,"keywords":["nocrits","nodmgspread","payload","uncletopia"],"game_id":440,"stv_port":27026,"stv_name":"Uncletopia | Atlanta | 2 | All Maps | STV","players":[{"user_id":544,"name":"g8rade","steam_id":76561198070593964,"connected_time":327000000000,"state":"active","ping":57},{"user_id":545,"name":"Team Fartpiss Poo","steam_id":76561199163591880,"connected_time":222000000000,"state":"active","ping":62},{"user_id":548,"name":"Demoman TF2","steam_id":76561199235622016,"connected_time":77000000000,"state":"active","ping":157},{"user_id":503,"name":"chrisd149","steam_id":76561198018710480,"connected_time":4092000000000,"state":"active","ping":57},{"user_id":490,"name":"Numbers","steam_id":76561198178240575,"connected_time":4985000000000,"state":"active","ping":83},{"user_id":516,"name":"opossum","steam_id":76561198148905570,"connected_time":3007000000000,"state":"active","ping":57},{"user_id":512,"name":"narrow.xyz","steam_id":76561198984736456,"connected_time":3188000000000,"state":"active","ping":101},{"user_id":513,"name":"brain_tweaker","steam_id":76561198202843626,"connected_time":3180000000000,"state":"active","ping":85},{"user_id":517,"name":"DarkenedPolarity","steam_id":76561199073099596,"connected_time":2998000000000,"state":"active","ping":45},{"user_id":543,"name":"twinbl0ck","steam_id":76561198157414556,"connected_time":816000000000,"state":"active","ping":59},{"user_id":525,"name":"OMFG_clown","steam_id":76561198045263625,"connected_time":2467000000000,"state":"active","ping":124},{"user_id":536,"name":"TheTimeLord","steam_id":76561198083715205,"connected_time":1977000000000,"state":"active","ping":90}]},{"server_id":400,"name":"Uncletopia | Atlanta | 3 | Stopwatch","name_short":"atl-3","host":"atl-1.us.uncletopia.com","port":27035,"enabled":true,"region":"us-east","cc":"us","latitude":33.753746,"longitude":-84.38633,"reserved":0,"last_update":"0001-01-01T00:00:00Z","name_a2s":"Uncletopia | Atlanta | 3 | Stopwatch","protocol":17,"map":"pl_borneo","folder":"tf","game":"Team Fortress","app_id":440,"player_count":0,"max_players":24,"Bots":0,"server_type":"Dedicated","server_os":"Linux","password":true,"vac":true,"version":"7961495","steam_id":85568392924515187,"keywords":["nocrits","nodmgspread","payload","uncletopia"],"game_id":440,"stv_port":27036,"stv_name":"Uncletopia | Atlanta | 3 | Stopwatch | STV","players":null},{"server_id":401,"name":"Uncletopia | Atlanta | 4 | Community","name_short":"atl-4","host":"atl-1.us.uncletopia.com","port":27045,"enabled":true,"region":"us-east","cc":"us","latitude":33.753746,"longitude":-84.38633,"reserved":0,"last_update":"0001-01-01T00:00:00Z","name_a2s":"Uncletopia | Atlanta | 4 | Community","protocol":17,"map":"workshop/koth_kemptown_rc1.ugc767410655","folder":"tf","game":"Team Fortress","app_id":440,"player_count":0,"max_players":24,"Bots":0,"server_type":"Dedicated","server_os":"Linux","password":true,"vac":true,"version":"7961495","steam_id":85568392924515188,"keywords":["cp","nocrits","nodmgspread","uncletopia"],"game_id":440,"stv_port":27046,"stv_name":"Uncletopia | Atlanta | 4 | Community | STV","players":null},{"server_id":2,"name":"Uncletopia | Chicago | 1 | All Maps","name_short":"chi-1","host":"chi-1.us.uncletopia.com","port":27015,"enabled":true,"region":"us-central","cc":"us","latitude":41.881832,"longitude":-87.62318,"reserved":0,"last_update":"0001-01-01T00:00:00Z","name_a2s":"Uncletopia | Chicago | 1 | All Maps","protocol":17,"map":"pl_barnblitz","folder":"tf","game":"Team Fortress","app_id":440,"player_count":24,"max_players":24,"Bots":0,"server_type":"Dedicated","server_os":"Linux","password":true,"vac":true,"version":"7961495","steam_id":85568392924469984,"keywords":["nocrits","nodmgspread","payload","uncletopia"],"game_id":440,"stv_port":27016,"stv_name":"Uncletopia | Chicago | 1 | All Maps | STV","players":[{"user_id":638,"name":"jb","steam_id":76561198038607085,"connected_time":1977000000000,"state":"active","ping":72},{"user_id":639,"name":"Bubby Koromon the 4rd","steam_id":76561198398729993,"connected_time":1975000000000,"state":"active","ping":80},{"user_id":657,"name":"bombzilla500","steam_id":76561198868321609,"connected_time":738000000000,"state":"active","ping":91},{"user_id":649,"name":"YolkOnYou","steam_id":76561198088760655,"connected_time":1704000000000,"state":"active","ping":142},{"user_id":643,"name":"Raccoon Wizard","steam_id":76561198072562591,"connected_time":1819000000000,"state":"active","ping":68},{"user_id":656,"name":"Proud Boi Hours uWu","steam_id":76561198070927203,"connected_time":761000000000,"state":"active","ping":54},{"user_id":652,"name":"Drojdier","steam_id":76561198080789836,"connected_time":1589000000000,"state":"active","ping":162},{"user_id":654,"name":"Xuri","steam_id":76561198267331108,"connected_time":980000000000,"state":"active","ping":48},{"user_id":637,"name":"High King of Hoodoo","steam_id":76561198299094088,"connected_time":2005000000000,"state":"active","ping":71},{"user_id":650,"name":"Super Ghostbusters (Full Album)","steam_id":76561198057415490,"connected_time":1662000000000,"state":"active","ping":39},{"user_id":644,"name":"Sunny","steam_id":76561198125892600,"connected_time":1812000000000,"state":"active","ping":56},{"user_id":645,"name":"sonic1394","steam_id":76561198054636788,"connected_time":1777000000000,"state":"active","ping":60},{"user_id":632,"name":"KhorneBread Ô∏ª„Éá ‰∏Ä","steam_id":76561198097069958,"connected_time":2520000000000,"state":"active","ping":67},{"user_id":646,"name":"Krel","steam_id":76561198287045069,"connected_time":1768000000000,"state":"active","ping":60},{"user_id":554,"name":"Bobato Chaps","steam_id":76561198065103552,"connected_time":9316000000000,"state":"active","ping":47},{"user_id":658,"name":"MonsterHunter","steam_id":76561198146118010,"connected_time":730000000000,"state":"active","ping":81},{"user_id":659,"name":"axe murderer","steam_id":76561198157368061,"connected_time":727000000000,"state":"active","ping":54},{"user_id":660,"name":"Mayhem","steam_id":76561198063465337,"connected_time":658000000000,"state":"active","ping":65},{"user_id":653,"name":"Tibalt Nyahuma","steam_id":76561198034779431,"connected_time":1470000000000,"state":"active","ping":67},{"user_id":655,"name":"milkshake","steam_id":76561197997469207,"connected_time":772000000000,"state":"active","ping":87},{"user_id":618,"name":"Comradical","steam_id":76561197990808285,"connected_time":4582000000000,"state":"active","ping":61},{"user_id":648,"name":"Eugene Thaddeus Hinkle V","steam_id":76561198821535846,"connected_time":1739000000000,"state":"active","ping":55},{"user_id":661,"name":"zzzz","steam_id":76561198310495200,"connected_time":629000000000,"state":"active","ping":47},{"user_id":663,"name":"Toxic Mercenary","steam_id":76561197988501611,"connected_time":286000000000,"state":"active","ping":73}]},{"server_id":106,"name":"Uncletopia | Chicago | 2 | All Maps","name_short":"chi-2","host":"chi-1.us.uncletopia.com","port":27025,"enabled":true,"region":"us-central","cc":"us","latitude":41.881832,"longitude":-87.62318,"reserved":0,"last_update":"0001-01-01T00:00:00Z","name_a2s":"Uncletopia | Chicago | 2 | All Maps","protocol":17,"map":"pl_upward","folder":"tf","game":"Team Fortress","app_id":440,"player_count":21,"max_players":24,"Bots":0,"server_type":"Dedicated","server_os":"Linux","password":true,"vac":true,"version":"7961495","steam_id":85568392924469985,"keywords":["nocrits","nodmgspread","payload","uncletopia"],"game_id":440,"stv_port":27026,"stv_name":"Uncletopia | Chicago | 2 | All Maps | STV","players":[{"user_id":872,"name":"dum","steam_id":76561198053386482,"connected_time":2912000000000,"state":"active","ping":55},{"user_id":860,"name":"-Sp√Æd√™r-","steam_id":76561198064531248,"connected_time":3829000000000,"state":"active","ping":82},{"user_id":899,"name":"endwalker simp","steam_id":76561198066177299,"connected_time":966000000000,"state":"active","ping":86},{"user_id":861,"name":"Liminality","steam_id":76561198002601402,"connected_time":3823000000000,"state":"active","ping":91},{"user_id":896,"name":"bengineer","steam_id":76561198171912174,"connected_time":1168000000000,"state":"active","ping":86},{"user_id":849,"name":"yuumi...! ‚ô°","steam_id":76561198084708100,"connected_time":4408000000000,"state":"active","ping":88},{"user_id":891,"name":"Gaming is for girls","steam_id":76561198401725755,"connected_time":1332000000000,"state":"active","ping":47},{"user_id":876,"name":"tome123","steam_id":76561198078206722,"connected_time":2796000000000,"state":"active","ping":104},{"user_id":881,"name":"9gon Danmar33","steam_id":76561198056453091,"connected_time":2595000000000,"state":"active","ping":55},{"user_id":887,"name":"runescape legend","steam_id":76561198077791373,"connected_time":1853000000000,"state":"active","ping":48},{"user_id":795,"name":"HundchenTanque","steam_id":76561198122692754,"connected_time":8001000000000,"state":"active","ping":58},{"user_id":834,"name":"lobster","steam_id":76561198147417707,"connected_time":4810000000000,"state":"active","ping":79},{"user_id":835,"name":"transfem atsuko kagari","steam_id":76561198217402847,"connected_time":4770000000000,"state":"active","ping":106},{"user_id":888,"name":"PurplePond","steam_id":76561199062421006,"connected_time":1822000000000,"state":"active","ping":41},{"user_id":839,"name":"mohamy_19","steam_id":76561198075833698,"connected_time":4692000000000,"state":"active","ping":74},{"user_id":895,"name":"russames","steam_id":76561198007535911,"connected_time":1192000000000,"state":"active","ping":48},{"user_id":897,"name":"Stroop","steam_id":76561198138687730,"connected_time":1141000000000,"state":"active","ping":95},{"user_id":894,"name":"sock","steam_id":76561198278457431,"connected_time":1206000000000,"state":"active","ping":82},{"user_id":900,"name":"Resistance","steam_id":76561198146782074,"connected_time":243000000000,"state":"active","ping":56},{"user_id":898,"name":"exa*‚ú©‚Äß‚ÇäÀö","steam_id":76561198044511912,"connected_time":1101000000000,"state":"active","ping":92},{"user_id":850,"name":"Ashton","steam_id":76561198300590302,"connected_time":4402000000000,"state":"active","ping":55}]},{"server_id":402,"name":"Uncletopia | Chicago | 3 | All Maps","name_short":"chi-3","host":"chi-1.us.uncletopia.com","port":27035,"enabled":true,"region":"us-central","cc":"us","latitude":41.881832,"longitude":-87.62318,"reserved":0,"last_update":"0001-01-01T00:00:00Z","name_a2s":"Uncletopia | Chicago | 3 | All Maps","protocol":17,"map":"cp_sunshine","folder":"tf","game":"Team Fortress","app_id":440,"player_count":0,"max_players":24,"Bots":0,"server_type":"Dedicated","server_os":"Linux","password":true,"vac":true,"version":"7961495","steam_id":85568392924515191,"keywords":["cp","nocrits","nodmgspread","uncletopia"],"game_id":440,"stv_port":27036,"stv_name":"Uncletopia | Chicago | 3 | All Maps | STV","players":null},{"server_id":403,"name":"Uncletopia | Chicago | 4 | All Maps","name_short":"chi-4","host":"chi-1.us.uncletopia.com","port":27045,"enabled":true,"region":"us-central","cc":"us","latitude":41.881832,"longitude":-87.62318,"reserved":0,"last_update":"0001-01-01T00:00:00Z","name_a2s":"Uncletopia | Chicago | 4 | All Maps","protocol":17,"map":"pl_barnblitz","folder":"tf","game":"Team Fortress","app_id":440,"player_count":23,"max_players":24,"Bots":0,"server_type":"Dedicated","server_os":"Linux","password":true,"vac":true,"version":"7961495","steam_id":85568392924515193,"keywords":["nocrits","nodmgspread","payload","uncletopia"],"game_id":440,"stv_port":27046,"stv_name":"Uncletopia | Chicago | 4 | All Maps | STV","players":[{"user_id":401,"name":"playguy carter","steam_id":76561198080679337,"connected_time":1638000000000,"state":"active","ping":59},{"user_id":416,"name":"Lemon Soda","steam_id":76561198140208761,"connected_time":402000000000,"state":"active","ping":56},{"user_id":381,"name":"JPika","steam_id":76561198058711361,"connected_time":3323000000000,"state":"active","ping":106},{"user_id":382,"name":"HELP!!!ME!!!","steam_id":76561198197216014,"connected_time":3239000000000,"state":"active","ping":97},{"user_id":403,"name":"Six Piece Chicken McNobody","steam_id":76561198129848222,"connected_time":1588000000000,"state":"active","ping":56},{"user_id":404,"name":"Artistic","steam_id":76561198118159566,"connected_time":1538000000000,"state":"active","ping":90},{"user_id":405,"name":"keffers","steam_id":76561198202338796,"connected_time":1479000000000,"state":"active","ping":63},{"user_id":385,"name":"Lead Licker","steam_id":76561198162668339,"connected_time":3187000000000,"state":"active","ping":62},{"user_id":383,"name":"Lae","steam_id":76561198185527278,"connected_time":3227000000000,"state":"active","ping":70},{"user_id":364,"name":"Gunkzilla","steam_id":76561198068228415,"connected_time":4032000000000,"state":"active","ping":59},{"user_id":412,"name":"paetho YT","steam_id":76561198152690003,"connected_time":783000000000,"state":"active","ping":58},{"user_id":406,"name":"rice","steam_id":76561198119326733,"connected_time":1479000000000,"state":"active","ping":60},{"user_id":413,"name":"Papa Smoke","steam_id":76561198181348206,"connected_time":677000000000,"state":"active","ping":53},{"user_id":400,"name":"stormfoam","steam_id":76561198936871387,"connected_time":1678000000000,"state":"active","ping":61},{"user_id":407,"name":"Wierd Round","steam_id":76561197969205852,"connected_time":1444000000000,"state":"active","ping":74},{"user_id":408,"name":"Sentry Food","steam_id":76561198042926224,"connected_time":1419000000000,"state":"active","ping":87},{"user_id":409,"name":"A Fool","steam_id":76561198029853893,"connected_time":1401000000000,"state":"active","ping":39},{"user_id":351,"name":"matyjasikmel","steam_id":76561198376947828,"connected_time":5740000000000,"state":"active","ping":111},{"user_id":376,"name":"Cynder","steam_id":76561197998414027,"connected_time":3610000000000,"state":"active","ping":62},{"user_id":410,"name":"A Cranky Cassowary","steam_id":76561198037372342,"connected_time":1376000000000,"state":"active","ping":45},{"user_id":377,"name":"Pierre Bourne","steam_id":76561199500265332,"connected_time":3604000000000,"state":"active","ping":71},{"user_id":411,"name":"clown gf that honks during sex","steam_id":76561198124173929,"connected_time":1322000000000,"state":"active","ping":111},{"user_id":414,"name":"strawberry jam bagel","steam_id":76561198319442494,"connected_time":525000000000,"state":"active","ping":106}]},{"server_id":36,"name":"Uncletopia | Chicago | 5 | All Maps","name_short":"chi-5","host":"chi-2.us.uncletopia.com","port":27015,"enabled":true,"region":"us-central","cc":"us","latitude":41.881832,"longitude":-87.62318,"reserved":0,"last_update":"0001-01-01T00:00:00Z","name_a2s":"Uncletopia | Chicago | 5 | All Maps","protocol":17,"map":"koth_highpass","folder":"tf","game":"Team Fortress","app_id":440,"player_count":0,"max_players":24,"Bots":0,"server_type":"Dedicated","server_os":"Linux","password":true,"vac":true,"version":"7961495","steam_id":85568392924866362,"keywords":["cp","nocrits","nodmgspread","uncletopia"],"game_id":440,"stv_port":27016,"stv_name":"Uncletopia | Chicago | 5 | All Maps | STV","players":null},{"server_id":37,"name":"Uncletopia | Chicago | 6 | All Maps","name_short":"chi-6","host":"chi-2.us.uncletopia.com","port":27025,"enabled":true,"region":"us-central","cc":"us","latitude":41.881832,"longitude":-87.62318,"reserved":0,"last_update":"0001-01-01T00:00:00Z","name_a2s":"Uncletopia | Chicago | 6 | All Maps","protocol":17,"map":"pl_frontier_final","folder":"tf","game":"Team Fortress","app_id":440,"player_count":24,"max_players":24,"Bots":0,"server_type":"Dedicated","server_os":"Linux","password":true,"vac":true,"version":"7961495","steam_id":85568392924866363,"keywords":["nocrits","nodmgspread","payload","uncletopia"],"game_id":440,"stv_port":27026,"stv_name":"Uncletopia | Chicago | 6 | All Maps | STV","players":[{"user_id":409,"name":"the keebler","steam_id":76561199486326945,"connected_time":908000000000,"state":"active","ping":75},{"user_id":419,"name":"lcy13vv","steam_id":76561197995997446,"connected_time":394000000000,"state":"active","ping":57},{"user_id":410,"name":"Holiday Fartcruise","steam_id":76561198043851584,"connected_time":902000000000,"state":"active","ping":114},{"user_id":399,"name":"RoamV","steam_id":76561197991626972,"connected_time":2678000000000,"state":"active","ping":76},{"user_id":384,"name":"Sponge o'Clock","steam_id":76561198199114997,"connected_time":4043000000000,"state":"active","ping":165},{"user_id":412,"name":"Clear Sights","steam_id":76561198006215683,"connected_time":856000000000,"state":"active","ping":42},{"user_id":394,"name":"jester to king","steam_id":76561198040741271,"connected_time":3355000000000,"state":"active","ping":60},{"user_id":342,"name":"Siz","steam_id":76561198072962154,"connected_time":8111000000000,"state":"active","ping":62},{"user_id":391,"name":"Muselk, but mexican","steam_id":76561199289676387,"connected_time":3709000000000,"state":"active","ping":82},{"user_id":426,"name":"Tommy Pickles (Very ____)","steam_id":76561198391261463,"connected_time":9000000000,"state":"active","ping":73},{"user_id":425,"name":"Lasky","steam_id":76561198079437901,"connected_time":187000000000,"state":"active","ping":74},{"user_id":415,"name":"Esteban Delsin","steam_id":76561198433519639,"connected_time":780000000000,"state":"active","ping":91},{"user_id":355,"name":"ATLS1 | Strange Festive","steam_id":76561198050385093,"connected_time":6400000000000,"state":"active","ping":74},{"user_id":381,"name":"11","steam_id":76561198037518646,"connected_time":4171000000000,"state":"active","ping":67},{"user_id":382,"name":"have blue","steam_id":76561198054260599,"connected_time":4163000000000,"state":"active","ping":77},{"user_id":401,"name":"frank","steam_id":76561198137777483,"connected_time":2663000000000,"state":"active","ping":73},{"user_id":406,"name":"fish","steam_id":76561198054070811,"connected_time":2394000000000,"state":"active","ping":105},{"user_id":413,"name":"Zont","steam_id":76561197985526581,"connected_time":850000000000,"state":"active","ping":61},{"user_id":360,"name":"‚∏∏ gaige ‚õß","steam_id":76561198090576796,"connected_time":5669000000000,"state":"active","ping":59},{"user_id":417,"name":"StudMuffin","steam_id":76561198049223250,"connected_time":610000000000,"state":"active","ping":107},{"user_id":397,"name":"Old Thug","steam_id":76561198042134766,"connected_time":3226000000000,"state":"active","ping":81},{"user_id":418,"name":"Elias","steam_id":76561198106431732,"connected_time":518000000000,"state":"active","ping":59},{"user_id":405,"name":"Giggles‚Ñ¢","steam_id":76561198058708019,"connected_time":2467000000000,"state":"active","ping":49},{"user_id":352,"name":"C Papi","steam_id":76561198027779564,"connected_time":6911000000000,"state":"active","ping":60}]},{"server_id":38,"name":"Uncletopia | Chicago | 7 | Stopwatch","name_short":"chi-7","host":"chi-2.us.uncletopia.com","port":27035,"enabled":true,"region":"us-central","cc":"us","latitude":41.881832,"longitude":-87.62318,"reserved":0,"last_update":"0001-01-01T00:00:00Z","name_a2s":"Uncletopia | Chicago | 7 | Stopwatch","protocol":17,"map":"pl_upward","folder":"tf","game":"Team Fortress","app_id":440,"player_count":0,"max_players":24,"Bots":0,"server_type":"Dedicated","server_os":"Linux","password":true,"vac":true,"version":"7961495","steam_id":85568392924866364,"keywords":["nocrits","nodmgspread","payload","uncletopia"],"game_id":440,"stv_port":27036,"stv_name":"Uncletopia | Chicago | 7 | Stopwatch | STV","players":null},{"server_id":39,"name":"Uncletopia | Chicago | 8 | Community","name_short":"chi-8","host":"chi-2.us.uncletopia.com","port":27045,"enabled":true,"region":"us-central","cc":"us","latitude":41.881832,"longitude":-87.62318,"reserved":0,"last_update":"0001-01-01T00:00:00Z","name_a2s":"Uncletopia | Chicago | 8 | Community","protocol":17,"map":"workshop/pl_corrode_rc2.ugc546577989","folder":"tf","game":"Team Fortress","app_id":440,"player_count":0,"max_players":24,"Bots":0,"server_type":"Dedicated","server_os":"Linux","password":true,"vac":true,"version":"7961495","steam_id":85568392924866365,"keywords":["nocrits","nodmgspread","payload","uncletopia"],"game_id":440,"stv_port":27046,"stv_name":"Uncletopia | Chicago | 8 | Community | STV","players":null},{"server_id":8,"name":"Uncletopia | Dallas | 1 | All Maps","name_short":"dal-1","host":"dal-1.us.uncletopia.com","port":27015,"enabled":true,"region":"us-central","cc":"us","latitude":32.779167,"longitude":-96.80889,"reserved":0,"last_update":"0001-01-01T00:00:00Z","name_a2s":"Uncletopia | Dallas | 1 | All Maps","protocol":17,"map":"pl_upward","folder":"tf","game":"Team Fortress","app_id":440,"player_count":24,"max_players":24,"Bots":0,"server_type":"Dedicated","server_os":"Linux","password":true,"vac":true,"version":"7961495","steam_id":85568392924469986,"keywords":["nocrits","nodmgspread","payload","uncletopia"],"game_id":440,"stv_port":27016,"stv_name":"Uncletopia | Dallas | 1 | All Maps | STV","players":[{"user_id":429,"name":"AvapXia","steam_id":76561198147476096,"connected_time":99000000000,"state":"active","ping":105},{"user_id":376,"name":"shnowshner","steam_id":76561198066450438,"connected_time":4702000000000,"state":"active","ping":90},{"user_id":425,"name":"9/11 Airlines","steam_id":76561198096306325,"connected_time":543000000000,"state":"active","ping":77},{"user_id":415,"name":"Wake Up","steam_id":76561199364352461,"connected_time":1135000000000,"state":"active","ping":59},{"user_id":430,"name":"ryann","steam_id":76561198042996639,"connected_time":86000000000,"state":"active","ping":74},{"user_id":427,"name":"Nero25","steam_id":76561198027720631,"connected_time":144000000000,"state":"active","ping":79},{"user_id":424,"name":"FI LO","steam_id":76561198976530881,"connected_time":694000000000,"state":"active","ping":70},{"user_id":397,"name":"kris736","steam_id":76561198038208255,"connected_time":3368000000000,"state":"active","ping":75},{"user_id":379,"name":"purple hatsune miku","steam_id":76561198108844158,"connected_time":4632000000000,"state":"active","ping":83},{"user_id":404,"name":"BariDiddle","steam_id":76561197981293677,"connected_time":2696000000000,"state":"active","ping":69},{"user_id":330,"name":"kaimann_25","steam_id":76561198867926098,"connected_time":9799000000000,"state":"active","ping":64},{"user_id":382,"name":"zpalmtree","steam_id":76561198134307620,"connected_time":4581000000000,"state":"active","ping":92},{"user_id":428,"name":"Tokani","steam_id":76561198066904353,"connected_time":139000000000,"state":"active","ping":59},{"user_id":400,"name":"Yoshi","steam_id":76561198033784848,"connected_time":2972000000000,"state":"active","ping":67},{"user_id":383,"name":"Pheonix Fel Dragon","steam_id":76561198164974227,"connected_time":4572000000000,"state":"active","ping":47},{"user_id":336,"name":"Just Juanito","steam_id":76561198241446874,"connected_time":9276000000000,"state":"active","ping":77},{"user_id":419,"name":"yomo","steam_id":76561198063175935,"connected_time":931000000000,"state":"active","ping":76},{"user_id":357,"name":"tunaa","steam_id":76561198362763159,"connected_time":7025000000000,"state":"active","ping":74},{"user_id":412,"name":"tsz","steam_id":76561199246231090,"connected_time":1641000000000,"state":"active","ping":78},{"user_id":421,"name":"Umbrazeta","steam_id":76561198122650609,"connected_time":798000000000,"state":"active","ping":56},{"user_id":422,"name":"VenomX","steam_id":76561198123418900,"connected_time":789000000000,"state":"active","ping":75},{"user_id":387,"name":"Username","steam_id":76561198198918781,"connected_time":4527000000000,"state":"active","ping":91},{"user_id":431,"name":"Caeso","steam_id":76561198075570341,"connected_time":43000000000,"state":"active","ping":54},{"user_id":426,"name":"basilberry","steam_id":76561198145275937,"connected_time":401000000000,"state":"active","ping":72}]},{"server_id":108,"name":"Uncletopia | Dallas | 2 | All Maps","name_short":"dal-2","host":"dal-1.us.uncletopia.com","port":27025,"enabled":true,"region":"us-central","cc":"us","latitude":32.779167,"longitude":-96.80889,"reserved":0,"last_update":"0001-01-01T00:00:00Z","name_a2s":"Uncletopia | Dallas | 2 | All Maps","protocol":17,"map":"pl_frontier_final","folder":"tf","game":"Team Fortress","app_id":440,"player_count":24,"max_players":24,"Bots":0,"server_type":"Dedicated","server_os":"Linux","password":true,"vac":true,"version":"7961495","steam_id":85568392924469988,"keywords":["nocrits","nodmgspread","payload","uncletopia"],"game_id":440,"stv_port":27026,"stv_name":"Uncletopia | Dallas | 2 | All Maps | STV","players":[{"user_id":483,"name":"raya","steam_id":76561198051504581,"connected_time":3603000000000,"state":"active","ping":45},{"user_id":511,"name":"Creature","steam_id":76561198194585781,"connected_time":482000000000,"state":"active","ping":64},{"user_id":505,"name":"Oopsie Daisy ‚ùã","steam_id":76561198042144492,"connected_time":1756000000000,"state":"active","ping":65},{"user_id":516,"name":"Lily","steam_id":76561198110050476,"connected_time":322000000000,"state":"active","ping":73},{"user_id":510,"name":"The Irish Ghost","steam_id":76561199021970654,"connected_time":556000000000,"state":"active","ping":65},{"user_id":519,"name":"Dr. Kokkinbahlz","steam_id":76561198166245239,"connected_time":140000000000,"state":"active","ping":49},{"user_id":506,"name":"Stinky Wizzleteats.","steam_id":76561198075628776,"connected_time":1611000000000,"state":"active","ping":78},{"user_id":484,"name":"Certified Hood Classic","steam_id":76561199086159354,"connected_time":2621000000000,"state":"active","ping":50},{"user_id":444,"name":"corg","steam_id":76561198338740292,"connected_time":6081000000000,"state":"active","ping":85},{"user_id":517,"name":"BL√òRG","steam_id":76561198036126673,"connected_time":266000000000,"state":"active","ping":76},{"user_id":512,"name":"Weed Dealer","steam_id":76561198418604400,"connected_time":479000000000,"state":"active","ping":99},{"user_id":502,"name":"Fat Cat","steam_id":76561197995995344,"connected_time":1927000000000,"state":"active","ping":58},{"user_id":424,"name":"Bond","steam_id":76561198089262776,"connected_time":8240000000000,"state":"active","ping":45},{"user_id":485,"name":"ark","steam_id":76561198041066271,"connected_time":2446000000000,"state":"active","ping":74},{"user_id":509,"name":"Pongallow","steam_id":76561198146876078,"connected_time":878000000000,"state":"active","ping":74},{"user_id":513,"name":"werecat","steam_id":76561198005091213,"connected_time":479000000000,"state":"active","ping":77},{"user_id":507,"name":"newnuma.com | arkei","steam_id":76561198013113138,"connected_time":1454000000000,"state":"active","ping":75},{"user_id":479,"name":"Liinde","steam_id":76561198140837602,"connected_time":3946000000000,"state":"active","ping":71},{"user_id":496,"name":"ScoutBox","steam_id":76561198111539895,"connected_time":2176000000000,"state":"active","ping":82},{"user_id":518,"name":"Supermanhandsy","steam_id":76561198396336470,"connected_time":262000000000,"state":"active","ping":80},{"user_id":498,"name":"Yongle","steam_id":76561198068591156,"connected_time":2151000000000,"state":"active","ping":82},{"user_id":499,"name":"Big Chungus Gaming","steam_id":76561198068794194,"connected_time":2141000000000,"state":"active","ping":78},{"user_id":514,"name":"Boobie and vagene","steam_id":76561198078464924,"connected_time":461000000000,"state":"active","ping":104},{"user_id":515,"name":"Lethari Dhern","steam_id":76561198992017287,"connected_time":376000000000,"state":"active","ping":64}]},{"server_id":404,"name":"Uncletopia | Dallas | 3 | All Maps","name_short":"dal-3","host":"dal-1.us.uncletopia.com","port":27035,"enabled":true,"region":"us-central","cc":"us","latitude":32.779167,"longitude":-96.80889,"reserved":0,"last_update":"0001-01-01T00:00:00Z","name_a2s":"Uncletopia | Dallas | 3 | All Maps","protocol":17,"map":"pl_borneo","folder":"tf","game":"Team Fortress","app_id":440,"player_count":0,"max_players":24,"Bots":0,"server_type":"Dedicated","server_os":"Linux","password":true,"vac":true,"version":"7961495","steam_id":85568392924515219,"keywords":["nocrits","nodmgspread","payload","uncletopia"],"game_id":440,"stv_port":27036,"stv_name":"Uncletopia | Dallas | 3 | All Maps | STV","players":null},{"server_id":405,"name":"Uncletopia | Dallas | 4 | Community","name_short":"dal-4","host":"dal-1.us.uncletopia.com","port":27045,"enabled":true,"region":"us-central","cc":"us","latitude":32.779167,"longitude":-96.80889,"reserved":0,"last_update":"0001-01-01T00:00:00Z","name_a2s":"Uncletopia | Dallas | 4 | Community","protocol":17,"map":"workshop/koth_ashville_final.ugc2130459942","folder":"tf","game":"Team Fortress","app_id":440,"player_count":0,"max_players":24,"Bots":0,"server_type":"Dedicated","server_os":"Linux","password":true,"vac":true,"version":"7961495","steam_id":85568392924515220,"keywords":["cp","nocrits","nodmgspread","uncletopia"],"game_id":440,"stv_port":27046,"stv_name":"Uncletopia | Dallas | 4 | Community | STV","players":null},{"server_id":5,"name":"Uncletopia | Frankfurt | 1 | All Maps","name_short":"frk-1","host":"frk-1.de.uncletopia.com","port":27015,"enabled":true,"region":"eu","cc":"de","latitude":50.110924,"longitude":8.682127,"reserved":0,"last_update":"0001-01-01T00:00:00Z","name_a2s":"Uncletopia | Frankfurt | 1 | All Maps","protocol":17,"map":"koth_viaduct","folder":"tf","game":"Team Fortress","app_id":440,"player_count":0,"max_players":24,"Bots":0,"server_type":"Dedicated","server_os":"Linux","password":true,"vac":true,"version":"7961495","steam_id":85568392924469989,"keywords":["cp","nocrits","nodmgspread","uncletopia"],"game_id":440,"stv_port":27016,"stv_name":"Uncletopia | Frankfurt | 1 | All Maps | STV","players":null},{"server_id":110,"name":"Uncletopia | Frankfurt | 2 | All Maps","name_short":"frk-2","host":"frk-1.de.uncletopia.com","port":27025,"enabled":true,"region":"eu","cc":"de","latitude":50.110924,"longitude":8.682127,"reserved":0,"last_update":"0001-01-01T00:00:00Z","name_a2s":"Uncletopia | Frankfurt | 2 | All Maps","protocol":17,"map":"plr_hightower","folder":"tf","game":"Team Fortress","app_id":440,"player_count":0,"max_players":24,"Bots":0,"server_type":"Dedicated","server_os":"Linux","password":true,"vac":true,"version":"7961495","steam_id":85568392924469990,"keywords":["nocrits","nodmgspread","payload","uncletopia"],"game_id":440,"stv_port":27026,"stv_name":"Uncletopia | Frankfurt | 2 | All Maps | STV","players":null},{"server_id":308,"name":"Uncletopia | Frankfurt | 3 | All Maps","name_short":"frk-3","host":"frk-1.de.uncletopia.com","port":27035,"enabled":true,"region":"eu","cc":"de","latitude":50.110924,"longitude":8.682127,"reserved":0,"last_update":"0001-01-01T00:00:00Z","name_a2s":"Uncletopia | Frankfurt | 3 | All Maps","protocol":17,"map":"cp_process_final","folder":"tf","game":"Team Fortress","app_id":440,"player_count":0,"max_players":24,"Bots":0,"server_type":"Dedicated","server_os":"Linux","password":true,"vac":true,"version":"7961495","steam_id":85568392924504274,"keywords":["cp","nocrits","nodmgspread","uncletopia"],"game_id":440,"stv_port":27036,"stv_name":"Uncletopia | Frankfurt | 3 | All Maps | STV","players":null},{"server_id":309,"name":"Uncletopia | Frankfurt | 4 | All Maps","name_short":"frk-4","host":"frk-1.de.uncletopia.com","port":27045,"enabled":true,"region":"eu","cc":"de","latitude":50.110924,"longitude":8.682127,"reserved":0,"last_update":"0001-01-01T00:00:00Z","name_a2s":"Uncletopia | Frankfurt | 4 | All Maps","protocol":17,"map":"cp_gorge","folder":"tf","game":"Team Fortress","app_id":440,"player_count":0,"max_players":24,"Bots":0,"server_type":"Dedicated","server_os":"Linux","password":true,"vac":true,"version":"7961495","steam_id":85568392924504275,"keywords":["cp","nocrits","nodmgspread","uncletopia"],"game_id":440,"stv_port":27046,"stv_name":"Uncletopia | Frankfurt | 4 | All Maps | STV","players":null},{"server_id":310,"name":"Uncletopia | Frankfurt | 5 | All Maps","name_short":"frk-5","host":"frk-1.de.uncletopia.com","port":27055,"enabled":true,"region":"eu","cc":"de","latitude":50.110924,"longitude":8.682127,"reserved":0,"last_update":"0001-01-01T00:00:00Z","name_a2s":"Uncletopia | Frankfurt | 5 | All Maps","protocol":17,"map":"koth_nucleus","folder":"tf","game":"Team Fortress","app_id":440,"player_count":0,"max_players":24,"Bots":0,"server_type":"Dedicated","server_os":"Linux","password":true,"vac":true,"version":"7961495","steam_id":85568392924504277,"keywords":["cp","nocrits","nodmgspread","uncletopia"],"game_id":440,"stv_port":27056,"stv_name":"Uncletopia | Frankfurt | 5 | All Maps | STV","players":null},{"server_id":311,"name":"Uncletopia | Frankfurt | 6 | All Maps","name_short":"frk-6","host":"frk-1.de.uncletopia.com","port":27065,"enabled":true,"region":"eu","cc":"de","latitude":50.110924,"longitude":8.682127,"reserved":0,"last_update":"0001-01-01T00:00:00Z","name_a2s":"Uncletopia | Frankfurt | 6 | All Maps","protocol":17,"map":"cp_coldfront","folder":"tf","game":"Team Fortress","app_id":440,"player_count":0,"max_players":24,"Bots":0,"server_type":"Dedicated","server_os":"Linux","password":true,"vac":true,"version":"7961495","steam_id":85568392924504278,"keywords":["cp","nocrits","nodmgspread","uncletopia"],"game_id":440,"stv_port":27066,"stv_name":"Uncletopia | Frankfurt | 6 | All Maps | STV","players":null},{"server_id":23,"name":"Uncletopia | Frankfurt | 7 | Stopwatch","name_short":"frk-7","host":"frk-1.de.uncletopia.com","port":27075,"enabled":true,"region":"eu","cc":"de","latitude":50.110924,"longitude":8.682127,"reserved":0,"last_update":"0001-01-01T00:00:00Z","name_a2s":"Uncletopia | Frankfurt | 7 | Stopwatch","protocol":17,"map":"cp_sunshine","folder":"tf","game":"Team Fortress","app_id":440,"player_count":0,"max_players":24,"Bots":0,"server_type":"Dedicated","server_os":"Linux","password":true,"vac":true,"version":"7961495","steam_id":85568392924742827,"keywords":["cp","nocrits","nodmgspread","uncletopia"],"game_id":440,"stv_port":27076,"stv_name":"Uncletopia | Frankfurt | 7 | Stopwatch | STV","players":null},{"server_id":24,"name":"Uncletopia | Frankfurt | 8 | Community","name_short":"frk-8","host":"frk-1.de.uncletopia.com","port":27085,"enabled":true,"region":"eu","cc":"de","latitude":50.110924,"longitude":8.682127,"reserved":0,"last_update":"0001-01-01T00:00:00Z","name_a2s":"Uncletopia | Frankfurt | 8 | Community","protocol":17,"map":"workshop/pl_boundary_final1.ugc456799153","folder":"tf","game":"Team Fortress","app_id":440,"player_count":0,"max_players":24,"Bots":0,"server_type":"Dedicated","server_os":"Linux","password":true,"vac":true,"version":"7961495","steam_id":85568392924742828,"keywords":["nocrits","nodmgspread","payload","uncletopia"],"game_id":440,"stv_port":27086,"stv_name":"Uncletopia | Frankfurt | 8 | Community | STV","players":null},{"server_id":202,"name":"Uncletopia | Hong Kong | 1 | All Maps","name_short":"hgk-1","host":"hgk-1.hk.uncletopia.com","port":27015,"enabled":true,"region":"asia","cc":"hk","latitude":22.302711,"longitude":114.177216,"reserved":0,"last_update":"0001-01-01T00:00:00Z","name_a2s":"Uncletopia | Hong Kong | 1 | All Maps","protocol":17,"map":"koth_highpass","folder":"tf","game":"Team Fortress","app_id":440,"player_count":1,"max_players":24,"Bots":0,"server_type":"Dedicated","server_os":"Linux","password":true,"vac":true,"version":"7961495","steam_id":85568392924494504,"keywords":["cp","nocrits","nodmgspread","uncletopia"],"game_id":440,"stv_port":27016,"stv_name":"Uncletopia | Hong Kong | 1 | All Maps | STV","players":[{"user_id":18,"name":"Joilee32","steam_id":76561199226255440,"connected_time":50000000000,"state":"active","ping":80}]},{"server_id":1,"name":"Uncletopia | Los Angeles | 1 | All Maps","name_short":"lax-1","host":"lax-1.us.uncletopia.com","port":27015,"enabled":true,"region":"us-west","cc":"us","latitude":33.94279,"longitude":-118.41004,"reserved":0,"last_update":"0001-01-01T00:00:00Z","name_a2s":"Uncletopia | Los Angeles | 1 | All Maps","protocol":17,"map":"pl_upward","folder":"tf","game":"Team Fortress","app_id":440,"player_count":23,"max_players":24,"Bots":0,"server_type":"Dedicated","server_os":"Linux","password":true,"vac":true,"version":"7961495","steam_id":85568392924469991,"keywords":["nocrits","nodmgspread","payload","uncletopia"],"game_id":440,"stv_port":27016,"stv_name":"Uncletopia | Los Angeles | 1 | All Maps | STV","players":[{"user_id":309,"name":"lol","steam_id":76561198026491738,"connected_time":636000000000,"state":"active","ping":69},{"user_id":298,"name":"a chicken","steam_id":76561198313121580,"connected_time":1670000000000,"state":"active","ping":52},{"user_id":301,"name":"Wendall555","steam_id":76561198985637603,"connected_time":1318000000000,"state":"active","ping":55},{"user_id":310,"name":"Humble Learner","steam_id":76561198066091050,"connected_time":565000000000,"state":"active","ping":86},{"user_id":312,"name":"rmbl","steam_id":76561198150137369,"connected_time":394000000000,"state":"active","ping":58},{"user_id":287,"name":"Arrythmia","steam_id":76561198093748123,"connected_time":3003000000000,"state":"active","ping":80},{"user_id":313,"name":"Eldritch Curio.üëÅ","steam_id":76561198044669027,"connected_time":394000000000,"state":"active","ping":112},{"user_id":304,"name":"Yoyos","steam_id":76561198061035695,"connected_time":1013000000000,"state":"active","ping":45},{"user_id":269,"name":"Avem","steam_id":76561198058763710,"connected_time":3515000000000,"state":"active","ping":45},{"user_id":294,"name":"Weegee","steam_id":76561198140095755,"connected_time":2090000000000,"state":"active","ping":50},{"user_id":311,"name":"Whisper!","steam_id":76561198119609795,"connected_time":470000000000,"state":"active","ping":49},{"user_id":293,"name":"hypergressive","steam_id":76561198065860750,"connected_time":2244000000000,"state":"active","ping":45},{"user_id":277,"name":"GIRLTWINK CEOüö¨üåï","steam_id":76561198116859659,"connected_time":3171000000000,"state":"active","ping":54},{"user_id":316,"name":"Nortel Network Telephone T7316","steam_id":76561198399261089,"connected_time":360000000000,"state":"active","ping":47},{"user_id":305,"name":"evil jesus 05","steam_id":76561198419315893,"connected_time":983000000000,"state":"active","ping":60},{"user_id":279,"name":"Hobbes","steam_id":76561198087956236,"connected_time":3111000000000,"state":"active","ping":48},{"user_id":283,"name":"Lord Pretty Flocko Jordye","steam_id":76561198962880749,"connected_time":3083000000000,"state":"active","ping":77},{"user_id":315,"name":"Ethanol Buttchugger","steam_id":76561199127590316,"connected_time":379000000000,"state":"active","ping":38},{"user_id":284,"name":"epic weeaboo!","steam_id":76561198061441314,"connected_time":3075000000000,"state":"active","ping":105},{"user_id":308,"name":"dynamite","steam_id":76561198217242365,"connected_time":697000000000,"state":"active","ping":44},{"user_id":297,"name":"AT‚ú™MIC","steam_id":76561198100385184,"connected_time":2014000000000,"state":"active","ping":50},{"user_id":300,"name":"John Calibur","steam_id":76561197999986606,"connected_time":1449000000000,"state":"active","ping":46},{"user_id":317,"name":"HOG RIDER","steam_id":76561198298589502,"connected_time":307000000000,"state":"active","ping":46}]},{"server_id":112,"name":"Uncletopia | Los Angeles | 2 | All Maps","name_short":"lax-2","host":"lax-1.us.uncletopia.com","port":27025,"enabled":true,"region":"us-west","cc":"us","latitude":33.94279,"longitude":-118.41004,"reserved":0,"last_update":"0001-01-01T00:00:00Z","name_a2s":"Uncletopia | Los Angeles | 2 | All Maps","protocol":17,"map":"koth_viaduct","folder":"tf","game":"Team Fortress","app_id":440,"player_count":0,"max_players":24,"Bots":0,"server_type":"Dedicated","server_os":"Linux","password":true,"vac":true,"version":"7961495","steam_id":85568392924469992,"keywords":["cp","nocrits","nodmgspread","uncletopia"],"game_id":440,"stv_port":27026,"stv_name":"Uncletopia | Los Angeles | 2 | All Maps | STV","players":null},{"server_id":324,"name":"Uncletopia | Los Angeles | 3 | All Maps","name_short":"lax-3","host":"lax-1.us.uncletopia.com","port":27035,"enabled":true,"region":"us-west","cc":"us","latitude":33.94279,"longitude":-118.41004,"reserved":0,"last_update":"0001-01-01T00:00:00Z","name_a2s":"Uncletopia | Los Angeles | 3 | All Maps","protocol":17,"map":"pl_upward","folder":"tf","game":"Team Fortress","app_id":440,"player_count":0,"max_players":24,"Bots":0,"server_type":"Dedicated","server_os":"Linux","password":true,"vac":true,"version":"7961495","steam_id":85568392924510198,"keywords":["nocrits","nodmgspread","payload","uncletopia"],"game_id":440,"stv_port":27036,"stv_name":"Uncletopia | Los Angeles | 3 | All Maps | STV","players":null},{"server_id":25,"name":"Uncletopia | Los Angeles | 4 | Stopwatch","name_short":"lax-4","host":"lax-1.us.uncletopia.com","port":27045,"enabled":true,"region":"us-west","cc":"us","latitude":33.94279,"longitude":-118.41004,"reserved":0,"last_update":"0001-01-01T00:00:00Z","name_a2s":"Uncletopia | Los Angeles | 4 | Stopwatch","protocol":17,"map":"workshop/koth_product_final.ugc454272353","folder":"tf","game":"Team Fortress","app_id":440,"player_count":0,"max_players":24,"Bots":0,"server_type":"Dedicated","server_os":"Linux","password":true,"vac":true,"version":"7961495","steam_id":85568392924510199,"keywords":["cp","nocrits","nodmgspread","uncletopia"],"game_id":440,"stv_port":27046,"stv_name":"Uncletopia | Los Angeles | 4 | Stopwatch | STV","players":null},{"server_id":11,"name":"Uncletopia | London | 1 | All Maps","name_short":"lon-1","host":"lon-1.uk.uncletopia.com","port":27015,"enabled":true,"region":"eu","cc":"gb","latitude":51.509865,"longitude":-0.118092,"reserved":0,"last_update":"0001-01-01T00:00:00Z","name_a2s":"Uncletopia | London | 1 | All Maps","protocol":17,"map":"koth_nucleus","folder":"tf","game":"Team Fortress","app_id":440,"player_count":0,"max_players":24,"Bots":0,"server_type":"Dedicated","server_os":"Linux","password":true,"vac":true,"version":"7961495","steam_id":85568392924367362,"keywords":["cp","nocrits","nodmgspread","uncletopia"],"game_id":440,"stv_port":27016,"stv_name":"Uncletopia | London | 1 | All Maps | STV","players":null},{"server_id":114,"name":"Uncletopia | London | 2 | All Maps","name_short":"lon-2","host":"lon-1.uk.uncletopia.com","port":27025,"enabled":true,"region":"eu","cc":"gb","latitude":51.509865,"longitude":-0.118092,"reserved":0,"last_update":"0001-01-01T00:00:00Z","name_a2s":"Uncletopia | London | 2 | All Maps","protocol":17,"map":"pl_snowycoast","folder":"tf","game":"Team Fortress","app_id":440,"player_count":0,"max_players":24,"Bots":0,"server_type":"Dedicated","server_os":"Linux","password":true,"vac":true,"version":"7961495","steam_id":85568392924470941,"keywords":["nocrits","nodmgspread","payload","uncletopia"],"game_id":440,"stv_port":27026,"stv_name":"Uncletopia | London | 2 | All Maps | STV","players":null},{"server_id":320,"name":"Uncletopia | London | 3 | All Maps","name_short":"lon-3","host":"lon-1.uk.uncletopia.com","port":27035,"enabled":true,"region":"eu","cc":"gb","latitude":51.509865,"longitude":-0.118092,"reserved":0,"last_update":"0001-01-01T00:00:00Z","name_a2s":"Uncletopia | London | 3 | All Maps","protocol":17,"map":"pl_borneo","folder":"tf","game":"Team Fortress","app_id":440,"player_count":0,"max_players":24,"Bots":0,"server_type":"Dedicated","server_os":"Linux","password":true,"vac":true,"version":"7961495","steam_id":85568392924510192,"keywords":["nocrits","nodmgspread","payload","uncletopia"],"game_id":440,"stv_port":27036,"stv_name":"Uncletopia | London | 3 | All Maps | STV","players":null},{"server_id":321,"name":"Uncletopia | London | 4 | All Maps","name_short":"lon-4","host":"lon-1.uk.uncletopia.com","port":27045,"enabled":true,"region":"eu","cc":"gb","latitude":51.509865,"longitude":-0.118092,"reserved":0,"last_update":"0001-01-01T00:00:00Z","name_a2s":"Uncletopia | London | 4 | All Maps","protocol":17,"map":"pl_badwater","folder":"tf","game":"Team Fortress","app_id":440,"player_count":0,"max_players":24,"Bots":0,"server_type":"Dedicated","server_os":"Linux","password":true,"vac":true,"version":"7961495","steam_id":85568392924510193,"keywords":["nocrits","nodmgspread","payload","uncletopia"],"game_id":440,"stv_port":27046,"stv_name":"Uncletopia | London | 4 | All Maps | STV","players":null},{"server_id":21,"name":"Uncletopia | London | 5 | All Maps","name_short":"lon-5","host":"lon-1.uk.uncletopia.com","port":27055,"enabled":true,"region":"eu","cc":"gb","latitude":51.509865,"longitude":-0.118092,"reserved":0,"last_update":"0001-01-01T00:00:00Z","name_a2s":"Uncletopia | London | 5 | All Maps","protocol":17,"map":"koth_lazarus","folder":"tf","game":"Team Fortress","app_id":440,"player_count":0,"max_players":24,"Bots":0,"server_type":"Dedicated","server_os":"Linux","password":true,"vac":true,"version":"7961495","steam_id":85568392924742829,"keywords":["cp","nocrits","nodmgspread","uncletopia"],"game_id":440,"stv_port":27056,"stv_name":"Uncletopia | London | 5 | All Maps | STV","players":null},{"server_id":22,"name":"Uncletopia | London | 6 | All Maps","name_short":"lon-6","host":"lon-1.uk.uncletopia.com","port":27065,"enabled":true,"region":"eu","cc":"gb","latitude":51.509865,"longitude":-0.118092,"reserved":0,"last_update":"0001-01-01T00:00:00Z","name_a2s":"Uncletopia | London | 6 | All Maps","protocol":17,"map":"cp_snakewater_final1","folder":"tf","game":"Team Fortress","app_id":440,"player_count":0,"max_players":24,"Bots":0,"server_type":"Dedicated","server_os":"Linux","password":true,"vac":true,"version":"7961495","steam_id":85568392924742830,"keywords":["cp","nocrits","nodmgspread","uncletopia"],"game_id":440,"stv_port":27066,"stv_name":"Uncletopia | London | 6 | All Maps | STV","players":null},{"server_id":40,"name":"Uncletopia | London | 7 | Stopwatch","name_short":"lon-7","host":"lon-1.uk.uncletopia.com","port":27075,"enabled":true,"region":"eu","cc":"gb","latitude":51.509865,"longitude":-0.118092,"reserved":0,"last_update":"0001-01-01T00:00:00Z","name_a2s":"Uncletopia | London | 7 | Stopwatch","protocol":17,"map":"workshop/pl_badwater_pro_v12.ugc2142942074","folder":"tf","game":"Team Fortress","app_id":440,"player_count":0,"max_players":24,"Bots":0,"server_type":"Dedicated","server_os":"Linux","password":true,"vac":true,"version":"7961495","steam_id":85568392924964314,"keywords":["nocrits","nodmgspread","payload","uncletopia"],"game_id":440,"stv_port":27076,"stv_name":"Uncletopia | London | 7 | Stopwatch | STV","players":null},{"server_id":41,"name":"Uncletopia | London | 8 | Community","name_short":"lon-8","host":"lon-1.uk.uncletopia.com","port":27085,"enabled":true,"region":"eu","cc":"gb","latitude":51.509865,"longitude":-0.118092,"reserved":0,"last_update":"0001-01-01T00:00:00Z","name_a2s":"Uncletopia | London | 8 | Community","protocol":17,"map":"workshop/cp_propaganda_b18.ugc1603743849","folder":"tf","game":"Team Fortress","app_id":440,"player_count":0,"max_players":24,"Bots":0,"server_type":"Dedicated","server_os":"Linux","password":true,"vac":true,"version":"7961495","steam_id":85568392924964315,"keywords":["cp","nocrits","nodmgspread","uncletopia"],"game_id":440,"stv_port":27086,"stv_name":"Uncletopia | London | 8 | Community | STV","players":null},{"server_id":300,"name":"Uncletopia | Montr√©al | 1 | One Thousand Uncles","name_short":"mtl-1","host":"mtl-1.ca.uncletopia.com","port":27015,"enabled":true,"region":"us-east","cc":"ca","latitude":45.50889,"longitude":-73.56167,"reserved":0,"last_update":"0001-01-01T00:00:00Z","name_a2s":"Uncletopia | Montr√©al | 1 | One Thousand Uncles","protocol":17,"map":"pl_goldrush","folder":"tf","game":"Team Fortress","app_id":440,"player_count":0,"max_players":32,"Bots":0,"server_type":"Dedicated","server_os":"Linux","password":true,"vac":true,"version":"7961495","steam_id":85568392924500087,"keywords":["alltalk","danepve","increased_maxplayers","norespawntime","payload","uncletopia"],"game_id":440,"stv_port":0,"stv_name":"","players":null},{"server_id":301,"name":"Uncletopia | Montr√©al | 2 | One Thousand Uncles","name_short":"mtl-2","host":"mtl-1.ca.uncletopia.com","port":27025,"enabled":true,"region":"us-east","cc":"ca","latitude":45.50889,"longitude":-73.56167,"reserved":0,"last_update":"0001-01-01T00:00:00Z","name_a2s":"Uncletopia | Montr√©al | 2 | One Thousand Uncles","protocol":17,"map":"pl_chilly","folder":"tf","game":"Team Fortress","app_id":440,"player_count":0,"max_players":32,"Bots":0,"server_type":"Dedicated","server_os":"Linux","password":true,"vac":true,"version":"7961495","steam_id":85568392924500088,"keywords":["alltalk","danepve","increased_maxplayers","norespawntime","payload","uncletopia"],"game_id":440,"stv_port":0,"stv_name":"","players":null},{"server_id":302,"name":"Uncletopia | Montr√©al | 3 | One Thousand Uncles","name_short":"mtl-3","host":"mtl-1.ca.uncletopia.com","port":27035,"enabled":true,"region":"us-east","cc":"ca","latitude":45.50889,"longitude":-73.56167,"reserved":0,"last_update":"0001-01-01T00:00:00Z","name_a2s":"Uncletopia | Montr√©al | 3 | One Thousand Uncles","protocol":17,"map":"pl_pier","folder":"tf","game":"Team Fortress","app_id":440,"player_count":0,"max_players":32,"Bots":0,"server_type":"Dedicated","server_os":"Linux","password":true,"vac":true,"version":"7961495","steam_id":85568392924500089,"keywords":["alltalk","danepve","increased_maxplayers","norespawntime","payload","uncletopia"],"game_id":440,"stv_port":0,"stv_name":"","players":null},{"server_id":13,"name":"Uncletopia | New York City | 1 | All Maps","name_short":"nyc-1","host":"nyc-1.us.uncletopia.com","port":27015,"enabled":true,"region":"us-east","cc":"us","latitude":40.73061,"longitude":-73.93524,"reserved":0,"last_update":"0001-01-01T00:00:00Z","name_a2s":"Uncletopia | New York City | 1 | All Maps","protocol":17,"map":"pl_pier","folder":"tf","game":"Team Fortress","app_id":440,"player_count":24,"max_players":24,"Bots":0,"server_type":"Dedicated","server_os":"Linux","password":true,"vac":true,"version":"7961495","steam_id":85568392924469993,"keywords":["nocrits","nodmgspread","payload","uncletopia"],"game_id":440,"stv_port":27016,"stv_name":"Uncletopia | New York City | 1 | All Maps | STV","players":[{"user_id":603,"name":"Neapolitan(Elysium)","steam_id":76561199093398934,"connected_time":516000000000,"state":"active","ping":56},{"user_id":599,"name":"alfredodan no-edphones","steam_id":76561198025011044,"connected_time":858000000000,"state":"active","ping":74},{"user_id":604,"name":"Mr Socks","steam_id":76561197991585761,"connected_time":449000000000,"state":"active","ping":90},{"user_id":605,"name":"Vortex","steam_id":76561198403036711,"connected_time":403000000000,"state":"active","ping":75},{"user_id":584,"name":"Captain Slow","steam_id":76561198116957161,"connected_time":1565000000000,"state":"active","ping":46},{"user_id":609,"name":"Banana connoisseur","steam_id":76561199156630225,"connected_time":277000000000,"state":"active","ping":58},{"user_id":592,"name":"Censure","steam_id":76561198850891374,"connected_time":1256000000000,"state":"active","ping":55},{"user_id":601,"name":"PotatoTheCarrot","steam_id":76561198014089484,"connected_time":627000000000,"state":"active","ping":72},{"user_id":587,"name":"0","steam_id":76561198046065237,"connected_time":1534000000000,"state":"active","ping":60},{"user_id":610,"name":"RandyPickleshoes","steam_id":76561198064139260,"connected_time":202000000000,"state":"active","ping":48},{"user_id":600,"name":"bomba","steam_id":76561198301585642,"connected_time":718000000000,"state":"active","ping":48},{"user_id":594,"name":"I want die.","steam_id":76561198061260785,"connected_time":1090000000000,"state":"active","ping":69},{"user_id":607,"name":"puppy :3","steam_id":76561198011196264,"connected_time":363000000000,"state":"active","ping":90},{"user_id":568,"name":"Wallet","steam_id":76561198081067377,"connected_time":3660000000000,"state":"active","ping":45},{"user_id":595,"name":"estoy durmiendo honk shoo honk ","steam_id":76561198059575962,"connected_time":1072000000000,"state":"active","ping":62},{"user_id":537,"name":"space man","steam_id":76561198066333670,"connected_time":5860000000000,"state":"active","ping":50},{"user_id":608,"name":"Gunslinger Beetle","steam_id":76561198393872595,"connected_time":335000000000,"state":"active","ping":48},{"user_id":543,"name":"Meskoozy","steam_id":76561198102394479,"connected_time":5401000000000,"state":"active","ping":77},{"user_id":579,"name":"ZakiLee","steam_id":76561198161351170,"connected_time":2847000000000,"state":"active","ping":56},{"user_id":567,"name":"gskinnr","steam_id":76561199506973596,"connected_time":3849000000000,"state":"active","ping":78},{"user_id":419,"name":"Yuzu","steam_id":76561198417913035,"connected_time":14428000000000,"state":"active","ping":61},{"user_id":597,"name":"Quirinus","steam_id":76561198011516889,"connected_time":1004000000000,"state":"active","ping":68},{"user_id":596,"name":"frog from pond AT","steam_id":76561198184900753,"connected_time":1059000000000,"state":"active","ping":53},{"user_id":577,"name":"Dank_Krill","steam_id":76561198839913424,"connected_time":3245000000000,"state":"active","ping":61}]},{"server_id":14,"name":"Uncletopia | New York City | 2 | All Maps","name_short":"nyc-2","host":"nyc-1.us.uncletopia.com","port":27025,"enabled":true,"region":"us-east","cc":"us","latitude":40.73061,"longitude":-73.93524,"reserved":0,"last_update":"0001-01-01T00:00:00Z","name_a2s":"Uncletopia | New York City | 2 | All Maps","protocol":17,"map":"pl_snowycoast","folder":"tf","game":"Team Fortress","app_id":440,"player_count":0,"max_players":24,"Bots":0,"server_type":"Dedicated","server_os":"Linux","password":true,"vac":true,"version":"7961495","steam_id":85568392924469994,"keywords":["nocrits","nodmgspread","payload","uncletopia"],"game_id":440,"stv_port":27026,"stv_name":"Uncletopia | New York City | 2 | All Maps | STV","players":null},{"server_id":15,"name":"Uncletopia | New York City | 3 | Stopwatch","name_short":"nyc-3","host":"nyc-1.us.uncletopia.com","port":27035,"enabled":true,"region":"us-east","cc":"us","latitude":40.73061,"longitude":-73.93524,"reserved":0,"last_update":"0001-01-01T00:00:00Z","name_a2s":"Uncletopia | New York City | 3 | Stopwatch","protocol":17,"map":"koth_highpass","folder":"tf","game":"Team Fortress","app_id":440,"player_count":0,"max_players":24,"Bots":0,"server_type":"Dedicated","server_os":"Linux","password":true,"vac":true,"version":"7961495","steam_id":85568392924742820,"keywords":["cp","nocrits","nodmgspread","uncletopia"],"game_id":440,"stv_port":27036,"stv_name":"Uncletopia | New York City | 3 | Stopwatch | STV","players":null},{"server_id":16,"name":"Uncletopia | New York City | 4 | Community","name_short":"nyc-4","host":"nyc-1.us.uncletopia.com","port":27045,"enabled":true,"region":"us-east","cc":"us","latitude":40.73061,"longitude":-73.93524,"reserved":0,"last_update":"0001-01-01T00:00:00Z","name_a2s":"Uncletopia | New York City | 4 | Community","protocol":17,"map":"workshop/cp_indulge.ugc528106646","folder":"tf","game":"Team Fortress","app_id":440,"player_count":0,"max_players":24,"Bots":0,"server_type":"Dedicated","server_os":"Linux","password":true,"vac":true,"version":"7961495","steam_id":85568392924742821,"keywords":["cp","nocrits","nodmgspread","uncletopia"],"game_id":440,"stv_port":27046,"stv_name":"Uncletopia | New York City | 4 | Community | STV","players":null},{"server_id":142,"name":"Uncletopia | S√£o Paulo | 1 | All Maps","name_short":"sao-1","host":"sao-1.br.uncletopia.com","port":27015,"enabled":true,"region":"sa","cc":"br","latitude":-23.533773,"longitude":-46.62529,"reserved":0,"last_update":"0001-01-01T00:00:00Z","name_a2s":"Uncletopia | S√£o Paulo | 1 | All Maps","protocol":17,"map":"koth_viaduct","folder":"tf","game":"Team Fortress","app_id":440,"player_count":0,"max_players":24,"Bots":0,"server_type":"Dedicated","server_os":"Linux","password":true,"vac":true,"version":"7961495","steam_id":85568392924469996,"keywords":["cp","nocrits","nodmgspread","uncletopia"],"game_id":440,"stv_port":27016,"stv_name":"Uncletopia | S√£o Paulo | 1 | All Maps | STV","players":null},{"server_id":143,"name":"Uncletopia | S√£o Paulo | 2 | Community","name_short":"sao-2","host":"sao-2.br.uncletopia.com","port":27015,"enabled":true,"region":"sa","cc":"br","latitude":-23.533773,"longitude":-46.62529,"reserved":0,"last_update":"0001-01-01T00:00:00Z","name_a2s":"Uncletopia | S√£o Paulo | 2 | Community","protocol":17,"map":"workshop/koth_product_final.ugc454272353","folder":"tf","game":"Team Fortress","app_id":440,"player_count":0,"max_players":24,"Bots":0,"server_type":"Dedicated","server_os":"Linux","password":true,"vac":true,"version":"7961495","steam_id":85568392924485349,"keywords":["cp","nocrits","nodmgspread","uncletopia"],"game_id":440,"stv_port":27016,"stv_name":"Uncletopia | S√£o Paulo | 2 | Community | STV","players":null},{"server_id":7,"name":"Uncletopia | Seattle | 1 | All Maps","name_short":"sea-1","host":"sea-1.us.uncletopia.com","port":27015,"enabled":true,"region":"us-west","cc":"us","latitude":47.608013,"longitude":-122.33517,"reserved":0,"last_update":"0001-01-01T00:00:00Z","name_a2s":"Uncletopia | Seattle | 1 | All Maps","protocol":17,"map":"koth_nucleus","folder":"tf","game":"Team Fortress","app_id":440,"player_count":24,"max_players":24,"Bots":0,"server_type":"Dedicated","server_os":"Linux","password":true,"vac":true,"version":"7961495","steam_id":85568392924469997,"keywords":["cp","nocrits","nodmgspread","uncletopia"],"game_id":440,"stv_port":27016,"stv_name":"Uncletopia | Seattle | 1 | All Maps | STV","players":[{"user_id":701,"name":"Hawksgamer","steam_id":76561198152405941,"connected_time":633000000000,"state":"active","ping":45},{"user_id":683,"name":"RainboomCrash","steam_id":76561198065612273,"connected_time":2606000000000,"state":"active","ping":49},{"user_id":697,"name":"pilbo bellbottom","steam_id":76561198441916331,"connected_time":1329000000000,"state":"active","ping":48},{"user_id":677,"name":"lukamine","steam_id":76561198166827208,"connected_time":3079000000000,"state":"active","ping":45},{"user_id":695,"name":"SHADOW_GAMER","steam_id":76561198055506323,"connected_time":1407000000000,"state":"active","ping":75},{"user_id":686,"name":"Stupid Twink Translucent","steam_id":76561199212057076,"connected_time":2453000000000,"state":"active","ping":74},{"user_id":670,"name":"Melly","steam_id":76561198045867175,"connected_time":3475000000000,"state":"active","ping":59},{"user_id":678,"name":"lavender","steam_id":76561199069518286,"connected_time":3078000000000,"state":"active","ping":72},{"user_id":703,"name":"Moffein","steam_id":76561198016739296,"connected_time":616000000000,"state":"active","ping":63},{"user_id":689,"name":"Nina","steam_id":76561198875007138,"connected_time":2302000000000,"state":"active","ping":43},{"user_id":632,"name":"[TrC] Dackstrus","steam_id":76561197973518509,"connected_time":7252000000000,"state":"active","ping":58},{"user_id":706,"name":"thomas","steam_id":76561198412353895,"connected_time":419000000000,"state":"active","ping":43},{"user_id":705,"name":"rat who can kickflip dot com","steam_id":76561198073620027,"connected_time":550000000000,"state":"active","ping":43},{"user_id":699,"name":"ghor","steam_id":76561197994547132,"connected_time":1152000000000,"state":"active","ping":32},{"user_id":707,"name":"Mocha Josie","steam_id":76561198066452726,"connected_time":415000000000,"state":"active","ping":71},{"user_id":665,"name":"soup","steam_id":76561198043209046,"connected_time":3558000000000,"state":"active","ping":66},{"user_id":702,"name":"Mr8bittripper","steam_id":76561198133894229,"connected_time":631000000000,"state":"active","ping":74},{"user_id":676,"name":"Squiliam","steam_id":76561198025278006,"connected_time":3195000000000,"state":"active","ping":99},{"user_id":691,"name":"Jazz2T","steam_id":76561198154418867,"connected_time":2277000000000,"state":"active","ping":141},{"user_id":627,"name":"[TrC] Nosy","steam_id":76561197978859310,"connected_time":7433000000000,"state":"active","ping":61},{"user_id":708,"name":"Sailor","steam_id":76561199081983517,"connected_time":149000000000,"state":"active","ping":90},{"user_id":700,"name":"Tea Enthusiast","steam_id":76561198185583925,"connected_time":1106000000000,"state":"active","ping":87},{"user_id":653,"name":"Hazel The Maid Boy","steam_id":76561199247095754,"connected_time":4532000000000,"state":"active","ping":63},{"user_id":644,"name":"blinkerton city","steam_id":76561198054270410,"connected_time":5811000000000,"state":"active","ping":57}]},{"server_id":119,"name":"Uncletopia | Seattle | 2 | All Maps","name_short":"sea-2","host":"sea-1.us.uncletopia.com","port":27025,"enabled":true,"region":"us-west","cc":"us","latitude":47.608013,"longitude":-122.33517,"reserved":0,"last_update":"0001-01-01T00:00:00Z","name_a2s":"Uncletopia | Seattle | 2 | All Maps","protocol":17,"map":"pl_frontier_final","folder":"tf","game":"Team Fortress","app_id":440,"player_count":24,"max_players":24,"Bots":0,"server_type":"Dedicated","server_os":"Linux","password":true,"vac":true,"version":"7961495","steam_id":85568392924469998,"keywords":["nocrits","nodmgspread","payload","uncletopia"],"game_id":440,"stv_port":27026,"stv_name":"Uncletopia | Seattle | 2 | All Maps | STV","players":[{"user_id":263,"name":"Rat (real)","steam_id":76561198302366619,"connected_time":809000000000,"state":"active","ping":68},{"user_id":222,"name":"smeasly","steam_id":76561198028718812,"connected_time":3085000000000,"state":"active","ping":42},{"user_id":241,"name":"Marz","steam_id":76561198799364911,"connected_time":1880000000000,"state":"active","ping":68},{"user_id":232,"name":"Day Man","steam_id":76561198067154807,"connected_time":2617000000000,"state":"active","ping":48},{"user_id":264,"name":"CaiGaming","steam_id":76561198313023508,"connected_time":664000000000,"state":"active","ping":68},{"user_id":239,"name":"NEBULA","steam_id":76561198086878595,"connected_time":1901000000000,"state":"active","ping":75},{"user_id":270,"name":"epsilon","steam_id":76561198025337276,"connected_time":149000000000,"state":"active","ping":76},{"user_id":243,"name":"Flappy Foreskin","steam_id":76561199013107272,"connected_time":1786000000000,"state":"active","ping":86},{"user_id":248,"name":"Flops","steam_id":76561197961030141,"connected_time":1719000000000,"state":"active","ping":47},{"user_id":265,"name":"FlexDaddy","steam_id":76561198039724086,"connected_time":378000000000,"state":"active","ping":76},{"user_id":251,"name":"ShackerJack","steam_id":76561198118017448,"connected_time":1600000000000,"state":"active","ping":59},{"user_id":236,"name":"Churro Chewer","steam_id":76561198170253694,"connected_time":2313000000000,"state":"active","ping":54},{"user_id":233,"name":"Houdini Cache","steam_id":76561198045506970,"connected_time":2417000000000,"state":"active","ping":40},{"user_id":245,"name":"kenZino","steam_id":76561197967971192,"connected_time":1770000000000,"state":"active","ping":45},{"user_id":258,"name":"TheHumanTaco119","steam_id":76561198996107520,"connected_time":1081000000000,"state":"active","ping":80},{"user_id":176,"name":"Butterton","steam_id":76561198833286517,"connected_time":5558000000000,"state":"active","ping":86},{"user_id":271,"name":"Finkly","steam_id":76561198049828110,"connected_time":145000000000,"state":"active","ping":44},{"user_id":246,"name":"Gumball","steam_id":76561198051152458,"connected_time":1756000000000,"state":"active","ping":142},{"user_id":267,"name":"The Champagne Of Mayonnaise","steam_id":76561197961107982,"connected_time":238000000000,"state":"active","ping":79},{"user_id":269,"name":"dog","steam_id":76561198263873491,"connected_time":232000000000,"state":"active","ping":90},{"user_id":272,"name":":^1 Hekken","steam_id":76561198109933577,"connected_time":45000000000,"state":"active","ping":43},{"user_id":262,"name":"tax_evasion","steam_id":76561198094818557,"connected_time":974000000000,"state":"active","ping":62},{"user_id":237,"name":"Doctor‚Ñ¢","steam_id":76561198134309750,"connected_time":2142000000000,"state":"active","ping":105},{"user_id":259,"name":"CatLike Pigeon","steam_id":76561198171716030,"connected_time":1032000000000,"state":"active","ping":105}]},{"server_id":406,"name":"Uncletopia | Seattle | 3 | Stopwatch","name_short":"sea-3","host":"sea-1.us.uncletopia.com","port":27035,"enabled":true,"region":"us-west","cc":"us","latitude":47.608013,"longitude":-122.33517,"reserved":0,"last_update":"0001-01-01T00:00:00Z","name_a2s":"Uncletopia | Seattle | 3 | Stopwatch","protocol":17,"map":"workshop/koth_ashville_final.ugc2130459942","folder":"tf","game":"Team Fortress","app_id":440,"player_count":0,"max_players":24,"Bots":0,"server_type":"Dedicated","server_os":"Linux","password":true,"vac":true,"version":"7961495","steam_id":85568392924515217,"keywords":["cp","nocrits","nodmgspread","uncletopia"],"game_id":440,"stv_port":27036,"stv_name":"Uncletopia | Seattle | 3 | Stopwatch | STV","players":null},{"server_id":17,"name":"Uncletopia | San Francisco | 1 | All Maps","name_short":"sfo-1","host":"sfo-1.us.uncletopia.com","port":27015,"enabled":true,"region":"us-west","cc":"us","latitude":37.77397,"longitude":-122.4313,"reserved":0,"last_update":"0001-01-01T00:00:00Z","name_a2s":"Uncletopia | San Francisco | 1 | All Maps","protocol":17,"map":"pl_pier","folder":"tf","game":"Team Fortress","app_id":440,"player_count":24,"max_players":24,"Bots":0,"server_type":"Dedicated","server_os":"Linux","password":true,"vac":true,"version":"7961495","steam_id":85568392924469999,"keywords":["nocrits","nodmgspread","payload","uncletopia"],"game_id":440,"stv_port":27016,"stv_name":"Uncletopia | San Francisco | 1 | All Maps | STV","players":[{"user_id":197,"name":"squilith","steam_id":76561198134923092,"connected_time":300000000000,"state":"active","ping":51},{"user_id":185,"name":"vanillain","steam_id":76561198058617608,"connected_time":2014000000000,"state":"active","ping":62},{"user_id":160,"name":"Seanvich","steam_id":76561198065805500,"connected_time":5189000000000,"state":"active","ping":105},{"user_id":186,"name":"gatorbelt","steam_id":76561198145784505,"connected_time":1832000000000,"state":"active","ping":51},{"user_id":179,"name":"nat","steam_id":76561198179923093,"connected_time":2901000000000,"state":"active","ping":70},{"user_id":149,"name":"based jumper","steam_id":76561198065662025,"connected_time":7059000000000,"state":"active","ping":50},{"user_id":156,"name":"gas station tweaker","steam_id":76561198264288798,"connected_time":6109000000000,"state":"active","ping":73},{"user_id":183,"name":"üëÅ sumixodic","steam_id":76561198090770710,"connected_time":2586000000000,"state":"active","ping":67},{"user_id":113,"name":"Baron Davis","steam_id":76561198012411292,"connected_time":9319000000000,"state":"active","ping":51},{"user_id":196,"name":"1000 Ping","steam_id":76561198098330939,"connected_time":489000000000,"state":"active","ping":91},{"user_id":134,"name":"@ ‰∫∫ @","steam_id":76561198043684960,"connected_time":8276000000000,"state":"active","ping":86},{"user_id":155,"name":"portal robewrtson big fan","steam_id":76561198150428763,"connected_time":6121000000000,"state":"active","ping":70},{"user_id":184,"name":"dewey","steam_id":76561198132791511,"connected_time":2132000000000,"state":"active","ping":55},{"user_id":187,"name":"Clorox Chugger 69","steam_id":76561198049508548,"connected_time":1814000000000,"state":"active","ping":60},{"user_id":190,"name":"Catgirl Explise","steam_id":76561198044413891,"connected_time":1360000000000,"state":"active","ping":69},{"user_id":195,"name":"‚Ä∫ We Are You.j2","steam_id":76561197995242200,"connected_time":517000000000,"state":"active","ping":45},{"user_id":174,"name":"SanitysEdge","steam_id":76561198130732813,"connected_time":3496000000000,"state":"active","ping":53},{"user_id":153,"name":"Bitmap","steam_id":76561198285964424,"connected_time":6272000000000,"state":"active","ping":48},{"user_id":69,"name":"-={o.W.n.}=- Dark Murkrow 3","steam_id":76561198174432643,"connected_time":12947000000000,"state":"active","ping":61},{"user_id":177,"name":"mentos14","steam_id":76561198097993629,"connected_time":2933000000000,"state":"active","ping":71},{"user_id":164,"name":"Killerofzombie23","steam_id":76561198799173778,"connected_time":4585000000000,"state":"active","ping":75},{"user_id":161,"name":"Alcohol Hominid","steam_id":76561198320313950,"connected_time":5176000000000,"state":"active","ping":85},{"user_id":181,"name":"bleh","steam_id":76561198104517253,"connected_time":2857000000000,"state":"active","ping":63},{"user_id":147,"name":"Wick","steam_id":76561198062996360,"connected_time":7426000000000,"state":"active","ping":60}]},{"server_id":18,"name":"Uncletopia | San Francisco | 2 | All Maps","name_short":"sfo-2","host":"sfo-1.us.uncletopia.com","port":27025,"enabled":true,"region":"us-west","cc":"us","latitude":37.77397,"longitude":-122.4313,"reserved":0,"last_update":"0001-01-01T00:00:00Z","name_a2s":"Uncletopia | San Francisco | 2 | All Maps","protocol":17,"map":"cp_altitude","folder":"tf","game":"Team Fortress","app_id":440,"player_count":0,"max_players":24,"Bots":0,"server_type":"Dedicated","server_os":"Linux","password":true,"vac":true,"version":"7961495","steam_id":85568392924470000,"keywords":["cp","nocrits","nodmgspread","uncletopia"],"game_id":440,"stv_port":27026,"stv_name":"Uncletopia | San Francisco | 2 | All Maps | STV","players":null},{"server_id":19,"name":"Uncletopia | San Francisco | 3 | Stopwatch","name_short":"sfo-3","host":"sfo-1.us.uncletopia.com","port":27035,"enabled":true,"region":"us-west","cc":"us","latitude":37.77397,"longitude":-122.4313,"reserved":0,"last_update":"0001-01-01T00:00:00Z","name_a2s":"Uncletopia | San Francisco | 3 | Stopwatch","protocol":17,"map":"workshop/koth_jamram_rc1a.ugc2964065613","folder":"tf","game":"Team Fortress","app_id":440,"player_count":0,"max_players":24,"Bots":0,"server_type":"Dedicated","server_os":"Linux","password":true,"vac":true,"version":"7961495","steam_id":85568392924742824,"keywords":["cp","nocrits","nodmgspread","uncletopia"],"game_id":440,"stv_port":27036,"stv_name":"Uncletopia | San Francisco | 3 | Stopwatch | STV","players":null},{"server_id":20,"name":"Uncletopia | San Francisco | 4 | Community","name_short":"sfo-4","host":"sfo-1.us.uncletopia.com","port":27045,"enabled":true,"region":"us-west","cc":"us","latitude":37.77397,"longitude":-122.4313,"reserved":0,"last_update":"0001-01-01T00:00:00Z","name_a2s":"Uncletopia | San Francisco | 4 | Community","protocol":17,"map":"workshop/pl_cactuscanyon_redux_final2.ugc2579644293","folder":"tf","game":"Team Fortress","app_id":440,"player_count":0,"max_players":24,"Bots":0,"server_type":"Dedicated","server_os":"Linux","password":true,"vac":true,"version":"7961495","steam_id":85568392924742826,"keywords":["nocrits","nodmgspread","payload","uncletopia"],"game_id":440,"stv_port":27046,"stv_name":"Uncletopia | San Francisco | 4 | Community | STV","players":null},{"server_id":141,"name":"Uncletopia | Sydney | 1 | All Maps","name_short":"syd-1","host":"syd-1.au.uncletopia.com","port":27015,"enabled":true,"region":"au","cc":"au","latitude":-33.865143,"longitude":151.2099,"reserved":0,"last_update":"0001-01-01T00:00:00Z","name_a2s":"Uncletopia | Sydney | 1 | All Maps","protocol":17,"map":"pl_swiftwater_final1","folder":"tf","game":"Team Fortress","app_id":440,"player_count":24,"max_players":24,"Bots":0,"server_type":"Dedicated","server_os":"Linux","password":true,"vac":true,"version":"7961495","steam_id":85568392924470001,"keywords":["nocrits","nodmgspread","payload","uncletopia"],"game_id":440,"stv_port":27016,"stv_name":"Uncletopia | Sydney | 1 | All Maps | STV","players":[{"user_id":81,"name":"Livid","steam_id":76561198060024585,"connected_time":771000000000,"state":"active","ping":32},{"user_id":54,"name":"Qwertles","steam_id":76561198033779273,"connected_time":2407000000000,"state":"active","ping":45},{"user_id":76,"name":"Munch","steam_id":76561198308105172,"connected_time":1193000000000,"state":"active","ping":95},{"user_id":79,"name":"Mikey","steam_id":76561198438203131,"connected_time":840000000000,"state":"active","ping":60},{"user_id":83,"name":"Matt","steam_id":76561198009757360,"connected_time":477000000000,"state":"active","ping":59},{"user_id":63,"name":"Distilledrain41","steam_id":76561198272717119,"connected_time":1400000000000,"state":"active","ping":44},{"user_id":27,"name":"BIG BUTTUS BASHIUM","steam_id":76561198031293430,"connected_time":3574000000000,"state":"active","ping":91},{"user_id":82,"name":"man","steam_id":76561198094041769,"connected_time":690000000000,"state":"active","ping":30},{"user_id":80,"name":"Echo","steam_id":76561198825163047,"connected_time":797000000000,"state":"active","ping":54},{"user_id":57,"name":"no ones none","steam_id":76561198038536815,"connected_time":2075000000000,"state":"active","ping":59},{"user_id":69,"name":"Crucial","steam_id":76561198992582454,"connected_time":1336000000000,"state":"active","ping":34},{"user_id":28,"name":"JohnnoDwarf","steam_id":76561199069897590,"connected_time":3573000000000,"state":"active","ping":90},{"user_id":85,"name":"StevenGreenOnline64","steam_id":76561198058512735,"connected_time":2000000000,"state":"spawning","ping":85},{"user_id":62,"name":"homes inc","steam_id":76561198170188198,"connected_time":1621000000000,"state":"active","ping":54},{"user_id":78,"name":"akmon753","steam_id":76561199507989067,"connected_time":1015000000000,"state":"active","ping":60},{"user_id":67,"name":"Swell","steam_id":76561198219336768,"connected_time":1352000000000,"state":"active","ping":51},{"user_id":73,"name":"SECT","steam_id":76561199122367855,"connected_time":1227000000000,"state":"active","ping":153},{"user_id":40,"name":"Tantei Rotana","steam_id":76561198041204323,"connected_time":3000000000000,"state":"active","ping":63},{"user_id":60,"name":"Pompadouraus","steam_id":76561198327530525,"connected_time":1937000000000,"state":"active","ping":79},{"user_id":71,"name":"yaero","steam_id":76561198047462865,"connected_time":1255000000000,"state":"active","ping":45},{"user_id":84,"name":"gus1230","steam_id":76561198855856022,"connected_time":248000000000,"state":"active","ping":62},{"user_id":68,"name":"Trex988","steam_id":76561198147725676,"connected_time":1341000000000,"state":"active","ping":61},{"user_id":46,"name":"soupy","steam_id":76561198073734936,"connected_time":2824000000000,"state":"active","ping":90},{"user_id":48,"name":"tampon popsicle","steam_id":76561198103237216,"connected_time":2711000000000,"state":"active","ping":85}]},{"server_id":123,"name":"Uncletopia | Sydney | 2 | All Maps","name_short":"syd-2","host":"syd-1.au.uncletopia.com","port":27025,"enabled":true,"region":"au","cc":"au","latitude":-33.865143,"longitude":151.2099,"reserved":0,"last_update":"0001-01-01T00:00:00Z","name_a2s":"Uncletopia | Sydney | 2 | All Maps","protocol":17,"map":"pl_snowycoast","folder":"tf","game":"Team Fortress","app_id":440,"player_count":0,"max_players":24,"Bots":0,"server_type":"Dedicated","server_os":"Linux","password":true,"vac":true,"version":"7961495","steam_id":85568392924470002,"keywords":["nocrits","nodmgspread","payload","uncletopia"],"game_id":440,"stv_port":27026,"stv_name":"Uncletopia | Sydney | 2 | All Maps | STV","players":null},{"server_id":395,"name":"Uncletopia | Sydney | 3 | All Maps","name_short":"syd-3","host":"syd-1.au.uncletopia.com","port":27035,"enabled":true,"region":"au","cc":"au","latitude":-33.865143,"longitude":151.2099,"reserved":0,"last_update":"0001-01-01T00:00:00Z","name_a2s":"Uncletopia | Sydney | 3 | All Maps","protocol":17,"map":"cp_metalworks","folder":"tf","game":"Team Fortress","app_id":440,"player_count":0,"max_players":24,"Bots":0,"server_type":"Dedicated","server_os":"Linux","password":true,"vac":true,"version":"7961495","steam_id":85568392925194467,"keywords":["cp","nocrits","nodmgspread","uncletopia"],"game_id":440,"stv_port":27036,"stv_name":"Uncletopia | Sydney | 3 | All Maps | STV","players":null},{"server_id":396,"name":"Uncletopia | Sydney | 4 | All Maps","name_short":"syd-4","host":"syd-1.au.uncletopia.com","port":27045,"enabled":true,"region":"au","cc":"au","latitude":-33.865143,"longitude":151.2099,"reserved":0,"last_update":"0001-01-01T00:00:00Z","name_a2s":"Uncletopia | Sydney | 4 | All Maps","protocol":17,"map":"koth_cascade","folder":"tf","game":"Team Fortress","app_id":440,"player_count":0,"max_players":24,"Bots":0,"server_type":"Dedicated","server_os":"Linux","password":true,"vac":true,"version":"7961495","steam_id":85568392925397958,"keywords":["cp","nocrits","nodmgspread","uncletopia"],"game_id":440,"stv_port":27046,"stv_name":"Uncletopia | Sydney | 4 | All Maps | STV","players":null},{"server_id":58,"name":"Uncletopia | Sydney | 5 | Stopwatch","name_short":"syd-5","host":"syd-1.au.uncletopia.com","port":27055,"enabled":true,"region":"au","cc":"au","latitude":-33.865143,"longitude":151.2099,"reserved":0,"last_update":"0001-01-01T00:00:00Z","name_a2s":"Uncletopia | Sydney | 5 | Stopwatch","protocol":17,"map":"workshop/koth_product_final.ugc454272353","folder":"tf","game":"Team Fortress","app_id":440,"player_count":0,"max_players":24,"Bots":0,"server_type":"Dedicated","server_os":"Linux","password":true,"vac":true,"version":"7961495","steam_id":85568392925397959,"keywords":["cp","nocrits","nodmgspread","uncletopia"],"game_id":440,"stv_port":27056,"stv_name":"Uncletopia | Sydney | 5 | Stopwatch | STV","players":null},{"server_id":59,"name":"Uncletopia | Sydney | 6 | Community","name_short":"syd-6","host":"syd-1.au.uncletopia.com","port":27065,"enabled":true,"region":"au","cc":"au","latitude":-33.865143,"longitude":151.2099,"reserved":0,"last_update":"0001-01-01T00:00:00Z","name_a2s":"Uncletopia | Sydney | 6 | Community","protocol":17,"map":"workshop/koth_trenchfoot_ab1.ugc731436616","folder":"tf","game":"Team Fortress","app_id":440,"player_count":0,"max_players":24,"Bots":0,"server_type":"Dedicated","server_os":"Linux","password":true,"vac":true,"version":"7961495","steam_id":85568392925397960,"keywords":["cp","nocrits","nodmgspread","uncletopia"],"game_id":440,"stv_port":27066,"stv_name":"Uncletopia | Sydney | 6 | Community | STV","players":null},{"server_id":49,"name":"Uncletopia | Warsaw | 1 | One Thousand Uncles","name_short":"waw-1","host":"waw-1.pl.uncletopia.com","port":27015,"enabled":true,"region":"eu","cc":"pl","latitude":52.2297,"longitude":21.017532,"reserved":0,"last_update":"0001-01-01T00:00:00Z","name_a2s":"Uncletopia | Warsaw | 1 | One Thousand Uncles","protocol":17,"map":"cp_mercenarypark","folder":"tf","game":"Team Fortress","app_id":440,"player_count":0,"max_players":32,"Bots":0,"server_type":"Dedicated","server_os":"Linux","password":true,"vac":true,"version":"7961495","steam_id":85568392925397850,"keywords":["alltalk","cp","danepve","increased_maxplayers","norespawntime","uncletopia"],"game_id":440,"stv_port":0,"stv_name":"","players":null},{"server_id":50,"name":"Uncletopia | Warsaw | 2 | One Thousand Uncles","name_short":"waw-2","host":"waw-1.pl.uncletopia.com","port":27025,"enabled":true,"region":"eu","cc":"pl","latitude":52.2297,"longitude":21.017532,"reserved":0,"last_update":"0001-01-01T00:00:00Z","name_a2s":"Uncletopia | Warsaw | 2 | One Thousand Uncles","protocol":17,"map":"cp_egypt_final","folder":"tf","game":"Team Fortress","app_id":440,"player_count":0,"max_players":32,"Bots":0,"server_type":"Dedicated","server_os":"Linux","password":true,"vac":true,"version":"7961495","steam_id":85568392925397851,"keywords":["alltalk","cp","danepve","increased_maxplayers","norespawntime","uncletopia"],"game_id":440,"stv_port":0,"stv_name":"","players":null},{"server_id":51,"name":"Uncletopia | Warsaw | 3 | All Maps","name_short":"waw-3","host":"waw-1.pl.uncletopia.com","port":27035,"enabled":true,"region":"eu","cc":"pl","latitude":52.2297,"longitude":21.017532,"reserved":0,"last_update":"0001-01-01T00:00:00Z","name_a2s":"Uncletopia | Warsaw | 3 | All Maps","protocol":17,"map":"pl_snowycoast","folder":"tf","game":"Team Fortress","app_id":440,"player_count":0,"max_players":24,"Bots":0,"server_type":"Dedicated","server_os":"Linux","password":true,"vac":true,"version":"7961495","steam_id":85568392925397852,"keywords":["nocrits","nodmgspread","payload","uncletopia"],"game_id":440,"stv_port":27036,"stv_name":"Uncletopia | Warsaw | 3 | All Maps | STV","players":null},{"server_id":52,"name":"Uncletopia | Warsaw | 4 | All Maps","name_short":"waw-4","host":"waw-1.pl.uncletopia.com","port":27045,"enabled":true,"region":"eu","cc":"pl","latitude":52.2297,"longitude":21.017532,"reserved":0,"last_update":"0001-01-01T00:00:00Z","name_a2s":"Uncletopia | Warsaw | 4 | All Maps","protocol":17,"map":"cp_fastlane","folder":"tf","game":"Team Fortress","app_id":440,"player_count":0,"max_players":24,"Bots":0,"server_type":"Dedicated","server_os":"Linux","password":true,"vac":true,"version":"7961495","steam_id":85568392925397853,"keywords":["cp","nocrits","nodmgspread","uncletopia"],"game_id":440,"stv_port":27046,"stv_name":"Uncletopia | Warsaw | 4 | All Maps | STV","players":null},{"server_id":53,"name":"Uncletopia | Warsaw | 5 | Stopwatch","name_short":"waw-5","host":"waw-1.pl.uncletopia.com","port":27055,"enabled":true,"region":"eu","cc":"pl","latitude":52.2297,"longitude":21.017532,"reserved":0,"last_update":"0001-01-01T00:00:00Z","name_a2s":"Uncletopia | Warsaw | 5 | Stopwatch","protocol":17,"map":"cp_gullywash_final1","folder":"tf","game":"Team Fortress","app_id":440,"player_count":0,"max_players":24,"Bots":0,"server_type":"Dedicated","server_os":"Linux","password":true,"vac":true,"version":"7961495","steam_id":85568392925397854,"keywords":["cp","nocrits","nodmgspread","uncletopia"],"game_id":440,"stv_port":27056,"stv_name":"Uncletopia | Warsaw | 5 | Stopwatch | STV","players":null},{"server_id":54,"name":"Uncletopia | Warsaw | 6 | Community","name_short":"waw-6","host":"waw-1.pl.uncletopia.com","port":27065,"enabled":true,"region":"eu","cc":"pl","latitude":52.2297,"longitude":21.017532,"reserved":0,"last_update":"0001-01-01T00:00:00Z","name_a2s":"Uncletopia | Warsaw | 6 | Community","protocol":17,"map":"workshop/cp_fulgur_rc2a.ugc2068252300","folder":"tf","game":"Team Fortress","app_id":440,"player_count":0,"max_players":24,"Bots":0,"server_type":"Dedicated","server_os":"Linux","password":true,"vac":true,"version":"7961495","steam_id":85568392925397856,"keywords":["cp","nocrits","nodmgspread","uncletopia"],"game_id":440,"stv_port":27066,"stv_name":"Uncletopia | Warsaw | 6 | Community | STV","players":null}]}