{"status":true,"message":"","result":[{"server_id":9,"name":"Uncletopia | Atlanta | 1 | All Maps","name_short":"atl-1","host":"atl-1.us.uncletopia.com","port":27015,"enabled":true,"region":"us-east","cc":"us","latitude":33.753746,"longitude":-84.38633,"reserved":0,"last_update":"0001-01-01T00:00:00Z","name_a2s":"Uncletopia | Atlanta | 1 | All Maps","protocol":17,"map":"pl_snowycoast","folder":"tf","game":"Team Fortress","app_id":440,"player_count":0,"max_players":24,"Bots":0,"server_type":"Dedicated","server_os":"Linux","password":true,"vac":true,"version":"7742253","steam_id":85568392924469982,"keywords":["nocrits","nodmgspread","payload","uncletopia"],"game_id":440,"stv_port":27016,"stv_name":"Uncletopia | Atlanta | 1 | All Maps | STV","players":null},{"server_id":400,"name":"Uncletopia | Atlanta | 3 | Stopwatch Beta","name_short":"atl-3","host":"atl-1.us.uncletopia.com","port":27035,"enabled":true,"region":"us-east","cc":"us","latitude":33.753746,"longitude":-84.38633,"reserved":0,"last_update":"0001-01-01T00:00:00Z","name_a2s":"Uncletopia | Atlanta | 3 | Stopwatch Beta","protocol":17,"map":"pl_pier","folder":"tf","game":"Team Fortress","app_id":440,"player_count":0,"max_players":24,"Bots":0,"server_type":"Dedicated","server_os":"Linux","password":true,"vac":true,"version":"7742253","steam_id":85568392924515187,"keywords":["nocrits","nodmgspread","payload","uncletopia"],"game_id":440,"stv_port":27036,"stv_name":"Uncletopia | Atlanta | 3 | Stopwatch Beta | STV","players":null},{"server_id":401,"name":"Uncletopia | Atlanta | 4 | No Payload","name_short":"atl-4","host":"atl-1.us.uncletopia.com","port":27045,"enabled":true,"region":"us-east","cc":"us","latitude":33.753746,"longitude":-84.38633,"reserved":0,"last_update":"0001-01-01T00:00:00Z","name_a2s":"Uncletopia | Atlanta | 4 | No Payload","protocol":17,"map":"pl_pier","folder":"tf","game":"Team Fortress","app_id":440,"player_count":0,"max_players":24,"Bots":0,"server_type":"Dedicated","server_os":"Linux","password":true,"vac":true,"version":"7723704","steam_id":85568392924515188,"keywords":["nocrits","nodmgspread","payload","uncletopia"],"game_id":440,"stv_port":27046,"stv_name":"Uncletopia | Atlanta | 4 | No Payload | STV","players":null},{"server_id":2,"name":"Uncletopia | Chicago | 1 | All Maps","name_short":"chi-1","host":"chi-1.us.uncletopia.com","port":27015,"enabled":true,"region":"us-central","cc":"us","latitude":41.881832,"longitude":-87.62318,"reserved":0,"last_update":"0001-01-01T00:00:00Z","name_a2s":"Uncletopia | Chicago | 1 | All Maps","protocol":17,"map":"pl_barnblitz","folder":"tf","game":"Team Fortress","app_id":440,"player_count":0,"max_players":24,"Bots":0,"server_type":"Dedicated","server_os":"Linux","password":true,"vac":true,"version":"7742253","steam_id":85568392924469984,"keywords":["nocrits","nodmgspread","payload","uncletopia"],"game_id":440,"stv_port":27016,"stv_name":"Uncletopia | Chicago | 1 | All Maps | STV","players":null},{"server_id":106,"name":"Uncletopia | Chicago | 2 | All Maps","name_short":"chi-2","host":"chi-1.us.uncletopia.com","port":27025,"enabled":true,"region":"us-central","cc":"us","latitude":41.881832,"longitude":-87.62318,"reserved":0,"last_update":"0001-01-01T00:00:00Z","name_a2s":"Uncletopia | Chicago | 2 | All Maps","protocol":17,"map":"pl_snowycoast","folder":"tf","game":"Team Fortress","app_id":440,"player_count":0,"max_players":24,"Bots":0,"server_type":"Dedicated","server_os":"Linux","password":true,"vac":true,"version":"7742253","steam_id":85568392924469985,"keywords":["nocrits","nodmgspread","payload","uncletopia"],"game_id":440,"stv_port":27026,"stv_name":"Uncletopia | Chicago | 2 | All Maps | STV","players":null},{"server_id":402,"name":"Uncletopia | Chicago | 3 | All Maps","name_short":"chi-3","host":"chi-1.us.uncletopia.com","port":27035,"enabled":true,"region":"us-central","cc":"us","latitude":41.881832,"longitude":-87.62318,"reserved":0,"last_update":"0001-01-01T00:00:00Z","name_a2s":"Uncletopia | Chicago | 3 | All Maps","protocol":17,"map":"koth_viaduct","folder":"tf","game":"Team Fortress","app_id":440,"player_count":0,"max_players":24,"Bots":0,"server_type":"Dedicated","server_os":"Linux","password":true,"vac":true,"version":"7742253","steam_id":85568392924515191,"keywords":["cp","nocrits","nodmgspread","uncletopia"],"game_id":440,"stv_port":27036,"stv_name":"Uncletopia | Chicago | 3 | All Maps | STV","players":null},{"server_id":403,"name":"Uncletopia | Chicago | 4 | All Maps","name_short":"chi-4","host":"chi-1.us.uncletopia.com","port":27045,"enabled":true,"region":"us-central","cc":"us","latitude":41.881832,"longitude":-87.62318,"reserved":0,"last_update":"0001-01-01T00:00:00Z","name_a2s":"Uncletopia | Chicago | 4 | All Maps","protocol":17,"map":"koth_lakeside_final","folder":"tf","game":"Team Fortress","app_id":440,"player_count":0,"max_players":24,"Bots":0,"server_type":"Dedicated","server_os":"Linux","password":true,"vac":true,"version":"7742253","steam_id":85568392924515193,"keywords":["cp","nocrits","nodmgspread","uncletopia"],"game_id":440,"stv_port":27046,"stv_name":"Uncletopia | Chicago | 4 | All Maps | STV","players":null},{"server_id":36,"name":"Uncletopia | Chicago | 5 | All Maps","name_short":"chi-5","host":"chi-2.us.uncletopia.com","port":27015,"enabled":true,"region":"us-central","cc":"us","latitude":41.881832,"longitude":-87.62318,"reserved":0,"last_update":"0001-01-01T00:00:00Z","name_a2s":"Uncletopia | Chicago | 5 | All Maps","protocol":17,"map":"pl_swiftwater_final1","folder":"tf","game":"Team Fortress","app_id":440,"player_count":24,"max_players":24,"Bots":0,"server_type":"Dedicated","server_os":"Linux","password":true,"vac":true,"version":"7742253","steam_id":85568392924866362,"keywords":["nocrits","nodmgspread","payload","uncletopia"],"game_id":440,"stv_port":27016,"stv_name":"Uncletopia | Chicago | 5 | All Maps | STV","players":[{"user_id":53,"name":"weslerrr","steam_id":76561198292480110,"connected_time":935000000000,"state":"active","ping":53},{"user_id":37,"name":"Daz","steam_id":76561198041431938,"connected_time":2599000000000,"state":"active","ping":72},{"user_id":46,"name":"technoninja395","steam_id":76561199368978007,"connected_time":1218000000000,"state":"active","ping":52},{"user_id":38,"name":"Obama Nood","steam_id":76561198301526239,"connected_time":2371000000000,"state":"active","ping":90},{"user_id":47,"name":"Mani","steam_id":76561198139428711,"connected_time":1203000000000,"state":"active","ping":57},{"user_id":14,"name":"Casual Costanza","steam_id":76561198024409325,"connected_time":5670000000000,"state":"active","ping":60},{"user_id":34,"name":"A Rhino with Coronavirus","steam_id":76561197999451366,"connected_time":3243000000000,"state":"active","ping":64},{"user_id":43,"name":"swan","steam_id":76561198012569200,"connected_time":1654000000000,"state":"active","ping":72},{"user_id":67,"name":"Toaster","steam_id":76561198856398048,"connected_time":151000000000,"state":"active","ping":90},{"user_id":41,"name":"Souper Scott","steam_id":76561198045518926,"connected_time":2109000000000,"state":"active","ping":52},{"user_id":16,"name":"StΟrm","steam_id":76561198140983063,"connected_time":5403000000000,"state":"active","ping":55},{"user_id":27,"name":"SkyLark","steam_id":76561198303618132,"connected_time":4178000000000,"state":"active","ping":95},{"user_id":42,"name":"Deltaco","steam_id":76561198094572694,"connected_time":2009000000000,"state":"active","ping":117},{"user_id":48,"name":"Papa Banana","steam_id":76561198273437591,"connected_time":1196000000000,"state":"active","ping":72},{"user_id":52,"name":"shokie","steam_id":76561197997961542,"connected_time":968000000000,"state":"active","ping":59},{"user_id":66,"name":"Rick Assley","steam_id":76561198365019199,"connected_time":167000000000,"state":"active","ping":58},{"user_id":51,"name":"Soap Man","steam_id":76561198000490235,"connected_time":1030000000000,"state":"active","ping":115},{"user_id":63,"name":"Purpurite","steam_id":76561198882824881,"connected_time":573000000000,"state":"active","ping":60},{"user_id":57,"name":"kayRune","steam_id":76561199065267678,"connected_time":707000000000,"state":"active","ping":140},{"user_id":58,"name":"Mr. Pink","steam_id":76561198065858172,"connected_time":665000000000,"state":"active","ping":61},{"user_id":59,"name":"Mayor Milo","steam_id":76561198024246523,"connected_time":661000000000,"state":"active","ping":64},{"user_id":60,"name":"carrot cake","steam_id":76561198055174915,"connected_time":639000000000,"state":"active","ping":74},{"user_id":61,"name":"Mack","steam_id":76561198293726863,"connected_time":631000000000,"state":"active","ping":68},{"user_id":62,"name":"Jawbone17","steam_id":76561198043939302,"connected_time":630000000000,"state":"active","ping":112}]},{"server_id":37,"name":"Uncletopia | Chicago | 6 | All Maps","name_short":"chi-6","host":"chi-2.us.uncletopia.com","port":27025,"enabled":true,"region":"us-central","cc":"us","latitude":41.881832,"longitude":-87.62318,"reserved":0,"last_update":"0001-01-01T00:00:00Z","name_a2s":"Uncletopia | Chicago | 6 | All Maps","protocol":17,"map":"cp_sunshine","folder":"tf","game":"Team Fortress","app_id":440,"player_count":0,"max_players":24,"Bots":0,"server_type":"Dedicated","server_os":"Linux","password":true,"vac":true,"version":"7742253","steam_id":85568392924866363,"keywords":["cp","nocrits","nodmgspread","uncletopia"],"game_id":440,"stv_port":27026,"stv_name":"Uncletopia | Chicago | 6 | All Maps | STV","players":null},{"server_id":38,"name":"Uncletopia | Chicago | 7 | Stopwatch Beta","name_short":"chi-7","host":"chi-2.us.uncletopia.com","port":27035,"enabled":true,"region":"us-central","cc":"us","latitude":41.881832,"longitude":-87.62318,"reserved":0,"last_update":"0001-01-01T00:00:00Z","name_a2s":"Uncletopia | Chicago | 7 | Stopwatch Beta","protocol":17,"map":"koth_lakeside_final","folder":"tf","game":"Team Fortress","app_id":440,"player_count":0,"max_players":24,"Bots":0,"server_type":"Dedicated","server_os":"Linux","password":true,"vac":true,"version":"7742253","steam_id":85568392924866364,"keywords":["cp","nocrits","nodmgspread","uncletopia"],"game_id":440,"stv_port":27036,"stv_name":"Uncletopia | Chicago | 7 | Stopwatch Beta | STV","players":null},{"server_id":39,"name":"Uncletopia | Chicago | 8 | Community","name_short":"chi-8","host":"chi-2.us.uncletopia.com","port":27045,"enabled":true,"region":"us-central","cc":"us","latitude":41.881832,"longitude":-87.62318,"reserved":0,"last_update":"0001-01-01T00:00:00Z","name_a2s":"Uncletopia | Chicago | 8 | Community","protocol":17,"map":"koth_lakeside_final","folder":"tf","game":"Team Fortress","app_id":440,"player_count":0,"max_players":24,"Bots":0,"server_type":"Dedicated","server_os":"Linux","password":true,"vac":true,"version":"7742253","steam_id":85568392924866365,"keywords":["cp","nocrits","nodmgspread","uncletopia"],"game_id":440,"stv_port":27046,"stv_name":"Uncletopia | Chicago | 8 | Community | STV","players":null},{"server_id":8,"name":"Uncletopia | Dallas | 1 | All Maps","name_short":"dal-1","host":"dal-1.us.uncletopia.com","port":27015,"enabled":true,"region":"us-central","cc":"us","latitude":32.779167,"longitude":-96.80889,"reserved":0,"last_update":"0001-01-01T00:00:00Z","name_a2s":"Uncletopia | Dallas | 1 | All Maps","protocol":17,"map":"pl_swiftwater_final1","folder":"tf","game":"Team Fortress","app_id":440,"player_count":24,"max_players":24,"Bots":0,"server_type":"Dedicated","server_os":"Linux","password":true,"vac":true,"version":"7742253","steam_id":85568392924469986,"keywords":["nocrits","nodmgspread","payload","uncletopia"],"game_id":440,"stv_port":27016,"stv_name":"Uncletopia | Dallas | 1 | All Maps | STV","players":[{"user_id":69,"name":"amanthatplaysgames","steam_id":76561199396905804,"connected_time":82000000000,"state":"active","ping":244},{"user_id":24,"name":"Terribad","steam_id":76561198120844785,"connected_time":3905000000000,"state":"active","ping":85},{"user_id":5,"name":"That70sDog","steam_id":76561198119396142,"connected_time":5810000000000,"state":"active","ping":67},{"user_id":6,"name":"burial","steam_id":76561198069431694,"connected_time":5801000000000,"state":"active","ping":101},{"user_id":10,"name":"Yayifications","steam_id":76561198066227208,"connected_time":5693000000000,"state":"active","ping":75},{"user_id":16,"name":"Thicc Boi","steam_id":76561199013378707,"connected_time":5476000000000,"state":"active","ping":60},{"user_id":11,"name":"Mastergimmick","steam_id":76561198995180884,"connected_time":5601000000000,"state":"active","ping":63},{"user_id":64,"name":"hola","steam_id":76561198873043242,"connected_time":394000000000,"state":"active","ping":123},{"user_id":51,"name":"PotatoKing","steam_id":76561198302517491,"connected_time":1922000000000,"state":"active","ping":75},{"user_id":47,"name":"microwaving a cinnamon roll","steam_id":76561198328109873,"connected_time":2386000000000,"state":"active","ping":90},{"user_id":21,"name":"pretty cool","steam_id":76561199064758232,"connected_time":4088000000000,"state":"active","ping":56},{"user_id":65,"name":"merty","steam_id":76561198067874268,"connected_time":379000000000,"state":"active","ping":82},{"user_id":53,"name":"IPlayGamez","steam_id":76561198041387508,"connected_time":1737000000000,"state":"active","ping":81},{"user_id":66,"name":"dosimeter","steam_id":76561198039608940,"connected_time":370000000000,"state":"active","ping":103},{"user_id":62,"name":"Tired","steam_id":76561198072620682,"connected_time":774000000000,"state":"active","ping":90},{"user_id":61,"name":"MyamE","steam_id":76561198133278462,"connected_time":1156000000000,"state":"active","ping":92},{"user_id":68,"name":"Krow Lincoln (she/her)","steam_id":76561198085410622,"connected_time":163000000000,"state":"active","ping":101},{"user_id":67,"name":"summerlis","steam_id":76561198165324438,"connected_time":370000000000,"state":"active","ping":87},{"user_id":54,"name":"who ate the cheese","steam_id":76561198275408467,"connected_time":1720000000000,"state":"active","ping":51},{"user_id":43,"name":"1000 Ping","steam_id":76561198098330939,"connected_time":2545000000000,"state":"active","ping":92},{"user_id":56,"name":"twitch.tv/fembotomy","steam_id":76561198102681457,"connected_time":1562000000000,"state":"active","ping":75},{"user_id":58,"name":"Paco","steam_id":76561198023504958,"connected_time":1391000000000,"state":"active","ping":72},{"user_id":59,"name":"Red","steam_id":76561197998285162,"connected_time":1265000000000,"state":"active","ping":90},{"user_id":63,"name":"Player AFK","steam_id":76561198036032168,"connected_time":609000000000,"state":"active","ping":74}]},{"server_id":108,"name":"Uncletopia | Dallas | 2 | All Maps","name_short":"dal-2","host":"dal-1.us.uncletopia.com","port":27025,"enabled":true,"region":"us-central","cc":"us","latitude":32.779167,"longitude":-96.80889,"reserved":0,"last_update":"0001-01-01T00:00:00Z","name_a2s":"Uncletopia | Dallas | 2 | All Maps","protocol":17,"map":"cp_process_final","folder":"tf","game":"Team Fortress","app_id":440,"player_count":0,"max_players":24,"Bots":0,"server_type":"Dedicated","server_os":"Linux","password":true,"vac":true,"version":"7742253","steam_id":85568392924469988,"keywords":["cp","nocrits","nodmgspread","uncletopia"],"game_id":440,"stv_port":27026,"stv_name":"Uncletopia | Dallas | 2 | All Maps | STV","players":null},{"server_id":5,"name":"Uncletopia | Frankfurt | 1 | All Maps","name_short":"frk-1","host":"frk-1.de.uncletopia.com","port":27015,"enabled":true,"region":"eu","cc":"de","latitude":50.110924,"longitude":8.682127,"reserved":0,"last_update":"0001-01-01T00:00:00Z","name_a2s":"Uncletopia | Frankfurt | 1 | All Maps","protocol":17,"map":"pl_pier","folder":"tf","game":"Team Fortress","app_id":440,"player_count":24,"max_players":24,"Bots":0,"server_type":"Dedicated","server_os":"Linux","password":true,"vac":true,"version":"7742253","steam_id":85568392924469989,"keywords":["nocrits","nodmgspread","payload","uncletopia"],"game_id":440,"stv_port":27016,"stv_name":"Uncletopia | Frankfurt | 1 | All Maps | STV","players":[{"user_id":247,"name":"The Green Uncle","steam_id":76561198257163156,"connected_time":2216000000000,"state":"active","ping":78},{"user_id":248,"name":":\u003e","steam_id":76561198349324196,"connected_time":2196000000000,"state":"active","ping":173},{"user_id":220,"name":"BUREK od Sira","steam_id":76561198092589818,"connected_time":4941000000000,"state":"active","ping":62},{"user_id":271,"name":"Fat Pigeon","steam_id":76561198817940142,"connected_time":33000000000,"state":"active","ping":59},{"user_id":239,"name":"YMC agent_richi","steam_id":76561199218542987,"connected_time":3345000000000,"state":"active","ping":49},{"user_id":233,"name":"Chilchang Billing","steam_id":76561197993300020,"connected_time":3926000000000,"state":"active","ping":62},{"user_id":209,"name":"yuh","steam_id":76561199005555839,"connected_time":5567000000000,"state":"active","ping":63},{"user_id":262,"name":"Где море?","steam_id":76561197979625544,"connected_time":850000000000,"state":"active","ping":85},{"user_id":263,"name":"F2P gameing","steam_id":76561198834713682,"connected_time":808000000000,"state":"active","ping":76},{"user_id":241,"name":"Vanilla","steam_id":76561199191214816,"connected_time":3195000000000,"state":"active","ping":62},{"user_id":260,"name":"Cobb Salads","steam_id":76561197971140507,"connected_time":1393000000000,"state":"active","ping":73},{"user_id":250,"name":"Seail_M","steam_id":76561198002405605,"connected_time":2172000000000,"state":"active","ping":58},{"user_id":245,"name":"Lukas","steam_id":76561198009118452,"connected_time":2224000000000,"state":"active","ping":57},{"user_id":254,"name":"Teamtrevien","steam_id":76561198085513932,"connected_time":2108000000000,"state":"active","ping":68},{"user_id":93,"name":"Zateske","steam_id":76561198047446276,"connected_time":10752000000000,"state":"active","ping":64},{"user_id":261,"name":"MidnightMoth","steam_id":76561198842238362,"connected_time":1374000000000,"state":"active","ping":83},{"user_id":234,"name":"...","steam_id":76561198969234594,"connected_time":3914000000000,"state":"active","ping":60},{"user_id":252,"name":"DOME","steam_id":76561198085155381,"connected_time":2145000000000,"state":"active","ping":74},{"user_id":256,"name":"WinRAR™","steam_id":76561198056522270,"connected_time":2076000000000,"state":"active","ping":53},{"user_id":267,"name":"Mr. Hunts","steam_id":76561197981910397,"connected_time":482000000000,"state":"active","ping":75},{"user_id":269,"name":"anairat","steam_id":76561198863788240,"connected_time":149000000000,"state":"active","ping":79},{"user_id":268,"name":"mt","steam_id":76561197961319303,"connected_time":407000000000,"state":"active","ping":48},{"user_id":266,"name":"Little boy from RIZZario","steam_id":76561198157406151,"connected_time":496000000000,"state":"active","ping":63},{"user_id":238,"name":"Barlemon","steam_id":76561198255758457,"connected_time":3389000000000,"state":"active","ping":87}]},{"server_id":110,"name":"Uncletopia | Frankfurt | 2 | All Maps","name_short":"frk-2","host":"frk-1.de.uncletopia.com","port":27025,"enabled":true,"region":"eu","cc":"de","latitude":50.110924,"longitude":8.682127,"reserved":0,"last_update":"0001-01-01T00:00:00Z","name_a2s":"Uncletopia | Frankfurt | 2 | All Maps","protocol":17,"map":"pl_swiftwater_final1","folder":"tf","game":"Team Fortress","app_id":440,"player_count":0,"max_players":24,"Bots":0,"server_type":"Dedicated","server_os":"Linux","password":true,"vac":true,"version":"7742253","steam_id":85568392924469990,"keywords":["nocrits","nodmgspread","payload","uncletopia"],"game_id":440,"stv_port":27026,"stv_name":"Uncletopia | Frankfurt | 2 | All Maps | STV","players":null},{"server_id":308,"name":"Uncletopia | Frankfurt | 3 | All Maps","name_short":"frk-3","host":"frk-1.de.uncletopia.com","port":27035,"enabled":true,"region":"eu","cc":"de","latitude":50.110924,"longitude":8.682127,"reserved":0,"last_update":"0001-01-01T00:00:00Z","name_a2s":"Uncletopia | Frankfurt | 3 | All Maps","protocol":17,"map":"pl_frontier_final","folder":"tf","game":"Team Fortress","app_id":440,"player_count":0,"max_players":24,"Bots":0,"server_type":"Dedicated","server_os":"Linux","password":true,"vac":true,"version":"7742253","steam_id":85568392924504274,"keywords":["nocrits","nodmgspread","payload","uncletopia"],"game_id":440,"stv_port":27036,"stv_name":"Uncletopia | Frankfurt | 3 | All Maps | STV","players":null},{"server_id":309,"name":"Uncletopia | Frankfurt | 4 | All Maps","name_short":"frk-4","host":"frk-1.de.uncletopia.com","port":27045,"enabled":true,"region":"eu","cc":"de","latitude":50.110924,"longitude":8.682127,"reserved":0,"last_update":"0001-01-01T00:00:00Z","name_a2s":"Uncletopia | Frankfurt | 4 | All Maps","protocol":17,"map":"pl_upward","folder":"tf","game":"Team Fortress","app_id":440,"player_count":24,"max_players":24,"Bots":0,"server_type":"Dedicated","server_os":"Linux","password":true,"vac":true,"version":"7742253","steam_id":85568392924504275,"keywords":["nocrits","nodmgspread","payload","uncletopia"],"game_id":440,"stv_port":27046,"stv_name":"Uncletopia | Frankfurt | 4 | All Maps | STV","players":[{"user_id":58,"name":"loop zoop","steam_id":76561198969373800,"connected_time":33000000000,"state":"active","ping":66},{"user_id":54,"name":"kwasny","steam_id":76561199033981024,"connected_time":356000000000,"state":"active","ping":70},{"user_id":47,"name":"your_local_penguin","steam_id":76561199224954346,"connected_time":505000000000,"state":"active","ping":81},{"user_id":10,"name":"Surfyx","steam_id":76561199110545477,"connected_time":1993000000000,"state":"active","ping":61},{"user_id":46,"name":"Löysä Masa","steam_id":76561198343396172,"connected_time":719000000000,"state":"active","ping":87},{"user_id":43,"name":"TheWorstPlayerOfVideoGames","steam_id":76561198343793351,"connected_time":945000000000,"state":"active","ping":57},{"user_id":51,"name":"Tobi Kunn","steam_id":76561198361013020,"connected_time":409000000000,"state":"active","ping":76},{"user_id":15,"name":"svepitos","steam_id":76561198287351235,"connected_time":1681000000000,"state":"active","ping":65},{"user_id":18,"name":"Graf von Scyth","steam_id":76561198198497733,"connected_time":1620000000000,"state":"active","ping":55},{"user_id":29,"name":"a gangsta","steam_id":76561198086709652,"connected_time":1287000000000,"state":"active","ping":60},{"user_id":55,"name":"engie?","steam_id":76561198331852832,"connected_time":269000000000,"state":"active","ping":85},{"user_id":48,"name":"333","steam_id":76561198029805235,"connected_time":502000000000,"state":"active","ping":64},{"user_id":25,"name":"AforeKingDwarf","steam_id":76561198043562926,"connected_time":1412000000000,"state":"active","ping":54},{"user_id":26,"name":"Avoonix","steam_id":76561198186954897,"connected_time":1401000000000,"state":"active","ping":60},{"user_id":33,"name":"GregerUlander","steam_id":76561198152375055,"connected_time":1243000000000,"state":"active","ping":68},{"user_id":31,"name":"kaT","steam_id":76561198879664338,"connected_time":1276000000000,"state":"active","ping":57},{"user_id":32,"name":"Acxsa","steam_id":76561198098979449,"connected_time":1250000000000,"state":"active","ping":67},{"user_id":34,"name":"Cuthbert","steam_id":76561198204649481,"connected_time":1215000000000,"state":"active","ping":100},{"user_id":35,"name":"hedonic treadmill","steam_id":76561199114742711,"connected_time":1213000000000,"state":"active","ping":84},{"user_id":49,"name":"MAKENTAKEN","steam_id":76561199127359587,"connected_time":473000000000,"state":"active","ping":91},{"user_id":37,"name":"gart","steam_id":76561198203394358,"connected_time":1192000000000,"state":"active","ping":104},{"user_id":53,"name":"Diggity","steam_id":76561198297157085,"connected_time":367000000000,"state":"active","ping":54},{"user_id":44,"name":"El`Capitano Flex","steam_id":76561198061813730,"connected_time":900000000000,"state":"active","ping":69},{"user_id":57,"name":"Lössö","steam_id":76561197994254413,"connected_time":45000000000,"state":"active","ping":68}]},{"server_id":310,"name":"Uncletopia | Frankfurt | 5 | All Maps","name_short":"frk-5","host":"frk-1.de.uncletopia.com","port":27055,"enabled":true,"region":"eu","cc":"de","latitude":50.110924,"longitude":8.682127,"reserved":0,"last_update":"0001-01-01T00:00:00Z","name_a2s":"Uncletopia | Frankfurt | 5 | All Maps","protocol":17,"map":"cp_mountainlab","folder":"tf","game":"Team Fortress","app_id":440,"player_count":0,"max_players":24,"Bots":0,"server_type":"Dedicated","server_os":"Linux","password":true,"vac":true,"version":"7742253","steam_id":85568392924504277,"keywords":["cp","nocrits","nodmgspread","uncletopia"],"game_id":440,"stv_port":27056,"stv_name":"Uncletopia | Frankfurt | 5 | All Maps | STV","players":null},{"server_id":311,"name":"Uncletopia | Frankfurt | 6 | All Maps","name_short":"frk-6","host":"frk-1.de.uncletopia.com","port":27065,"enabled":true,"region":"eu","cc":"de","latitude":50.110924,"longitude":8.682127,"reserved":0,"last_update":"0001-01-01T00:00:00Z","name_a2s":"Uncletopia | Frankfurt | 6 | All Maps","protocol":17,"map":"cp_snakewater_final1","folder":"tf","game":"Team Fortress","app_id":440,"player_count":24,"max_players":24,"Bots":0,"server_type":"Dedicated","server_os":"Linux","password":true,"vac":true,"version":"7742253","steam_id":85568392924504278,"keywords":["cp","nocrits","nodmgspread","uncletopia"],"game_id":440,"stv_port":27066,"stv_name":"Uncletopia | Frankfurt | 6 | All Maps | STV","players":[{"user_id":166,"name":"Blondie","steam_id":76561198080631634,"connected_time":1409000000000,"state":"active","ping":60},{"user_id":163,"name":"Инспектор Атас","steam_id":76561199175688390,"connected_time":1563000000000,"state":"active","ping":75},{"user_id":180,"name":"Nin","steam_id":76561198227246584,"connected_time":876000000000,"state":"active","ping":62},{"user_id":187,"name":"logjamlover","steam_id":76561198990132243,"connected_time":289000000000,"state":"active","ping":66},{"user_id":156,"name":"simon","steam_id":76561198880361394,"connected_time":1844000000000,"state":"active","ping":50},{"user_id":188,"name":"one fish two fish","steam_id":76561199081098581,"connected_time":279000000000,"state":"active","ping":79},{"user_id":162,"name":"apple","steam_id":76561198116932635,"connected_time":1570000000000,"state":"active","ping":59},{"user_id":193,"name":"fаt cսոt","steam_id":76561198845550388,"connected_time":225000000000,"state":"active","ping":110},{"user_id":171,"name":"Marquis de Hoto","steam_id":76561198080687708,"connected_time":1078000000000,"state":"active","ping":56},{"user_id":190,"name":"EmissaryOfTheLord","steam_id":76561199130305263,"connected_time":256000000000,"state":"active","ping":54},{"user_id":183,"name":"Tibbs","steam_id":76561197987980406,"connected_time":778000000000,"state":"active","ping":75},{"user_id":173,"name":"all snipers are edgy cowards","steam_id":76561198060200599,"connected_time":1006000000000,"state":"active","ping":106},{"user_id":192,"name":"PANK_Y","steam_id":76561198327715144,"connected_time":248000000000,"state":"active","ping":61},{"user_id":184,"name":"alko_bone","steam_id":76561198557773514,"connected_time":337000000000,"state":"active","ping":111},{"user_id":194,"name":"_Shkoot","steam_id":76561198318170398,"connected_time":224000000000,"state":"active","ping":46},{"user_id":175,"name":"garloid farmer","steam_id":76561197995194628,"connected_time":973000000000,"state":"active","ping":61},{"user_id":176,"name":"Romultra","steam_id":76561198354105082,"connected_time":954000000000,"state":"active","ping":61},{"user_id":177,"name":"Fran","steam_id":76561198339019518,"connected_time":933000000000,"state":"active","ping":59},{"user_id":178,"name":"The|Warrior|Stick-xD","steam_id":76561198129889311,"connected_time":926000000000,"state":"active","ping":50},{"user_id":146,"name":"Toasty5050","steam_id":76561198073540881,"connected_time":3075000000000,"state":"active","ping":48},{"user_id":195,"name":"Frog","steam_id":76561198043981067,"connected_time":172000000000,"state":"active","ping":72},{"user_id":134,"name":"JeanCorben","steam_id":76561197965133561,"connected_time":3345000000000,"state":"active","ping":45},{"user_id":147,"name":"Rimx","steam_id":76561198053034840,"connected_time":3061000000000,"state":"active","ping":92},{"user_id":186,"name":"man builds a sandcastle (rare)","steam_id":76561199012566222,"connected_time":312000000000,"state":"active","ping":50}]},{"server_id":23,"name":"Uncletopia | Frankfurt | 7 | Stopwatch Beta","name_short":"frk-7","host":"frk-1.de.uncletopia.com","port":27075,"enabled":true,"region":"eu","cc":"de","latitude":50.110924,"longitude":8.682127,"reserved":0,"last_update":"0001-01-01T00:00:00Z","name_a2s":"Uncletopia | Frankfurt | 7 | Stopwatch Beta","protocol":17,"map":"pl_badwater","folder":"tf","game":"Team Fortress","app_id":440,"player_count":0,"max_players":24,"Bots":0,"server_type":"Dedicated","server_os":"Linux","password":true,"vac":true,"version":"7742253","steam_id":85568392924742827,"keywords":["nocrits","nodmgspread","payload","uncletopia"],"game_id":440,"stv_port":27076,"stv_name":"Uncletopia | Frankfurt | 7 | Stopwatch Beta | STV","players":null},{"server_id":24,"name":"Uncletopia | Frankfurt | 8 | Community","name_short":"frk-8","host":"frk-1.de.uncletopia.com","port":27085,"enabled":true,"region":"eu","cc":"de","latitude":50.110924,"longitude":8.682127,"reserved":0,"last_update":"0001-01-01T00:00:00Z","name_a2s":"Uncletopia | Frankfurt | 8 | Community","protocol":17,"map":"workshop/koth_ramjam_rc1.ugc459778887","folder":"tf","game":"Team Fortress","app_id":440,"player_count":0,"max_players":24,"Bots":0,"server_type":"Dedicated","server_os":"Linux","password":true,"vac":true,"version":"7742253","steam_id":85568392924742828,"keywords":["cp","nocrits","nodmgspread","uncletopia"],"game_id":440,"stv_port":27086,"stv_name":"Uncletopia | Frankfurt | 8 | Community | STV","players":null},{"server_id":202,"name":"Uncletopia | Hong Kong | 1 | All Maps","name_short":"hgk-1","host":"hgk-1.hk.uncletopia.com","port":27015,"enabled":true,"region":"asia","cc":"hk","latitude":22.302711,"longitude":114.177216,"reserved":0,"last_update":"0001-01-01T00:00:00Z","name_a2s":"Uncletopia | Hong Kong | 1 | All Maps","protocol":17,"map":"pl_barnblitz","folder":"tf","game":"Team Fortress","app_id":440,"player_count":26,"max_players":24,"Bots":0,"server_type":"Dedicated","server_os":"Linux","password":true,"vac":true,"version":"7742253","steam_id":85568392924494504,"keywords":["nocrits","nodmgspread","payload","uncletopia"],"game_id":440,"stv_port":27016,"stv_name":"Uncletopia | Hong Kong | 1 | All Maps | STV","players":[{"user_id":717,"name":"MAGNUS","steam_id":76561198208990721,"connected_time":859000000000,"state":"active","ping":84},{"user_id":524,"name":"PocoLoco","steam_id":76561198834044246,"connected_time":10419000000000,"state":"active","ping":104},{"user_id":608,"name":"Windmill","steam_id":76561199230997986,"connected_time":2758000000000,"state":"active","ping":74},{"user_id":808,"name":"spy from the team fortress 2","steam_id":76561199146847474,"connected_time":9000000000,"state":"spawning","ping":63},{"user_id":613,"name":"Crazywayne","steam_id":76561198056504010,"connected_time":2720000000000,"state":"active","ping":77},{"user_id":572,"name":"ketsu","steam_id":76561197966171554,"connected_time":6267000000000,"state":"active","ping":114},{"user_id":585,"name":"Puddin","steam_id":76561198140052918,"connected_time":4952000000000,"state":"active","ping":87},{"user_id":599,"name":"I love air conditioning","steam_id":76561198811532659,"connected_time":4223000000000,"state":"active","ping":83},{"user_id":595,"name":"ZU","steam_id":76561198179320563,"connected_time":4525000000000,"state":"active","ping":96},{"user_id":601,"name":"r/leroy","steam_id":76561199137927625,"connected_time":3882000000000,"state":"active","ping":97},{"user_id":712,"name":"GalaxyTome","steam_id":76561198336372723,"connected_time":886000000000,"state":"active","ping":67},{"user_id":602,"name":"Steve","steam_id":76561198429235506,"connected_time":3855000000000,"state":"active","ping":77},{"user_id":693,"name":"PissDrinker98","steam_id":76561198856157761,"connected_time":1286000000000,"state":"active","ping":105},{"user_id":724,"name":"silversol","steam_id":76561198004570036,"connected_time":843000000000,"state":"active","ping":100},{"user_id":594,"name":"cube","steam_id":76561198132354269,"connected_time":4577000000000,"state":"active","ping":72},{"user_id":504,"name":"Bertengkar","steam_id":76561198213031155,"connected_time":11475000000000,"state":"active","ping":102},{"user_id":806,"name":"Vladimir Spencer Pootis","steam_id":76561198144686119,"connected_time":21000000000,"state":"spawning","ping":106},{"user_id":579,"name":"tybrl","steam_id":76561198055553140,"connected_time":5476000000000,"state":"active","ping":149},{"user_id":611,"name":"unchi","steam_id":76561197969873415,"connected_time":2743000000000,"state":"active","ping":106},{"user_id":469,"name":"Zacy","steam_id":76561198114841670,"connected_time":15130000000000,"state":"active","ping":135},{"user_id":603,"name":"쿠키","steam_id":76561197997220367,"connected_time":3844000000000,"state":"active","ping":51},{"user_id":696,"name":"MR. BUTTER","steam_id":76561198329902657,"connected_time":1191000000000,"state":"active","ping":105},{"user_id":616,"name":"Du57Y","steam_id":76561198120973476,"connected_time":2615000000000,"state":"active","ping":81},{"user_id":623,"name":"Milk❤ (currently banned in ut","steam_id":76561198163911560,"connected_time":2495000000000,"state":"active","ping":120},{"user_id":723,"name":"Diavolo Diablo","steam_id":76561198166295333,"connected_time":844000000000,"state":"active","ping":88},{"user_id":622,"name":"BuchiRyu","steam_id":76561198137607311,"connected_time":2495000000000,"state":"active","ping":105}]},{"server_id":1,"name":"Uncletopia | Los Angeles | 1 | All Maps","name_short":"lax-1","host":"lax-1.us.uncletopia.com","port":27015,"enabled":true,"region":"us-west","cc":"us","latitude":33.94279,"longitude":-118.41004,"reserved":0,"last_update":"0001-01-01T00:00:00Z","name_a2s":"Uncletopia | Los Angeles | 1 | All Maps","protocol":17,"map":"koth_lakeside_final","folder":"tf","game":"Team Fortress","app_id":440,"player_count":0,"max_players":24,"Bots":0,"server_type":"Dedicated","server_os":"Linux","password":true,"vac":true,"version":"7742253","steam_id":85568392924469991,"keywords":["cp","nocrits","nodmgspread","uncletopia"],"game_id":440,"stv_port":27016,"stv_name":"Uncletopia | Los Angeles | 1 | All Maps | STV","players":null},{"server_id":112,"name":"Uncletopia | Los Angeles | 2 | All Maps","name_short":"lax-2","host":"lax-1.us.uncletopia.com","port":27025,"enabled":true,"region":"us-west","cc":"us","latitude":33.94279,"longitude":-118.41004,"reserved":0,"last_update":"0001-01-01T00:00:00Z","name_a2s":"Uncletopia | Los Angeles | 2 | All Maps","protocol":17,"map":"ctf_turbine","folder":"tf","game":"Team Fortress","app_id":440,"player_count":0,"max_players":24,"Bots":0,"server_type":"Dedicated","server_os":"Linux","password":true,"vac":true,"version":"7742253","steam_id":85568392924469992,"keywords":["ctf","nocrits","nodmgspread","uncletopia"],"game_id":440,"stv_port":27026,"stv_name":"Uncletopia | Los Angeles | 2 | All Maps | STV","players":null},{"server_id":324,"name":"Uncletopia | Los Angeles | 3 | All Maps","name_short":"lax-3","host":"lax-1.us.uncletopia.com","port":27035,"enabled":true,"region":"us-west","cc":"us","latitude":33.94279,"longitude":-118.41004,"reserved":0,"last_update":"0001-01-01T00:00:00Z","name_a2s":"Uncletopia | Los Angeles | 3 | All Maps","protocol":17,"map":"pl_swiftwater_final1","folder":"tf","game":"Team Fortress","app_id":440,"player_count":0,"max_players":24,"Bots":0,"server_type":"Dedicated","server_os":"Linux","password":true,"vac":true,"version":"7742253","steam_id":85568392924510198,"keywords":["nocrits","nodmgspread","payload","uncletopia"],"game_id":440,"stv_port":27036,"stv_name":"Uncletopia | Los Angeles | 3 | All Maps | STV","players":null},{"server_id":25,"name":"Uncletopia | Los Angeles | 4 | Stopwatch Beta","name_short":"lax-4","host":"lax-1.us.uncletopia.com","port":27045,"enabled":true,"region":"us-west","cc":"us","latitude":33.94279,"longitude":-118.41004,"reserved":0,"last_update":"0001-01-01T00:00:00Z","name_a2s":"Uncletopia | Los Angeles | 4 | Stopwatch Beta","protocol":17,"map":"pl_borneo","folder":"tf","game":"Team Fortress","app_id":440,"player_count":0,"max_players":24,"Bots":0,"server_type":"Dedicated","server_os":"Linux","password":true,"vac":true,"version":"7742253","steam_id":85568392924510199,"keywords":["nocrits","nodmgspread","payload","uncletopia"],"game_id":440,"stv_port":27046,"stv_name":"Uncletopia | Los Angeles | 4 | Stopwatch Beta | STV","players":null},{"server_id":11,"name":"Uncletopia | London | 1 | All Maps","name_short":"lon-1","host":"lon-1.uk.uncletopia.com","port":27015,"enabled":true,"region":"eu","cc":"gb","latitude":51.509865,"longitude":-0.118092,"reserved":0,"last_update":"0001-01-01T00:00:00Z","name_a2s":"Uncletopia | London | 1 | All Maps","protocol":17,"map":"pl_frontier_final","folder":"tf","game":"Team Fortress","app_id":440,"player_count":24,"max_players":24,"Bots":0,"server_type":"Dedicated","server_os":"Linux","password":true,"vac":true,"version":"7742253","steam_id":85568392924367362,"keywords":["nocrits","nodmgspread","payload","uncletopia"],"game_id":440,"stv_port":27016,"stv_name":"Uncletopia | London | 1 | All Maps | STV","players":[{"user_id":137,"name":"♣Бредовый Месяц","steam_id":76561198796404149,"connected_time":590000000000,"state":"active","ping":96},{"user_id":129,"name":"redder","steam_id":76561198168231617,"connected_time":1650000000000,"state":"active","ping":50},{"user_id":132,"name":"Doggo","steam_id":76561198091909701,"connected_time":985000000000,"state":"active","ping":77},{"user_id":110,"name":"Cave","steam_id":76561198423147900,"connected_time":3038000000000,"state":"active","ping":47},{"user_id":138,"name":"poliakov.noam","steam_id":76561199259322961,"connected_time":509000000000,"state":"active","ping":96},{"user_id":128,"name":"Shabab","steam_id":76561198095932210,"connected_time":1887000000000,"state":"active","ping":70},{"user_id":113,"name":"Linus Mudrocket","steam_id":76561197979606110,"connected_time":2681000000000,"state":"active","ping":46},{"user_id":30,"name":"FUKTARD2005","steam_id":76561198839121591,"connected_time":7871000000000,"state":"active","ping":59},{"user_id":84,"name":"BarrackOmaha","steam_id":76561198027922724,"connected_time":5550000000000,"state":"active","ping":78},{"user_id":139,"name":"lore","steam_id":76561198120984188,"connected_time":385000000000,"state":"active","ping":80},{"user_id":88,"name":"t0ksi","steam_id":76561198107240798,"connected_time":5401000000000,"state":"active","ping":75},{"user_id":120,"name":"Bits\u0026Peices","steam_id":76561199225453607,"connected_time":2072000000000,"state":"active","ping":96},{"user_id":140,"name":"nudjura","steam_id":76561198281986139,"connected_time":237000000000,"state":"active","ping":44},{"user_id":131,"name":"[Mg] Zé Péquéno","steam_id":76561198000927489,"connected_time":1264000000000,"state":"active","ping":63},{"user_id":115,"name":"Uncle Stefan","steam_id":76561198406550757,"connected_time":2418000000000,"state":"active","ping":76},{"user_id":124,"name":"pyromaniac","steam_id":76561198292781255,"connected_time":1954000000000,"state":"active","ping":75},{"user_id":86,"name":"ӋԼן.maS","steam_id":76561198114953928,"connected_time":5462000000000,"state":"active","ping":74},{"user_id":125,"name":"Accident","steam_id":76561198115160396,"connected_time":1941000000000,"state":"active","ping":109},{"user_id":133,"name":"random_player691","steam_id":76561199209946306,"connected_time":923000000000,"state":"active","ping":50},{"user_id":64,"name":"liberty lennaert","steam_id":76561198076219289,"connected_time":6760000000000,"state":"active","ping":51},{"user_id":127,"name":"Jiggly","steam_id":76561198435222286,"connected_time":1920000000000,"state":"active","ping":119},{"user_id":106,"name":"Senator Armstrong","steam_id":76561198984346408,"connected_time":3388000000000,"state":"active","ping":82},{"user_id":134,"name":"yeldad","steam_id":76561198447264153,"connected_time":911000000000,"state":"active","ping":124},{"user_id":135,"name":"Pvt. Grichmann","steam_id":76561197977589522,"connected_time":689000000000,"state":"active","ping":89}]},{"server_id":114,"name":"Uncletopia | London | 2 | All Maps","name_short":"lon-2","host":"lon-1.uk.uncletopia.com","port":27025,"enabled":true,"region":"eu","cc":"gb","latitude":51.509865,"longitude":-0.118092,"reserved":0,"last_update":"0001-01-01T00:00:00Z","name_a2s":"Uncletopia | London | 2 | All Maps","protocol":17,"map":"cp_dustbowl","folder":"tf","game":"Team Fortress","app_id":440,"player_count":24,"max_players":24,"Bots":0,"server_type":"Dedicated","server_os":"Linux","password":true,"vac":true,"version":"7742253","steam_id":85568392924470941,"keywords":["cp","nocrits","nodmgspread","uncletopia"],"game_id":440,"stv_port":27026,"stv_name":"Uncletopia | London | 2 | All Maps | STV","players":[{"user_id":8,"name":"Mr Xbow","steam_id":76561198862864460,"connected_time":4952000000000,"state":"active","ping":46},{"user_id":65,"name":"Mal ★","steam_id":76561198262337669,"connected_time":83000000000,"state":"active","ping":76},{"user_id":12,"name":"VK2124 :D","steam_id":76561198111130688,"connected_time":3643000000000,"state":"active","ping":58},{"user_id":58,"name":"brique","steam_id":76561199103944229,"connected_time":224000000000,"state":"active","ping":75},{"user_id":59,"name":"Dr. Enforcicle (real)","steam_id":76561198964471859,"connected_time":200000000000,"state":"active","ping":120},{"user_id":19,"name":"matt_","steam_id":76561199121285443,"connected_time":3342000000000,"state":"active","ping":120},{"user_id":60,"name":"Dr Sex","steam_id":76561198029044617,"connected_time":165000000000,"state":"active","ping":48},{"user_id":61,"name":"zek","steam_id":76561198862763731,"connected_time":165000000000,"state":"active","ping":74},{"user_id":20,"name":"tori_spring #savetf2","steam_id":76561199375975842,"connected_time":3337000000000,"state":"active","ping":43},{"user_id":55,"name":"Jet","steam_id":76561198061518477,"connected_time":710000000000,"state":"active","ping":52},{"user_id":54,"name":"Doc Braun","steam_id":76561198003964474,"connected_time":753000000000,"state":"active","ping":53},{"user_id":63,"name":"Akiron","steam_id":76561199267799044,"connected_time":130000000000,"state":"active","ping":84},{"user_id":27,"name":"Mr. Luck | SFM","steam_id":76561198088255641,"connected_time":3072000000000,"state":"active","ping":105},{"user_id":29,"name":"Merry Yuletide","steam_id":76561198032359132,"connected_time":2963000000000,"state":"active","ping":46},{"user_id":53,"name":"11037","steam_id":76561198351154533,"connected_time":768000000000,"state":"active","ping":54},{"user_id":33,"name":"Hasan","steam_id":76561198144344647,"connected_time":2872000000000,"state":"active","ping":94},{"user_id":66,"name":"big heavy is heavy heavy","steam_id":76561198300059652,"connected_time":82000000000,"state":"active","ping":58},{"user_id":34,"name":"Mr.Cupcake","steam_id":76561198152711174,"connected_time":2814000000000,"state":"active","ping":63},{"user_id":35,"name":"ducks","steam_id":76561198148378654,"connected_time":2798000000000,"state":"active","ping":98},{"user_id":51,"name":"nachtraaf","steam_id":76561197960473205,"connected_time":820000000000,"state":"active","ping":45},{"user_id":67,"name":"BêteChien","steam_id":76561198405559437,"connected_time":76000000000,"state":"active","ping":69},{"user_id":50,"name":"Akirus","steam_id":76561198369831090,"connected_time":853000000000,"state":"active","ping":108},{"user_id":68,"name":"Mr. Burp","steam_id":76561198042927314,"connected_time":56000000000,"state":"active","ping":49},{"user_id":69,"name":"Jonkheervanflep","steam_id":76561198006853101,"connected_time":55000000000,"state":"active","ping":75}]},{"server_id":320,"name":"Uncletopia | London | 3 | All Maps","name_short":"lon-3","host":"lon-1.uk.uncletopia.com","port":27035,"enabled":true,"region":"eu","cc":"gb","latitude":51.509865,"longitude":-0.118092,"reserved":0,"last_update":"0001-01-01T00:00:00Z","name_a2s":"Uncletopia | London | 3 | All Maps","protocol":17,"map":"pl_upward","folder":"tf","game":"Team Fortress","app_id":440,"player_count":0,"max_players":24,"Bots":0,"server_type":"Dedicated","server_os":"Linux","password":true,"vac":true,"version":"7742253","steam_id":85568392924510192,"keywords":["nocrits","nodmgspread","payload","uncletopia"],"game_id":440,"stv_port":27036,"stv_name":"Uncletopia | London | 3 | All Maps | STV","players":null},{"server_id":321,"name":"Uncletopia | London | 4 | All Maps","name_short":"lon-4","host":"lon-1.uk.uncletopia.com","port":27045,"enabled":true,"region":"eu","cc":"gb","latitude":51.509865,"longitude":-0.118092,"reserved":0,"last_update":"0001-01-01T00:00:00Z","name_a2s":"Uncletopia | London | 4 | All Maps","protocol":17,"map":"pl_badwater","folder":"tf","game":"Team Fortress","app_id":440,"player_count":24,"max_players":24,"Bots":0,"server_type":"Dedicated","server_os":"Linux","password":true,"vac":true,"version":"7742253","steam_id":85568392924510193,"keywords":["nocrits","nodmgspread","payload","uncletopia"],"game_id":440,"stv_port":27046,"stv_name":"Uncletopia | London | 4 | All Maps | STV","players":[{"user_id":335,"name":"your dads bald spot","steam_id":76561199383437138,"connected_time":4077000000000,"state":"active","ping":126},{"user_id":397,"name":"bola typu święta","steam_id":76561199145943588,"connected_time":317000000000,"state":"active","ping":79},{"user_id":367,"name":"S0LDaTo","steam_id":76561198269413360,"connected_time":1813000000000,"state":"active","ping":74},{"user_id":380,"name":"cult","steam_id":76561198188647690,"connected_time":813000000000,"state":"active","ping":76},{"user_id":403,"name":"dubysa","steam_id":76561198079774530,"connected_time":14000000000,"state":"active","ping":73},{"user_id":352,"name":"SIUUUUUUU","steam_id":76561198364121077,"connected_time":2554000000000,"state":"active","ping":91},{"user_id":372,"name":"LAMC","steam_id":76561199066888917,"connected_time":1686000000000,"state":"active","ping":70},{"user_id":402,"name":"avarage evangelion fan","steam_id":76561198083359604,"connected_time":86000000000,"state":"active","ping":63},{"user_id":374,"name":"Welder","steam_id":76561198355300561,"connected_time":1653000000000,"state":"active","ping":71},{"user_id":399,"name":"Iru","steam_id":76561198077602040,"connected_time":253000000000,"state":"active","ping":60},{"user_id":353,"name":"Penis Contortionist","steam_id":76561198073663784,"connected_time":2548000000000,"state":"active","ping":40},{"user_id":334,"name":"SoupER","steam_id":76561198063056668,"connected_time":4165000000000,"state":"active","ping":36},{"user_id":325,"name":"Koli","steam_id":76561197992428783,"connected_time":4556000000000,"state":"active","ping":59},{"user_id":388,"name":"Dzieciol","steam_id":76561198160237556,"connected_time":600000000000,"state":"active","ping":76},{"user_id":373,"name":"Ciaguta_rolex","steam_id":76561198046709588,"connected_time":1685000000000,"state":"active","ping":80},{"user_id":404,"name":"alienndrago #saveTF2","steam_id":76561198815566591,"connected_time":8000000000,"state":"spawning","ping":122},{"user_id":405,"name":"Johnny Rabbit","steam_id":76561198038742215,"connected_time":8000000000,"state":"spawning","ping":114},{"user_id":338,"name":"1 month Big Earner challenge","steam_id":76561198799097492,"connected_time":3899000000000,"state":"active","ping":45},{"user_id":328,"name":"Jonas Destark","steam_id":76561198030327441,"connected_time":4484000000000,"state":"active","ping":57},{"user_id":378,"name":"snake9544","steam_id":76561198083076205,"connected_time":1220000000000,"state":"active","ping":73},{"user_id":384,"name":"rmz.ssj","steam_id":76561198329613930,"connected_time":643000000000,"state":"active","ping":60},{"user_id":356,"name":"hinfort","steam_id":76561198046354794,"connected_time":2533000000000,"state":"active","ping":49},{"user_id":359,"name":"Julez","steam_id":76561198045505082,"connected_time":2169000000000,"state":"active","ping":75},{"user_id":386,"name":"Kurage","steam_id":76561198021221288,"connected_time":626000000000,"state":"active","ping":67}]},{"server_id":21,"name":"Uncletopia | London | 5 | All Maps","name_short":"lon-5","host":"lon-1.uk.uncletopia.com","port":27055,"enabled":true,"region":"eu","cc":"gb","latitude":51.509865,"longitude":-0.118092,"reserved":0,"last_update":"0001-01-01T00:00:00Z","name_a2s":"Uncletopia | London | 5 | All Maps","protocol":17,"map":"pl_frontier_final","folder":"tf","game":"Team Fortress","app_id":440,"player_count":0,"max_players":24,"Bots":0,"server_type":"Dedicated","server_os":"Linux","password":true,"vac":true,"version":"7742253","steam_id":85568392924742829,"keywords":["nocrits","nodmgspread","payload","uncletopia"],"game_id":440,"stv_port":27056,"stv_name":"Uncletopia | London | 5 | All Maps | STV","players":null},{"server_id":22,"name":"Uncletopia | London | 6 | All Maps","name_short":"lon-6","host":"lon-1.uk.uncletopia.com","port":27065,"enabled":true,"region":"eu","cc":"gb","latitude":51.509865,"longitude":-0.118092,"reserved":0,"last_update":"0001-01-01T00:00:00Z","name_a2s":"Uncletopia | London | 6 | All Maps","protocol":17,"map":"pl_borneo","folder":"tf","game":"Team Fortress","app_id":440,"player_count":0,"max_players":24,"Bots":0,"server_type":"Dedicated","server_os":"Linux","password":true,"vac":true,"version":"7742253","steam_id":85568392924742830,"keywords":["nocrits","nodmgspread","payload","uncletopia"],"game_id":440,"stv_port":27066,"stv_name":"Uncletopia | London | 6 | All Maps | STV","players":null},{"server_id":40,"name":"Uncletopia | London | 7 | No Payload","name_short":"lon-7","host":"lon-1.uk.uncletopia.com","port":27075,"enabled":true,"region":"eu","cc":"gb","latitude":51.509865,"longitude":-0.118092,"reserved":0,"last_update":"0001-01-01T00:00:00Z","name_a2s":"Uncletopia | London | 7 | No Payload","protocol":17,"map":"koth_viaduct","folder":"tf","game":"Team Fortress","app_id":440,"player_count":0,"max_players":24,"Bots":0,"server_type":"Dedicated","server_os":"Linux","password":true,"vac":true,"version":"7742253","steam_id":85568392924964314,"keywords":["cp","nocrits","nodmgspread","uncletopia"],"game_id":440,"stv_port":27076,"stv_name":"Uncletopia | London | 7 | No Payload | STV","players":null},{"server_id":41,"name":"Uncletopia | London | 8 | Community","name_short":"lon-8","host":"lon-1.uk.uncletopia.com","port":27085,"enabled":true,"region":"eu","cc":"gb","latitude":51.509865,"longitude":-0.118092,"reserved":0,"last_update":"0001-01-01T00:00:00Z","name_a2s":"Uncletopia | London | 8 | Community","protocol":17,"map":"workshop/koth_ashville_final.ugc2130459942","folder":"tf","game":"Team Fortress","app_id":440,"player_count":0,"max_players":24,"Bots":0,"server_type":"Dedicated","server_os":"Linux","password":true,"vac":true,"version":"7742253","steam_id":85568392924964315,"keywords":["cp","nocrits","nodmgspread","uncletopia"],"game_id":440,"stv_port":27086,"stv_name":"Uncletopia | London | 8 | Community | STV","players":null},{"server_id":300,"name":"Uncletopia | Montréal | 1 | All Maps","name_short":"mtl-1","host":"mtl-1.ca.uncletopia.com","port":27015,"enabled":true,"region":"us-east","cc":"ca","latitude":45.50889,"longitude":-73.56167,"reserved":0,"last_update":"0001-01-01T00:00:00Z","name_a2s":"Uncletopia | Montréal | 1 | All Maps","protocol":17,"map":"cp_snakewater_final1","folder":"tf","game":"Team Fortress","app_id":440,"player_count":0,"max_players":24,"Bots":0,"server_type":"Dedicated","server_os":"Linux","password":true,"vac":true,"version":"7742253","steam_id":85568392924500087,"keywords":["cp","nocrits","nodmgspread","uncletopia"],"game_id":440,"stv_port":27016,"stv_name":"Uncletopia | Montréal | 1 | All Maps | STV","players":null},{"server_id":301,"name":"Uncletopia | Montréal | 2 | All Maps","name_short":"mtl-2","host":"mtl-1.ca.uncletopia.com","port":27025,"enabled":true,"region":"us-east","cc":"ca","latitude":45.50889,"longitude":-73.56167,"reserved":0,"last_update":"0001-01-01T00:00:00Z","name_a2s":"Uncletopia | Montréal | 2 | All Maps","protocol":17,"map":"koth_highpass","folder":"tf","game":"Team Fortress","app_id":440,"player_count":0,"max_players":24,"Bots":0,"server_type":"Dedicated","server_os":"Linux","password":true,"vac":true,"version":"7742253","steam_id":85568392924500088,"keywords":["cp","nocrits","nodmgspread","uncletopia"],"game_id":440,"stv_port":27026,"stv_name":"Uncletopia | Montréal | 2 | All Maps | STV","players":null},{"server_id":302,"name":"Uncletopia | Montréal | 3 | All Maps","name_short":"mtl-3","host":"mtl-1.ca.uncletopia.com","port":27035,"enabled":true,"region":"us-east","cc":"ca","latitude":45.50889,"longitude":-73.56167,"reserved":0,"last_update":"0001-01-01T00:00:00Z","name_a2s":"Uncletopia | Montréal | 3 | All Maps","protocol":17,"map":"cp_mountainlab","folder":"tf","game":"Team Fortress","app_id":440,"player_count":0,"max_players":24,"Bots":0,"server_type":"Dedicated","server_os":"Linux","password":true,"vac":true,"version":"7742253","steam_id":85568392924500089,"keywords":["cp","nocrits","nodmgspread","uncletopia"],"game_id":440,"stv_port":27036,"stv_name":"Uncletopia | Montréal | 3 | All Maps | STV","players":null},{"server_id":303,"name":"Uncletopia | Montréal | 4 | No Payload","name_short":"mtl-4","host":"mtl-1.ca.uncletopia.com","port":27045,"enabled":true,"region":"us-east","cc":"ca","latitude":45.50889,"longitude":-73.56167,"reserved":0,"last_update":"0001-01-01T00:00:00Z","name_a2s":"Uncletopia | Montréal | 4 | No Payload","protocol":17,"map":"cp_snakewater_final1","folder":"tf","game":"Team Fortress","app_id":440,"player_count":0,"max_players":24,"Bots":0,"server_type":"Dedicated","server_os":"Linux","password":true,"vac":true,"version":"7742253","steam_id":85568392924500090,"keywords":["cp","nocrits","nodmgspread","uncletopia"],"game_id":440,"stv_port":27046,"stv_name":"Uncletopia | Montréal | 4 | No Payload | STV","players":null},{"server_id":13,"name":"Uncletopia | New York City | 1 | All Maps","name_short":"nyc-1","host":"nyc-1.us.uncletopia.com","port":27015,"enabled":true,"region":"us-east","cc":"us","latitude":40.73061,"longitude":-73.93524,"reserved":0,"last_update":"0001-01-01T00:00:00Z","name_a2s":"Uncletopia | New York City | 1 | All Maps","protocol":17,"map":"cp_mountainlab","folder":"tf","game":"Team Fortress","app_id":440,"player_count":0,"max_players":24,"Bots":0,"server_type":"Dedicated","server_os":"Linux","password":true,"vac":true,"version":"7742253","steam_id":85568392924469993,"keywords":["cp","nocrits","nodmgspread","uncletopia"],"game_id":440,"stv_port":27016,"stv_name":"Uncletopia | New York City | 1 | All Maps | STV","players":null},{"server_id":14,"name":"Uncletopia | New York City | 2 | All Maps","name_short":"nyc-2","host":"nyc-1.us.uncletopia.com","port":27025,"enabled":true,"region":"us-east","cc":"us","latitude":40.73061,"longitude":-73.93524,"reserved":0,"last_update":"0001-01-01T00:00:00Z","name_a2s":"Uncletopia | New York City | 2 | All Maps","protocol":17,"map":"cp_altitude","folder":"tf","game":"Team Fortress","app_id":440,"player_count":0,"max_players":24,"Bots":0,"server_type":"Dedicated","server_os":"Linux","password":true,"vac":true,"version":"7742253","steam_id":85568392924469994,"keywords":["cp","nocrits","nodmgspread","uncletopia"],"game_id":440,"stv_port":27026,"stv_name":"Uncletopia | New York City | 2 | All Maps | STV","players":null},{"server_id":15,"name":"Uncletopia | New York City | 3 | Stopwatch Beta","name_short":"nyc-3","host":"nyc-1.us.uncletopia.com","port":27035,"enabled":true,"region":"us-east","cc":"us","latitude":40.73061,"longitude":-73.93524,"reserved":0,"last_update":"0001-01-01T00:00:00Z","name_a2s":"Uncletopia | New York City | 3 | Stopwatch Beta","protocol":17,"map":"pl_pier","folder":"tf","game":"Team Fortress","app_id":440,"player_count":0,"max_players":24,"Bots":0,"server_type":"Dedicated","server_os":"Linux","password":true,"vac":true,"version":"7742253","steam_id":85568392924742820,"keywords":["nocrits","nodmgspread","payload","uncletopia"],"game_id":440,"stv_port":27036,"stv_name":"Uncletopia | New York City | 3 | Stopwatch Beta | STV","players":null},{"server_id":16,"name":"Uncletopia | New York City | 4 | Community","name_short":"nyc-4","host":"nyc-1.us.uncletopia.com","port":27045,"enabled":true,"region":"us-east","cc":"us","latitude":40.73061,"longitude":-73.93524,"reserved":0,"last_update":"0001-01-01T00:00:00Z","name_a2s":"Uncletopia | New York City | 4 | Community","protocol":17,"map":"koth_viaduct","folder":"tf","game":"Team Fortress","app_id":440,"player_count":0,"max_players":24,"Bots":0,"server_type":"Dedicated","server_os":"Linux","password":true,"vac":true,"version":"7742253","steam_id":85568392924742821,"keywords":["cp","nocrits","nodmgspread","uncletopia"],"game_id":440,"stv_port":27046,"stv_name":"Uncletopia | New York City | 4 | Community | STV","players":null},{"server_id":142,"name":"Uncletopia | São Paulo | 1 | All Maps","name_short":"sao-1","host":"sao-1.br.uncletopia.com","port":27015,"enabled":true,"region":"sa","cc":"br","latitude":-23.533773,"longitude":-46.62529,"reserved":0,"last_update":"0001-01-01T00:00:00Z","name_a2s":"Uncletopia | São Paulo | 1 | All Maps","protocol":17,"map":"koth_viaduct","folder":"tf","game":"Team Fortress","app_id":440,"player_count":0,"max_players":24,"Bots":0,"server_type":"Dedicated","server_os":"Linux","password":true,"vac":true,"version":"7742253","steam_id":85568392924469996,"keywords":["cp","nocrits","nodmgspread","uncletopia"],"game_id":440,"stv_port":27016,"stv_name":"Uncletopia | São Paulo | 1 | All Maps | STV","players":null},{"server_id":143,"name":"Uncletopia | São Paulo | 2 | All Maps","name_short":"sao-2","host":"sao-2.br.uncletopia.com","port":27015,"enabled":true,"region":"sa","cc":"br","latitude":-23.533773,"longitude":-46.62529,"reserved":0,"last_update":"0001-01-01T00:00:00Z","name_a2s":"Uncletopia | São Paulo | 2 | All Maps","protocol":17,"map":"koth_viaduct","folder":"tf","game":"Team Fortress","app_id":440,"player_count":0,"max_players":24,"Bots":0,"server_type":"Dedicated","server_os":"Linux","password":true,"vac":true,"version":"7742253","steam_id":85568392924485349,"keywords":["cp","nocrits","nodmgspread","uncletopia"],"game_id":440,"stv_port":27016,"stv_name":"Uncletopia | São Paulo | 2 | All Maps | STV","players":null},{"server_id":7,"name":"Uncletopia | Seattle | 1 | All Maps","name_short":"sea-1","host":"sea-1.us.uncletopia.com","port":27015,"enabled":true,"region":"us-west","cc":"us","latitude":47.608013,"longitude":-122.33517,"reserved":0,"last_update":"0001-01-01T00:00:00Z","name_a2s":"Uncletopia | Seattle | 1 | All Maps","protocol":17,"map":"cp_dustbowl","folder":"tf","game":"Team Fortress","app_id":440,"player_count":0,"max_players":24,"Bots":0,"server_type":"Dedicated","server_os":"Linux","password":true,"vac":true,"version":"7742253","steam_id":85568392924469997,"keywords":["cp","nocrits","nodmgspread","uncletopia"],"game_id":440,"stv_port":27016,"stv_name":"Uncletopia | Seattle | 1 | All Maps | STV","players":null},{"server_id":119,"name":"Uncletopia | Seattle | 2 | All Maps","name_short":"sea-2","host":"sea-1.us.uncletopia.com","port":27025,"enabled":true,"region":"us-west","cc":"us","latitude":47.608013,"longitude":-122.33517,"reserved":0,"last_update":"0001-01-01T00:00:00Z","name_a2s":"Uncletopia | Seattle | 2 | All Maps","protocol":17,"map":"pl_barnblitz","folder":"tf","game":"Team Fortress","app_id":440,"player_count":0,"max_players":24,"Bots":0,"server_type":"Dedicated","server_os":"Linux","password":true,"vac":true,"version":"7742253","steam_id":85568392924469998,"keywords":["nocrits","nodmgspread","payload","uncletopia"],"game_id":440,"stv_port":27026,"stv_name":"Uncletopia | Seattle | 2 | All Maps | STV","players":null},{"server_id":406,"name":"Uncletopia | Seattle | 3 | Stopwatch Beta","name_short":"sea-3","host":"sea-1.us.uncletopia.com","port":27035,"enabled":true,"region":"us-west","cc":"us","latitude":47.608013,"longitude":-122.33517,"reserved":0,"last_update":"0001-01-01T00:00:00Z","name_a2s":"Uncletopia | Seattle | 3 | Stopwatch Beta","protocol":17,"map":"cp_sunshine","folder":"tf","game":"Team Fortress","app_id":440,"player_count":0,"max_players":24,"Bots":0,"server_type":"Dedicated","server_os":"Linux","password":true,"vac":true,"version":"7742253","steam_id":85568392924515217,"keywords":["cp","nocrits","nodmgspread","uncletopia"],"game_id":440,"stv_port":27036,"stv_name":"Uncletopia | Seattle | 3 | Stopwatch Beta | STV","players":null},{"server_id":17,"name":"Uncletopia | San Francisco | 1 | All Maps","name_short":"sfo-1","host":"sfo-1.us.uncletopia.com","port":27015,"enabled":true,"region":"us-west","cc":"us","latitude":37.77397,"longitude":-122.4313,"reserved":0,"last_update":"0001-01-01T00:00:00Z","name_a2s":"Uncletopia | San Francisco | 1 | All Maps","protocol":17,"map":"cp_altitude","folder":"tf","game":"Team Fortress","app_id":440,"player_count":0,"max_players":24,"Bots":0,"server_type":"Dedicated","server_os":"Linux","password":true,"vac":true,"version":"7742253","steam_id":85568392924469999,"keywords":["cp","nocrits","nodmgspread","uncletopia"],"game_id":440,"stv_port":27016,"stv_name":"Uncletopia | San Francisco | 1 | All Maps | STV","players":null},{"server_id":18,"name":"Uncletopia | San Francisco | 2 | All Maps","name_short":"sfo-2","host":"sfo-1.us.uncletopia.com","port":27025,"enabled":true,"region":"us-west","cc":"us","latitude":37.77397,"longitude":-122.4313,"reserved":0,"last_update":"0001-01-01T00:00:00Z","name_a2s":"Uncletopia | San Francisco | 2 | All Maps","protocol":17,"map":"cp_altitude","folder":"tf","game":"Team Fortress","app_id":440,"player_count":0,"max_players":24,"Bots":0,"server_type":"Dedicated","server_os":"Linux","password":true,"vac":true,"version":"7742253","steam_id":85568392924470000,"keywords":["cp","nocrits","nodmgspread","uncletopia"],"game_id":440,"stv_port":27026,"stv_name":"Uncletopia | San Francisco | 2 | All Maps | STV","players":null},{"server_id":19,"name":"Uncletopia | San Francisco | 3 | Stopwatch Beta","name_short":"sfo-3","host":"sfo-1.us.uncletopia.com","port":27035,"enabled":true,"region":"us-west","cc":"us","latitude":37.77397,"longitude":-122.4313,"reserved":0,"last_update":"0001-01-01T00:00:00Z","name_a2s":"Uncletopia | San Francisco | 3 | Stopwatch Beta","protocol":17,"map":"cp_snakewater_final1","folder":"tf","game":"Team Fortress","app_id":440,"player_count":0,"max_players":24,"Bots":0,"server_type":"Dedicated","server_os":"Linux","password":true,"vac":true,"version":"7742253","steam_id":85568392924742824,"keywords":["cp","nocrits","nodmgspread","uncletopia"],"game_id":440,"stv_port":27036,"stv_name":"Uncletopia | San Francisco | 3 | Stopwatch Beta | STV","players":null},{"server_id":20,"name":"Uncletopia | San Francisco | 4 | Community","name_short":"sfo-4","host":"sfo-1.us.uncletopia.com","port":27045,"enabled":true,"region":"us-west","cc":"us","latitude":37.77397,"longitude":-122.4313,"reserved":0,"last_update":"0001-01-01T00:00:00Z","name_a2s":"Uncletopia | San Francisco | 4 | Community","protocol":17,"map":"cp_dustbowl","folder":"tf","game":"Team Fortress","app_id":440,"player_count":0,"max_players":24,"Bots":0,"server_type":"Dedicated","server_os":"Linux","password":true,"vac":true,"version":"7742253","steam_id":85568392924742826,"keywords":["cp","nocrits","nodmgspread","uncletopia"],"game_id":440,"stv_port":27046,"stv_name":"Uncletopia | San Francisco | 4 | Community | STV","players":null},{"server_id":141,"name":"Uncletopia | Sydney | 1 | All Maps","name_short":"syd-1","host":"syd-1.au.uncletopia.com","port":27015,"enabled":true,"region":"au","cc":"au","latitude":-33.865143,"longitude":151.2099,"reserved":0,"last_update":"0001-01-01T00:00:00Z","name_a2s":"Uncletopia | Sydney | 1 | All Maps","protocol":17,"map":"pl_badwater","folder":"tf","game":"Team Fortress","app_id":440,"player_count":0,"max_players":24,"Bots":0,"server_type":"Dedicated","server_os":"Linux","password":true,"vac":true,"version":"7742253","steam_id":85568392924470001,"keywords":["nocrits","nodmgspread","payload","uncletopia"],"game_id":440,"stv_port":27016,"stv_name":"Uncletopia | Sydney | 1 | All Maps | STV","players":null},{"server_id":123,"name":"Uncletopia | Sydney | 2 | All Maps","name_short":"syd-2","host":"syd-1.au.uncletopia.com","port":27025,"enabled":true,"region":"au","cc":"au","latitude":-33.865143,"longitude":151.2099,"reserved":0,"last_update":"0001-01-01T00:00:00Z","name_a2s":"Uncletopia | Sydney | 2 | All Maps","protocol":17,"map":"cp_process_final","folder":"tf","game":"Team Fortress","app_id":440,"player_count":11,"max_players":24,"Bots":0,"server_type":"Dedicated","server_os":"Linux","password":true,"vac":true,"version":"7742253","steam_id":85568392924470002,"keywords":["cp","nocrits","nodmgspread","uncletopia"],"game_id":440,"stv_port":27026,"stv_name":"Uncletopia | Sydney | 2 | All Maps | STV","players":[{"user_id":300,"name":"Jiffy360","steam_id":76561198149550772,"connected_time":3430000000000,"state":"active","ping":87},{"user_id":356,"name":"Dr Rags","steam_id":76561198179481430,"connected_time":496000000000,"state":"active","ping":95},{"user_id":233,"name":"Alex","steam_id":76561198020099643,"connected_time":7999000000000,"state":"active","ping":55},{"user_id":357,"name":"Barry Allen","steam_id":76561198152210509,"connected_time":382000000000,"state":"active","ping":42},{"user_id":340,"name":"Akorn","steam_id":76561198262621416,"connected_time":1509000000000,"state":"active","ping":64},{"user_id":331,"name":"Haste","steam_id":76561198173155142,"connected_time":1662000000000,"state":"active","ping":61},{"user_id":324,"name":"las","steam_id":76561198039162155,"connected_time":2196000000000,"state":"active","ping":56},{"user_id":335,"name":"xfol","steam_id":76561197973048879,"connected_time":1615000000000,"state":"active","ping":57},{"user_id":325,"name":"CalcoGuy","steam_id":76561198059602670,"connected_time":2174000000000,"state":"active","ping":51},{"user_id":332,"name":"VIVA","steam_id":76561198048017265,"connected_time":1649000000000,"state":"active","ping":47},{"user_id":341,"name":"Butterbby","steam_id":76561199447233862,"connected_time":1489000000000,"state":"active","ping":69}]},{"server_id":395,"name":"Uncletopia | Sydney | 3 | All Maps","name_short":"syd-3","host":"syd-1.au.uncletopia.com","port":27035,"enabled":true,"region":"au","cc":"au","latitude":-33.865143,"longitude":151.2099,"reserved":0,"last_update":"0001-01-01T00:00:00Z","name_a2s":"Uncletopia | Sydney | 3 | All Maps","protocol":17,"map":"cp_process_final","folder":"tf","game":"Team Fortress","app_id":440,"player_count":0,"max_players":24,"Bots":0,"server_type":"Dedicated","server_os":"Linux","password":true,"vac":true,"version":"7742253","steam_id":85568392925194467,"keywords":["cp","nocrits","nodmgspread","uncletopia"],"game_id":440,"stv_port":27036,"stv_name":"Uncletopia | Sydney | 3 | All Maps | STV","players":null},{"server_id":396,"name":"Uncletopia | Sydney | 4 | All Maps","name_short":"syd-4","host":"syd-1.au.uncletopia.com","port":27045,"enabled":true,"region":"au","cc":"au","latitude":-33.865143,"longitude":151.2099,"reserved":0,"last_update":"0001-01-01T00:00:00Z","name_a2s":"Uncletopia | Sydney | 4 | All Maps","protocol":17,"map":"ctf_2fort","folder":"tf","game":"Team Fortress","app_id":440,"player_count":0,"max_players":24,"Bots":0,"server_type":"Dedicated","server_os":"Linux","password":true,"vac":true,"version":"7742253","steam_id":85568392925397958,"keywords":["ctf","nocrits","nodmgspread","uncletopia"],"game_id":440,"stv_port":27046,"stv_name":"Uncletopia | Sydney | 4 | All Maps | STV","players":null},{"server_id":58,"name":"Uncletopia | Sydney | 5 | Stopwatch Beta","name_short":"syd-5","host":"syd-1.au.uncletopia.com","port":27055,"enabled":true,"region":"au","cc":"au","latitude":-33.865143,"longitude":151.2099,"reserved":0,"last_update":"0001-01-01T00:00:00Z","name_a2s":"Uncletopia | Sydney | 5 | Stopwatch Beta","protocol":17,"map":"workshop/koth_bagel_rc5.ugc2514036946","folder":"tf","game":"Team Fortress","app_id":440,"player_count":0,"max_players":24,"Bots":0,"server_type":"Dedicated","server_os":"Linux","password":true,"vac":true,"version":"7742253","steam_id":85568392925397959,"keywords":["cp","nocrits","nodmgspread","uncletopia"],"game_id":440,"stv_port":27056,"stv_name":"Uncletopia | Sydney | 5 | Stopwatch Beta | STV","players":null},{"server_id":59,"name":"Uncletopia | Sydney | 6 | Community","name_short":"syd-6","host":"syd-1.au.uncletopia.com","port":27065,"enabled":true,"region":"au","cc":"au","latitude":-33.865143,"longitude":151.2099,"reserved":0,"last_update":"0001-01-01T00:00:00Z","name_a2s":"Uncletopia | Sydney | 6 | Community","protocol":17,"map":"workshop/pl_cactuscanyon_redux_rc4b.ugc2579644293","folder":"tf","game":"Team Fortress","app_id":440,"player_count":0,"max_players":24,"Bots":0,"server_type":"Dedicated","server_os":"Linux","password":true,"vac":true,"version":"7742253","steam_id":85568392925397960,"keywords":["nocrits","nodmgspread","payload","uncletopia"],"game_id":440,"stv_port":27066,"stv_name":"Uncletopia | Sydney | 6 | Community | STV","players":null},{"server_id":49,"name":"Uncletopia | Warsaw | 1 | All Maps","name_short":"waw-1","host":"waw-1.pl.uncletopia.com","port":27015,"enabled":true,"region":"eu","cc":"pl","latitude":52.2297,"longitude":21.017532,"reserved":0,"last_update":"0001-01-01T00:00:00Z","name_a2s":"","protocol":0,"map":"","folder":"","game":"","app_id":0,"player_count":0,"max_players":0,"Bots":0,"server_type":"","server_os":"","password":false,"vac":false,"version":"","steam_id":0,"keywords":null,"game_id":0,"stv_port":0,"stv_name":"","players":null},{"server_id":50,"name":"Uncletopia | Warsaw | 2 | All Maps","name_short":"waw-2","host":"waw-1.pl.uncletopia.com","port":27025,"enabled":true,"region":"eu","cc":"pl","latitude":52.2297,"longitude":21.017532,"reserved":0,"last_update":"0001-01-01T00:00:00Z","name_a2s":"Uncletopia | Warsaw | 2 | All Maps","protocol":17,"map":"koth_lakeside_final","folder":"tf","game":"Team Fortress","app_id":440,"player_count":0,"max_players":24,"Bots":0,"server_type":"Dedicated","server_os":"Linux","password":true,"vac":true,"version":"7742253","steam_id":85568392925397851,"keywords":["cp","nocrits","nodmgspread","uncletopia"],"game_id":440,"stv_port":27026,"stv_name":"Uncletopia | Warsaw | 2 | All Maps | STV","players":null},{"server_id":51,"name":"Uncletopia | Warsaw | 3 | All Maps","name_short":"waw-3","host":"waw-1.pl.uncletopia.com","port":27035,"enabled":true,"region":"eu","cc":"pl","latitude":52.2297,"longitude":21.017532,"reserved":0,"last_update":"0001-01-01T00:00:00Z","name_a2s":"Uncletopia | Warsaw | 3 | All Maps","protocol":17,"map":"koth_lakeside_final","folder":"tf","game":"Team Fortress","app_id":440,"player_count":2,"max_players":24,"Bots":0,"server_type":"Dedicated","server_os":"Linux","password":true,"vac":true,"version":"7742253","steam_id":85568392925397852,"keywords":["cp","nocrits","nodmgspread","uncletopia"],"game_id":440,"stv_port":27036,"stv_name":"Uncletopia | Warsaw | 3 | All Maps | STV","players":[{"user_id":4,"name":"smart fella","steam_id":76561198315732431,"connected_time":1376000000000,"state":"active","ping":94},{"user_id":5,"name":"Cosmic Yoshi","steam_id":76561199195528497,"connected_time":1362000000000,"state":"active","ping":240}]},{"server_id":52,"name":"Uncletopia | Warsaw | 4 | All Maps","name_short":"waw-4","host":"waw-1.pl.uncletopia.com","port":27045,"enabled":true,"region":"eu","cc":"pl","latitude":52.2297,"longitude":21.017532,"reserved":0,"last_update":"0001-01-01T00:00:00Z","name_a2s":"Uncletopia | Warsaw | 4 | All Maps","protocol":17,"map":"pl_swiftwater_final1","folder":"tf","game":"Team Fortress","app_id":440,"player_count":0,"max_players":24,"Bots":0,"server_type":"Dedicated","server_os":"Linux","password":true,"vac":true,"version":"7742253","steam_id":85568392925397853,"keywords":["nocrits","nodmgspread","payload","uncletopia"],"game_id":440,"stv_port":27046,"stv_name":"Uncletopia | Warsaw | 4 | All Maps | STV","players":null},{"server_id":53,"name":"Uncletopia | Warsaw | 5 | Stopwatch Beta","name_short":"waw-5","host":"waw-1.pl.uncletopia.com","port":27055,"enabled":true,"region":"eu","cc":"pl","latitude":52.2297,"longitude":21.017532,"reserved":0,"last_update":"0001-01-01T00:00:00Z","name_a2s":"Uncletopia | Warsaw | 5 | Stopwatch Beta","protocol":17,"map":"pl_swiftwater_final1","folder":"tf","game":"Team Fortress","app_id":440,"player_count":0,"max_players":24,"Bots":0,"server_type":"Dedicated","server_os":"Linux","password":true,"vac":true,"version":"7742253","steam_id":85568392925397854,"keywords":["nocrits","nodmgspread","payload","uncletopia"],"game_id":440,"stv_port":27056,"stv_name":"Uncletopia | Warsaw | 5 | Stopwatch Beta | STV","players":null},{"server_id":54,"name":"Uncletopia | Warsaw | 6 | Community","name_short":"waw-6","host":"waw-1.pl.uncletopia.com","port":27065,"enabled":true,"region":"eu","cc":"pl","latitude":52.2297,"longitude":21.017532,"reserved":0,"last_update":"0001-01-01T00:00:00Z","name_a2s":"Uncletopia | Warsaw | 6 | Community","protocol":17,"map":"koth_highpass","folder":"tf","game":"Team Fortress","app_id":440,"player_count":0,"max_players":24,"Bots":0,"server_type":"Dedicated","server_os":"Linux","password":true,"vac":true,"version":"7742253","steam_id":85568392925397856,"keywords":["cp","nocrits","nodmgspread","uncletopia"],"game_id":440,"stv_port":27066,"stv_name":"Uncletopia | Warsaw | 6 | Community | STV","players":null}]}