{"status":true,"message":"","result":[{"server_id":9,"name":"Uncletopia | Atlanta | 1 | All Maps","name_short":"atl-1","host":"atl-1.us.uncletopia.com","port":27015,"enabled":true,"region":"us-east","cc":"us","latitude":33.753746,"longitude":-84.38633,"reserved":0,"last_update":"0001-01-01T00:00:00Z","name_a2s":"Uncletopia | Atlanta | 1 | All Maps","protocol":17,"map":"pl_badwater","folder":"tf","game":"Team Fortress","app_id":440,"player_count":12,"max_players":24,"Bots":0,"server_type":"Dedicated","server_os":"Linux","password":true,"vac":true,"version":"7757534","steam_id":85568392924469982,"keywords":["nocrits","nodmgspread","payload","uncletopia"],"game_id":440,"stv_port":27016,"stv_name":"Uncletopia | Atlanta | 1 | All Maps | STV","players":[{"user_id":904,"name":"puppy boy","steam_id":76561198255639473,"connected_time":413000000000,"state":"active","ping":75},{"user_id":907,"name":"boi","steam_id":76561199213975119,"connected_time":121000000000,"state":"active","ping":118},{"user_id":908,"name":"shephard","steam_id":76561198043367011,"connected_time":68000000000,"state":"active","ping":78},{"user_id":853,"name":"twitch.tv/Yoshi21 | TF2Pugs.com","steam_id":76561198002516729,"connected_time":4040000000000,"state":"active","ping":53},{"user_id":873,"name":"Goldensliv","steam_id":76561198161673891,"connected_time":3310000000000,"state":"active","ping":90},{"user_id":894,"name":"sqwyrm","steam_id":76561198171032997,"connected_time":1576000000000,"state":"active","ping":125},{"user_id":900,"name":"whateverdude22","steam_id":76561198142394470,"connected_time":671000000000,"state":"active","ping":46},{"user_id":880,"name":"Megadesk","steam_id":76561198078219641,"connected_time":2833000000000,"state":"active","ping":73},{"user_id":857,"name":"!! BRO IS FLABBERGASTED !!","steam_id":76561198135036396,"connected_time":3939000000000,"state":"active","ping":75},{"user_id":897,"name":"Intestinal Straw","steam_id":76561198082095303,"connected_time":1342000000000,"state":"active","ping":69},{"user_id":892,"name":"timestew 1","steam_id":76561198367583372,"connected_time":1792000000000,"state":"active","ping":86},{"user_id":848,"name":"m-Seq","steam_id":76561198114922735,"connected_time":4848000000000,"state":"active","ping":68}]},{"server_id":104,"name":"Uncletopia | Atlanta | 2 | All Maps","name_short":"atl-2","host":"atl-1.us.uncletopia.com","port":27025,"enabled":true,"region":"us-east","cc":"us","latitude":33.753746,"longitude":-84.38633,"reserved":0,"last_update":"0001-01-01T00:00:00Z","name_a2s":"Uncletopia | Atlanta | 2 | All Maps","protocol":17,"map":"pl_thundermountain","folder":"tf","game":"Team Fortress","app_id":440,"player_count":19,"max_players":24,"Bots":0,"server_type":"Dedicated","server_os":"Linux","password":true,"vac":true,"version":"7757534","steam_id":85568392924469983,"keywords":["nocrits","nodmgspread","payload","uncletopia"],"game_id":440,"stv_port":27026,"stv_name":"Uncletopia | Atlanta | 2 | All Maps | STV","players":[{"user_id":846,"name":"raya","steam_id":76561198051504581,"connected_time":1293000000000,"state":"active","ping":73},{"user_id":813,"name":"the taxi driver","steam_id":76561198830243167,"connected_time":4055000000000,"state":"active","ping":75},{"user_id":847,"name":"Blue Moon","steam_id":76561199146863671,"connected_time":1145000000000,"state":"active","ping":60},{"user_id":814,"name":"you've been deuced on!","steam_id":76561198236028020,"connected_time":4042000000000,"state":"active","ping":93},{"user_id":855,"name":"cataconik","steam_id":76561198145530829,"connected_time":631000000000,"state":"active","ping":85},{"user_id":809,"name":"ya!!!","steam_id":76561198243965308,"connected_time":4089000000000,"state":"active","ping":55},{"user_id":857,"name":"Joker's Skull","steam_id":76561199185320627,"connected_time":186000000000,"state":"active","ping":153},{"user_id":858,"name":"cook","steam_id":76561198090531755,"connected_time":109000000000,"state":"active","ping":61},{"user_id":811,"name":"King Domino","steam_id":76561198297831848,"connected_time":4068000000000,"state":"active","ping":52},{"user_id":838,"name":"SIGMA [BS]","steam_id":76561197962604879,"connected_time":2105000000000,"state":"active","ping":61},{"user_id":815,"name":"SCOTLAND FOREVER","steam_id":76561198046472986,"connected_time":4032000000000,"state":"active","ping":68},{"user_id":832,"name":"Oopsie Daisy ❋","steam_id":76561198042144492,"connected_time":3426000000000,"state":"active","ping":54},{"user_id":844,"name":"Soju","steam_id":76561198044130442,"connected_time":1560000000000,"state":"active","ping":83},{"user_id":850,"name":"\"C\"","steam_id":76561199325999700,"connected_time":969000000000,"state":"active","ping":81},{"user_id":851,"name":"Kiwiboy31","steam_id":76561198302758473,"connected_time":915000000000,"state":"active","ping":35},{"user_id":819,"name":"Faraday","steam_id":76561198089928357,"connected_time":3772000000000,"state":"active","ping":118},{"user_id":859,"name":"Pubbington","steam_id":76561198985685870,"connected_time":106000000000,"state":"active","ping":99},{"user_id":860,"name":"Tha_Producer","steam_id":76561198035270865,"connected_time":74000000000,"state":"active","ping":115},{"user_id":853,"name":"The Abysswalker","steam_id":76561198131301343,"connected_time":868000000000,"state":"active","ping":68}]},{"server_id":400,"name":"Uncletopia | Atlanta | 3 | Community","name_short":"atl-3","host":"atl-1.us.uncletopia.com","port":27035,"enabled":true,"region":"us-east","cc":"us","latitude":33.753746,"longitude":-84.38633,"reserved":0,"last_update":"0001-01-01T00:00:00Z","name_a2s":"Uncletopia | Atlanta | 3 | Community","protocol":17,"map":"workshop/pl_highwood_b13.ugc1769496557","folder":"tf","game":"Team Fortress","app_id":440,"player_count":0,"max_players":24,"Bots":0,"server_type":"Dedicated","server_os":"Linux","password":true,"vac":true,"version":"7757534","steam_id":85568392924515187,"keywords":["nocrits","nodmgspread","payload","uncletopia"],"game_id":440,"stv_port":27036,"stv_name":"Uncletopia | Atlanta | 3 | Community | STV","players":null},{"server_id":401,"name":"Uncletopia | Atlanta | 4 | No Payload","name_short":"atl-4","host":"atl-1.us.uncletopia.com","port":27045,"enabled":true,"region":"us-east","cc":"us","latitude":33.753746,"longitude":-84.38633,"reserved":0,"last_update":"0001-01-01T00:00:00Z","name_a2s":"","protocol":0,"map":"","folder":"","game":"","app_id":0,"player_count":0,"max_players":0,"Bots":0,"server_type":"","server_os":"","password":false,"vac":false,"version":"","steam_id":0,"keywords":null,"game_id":0,"stv_port":0,"stv_name":"","players":null},{"server_id":2,"name":"Uncletopia | Chicago | 1 | All Maps","name_short":"chi-1","host":"chi-1.us.uncletopia.com","port":27015,"enabled":true,"region":"us-central","cc":"us","latitude":41.881832,"longitude":-87.62318,"reserved":0,"last_update":"0001-01-01T00:00:00Z","name_a2s":"Uncletopia | Chicago | 1 | All Maps","protocol":17,"map":"cp_altitude","folder":"tf","game":"Team Fortress","app_id":440,"player_count":22,"max_players":24,"Bots":0,"server_type":"Dedicated","server_os":"Linux","password":true,"vac":true,"version":"7757534","steam_id":85568392924469984,"keywords":["cp","nocrits","nodmgspread","uncletopia"],"game_id":440,"stv_port":27016,"stv_name":"Uncletopia | Chicago | 1 | All Maps | STV","players":[{"user_id":959,"name":"copium addict","steam_id":76561199401665282,"connected_time":1782000000000,"state":"active","ping":196},{"user_id":974,"name":"ᔑ∷ᔑʖ_ꖌᓵ∷ᔑʖ","steam_id":76561198374734420,"connected_time":898000000000,"state":"active","ping":167},{"user_id":952,"name":"mischievous imp","steam_id":76561199074875663,"connected_time":2003000000000,"state":"active","ping":88},{"user_id":976,"name":"Notation","steam_id":76561198119509319,"connected_time":755000000000,"state":"active","ping":59},{"user_id":993,"name":"vergil","steam_id":76561197972605325,"connected_time":11000000000,"state":"active","ping":239},{"user_id":966,"name":"TheUnknownScout","steam_id":76561198299058107,"connected_time":1582000000000,"state":"active","ping":103},{"user_id":990,"name":"EJ 2 u","steam_id":76561198242738174,"connected_time":154000000000,"state":"active","ping":52},{"user_id":963,"name":"unlucky","steam_id":76561199204822104,"connected_time":1734000000000,"state":"active","ping":103},{"user_id":970,"name":"femboy foxboy","steam_id":76561198056432756,"connected_time":1357000000000,"state":"active","ping":50},{"user_id":971,"name":"Imanub","steam_id":76561199004541513,"connected_time":1349000000000,"state":"active","ping":84},{"user_id":972,"name":"WALKING GOPRO","steam_id":76561198186928885,"connected_time":1309000000000,"state":"active","ping":70},{"user_id":991,"name":"The Goose","steam_id":76561199006093549,"connected_time":86000000000,"state":"active","ping":68},{"user_id":973,"name":"FlyCozy","steam_id":76561199473077415,"connected_time":1228000000000,"state":"active","ping":97},{"user_id":992,"name":"BackToSchoolAds","steam_id":76561198870281128,"connected_time":50000000000,"state":"active","ping":75},{"user_id":947,"name":"moo'j","steam_id":76561198105230045,"connected_time":2372000000000,"state":"active","ping":82},{"user_id":987,"name":"TheAilingSword","steam_id":76561198250350844,"connected_time":185000000000,"state":"active","ping":59},{"user_id":994,"name":"coom","steam_id":76561198078189844,"connected_time":8000000000,"state":"active","ping":306},{"user_id":981,"name":"Hey","steam_id":76561198447517893,"connected_time":598000000000,"state":"active","ping":75},{"user_id":982,"name":"boy from the rafters","steam_id":76561198042926224,"connected_time":480000000000,"state":"active","ping":71},{"user_id":983,"name":"Lore","steam_id":76561198098407538,"connected_time":404000000000,"state":"active","ping":53},{"user_id":985,"name":"VenANON","steam_id":76561198055676240,"connected_time":387000000000,"state":"active","ping":79},{"user_id":858,"name":"Ademar","steam_id":76561199391802581,"connected_time":10367000000000,"state":"active","ping":109}]},{"server_id":106,"name":"Uncletopia | Chicago | 2 | All Maps","name_short":"chi-2","host":"chi-1.us.uncletopia.com","port":27025,"enabled":true,"region":"us-central","cc":"us","latitude":41.881832,"longitude":-87.62318,"reserved":0,"last_update":"0001-01-01T00:00:00Z","name_a2s":"Uncletopia | Chicago | 2 | All Maps","protocol":17,"map":"koth_viaduct","folder":"tf","game":"Team Fortress","app_id":440,"player_count":0,"max_players":24,"Bots":0,"server_type":"Dedicated","server_os":"Linux","password":true,"vac":true,"version":"7757534","steam_id":85568392924469985,"keywords":["cp","nocrits","nodmgspread","uncletopia"],"game_id":440,"stv_port":27026,"stv_name":"Uncletopia | Chicago | 2 | All Maps | STV","players":null},{"server_id":402,"name":"Uncletopia | Chicago | 3 | All Maps","name_short":"chi-3","host":"chi-1.us.uncletopia.com","port":27035,"enabled":true,"region":"us-central","cc":"us","latitude":41.881832,"longitude":-87.62318,"reserved":0,"last_update":"0001-01-01T00:00:00Z","name_a2s":"Uncletopia | Chicago | 3 | All Maps","protocol":17,"map":"pl_pier","folder":"tf","game":"Team Fortress","app_id":440,"player_count":3,"max_players":24,"Bots":0,"server_type":"Dedicated","server_os":"Linux","password":true,"vac":true,"version":"7757534","steam_id":85568392924515191,"keywords":["nocrits","nodmgspread","payload","uncletopia"],"game_id":440,"stv_port":27036,"stv_name":"Uncletopia | Chicago | 3 | All Maps | STV","players":[{"user_id":635,"name":"ChefBev","steam_id":76561198189448113,"connected_time":65000000000,"state":"active","ping":69},{"user_id":636,"name":"OKUYA5U","steam_id":76561198815127418,"connected_time":3000000000,"state":"spawning","ping":143},{"user_id":632,"name":"Orangecrust26","steam_id":76561199232443221,"connected_time":868000000000,"state":"active","ping":84}]},{"server_id":403,"name":"Uncletopia | Chicago | 4 | All Maps","name_short":"chi-4","host":"chi-1.us.uncletopia.com","port":27045,"enabled":true,"region":"us-central","cc":"us","latitude":41.881832,"longitude":-87.62318,"reserved":0,"last_update":"0001-01-01T00:00:00Z","name_a2s":"Uncletopia | Chicago | 4 | All Maps","protocol":17,"map":"pl_borneo","folder":"tf","game":"Team Fortress","app_id":440,"player_count":24,"max_players":24,"Bots":0,"server_type":"Dedicated","server_os":"Linux","password":true,"vac":true,"version":"7757534","steam_id":85568392924515193,"keywords":["nocrits","nodmgspread","payload","uncletopia"],"game_id":440,"stv_port":27046,"stv_name":"Uncletopia | Chicago | 4 | All Maps | STV","players":[{"user_id":585,"name":"Vorce","steam_id":76561198998082956,"connected_time":2715000000000,"state":"active","ping":47},{"user_id":596,"name":"Dot.","steam_id":76561198149463984,"connected_time":2121000000000,"state":"active","ping":46},{"user_id":601,"name":"Gonorrhea Gaming","steam_id":76561199121158746,"connected_time":1090000000000,"state":"active","ping":71},{"user_id":602,"name":"Stupid Monkey =3","steam_id":76561198024580166,"connected_time":979000000000,"state":"active","ping":93},{"user_id":617,"name":"Dzhoshua","steam_id":76561198071915251,"connected_time":233000000000,"state":"active","ping":59},{"user_id":564,"name":"Dinner","steam_id":76561198067294811,"connected_time":4412000000000,"state":"active","ping":66},{"user_id":614,"name":"Resistance","steam_id":76561198146782074,"connected_time":497000000000,"state":"active","ping":51},{"user_id":597,"name":"CroMaLaka","steam_id":76561198380926090,"connected_time":1865000000000,"state":"active","ping":46},{"user_id":619,"name":"^_^ LOL!","steam_id":76561198126358045,"connected_time":73000000000,"state":"active","ping":77},{"user_id":607,"name":"Matches_                       ","steam_id":76561198048925904,"connected_time":756000000000,"state":"active","ping":109},{"user_id":587,"name":"Ltn. What's-his-Nuts","steam_id":76561198133834262,"connected_time":2689000000000,"state":"active","ping":77},{"user_id":608,"name":"BurnN8or101","steam_id":76561198132668224,"connected_time":745000000000,"state":"active","ping":61},{"user_id":568,"name":"DeckofDragons","steam_id":76561198057398213,"connected_time":4315000000000,"state":"active","ping":75},{"user_id":588,"name":"HOODEDLAWYER285","steam_id":76561198156496197,"connected_time":2684000000000,"state":"active","ping":62},{"user_id":461,"name":"r/blueynsfw","steam_id":76561198114679256,"connected_time":10266000000000,"state":"active","ping":63},{"user_id":589,"name":"Happy Yaoi Sunday","steam_id":76561198111290441,"connected_time":2648000000000,"state":"active","ping":49},{"user_id":590,"name":"Osteo-Oligarch","steam_id":76561198164731896,"connected_time":2638000000000,"state":"active","ping":76},{"user_id":609,"name":"honked off the bobo","steam_id":76561198123287268,"connected_time":716000000000,"state":"active","ping":46},{"user_id":620,"name":"cyborgor","steam_id":76561198040782513,"connected_time":37000000000,"state":"active","ping":90},{"user_id":591,"name":"pipebombrater","steam_id":76561199029030831,"connected_time":2585000000000,"state":"active","ping":65},{"user_id":611,"name":"T     H     E    PinheadLary","steam_id":76561199091466927,"connected_time":640000000000,"state":"active","ping":134},{"user_id":615,"name":"ƐՌѴƳ","steam_id":76561198099470277,"connected_time":432000000000,"state":"active","ping":81},{"user_id":594,"name":"ape (real)","steam_id":76561198379444671,"connected_time":2496000000000,"state":"active","ping":53},{"user_id":616,"name":"real rx like pap said","steam_id":76561198026393621,"connected_time":420000000000,"state":"active","ping":83}]},{"server_id":36,"name":"Uncletopia | Chicago | 5 | All Maps","name_short":"chi-5","host":"chi-2.us.uncletopia.com","port":27015,"enabled":true,"region":"us-central","cc":"us","latitude":41.881832,"longitude":-87.62318,"reserved":0,"last_update":"0001-01-01T00:00:00Z","name_a2s":"Uncletopia | Chicago | 5 | All Maps","protocol":17,"map":"pl_frontier_final","folder":"tf","game":"Team Fortress","app_id":440,"player_count":1,"max_players":24,"Bots":0,"server_type":"Dedicated","server_os":"Linux","password":true,"vac":true,"version":"7757534","steam_id":85568392924866362,"keywords":["nocrits","nodmgspread","payload","uncletopia"],"game_id":440,"stv_port":27016,"stv_name":"Uncletopia | Chicago | 5 | All Maps | STV","players":[{"user_id":817,"name":"Shylo","steam_id":76561199276858045,"connected_time":813000000000,"state":"active","ping":73}]},{"server_id":37,"name":"Uncletopia | Chicago | 6 | All Maps","name_short":"chi-6","host":"chi-2.us.uncletopia.com","port":27025,"enabled":true,"region":"us-central","cc":"us","latitude":41.881832,"longitude":-87.62318,"reserved":0,"last_update":"0001-01-01T00:00:00Z","name_a2s":"Uncletopia | Chicago | 6 | All Maps","protocol":17,"map":"koth_king","folder":"tf","game":"Team Fortress","app_id":440,"player_count":2,"max_players":24,"Bots":0,"server_type":"Dedicated","server_os":"Linux","password":true,"vac":true,"version":"7757534","steam_id":85568392924866363,"keywords":["cp","nocrits","nodmgspread","uncletopia"],"game_id":440,"stv_port":27026,"stv_name":"Uncletopia | Chicago | 6 | All Maps | STV","players":[{"user_id":110,"name":"Periculosum PhD in Funny","steam_id":76561198123370914,"connected_time":21315000000000,"state":"active","ping":70},{"user_id":314,"name":"Robo Intern","steam_id":76561199067098696,"connected_time":5529000000000,"state":"active","ping":88}]},{"server_id":38,"name":"Uncletopia | Chicago | 7 | Stopwatch Beta","name_short":"chi-7","host":"chi-2.us.uncletopia.com","port":27035,"enabled":true,"region":"us-central","cc":"us","latitude":41.881832,"longitude":-87.62318,"reserved":0,"last_update":"0001-01-01T00:00:00Z","name_a2s":"Uncletopia | Chicago | 7 | Stopwatch Beta","protocol":17,"map":"workshop/pl_summercoast_rc8e.ugc1761528829","folder":"tf","game":"Team Fortress","app_id":440,"player_count":0,"max_players":24,"Bots":0,"server_type":"Dedicated","server_os":"Linux","password":true,"vac":true,"version":"7757534","steam_id":85568392924866364,"keywords":["nocrits","nodmgspread","payload","uncletopia"],"game_id":440,"stv_port":27036,"stv_name":"Uncletopia | Chicago | 7 | Stopwatch Beta | STV","players":null},{"server_id":39,"name":"Uncletopia | Chicago | 8 | Community","name_short":"chi-8","host":"chi-2.us.uncletopia.com","port":27045,"enabled":true,"region":"us-central","cc":"us","latitude":41.881832,"longitude":-87.62318,"reserved":0,"last_update":"0001-01-01T00:00:00Z","name_a2s":"Uncletopia | Chicago | 8 | Community","protocol":17,"map":"workshop/pl_barnblitz_pro7.ugc582280235","folder":"tf","game":"Team Fortress","app_id":440,"player_count":0,"max_players":24,"Bots":0,"server_type":"Dedicated","server_os":"Linux","password":true,"vac":true,"version":"7757534","steam_id":85568392924866365,"keywords":["nocrits","nodmgspread","payload","uncletopia"],"game_id":440,"stv_port":27046,"stv_name":"Uncletopia | Chicago | 8 | Community | STV","players":null},{"server_id":8,"name":"Uncletopia | Dallas | 1 | All Maps","name_short":"dal-1","host":"dal-1.us.uncletopia.com","port":27015,"enabled":true,"region":"us-central","cc":"us","latitude":32.779167,"longitude":-96.80889,"reserved":0,"last_update":"0001-01-01T00:00:00Z","name_a2s":"Uncletopia | Dallas | 1 | All Maps","protocol":17,"map":"cp_process_final","folder":"tf","game":"Team Fortress","app_id":440,"player_count":23,"max_players":24,"Bots":0,"server_type":"Dedicated","server_os":"Linux","password":true,"vac":true,"version":"7757534","steam_id":85568392924469986,"keywords":["cp","nocrits","nodmgspread","uncletopia"],"game_id":440,"stv_port":27016,"stv_name":"Uncletopia | Dallas | 1 | All Maps | STV","players":[{"user_id":675,"name":"Shifty Louie","steam_id":76561197990872608,"connected_time":2823000000000,"state":"active","ping":114},{"user_id":689,"name":"Chief Diggery K.","steam_id":76561198066629137,"connected_time":1785000000000,"state":"active","ping":70},{"user_id":694,"name":"kier","steam_id":76561198018564445,"connected_time":1565000000000,"state":"active","ping":65},{"user_id":684,"name":"TTV.silverfan420","steam_id":76561198013873028,"connected_time":2437000000000,"state":"active","ping":88},{"user_id":695,"name":"Cats","steam_id":76561197965022076,"connected_time":1527000000000,"state":"active","ping":75},{"user_id":685,"name":"Gelliterate","steam_id":76561198107233070,"connected_time":2325000000000,"state":"active","ping":51},{"user_id":702,"name":"ark","steam_id":76561198041066271,"connected_time":754000000000,"state":"active","ping":64},{"user_id":708,"name":"DragonHeart","steam_id":76561198013245625,"connected_time":23000000000,"state":"active","ping":70},{"user_id":710,"name":"Passes the Bungus","steam_id":76561198040647717,"connected_time":10000000000,"state":"active","ping":93},{"user_id":650,"name":"Gaz","steam_id":76561198112838904,"connected_time":5172000000000,"state":"active","ping":81},{"user_id":644,"name":"Flubdy_","steam_id":76561198073338521,"connected_time":5573000000000,"state":"active","ping":49},{"user_id":690,"name":"lazarust","steam_id":76561198355322731,"connected_time":1736000000000,"state":"active","ping":72},{"user_id":691,"name":"facstab","steam_id":76561198009818412,"connected_time":1704000000000,"state":"active","ping":64},{"user_id":703,"name":"Captain Falcon real","steam_id":76561198171082595,"connected_time":724000000000,"state":"active","ping":64},{"user_id":705,"name":"Hidden Phantom","steam_id":76561198115531799,"connected_time":690000000000,"state":"active","ping":89},{"user_id":647,"name":"Maurix6","steam_id":76561198066634370,"connected_time":5515000000000,"state":"active","ping":60},{"user_id":670,"name":"DRAG","steam_id":76561198091788521,"connected_time":3465000000000,"state":"active","ping":86},{"user_id":711,"name":"Searot","steam_id":76561198070800170,"connected_time":9000000000,"state":"spawning","ping":55},{"user_id":699,"name":"Winner","steam_id":76561198085876590,"connected_time":1166000000000,"state":"active","ping":82},{"user_id":707,"name":"vader1342","steam_id":76561197998934578,"connected_time":444000000000,"state":"active","ping":69},{"user_id":692,"name":"Bikeway Naros","steam_id":76561198086676786,"connected_time":1676000000000,"state":"active","ping":78},{"user_id":709,"name":"[DEEP]able","steam_id":76561198292552182,"connected_time":23000000000,"state":"spawning","ping":64},{"user_id":683,"name":"Stillkill","steam_id":76561198065069057,"connected_time":2514000000000,"state":"active","ping":30}]},{"server_id":108,"name":"Uncletopia | Dallas | 2 | All Maps","name_short":"dal-2","host":"dal-1.us.uncletopia.com","port":27025,"enabled":true,"region":"us-central","cc":"us","latitude":32.779167,"longitude":-96.80889,"reserved":0,"last_update":"0001-01-01T00:00:00Z","name_a2s":"Uncletopia | Dallas | 2 | All Maps","protocol":17,"map":"pl_upward","folder":"tf","game":"Team Fortress","app_id":440,"player_count":24,"max_players":24,"Bots":0,"server_type":"Dedicated","server_os":"Linux","password":true,"vac":true,"version":"7757534","steam_id":85568392924469988,"keywords":["nocrits","nodmgspread","payload","uncletopia"],"game_id":440,"stv_port":27026,"stv_name":"Uncletopia | Dallas | 2 | All Maps | STV","players":[{"user_id":634,"name":"Salium","steam_id":76561197961546093,"connected_time":734000000000,"state":"active","ping":105},{"user_id":625,"name":"Zomb3Red","steam_id":76561198075677894,"connected_time":972000000000,"state":"active","ping":76},{"user_id":615,"name":"Squeena","steam_id":76561198274312900,"connected_time":2379000000000,"state":"active","ping":73},{"user_id":576,"name":"Mr.Pan","steam_id":76561198069030613,"connected_time":9125000000000,"state":"active","ping":63},{"user_id":380,"name":"moe5x","steam_id":76561198316877833,"connected_time":25112000000000,"state":"active","ping":78},{"user_id":621,"name":"StrangerHYP","steam_id":76561198395336752,"connected_time":1850000000000,"state":"active","ping":85},{"user_id":626,"name":"Room full of Bananas","steam_id":76561198045451169,"connected_time":969000000000,"state":"active","ping":70},{"user_id":605,"name":"Fantastic Mr. Fox Appreciator","steam_id":76561198096306325,"connected_time":4101000000000,"state":"active","ping":90},{"user_id":482,"name":"Zigadox","steam_id":76561198079813479,"connected_time":17597000000000,"state":"active","ping":87},{"user_id":631,"name":"Team Fartpiss Poo","steam_id":76561199163591880,"connected_time":798000000000,"state":"active","ping":108},{"user_id":624,"name":"SPREAD SPRING GROWTH AND WARMTH","steam_id":76561198800386026,"connected_time":1020000000000,"state":"active","ping":105},{"user_id":582,"name":"Sanic","steam_id":76561198083124962,"connected_time":8343000000000,"state":"active","ping":45},{"user_id":585,"name":"Risky","steam_id":76561198231029328,"connected_time":7369000000000,"state":"active","ping":72},{"user_id":636,"name":"reverb367","steam_id":76561199123912910,"connected_time":318000000000,"state":"active","ping":104},{"user_id":627,"name":"Roland_Actual","steam_id":76561198103212376,"connected_time":948000000000,"state":"active","ping":82},{"user_id":635,"name":"xZackAttack27x","steam_id":76561198035446639,"connected_time":686000000000,"state":"active","ping":43},{"user_id":628,"name":"lil nas x","steam_id":76561199143910251,"connected_time":893000000000,"state":"active","ping":74},{"user_id":610,"name":"iluvtoust","steam_id":76561198869269207,"connected_time":3475000000000,"state":"active","ping":48},{"user_id":632,"name":"Hifumi Togo","steam_id":76561198074930636,"connected_time":774000000000,"state":"active","ping":64},{"user_id":590,"name":"Etomb","steam_id":76561198210017208,"connected_time":7269000000000,"state":"active","ping":78},{"user_id":600,"name":"Kyzer","steam_id":76561198048034600,"connected_time":5932000000000,"state":"active","ping":93},{"user_id":619,"name":"Queen Ishtar","steam_id":76561198035614233,"connected_time":2188000000000,"state":"active","ping":87},{"user_id":544,"name":"bolainassr0","steam_id":76561199079078845,"connected_time":11953000000000,"state":"active","ping":100},{"user_id":633,"name":"Motreir","steam_id":76561198151717946,"connected_time":766000000000,"state":"active","ping":89}]},{"server_id":5,"name":"Uncletopia | Frankfurt | 1 | All Maps","name_short":"frk-1","host":"frk-1.de.uncletopia.com","port":27015,"enabled":true,"region":"eu","cc":"de","latitude":50.110924,"longitude":8.682127,"reserved":0,"last_update":"0001-01-01T00:00:00Z","name_a2s":"Uncletopia | Frankfurt | 1 | All Maps","protocol":17,"map":"pl_snowycoast","folder":"tf","game":"Team Fortress","app_id":440,"player_count":0,"max_players":24,"Bots":0,"server_type":"Dedicated","server_os":"Linux","password":true,"vac":true,"version":"7757534","steam_id":85568392924469989,"keywords":["nocrits","nodmgspread","payload","uncletopia"],"game_id":440,"stv_port":27016,"stv_name":"Uncletopia | Frankfurt | 1 | All Maps | STV","players":null},{"server_id":110,"name":"Uncletopia | Frankfurt | 2 | All Maps","name_short":"frk-2","host":"frk-1.de.uncletopia.com","port":27025,"enabled":true,"region":"eu","cc":"de","latitude":50.110924,"longitude":8.682127,"reserved":0,"last_update":"0001-01-01T00:00:00Z","name_a2s":"Uncletopia | Frankfurt | 2 | All Maps","protocol":17,"map":"cp_mountainlab","folder":"tf","game":"Team Fortress","app_id":440,"player_count":0,"max_players":24,"Bots":0,"server_type":"Dedicated","server_os":"Linux","password":true,"vac":true,"version":"7757534","steam_id":85568392924469990,"keywords":["cp","nocrits","nodmgspread","uncletopia"],"game_id":440,"stv_port":27026,"stv_name":"Uncletopia | Frankfurt | 2 | All Maps | STV","players":null},{"server_id":308,"name":"Uncletopia | Frankfurt | 3 | All Maps","name_short":"frk-3","host":"frk-1.de.uncletopia.com","port":27035,"enabled":true,"region":"eu","cc":"de","latitude":50.110924,"longitude":8.682127,"reserved":0,"last_update":"0001-01-01T00:00:00Z","name_a2s":"Uncletopia | Frankfurt | 3 | All Maps","protocol":17,"map":"pl_swiftwater_final1","folder":"tf","game":"Team Fortress","app_id":440,"player_count":0,"max_players":24,"Bots":0,"server_type":"Dedicated","server_os":"Linux","password":true,"vac":true,"version":"7757534","steam_id":85568392924504274,"keywords":["nocrits","nodmgspread","payload","uncletopia"],"game_id":440,"stv_port":27036,"stv_name":"Uncletopia | Frankfurt | 3 | All Maps | STV","players":null},{"server_id":309,"name":"Uncletopia | Frankfurt | 4 | All Maps","name_short":"frk-4","host":"frk-1.de.uncletopia.com","port":27045,"enabled":true,"region":"eu","cc":"de","latitude":50.110924,"longitude":8.682127,"reserved":0,"last_update":"0001-01-01T00:00:00Z","name_a2s":"Uncletopia | Frankfurt | 4 | All Maps","protocol":17,"map":"koth_viaduct","folder":"tf","game":"Team Fortress","app_id":440,"player_count":0,"max_players":24,"Bots":0,"server_type":"Dedicated","server_os":"Linux","password":true,"vac":true,"version":"7757534","steam_id":85568392924504275,"keywords":["cp","nocrits","nodmgspread","uncletopia"],"game_id":440,"stv_port":27046,"stv_name":"Uncletopia | Frankfurt | 4 | All Maps | STV","players":null},{"server_id":310,"name":"Uncletopia | Frankfurt | 5 | All Maps","name_short":"frk-5","host":"frk-1.de.uncletopia.com","port":27055,"enabled":true,"region":"eu","cc":"de","latitude":50.110924,"longitude":8.682127,"reserved":0,"last_update":"0001-01-01T00:00:00Z","name_a2s":"Uncletopia | Frankfurt | 5 | All Maps","protocol":17,"map":"koth_lakeside_final","folder":"tf","game":"Team Fortress","app_id":440,"player_count":0,"max_players":24,"Bots":0,"server_type":"Dedicated","server_os":"Linux","password":true,"vac":true,"version":"7757534","steam_id":85568392924504277,"keywords":["cp","nocrits","nodmgspread","uncletopia"],"game_id":440,"stv_port":27056,"stv_name":"Uncletopia | Frankfurt | 5 | All Maps | STV","players":null},{"server_id":311,"name":"Uncletopia | Frankfurt | 6 | All Maps","name_short":"frk-6","host":"frk-1.de.uncletopia.com","port":27065,"enabled":true,"region":"eu","cc":"de","latitude":50.110924,"longitude":8.682127,"reserved":0,"last_update":"0001-01-01T00:00:00Z","name_a2s":"Uncletopia | Frankfurt | 6 | All Maps","protocol":17,"map":"pl_frontier_final","folder":"tf","game":"Team Fortress","app_id":440,"player_count":0,"max_players":24,"Bots":0,"server_type":"Dedicated","server_os":"Linux","password":true,"vac":true,"version":"7757534","steam_id":85568392924504278,"keywords":["nocrits","nodmgspread","payload","uncletopia"],"game_id":440,"stv_port":27066,"stv_name":"Uncletopia | Frankfurt | 6 | All Maps | STV","players":null},{"server_id":23,"name":"Uncletopia | Frankfurt | 7 | Stopwatch Beta","name_short":"frk-7","host":"frk-1.de.uncletopia.com","port":27075,"enabled":true,"region":"eu","cc":"de","latitude":50.110924,"longitude":8.682127,"reserved":0,"last_update":"0001-01-01T00:00:00Z","name_a2s":"Uncletopia | Frankfurt | 7 | Stopwatch Beta","protocol":17,"map":"cp_sunshine","folder":"tf","game":"Team Fortress","app_id":440,"player_count":0,"max_players":24,"Bots":0,"server_type":"Dedicated","server_os":"Linux","password":true,"vac":true,"version":"7757534","steam_id":85568392924742827,"keywords":["cp","nocrits","nodmgspread","uncletopia"],"game_id":440,"stv_port":27076,"stv_name":"Uncletopia | Frankfurt | 7 | Stopwatch Beta | STV","players":null},{"server_id":24,"name":"Uncletopia | Frankfurt | 8 | Community","name_short":"frk-8","host":"frk-1.de.uncletopia.com","port":27085,"enabled":true,"region":"eu","cc":"de","latitude":50.110924,"longitude":8.682127,"reserved":0,"last_update":"0001-01-01T00:00:00Z","name_a2s":"Uncletopia | Frankfurt | 8 | Community","protocol":17,"map":"koth_lakeside_final","folder":"tf","game":"Team Fortress","app_id":440,"player_count":0,"max_players":24,"Bots":0,"server_type":"Dedicated","server_os":"Linux","password":true,"vac":true,"version":"7757534","steam_id":85568392924742828,"keywords":["cp","nocrits","nodmgspread","uncletopia"],"game_id":440,"stv_port":27086,"stv_name":"Uncletopia | Frankfurt | 8 | Community | STV","players":null},{"server_id":202,"name":"Uncletopia | Hong Kong | 1 | All Maps","name_short":"hgk-1","host":"hgk-1.hk.uncletopia.com","port":27015,"enabled":true,"region":"asia","cc":"hk","latitude":22.302711,"longitude":114.177216,"reserved":0,"last_update":"0001-01-01T00:00:00Z","name_a2s":"Uncletopia | Hong Kong | 1 | All Maps","protocol":17,"map":"pl_borneo","folder":"tf","game":"Team Fortress","app_id":440,"player_count":24,"max_players":24,"Bots":0,"server_type":"Dedicated","server_os":"Linux","password":true,"vac":true,"version":"7757534","steam_id":85568392924494504,"keywords":["nocrits","nodmgspread","payload","uncletopia"],"game_id":440,"stv_port":27016,"stv_name":"Uncletopia | Hong Kong | 1 | All Maps | STV","players":[{"user_id":66,"name":"An ordinary bruh","steam_id":76561198267446959,"connected_time":6362000000000,"state":"active","ping":58},{"user_id":67,"name":"water tastes good","steam_id":76561199375947670,"connected_time":6181000000000,"state":"active","ping":62},{"user_id":119,"name":"Light Rainbow","steam_id":76561198118966673,"connected_time":802000000000,"state":"active","ping":42},{"user_id":106,"name":"Telekhine","steam_id":76561198387120618,"connected_time":1828000000000,"state":"active","ping":54},{"user_id":86,"name":"i am a F2P and my aim is shit","steam_id":76561199475974790,"connected_time":5305000000000,"state":"active","ping":86},{"user_id":45,"name":"David Keithson","steam_id":76561199279393636,"connected_time":7696000000000,"state":"active","ping":90},{"user_id":72,"name":"JE","steam_id":76561198264819554,"connected_time":5969000000000,"state":"active","ping":43},{"user_id":102,"name":"Kyo","steam_id":76561198088550274,"connected_time":2965000000000,"state":"active","ping":41},{"user_id":120,"name":"Wx","steam_id":76561199217780897,"connected_time":800000000000,"state":"active","ping":114},{"user_id":122,"name":"쿠키","steam_id":76561197997220367,"connected_time":788000000000,"state":"active","ping":53},{"user_id":113,"name":"Leroy","steam_id":76561199137927625,"connected_time":1603000000000,"state":"active","ping":90},{"user_id":125,"name":"huh :-)","steam_id":76561198293775978,"connected_time":597000000000,"state":"active","ping":95},{"user_id":105,"name":"Giyu","steam_id":76561198299150410,"connected_time":1849000000000,"state":"active","ping":82},{"user_id":99,"name":"Aiko Kanata Zhenco","steam_id":76561199262955185,"connected_time":3013000000000,"state":"active","ping":115},{"user_id":115,"name":"๋","steam_id":76561198413116920,"connected_time":1316000000000,"state":"active","ping":85},{"user_id":101,"name":"mister beast","steam_id":76561198346128694,"connected_time":3010000000000,"state":"active","ping":66},{"user_id":114,"name":"Nonexistent","steam_id":76561198980563251,"connected_time":1491000000000,"state":"active","ping":85},{"user_id":98,"name":"P","steam_id":76561198304514505,"connected_time":3058000000000,"state":"active","ping":77},{"user_id":89,"name":"killman47","steam_id":76561198348487408,"connected_time":4021000000000,"state":"active","ping":42},{"user_id":124,"name":"Cotton Candyness #savetf2","steam_id":76561198118254127,"connected_time":764000000000,"state":"active","ping":66},{"user_id":111,"name":"帕","steam_id":76561198439343999,"connected_time":1755000000000,"state":"active","ping":80},{"user_id":117,"name":"rock dog","steam_id":76561198110545854,"connected_time":901000000000,"state":"active","ping":150},{"user_id":100,"name":"Milk❤","steam_id":76561198163911560,"connected_time":3013000000000,"state":"active","ping":139},{"user_id":92,"name":"陽子","steam_id":76561198008307645,"connected_time":3990000000000,"state":"active","ping":128}]},{"server_id":1,"name":"Uncletopia | Los Angeles | 1 | All Maps","name_short":"lax-1","host":"lax-1.us.uncletopia.com","port":27015,"enabled":true,"region":"us-west","cc":"us","latitude":33.94279,"longitude":-118.41004,"reserved":0,"last_update":"0001-01-01T00:00:00Z","name_a2s":"Uncletopia | Los Angeles | 1 | All Maps","protocol":17,"map":"pl_borneo","folder":"tf","game":"Team Fortress","app_id":440,"player_count":0,"max_players":24,"Bots":0,"server_type":"Dedicated","server_os":"Linux","password":true,"vac":true,"version":"7757534","steam_id":85568392924469991,"keywords":["nocrits","nodmgspread","payload","uncletopia"],"game_id":440,"stv_port":27016,"stv_name":"Uncletopia | Los Angeles | 1 | All Maps | STV","players":null},{"server_id":112,"name":"Uncletopia | Los Angeles | 2 | All Maps","name_short":"lax-2","host":"lax-1.us.uncletopia.com","port":27025,"enabled":true,"region":"us-west","cc":"us","latitude":33.94279,"longitude":-118.41004,"reserved":0,"last_update":"0001-01-01T00:00:00Z","name_a2s":"Uncletopia | Los Angeles | 2 | All Maps","protocol":17,"map":"koth_viaduct","folder":"tf","game":"Team Fortress","app_id":440,"player_count":18,"max_players":24,"Bots":0,"server_type":"Dedicated","server_os":"Linux","password":true,"vac":true,"version":"7757534","steam_id":85568392924469992,"keywords":["cp","nocrits","nodmgspread","uncletopia"],"game_id":440,"stv_port":27026,"stv_name":"Uncletopia | Los Angeles | 2 | All Maps | STV","players":[{"user_id":584,"name":"jubb","steam_id":76561198186865526,"connected_time":2568000000000,"state":"active","ping":92},{"user_id":601,"name":"Kokushibou","steam_id":76561198054027353,"connected_time":1059000000000,"state":"active","ping":105},{"user_id":548,"name":"+EsC|Kevinator","steam_id":76561198008475674,"connected_time":6801000000000,"state":"active","ping":72},{"user_id":546,"name":"Espurr","steam_id":76561198008207777,"connected_time":6859000000000,"state":"active","ping":60},{"user_id":573,"name":"ScarletDream","steam_id":76561198277797713,"connected_time":3373000000000,"state":"active","ping":62},{"user_id":594,"name":"aqua","steam_id":76561199407709552,"connected_time":1588000000000,"state":"active","ping":98},{"user_id":606,"name":"O_x","steam_id":76561198289696924,"connected_time":918000000000,"state":"active","ping":45},{"user_id":528,"name":"Four Ohm","steam_id":76561197999474971,"connected_time":7662000000000,"state":"active","ping":108},{"user_id":602,"name":"Girox","steam_id":76561198009921751,"connected_time":1019000000000,"state":"active","ping":106},{"user_id":603,"name":"he","steam_id":76561198329367716,"connected_time":987000000000,"state":"active","ping":54},{"user_id":604,"name":"Patty Cakes","steam_id":76561197977358526,"connected_time":962000000000,"state":"active","ping":101},{"user_id":609,"name":"Altruisticailuridae","steam_id":76561198335295596,"connected_time":402000000000,"state":"active","ping":54},{"user_id":611,"name":"Chalupa Jones","steam_id":76561198335855588,"connected_time":320000000000,"state":"active","ping":51},{"user_id":499,"name":"vioxynteris","steam_id":76561198161428666,"connected_time":10092000000000,"state":"active","ping":41},{"user_id":607,"name":"Swu","steam_id":76561198046645258,"connected_time":901000000000,"state":"active","ping":65},{"user_id":532,"name":"Bomb Squirtle™","steam_id":76561197998931145,"connected_time":7646000000000,"state":"active","ping":125},{"user_id":608,"name":"Akkawi","steam_id":76561198203159952,"connected_time":843000000000,"state":"active","ping":68},{"user_id":544,"name":"wlfgng","steam_id":76561198316639499,"connected_time":7155000000000,"state":"active","ping":46}]},{"server_id":324,"name":"Uncletopia | Los Angeles | 3 | All Maps","name_short":"lax-3","host":"lax-1.us.uncletopia.com","port":27035,"enabled":true,"region":"us-west","cc":"us","latitude":33.94279,"longitude":-118.41004,"reserved":0,"last_update":"0001-01-01T00:00:00Z","name_a2s":"Uncletopia | Los Angeles | 3 | All Maps","protocol":17,"map":"pl_pier","folder":"tf","game":"Team Fortress","app_id":440,"player_count":22,"max_players":24,"Bots":0,"server_type":"Dedicated","server_os":"Linux","password":true,"vac":true,"version":"7757534","steam_id":85568392924510198,"keywords":["nocrits","nodmgspread","payload","uncletopia"],"game_id":440,"stv_port":27036,"stv_name":"Uncletopia | Los Angeles | 3 | All Maps | STV","players":[{"user_id":301,"name":"fish","steam_id":76561198054070811,"connected_time":1546000000000,"state":"active","ping":51},{"user_id":297,"name":"❤ Ashley ❤","steam_id":76561198056428303,"connected_time":1953000000000,"state":"active","ping":48},{"user_id":305,"name":"Deep Brasil","steam_id":76561198091374014,"connected_time":1133000000000,"state":"active","ping":51},{"user_id":286,"name":"epec gaymer","steam_id":76561198274274539,"connected_time":2945000000000,"state":"active","ping":46},{"user_id":300,"name":"neonshapes","steam_id":76561198153701540,"connected_time":1584000000000,"state":"active","ping":55},{"user_id":298,"name":"self sufficient kitten","steam_id":76561197960592612,"connected_time":1682000000000,"state":"active","ping":75},{"user_id":288,"name":"Igrium","steam_id":76561198119549811,"connected_time":2933000000000,"state":"active","ping":72},{"user_id":289,"name":":face_holding_back_tears:","steam_id":76561198164782653,"connected_time":2919000000000,"state":"active","ping":116},{"user_id":310,"name":"0r161n4lj0k3","steam_id":76561198127328235,"connected_time":535000000000,"state":"active","ping":71},{"user_id":294,"name":"Professor Peppermint","steam_id":76561198184017082,"connected_time":2725000000000,"state":"active","ping":89},{"user_id":255,"name":"HOG RIDER","steam_id":76561198298589502,"connected_time":6688000000000,"state":"active","ping":46},{"user_id":246,"name":"dash23™","steam_id":76561198314951185,"connected_time":7577000000000,"state":"active","ping":84},{"user_id":290,"name":"gerg","steam_id":76561197997127387,"connected_time":2909000000000,"state":"active","ping":60},{"user_id":306,"name":"gwendolyn","steam_id":76561198046815360,"connected_time":754000000000,"state":"active","ping":54},{"user_id":311,"name":"Raw_Input","steam_id":76561198050238582,"connected_time":517000000000,"state":"active","ping":75},{"user_id":315,"name":"mechanicvirus","steam_id":76561198038161480,"connected_time":74000000000,"state":"active","ping":64},{"user_id":229,"name":"Soozy420","steam_id":76561198809074422,"connected_time":8375000000000,"state":"active","ping":67},{"user_id":304,"name":"WuTangJuan","steam_id":76561198053050135,"connected_time":1383000000000,"state":"active","ping":115},{"user_id":299,"name":"Grimvibes","steam_id":76561198065621941,"connected_time":1669000000000,"state":"active","ping":77},{"user_id":291,"name":"social distance warrior","steam_id":76561198128992994,"connected_time":2905000000000,"state":"active","ping":74},{"user_id":314,"name":"{ᴛʀ_ᴄᴇʀᴘ} shullers","steam_id":76561198889997809,"connected_time":357000000000,"state":"active","ping":47},{"user_id":313,"name":"pt","steam_id":76561198143023330,"connected_time":471000000000,"state":"active","ping":48}]},{"server_id":25,"name":"Uncletopia | Los Angeles | 4 | Stopwatch Beta","name_short":"lax-4","host":"lax-1.us.uncletopia.com","port":27045,"enabled":true,"region":"us-west","cc":"us","latitude":33.94279,"longitude":-118.41004,"reserved":0,"last_update":"0001-01-01T00:00:00Z","name_a2s":"Uncletopia | Los Angeles | 4 | Stopwatch Beta","protocol":17,"map":"pl_swiftwater_final1","folder":"tf","game":"Team Fortress","app_id":440,"player_count":0,"max_players":24,"Bots":0,"server_type":"Dedicated","server_os":"Linux","password":true,"vac":true,"version":"7757534","steam_id":85568392924510199,"keywords":["nocrits","nodmgspread","payload","uncletopia"],"game_id":440,"stv_port":27046,"stv_name":"Uncletopia | Los Angeles | 4 | Stopwatch Beta | STV","players":null},{"server_id":11,"name":"Uncletopia | London | 1 | All Maps","name_short":"lon-1","host":"lon-1.uk.uncletopia.com","port":27015,"enabled":true,"region":"eu","cc":"gb","latitude":51.509865,"longitude":-0.118092,"reserved":0,"last_update":"0001-01-01T00:00:00Z","name_a2s":"Uncletopia | London | 1 | All Maps","protocol":17,"map":"cp_snakewater_final1","folder":"tf","game":"Team Fortress","app_id":440,"player_count":23,"max_players":24,"Bots":0,"server_type":"Dedicated","server_os":"Linux","password":true,"vac":true,"version":"7757534","steam_id":85568392924367362,"keywords":["cp","nocrits","nodmgspread","uncletopia"],"game_id":440,"stv_port":27016,"stv_name":"Uncletopia | London | 1 | All Maps | STV","players":[{"user_id":3,"name":"Lewylow","steam_id":76561198005425686,"connected_time":6798000000000,"state":"active","ping":75},{"user_id":57,"name":"KLDJVHZJVHBALKDJHG","steam_id":76561198827624126,"connected_time":1898000000000,"state":"active","ping":76},{"user_id":66,"name":"u","steam_id":76561197994492154,"connected_time":1158000000000,"state":"active","ping":74},{"user_id":72,"name":"Jello","steam_id":76561198093180757,"connected_time":358000000000,"state":"active","ping":72},{"user_id":77,"name":"spring bonnie fan 12345","steam_id":76561198339409956,"connected_time":132000000000,"state":"active","ping":160},{"user_id":73,"name":"vroom doom","steam_id":76561198192671475,"connected_time":358000000000,"state":"active","ping":54},{"user_id":9,"name":"CumbustiblePunda","steam_id":76561197974274677,"connected_time":6781000000000,"state":"active","ping":59},{"user_id":74,"name":"Asfreild","steam_id":76561198055901120,"connected_time":356000000000,"state":"active","ping":76},{"user_id":29,"name":"BONK-TEC!","steam_id":76561198272667029,"connected_time":5101000000000,"state":"active","ping":49},{"user_id":81,"name":"Dasmonson","steam_id":76561199029771850,"connected_time":12000000000,"state":"spawning","ping":109},{"user_id":62,"name":"thekoolest88","steam_id":76561199022415672,"connected_time":1421000000000,"state":"active","ping":135},{"user_id":56,"name":"Băsescu","steam_id":76561198017693962,"connected_time":2084000000000,"state":"active","ping":80},{"user_id":55,"name":"Rin-Nakaret","steam_id":76561197971051188,"connected_time":2089000000000,"state":"active","ping":52},{"user_id":35,"name":"Edison Trent","steam_id":76561198067133145,"connected_time":4421000000000,"state":"active","ping":68},{"user_id":59,"name":"Rohnus","steam_id":76561198074049934,"connected_time":1681000000000,"state":"active","ping":56},{"user_id":70,"name":"Topme","steam_id":76561198091734693,"connected_time":371000000000,"state":"active","ping":60},{"user_id":71,"name":"Mr.Dies a lot","steam_id":76561199061602946,"connected_time":370000000000,"state":"active","ping":90},{"user_id":76,"name":"Hussite","steam_id":76561199293036742,"connected_time":172000000000,"state":"active","ping":60},{"user_id":78,"name":"T1 (ted1)","steam_id":76561199229022826,"connected_time":83000000000,"state":"active","ping":101},{"user_id":79,"name":"Ziemniaczki z koperkiem","steam_id":76561198829123464,"connected_time":64000000000,"state":"active","ping":84},{"user_id":80,"name":"GuSkand","steam_id":76561198043775605,"connected_time":28000000000,"state":"active","ping":93},{"user_id":51,"name":"Hyperek","steam_id":76561198130797464,"connected_time":2120000000000,"state":"active","ping":83},{"user_id":63,"name":"av x","steam_id":76561198062699350,"connected_time":1420000000000,"state":"active","ping":60}]},{"server_id":114,"name":"Uncletopia | London | 2 | All Maps","name_short":"lon-2","host":"lon-1.uk.uncletopia.com","port":27025,"enabled":true,"region":"eu","cc":"gb","latitude":51.509865,"longitude":-0.118092,"reserved":0,"last_update":"0001-01-01T00:00:00Z","name_a2s":"Uncletopia | London | 2 | All Maps","protocol":17,"map":"koth_viaduct","folder":"tf","game":"Team Fortress","app_id":440,"player_count":0,"max_players":24,"Bots":0,"server_type":"Dedicated","server_os":"Linux","password":true,"vac":true,"version":"7757534","steam_id":85568392924470941,"keywords":["cp","nocrits","nodmgspread","uncletopia"],"game_id":440,"stv_port":27026,"stv_name":"Uncletopia | London | 2 | All Maps | STV","players":null},{"server_id":320,"name":"Uncletopia | London | 3 | All Maps","name_short":"lon-3","host":"lon-1.uk.uncletopia.com","port":27035,"enabled":true,"region":"eu","cc":"gb","latitude":51.509865,"longitude":-0.118092,"reserved":0,"last_update":"0001-01-01T00:00:00Z","name_a2s":"Uncletopia | London | 3 | All Maps","protocol":17,"map":"cp_dustbowl","folder":"tf","game":"Team Fortress","app_id":440,"player_count":0,"max_players":24,"Bots":0,"server_type":"Dedicated","server_os":"Linux","password":true,"vac":true,"version":"7757534","steam_id":85568392924510192,"keywords":["cp","nocrits","nodmgspread","uncletopia"],"game_id":440,"stv_port":27036,"stv_name":"Uncletopia | London | 3 | All Maps | STV","players":null},{"server_id":321,"name":"Uncletopia | London | 4 | All Maps","name_short":"lon-4","host":"lon-1.uk.uncletopia.com","port":27045,"enabled":true,"region":"eu","cc":"gb","latitude":51.509865,"longitude":-0.118092,"reserved":0,"last_update":"0001-01-01T00:00:00Z","name_a2s":"Uncletopia | London | 4 | All Maps","protocol":17,"map":"cp_dustbowl","folder":"tf","game":"Team Fortress","app_id":440,"player_count":0,"max_players":24,"Bots":0,"server_type":"Dedicated","server_os":"Linux","password":true,"vac":true,"version":"7757534","steam_id":85568392924510193,"keywords":["cp","nocrits","nodmgspread","uncletopia"],"game_id":440,"stv_port":27046,"stv_name":"Uncletopia | London | 4 | All Maps | STV","players":null},{"server_id":21,"name":"Uncletopia | London | 5 | All Maps","name_short":"lon-5","host":"lon-1.uk.uncletopia.com","port":27055,"enabled":true,"region":"eu","cc":"gb","latitude":51.509865,"longitude":-0.118092,"reserved":0,"last_update":"0001-01-01T00:00:00Z","name_a2s":"Uncletopia | London | 5 | All Maps","protocol":17,"map":"cp_altitude","folder":"tf","game":"Team Fortress","app_id":440,"player_count":0,"max_players":24,"Bots":0,"server_type":"Dedicated","server_os":"Linux","password":true,"vac":true,"version":"7757534","steam_id":85568392924742829,"keywords":["cp","nocrits","nodmgspread","uncletopia"],"game_id":440,"stv_port":27056,"stv_name":"Uncletopia | London | 5 | All Maps | STV","players":null},{"server_id":22,"name":"Uncletopia | London | 6 | All Maps","name_short":"lon-6","host":"lon-1.uk.uncletopia.com","port":27065,"enabled":true,"region":"eu","cc":"gb","latitude":51.509865,"longitude":-0.118092,"reserved":0,"last_update":"0001-01-01T00:00:00Z","name_a2s":"Uncletopia | London | 6 | All Maps","protocol":17,"map":"cp_mountainlab","folder":"tf","game":"Team Fortress","app_id":440,"player_count":0,"max_players":24,"Bots":0,"server_type":"Dedicated","server_os":"Linux","password":true,"vac":true,"version":"7757534","steam_id":85568392924742830,"keywords":["cp","nocrits","nodmgspread","uncletopia"],"game_id":440,"stv_port":27066,"stv_name":"Uncletopia | London | 6 | All Maps | STV","players":null},{"server_id":40,"name":"Uncletopia | London | 7 | No Payload","name_short":"lon-7","host":"lon-1.uk.uncletopia.com","port":27075,"enabled":true,"region":"eu","cc":"gb","latitude":51.509865,"longitude":-0.118092,"reserved":0,"last_update":"0001-01-01T00:00:00Z","name_a2s":"Uncletopia | London | 7 | No Payload","protocol":17,"map":"cp_egypt_final","folder":"tf","game":"Team Fortress","app_id":440,"player_count":0,"max_players":24,"Bots":0,"server_type":"Dedicated","server_os":"Linux","password":true,"vac":true,"version":"7757534","steam_id":85568392924964314,"keywords":["cp","nocrits","nodmgspread","uncletopia"],"game_id":440,"stv_port":27076,"stv_name":"Uncletopia | London | 7 | No Payload | STV","players":null},{"server_id":41,"name":"Uncletopia | London | 8 | Community","name_short":"lon-8","host":"lon-1.uk.uncletopia.com","port":27085,"enabled":true,"region":"eu","cc":"gb","latitude":51.509865,"longitude":-0.118092,"reserved":0,"last_update":"0001-01-01T00:00:00Z","name_a2s":"Uncletopia | London | 8 | Community","protocol":17,"map":"workshop/koth_bagel_rc6.ugc2514036946","folder":"tf","game":"Team Fortress","app_id":440,"player_count":0,"max_players":24,"Bots":0,"server_type":"Dedicated","server_os":"Linux","password":true,"vac":true,"version":"7757534","steam_id":85568392924964315,"keywords":["cp","nocrits","nodmgspread","uncletopia"],"game_id":440,"stv_port":27086,"stv_name":"Uncletopia | London | 8 | Community | STV","players":null},{"server_id":300,"name":"Uncletopia | Montréal | 1 | All Maps","name_short":"mtl-1","host":"mtl-1.ca.uncletopia.com","port":27015,"enabled":true,"region":"us-east","cc":"ca","latitude":45.50889,"longitude":-73.56167,"reserved":0,"last_update":"0001-01-01T00:00:00Z","name_a2s":"Uncletopia | Montréal | 1 | All Maps","protocol":17,"map":"koth_lakeside_final","folder":"tf","game":"Team Fortress","app_id":440,"player_count":0,"max_players":24,"Bots":0,"server_type":"Dedicated","server_os":"Linux","password":true,"vac":true,"version":"7757534","steam_id":85568392924500087,"keywords":["cp","nocrits","nodmgspread","uncletopia"],"game_id":440,"stv_port":27016,"stv_name":"Uncletopia | Montréal | 1 | All Maps | STV","players":null},{"server_id":301,"name":"Uncletopia | Montréal | 2 | All Maps","name_short":"mtl-2","host":"mtl-1.ca.uncletopia.com","port":27025,"enabled":true,"region":"us-east","cc":"ca","latitude":45.50889,"longitude":-73.56167,"reserved":0,"last_update":"0001-01-01T00:00:00Z","name_a2s":"Uncletopia | Montréal | 2 | All Maps","protocol":17,"map":"cp_sunshine","folder":"tf","game":"Team Fortress","app_id":440,"player_count":0,"max_players":24,"Bots":0,"server_type":"Dedicated","server_os":"Linux","password":true,"vac":true,"version":"7757534","steam_id":85568392924500088,"keywords":["cp","nocrits","nodmgspread","uncletopia"],"game_id":440,"stv_port":27026,"stv_name":"Uncletopia | Montréal | 2 | All Maps | STV","players":null},{"server_id":302,"name":"Uncletopia | Montréal | 3 | All Maps","name_short":"mtl-3","host":"mtl-1.ca.uncletopia.com","port":27035,"enabled":true,"region":"us-east","cc":"ca","latitude":45.50889,"longitude":-73.56167,"reserved":0,"last_update":"0001-01-01T00:00:00Z","name_a2s":"Uncletopia | Montréal | 3 | All Maps","protocol":17,"map":"pl_upward","folder":"tf","game":"Team Fortress","app_id":440,"player_count":0,"max_players":24,"Bots":0,"server_type":"Dedicated","server_os":"Linux","password":true,"vac":true,"version":"7757534","steam_id":85568392924500089,"keywords":["nocrits","nodmgspread","payload","uncletopia"],"game_id":440,"stv_port":27036,"stv_name":"Uncletopia | Montréal | 3 | All Maps | STV","players":null},{"server_id":303,"name":"Uncletopia | Montréal | 4 | No Payload","name_short":"mtl-4","host":"mtl-1.ca.uncletopia.com","port":27045,"enabled":true,"region":"us-east","cc":"ca","latitude":45.50889,"longitude":-73.56167,"reserved":0,"last_update":"0001-01-01T00:00:00Z","name_a2s":"Uncletopia | Montréal | 4 | No Payload","protocol":17,"map":"cp_process_final","folder":"tf","game":"Team Fortress","app_id":440,"player_count":0,"max_players":24,"Bots":0,"server_type":"Dedicated","server_os":"Linux","password":true,"vac":true,"version":"7757534","steam_id":85568392924500090,"keywords":["cp","nocrits","nodmgspread","uncletopia"],"game_id":440,"stv_port":27046,"stv_name":"Uncletopia | Montréal | 4 | No Payload | STV","players":null},{"server_id":13,"name":"Uncletopia | New York City | 1 | All Maps","name_short":"nyc-1","host":"nyc-1.us.uncletopia.com","port":27015,"enabled":true,"region":"us-east","cc":"us","latitude":40.73061,"longitude":-73.93524,"reserved":0,"last_update":"0001-01-01T00:00:00Z","name_a2s":"Uncletopia | New York City | 1 | All Maps","protocol":17,"map":"cp_snakewater_final1","folder":"tf","game":"Team Fortress","app_id":440,"player_count":0,"max_players":24,"Bots":0,"server_type":"Dedicated","server_os":"Linux","password":true,"vac":true,"version":"7757534","steam_id":85568392924469993,"keywords":["cp","nocrits","nodmgspread","uncletopia"],"game_id":440,"stv_port":27016,"stv_name":"Uncletopia | New York City | 1 | All Maps | STV","players":null},{"server_id":14,"name":"Uncletopia | New York City | 2 | All Maps","name_short":"nyc-2","host":"nyc-1.us.uncletopia.com","port":27025,"enabled":true,"region":"us-east","cc":"us","latitude":40.73061,"longitude":-73.93524,"reserved":0,"last_update":"0001-01-01T00:00:00Z","name_a2s":"Uncletopia | New York City | 2 | All Maps","protocol":17,"map":"koth_viaduct","folder":"tf","game":"Team Fortress","app_id":440,"player_count":22,"max_players":24,"Bots":0,"server_type":"Dedicated","server_os":"Linux","password":true,"vac":true,"version":"7757534","steam_id":85568392924469994,"keywords":["cp","nocrits","nodmgspread","uncletopia"],"game_id":440,"stv_port":27026,"stv_name":"Uncletopia | New York City | 2 | All Maps | STV","players":[{"user_id":1031,"name":"Hamee333","steam_id":76561199388127663,"connected_time":2835000000000,"state":"active","ping":58},{"user_id":1057,"name":"trashed","steam_id":76561199223514262,"connected_time":630000000000,"state":"active","ping":52},{"user_id":1059,"name":"Logan387","steam_id":76561198062398250,"connected_time":515000000000,"state":"active","ping":67},{"user_id":1045,"name":"LEMS505","steam_id":76561198103225678,"connected_time":1825000000000,"state":"active","ping":53},{"user_id":1061,"name":"Samurai Sam","steam_id":76561198274223636,"connected_time":281000000000,"state":"active","ping":77},{"user_id":997,"name":"sir thomas bean, sr.","steam_id":76561198078238722,"connected_time":5645000000000,"state":"active","ping":105},{"user_id":1016,"name":"Axon","steam_id":76561198117444710,"connected_time":3305000000000,"state":"active","ping":63},{"user_id":1017,"name":"SirWolfBane","steam_id":76561198090258434,"connected_time":3292000000000,"state":"active","ping":102},{"user_id":1022,"name":"Danni Mal","steam_id":76561198383617571,"connected_time":3274000000000,"state":"active","ping":90},{"user_id":1050,"name":"Jesus Hooves She/Her Trans Righ","steam_id":76561198884198807,"connected_time":1640000000000,"state":"active","ping":107},{"user_id":1062,"name":"Goofball","steam_id":76561198074189084,"connected_time":220000000000,"state":"active","ping":34},{"user_id":1040,"name":"frappe444","steam_id":76561199032973937,"connected_time":1918000000000,"state":"active","ping":124},{"user_id":1025,"name":"Akrila","steam_id":76561198090782010,"connected_time":3231000000000,"state":"active","ping":60},{"user_id":1041,"name":"Makali","steam_id":76561198839601234,"connected_time":1912000000000,"state":"active","ping":118},{"user_id":1042,"name":"Fi \u003c3","steam_id":76561198315348942,"connected_time":1906000000000,"state":"active","ping":133},{"user_id":1063,"name":"Yongle","steam_id":76561198068591156,"connected_time":168000000000,"state":"active","ping":70},{"user_id":1064,"name":"Egpta","steam_id":76561198237840238,"connected_time":140000000000,"state":"active","ping":57},{"user_id":1065,"name":"CreativeUsername","steam_id":76561198186045503,"connected_time":128000000000,"state":"active","ping":75},{"user_id":1046,"name":"Blordus","steam_id":76561198093906162,"connected_time":1811000000000,"state":"active","ping":113},{"user_id":1048,"name":"minogarin","steam_id":76561198317210602,"connected_time":1745000000000,"state":"active","ping":96},{"user_id":1027,"name":"PIPIRUPIRUPIRUPIPIRUPIII","steam_id":76561198172413859,"connected_time":3105000000000,"state":"active","ping":108},{"user_id":1049,"name":"Mother Cybele","steam_id":76561198138577355,"connected_time":1706000000000,"state":"active","ping":98}]},{"server_id":15,"name":"Uncletopia | New York City | 3 | Stopwatch Beta","name_short":"nyc-3","host":"nyc-1.us.uncletopia.com","port":27035,"enabled":true,"region":"us-east","cc":"us","latitude":40.73061,"longitude":-73.93524,"reserved":0,"last_update":"0001-01-01T00:00:00Z","name_a2s":"Uncletopia | New York City | 3 | Stopwatch Beta","protocol":17,"map":"workshop/koth_product_final.ugc454272353","folder":"tf","game":"Team Fortress","app_id":440,"player_count":0,"max_players":24,"Bots":0,"server_type":"Dedicated","server_os":"Linux","password":true,"vac":true,"version":"7757534","steam_id":85568392924742820,"keywords":["cp","nocrits","nodmgspread","uncletopia"],"game_id":440,"stv_port":27036,"stv_name":"Uncletopia | New York City | 3 | Stopwatch Beta | STV","players":null},{"server_id":16,"name":"Uncletopia | New York City | 4 | Community","name_short":"nyc-4","host":"nyc-1.us.uncletopia.com","port":27045,"enabled":true,"region":"us-east","cc":"us","latitude":40.73061,"longitude":-73.93524,"reserved":0,"last_update":"0001-01-01T00:00:00Z","name_a2s":"Uncletopia | New York City | 4 | Community","protocol":17,"map":"workshop/pl_boundary_final1.ugc456799153","folder":"tf","game":"Team Fortress","app_id":440,"player_count":0,"max_players":24,"Bots":0,"server_type":"Dedicated","server_os":"Linux","password":true,"vac":true,"version":"7757534","steam_id":85568392924742821,"keywords":["nocrits","nodmgspread","payload","uncletopia"],"game_id":440,"stv_port":27046,"stv_name":"Uncletopia | New York City | 4 | Community | STV","players":null},{"server_id":142,"name":"Uncletopia | São Paulo | 1 | All Maps","name_short":"sao-1","host":"sao-1.br.uncletopia.com","port":27015,"enabled":true,"region":"sa","cc":"br","latitude":-23.533773,"longitude":-46.62529,"reserved":0,"last_update":"0001-01-01T00:00:00Z","name_a2s":"Uncletopia | São Paulo | 1 | All Maps","protocol":17,"map":"koth_viaduct","folder":"tf","game":"Team Fortress","app_id":440,"player_count":0,"max_players":24,"Bots":0,"server_type":"Dedicated","server_os":"Linux","password":true,"vac":true,"version":"7757534","steam_id":85568392924469996,"keywords":["cp","nocrits","nodmgspread","uncletopia"],"game_id":440,"stv_port":27016,"stv_name":"Uncletopia | São Paulo | 1 | All Maps | STV","players":null},{"server_id":143,"name":"Uncletopia | São Paulo | 2 | All Maps","name_short":"sao-2","host":"sao-2.br.uncletopia.com","port":27015,"enabled":true,"region":"sa","cc":"br","latitude":-23.533773,"longitude":-46.62529,"reserved":0,"last_update":"0001-01-01T00:00:00Z","name_a2s":"Uncletopia | São Paulo | 2 | All Maps","protocol":17,"map":"koth_harvest_final","folder":"tf","game":"Team Fortress","app_id":440,"player_count":0,"max_players":24,"Bots":0,"server_type":"Dedicated","server_os":"Linux","password":true,"vac":true,"version":"7757534","steam_id":85568392924485349,"keywords":["cp","nocrits","nodmgspread","uncletopia"],"game_id":440,"stv_port":27016,"stv_name":"Uncletopia | São Paulo | 2 | All Maps | STV","players":null},{"server_id":7,"name":"Uncletopia | Seattle | 1 | All Maps","name_short":"sea-1","host":"sea-1.us.uncletopia.com","port":27015,"enabled":true,"region":"us-west","cc":"us","latitude":47.608013,"longitude":-122.33517,"reserved":0,"last_update":"0001-01-01T00:00:00Z","name_a2s":"Uncletopia | Seattle | 1 | All Maps","protocol":17,"map":"pl_swiftwater_final1","folder":"tf","game":"Team Fortress","app_id":440,"player_count":24,"max_players":24,"Bots":0,"server_type":"Dedicated","server_os":"Linux","password":true,"vac":true,"version":"7757534","steam_id":85568392924469997,"keywords":["nocrits","nodmgspread","payload","uncletopia"],"game_id":440,"stv_port":27016,"stv_name":"Uncletopia | Seattle | 1 | All Maps | STV","players":[{"user_id":704,"name":"Lord Hater","steam_id":76561199158148782,"connected_time":11612000000000,"state":"active","ping":50},{"user_id":849,"name":"profile name","steam_id":76561198032625036,"connected_time":1276000000000,"state":"active","ping":59},{"user_id":794,"name":"rorywashere /ᐠ - ˕ -マ Ⳋ","steam_id":76561198009121060,"connected_time":5219000000000,"state":"active","ping":45},{"user_id":853,"name":"jole","steam_id":76561198037292232,"connected_time":728000000000,"state":"active","ping":133},{"user_id":836,"name":"(1)rorywashere /ᐠ - ˕ -マ \ufffd","steam_id":76561198065825165,"connected_time":2608000000000,"state":"active","ping":106},{"user_id":824,"name":"sierra","steam_id":76561197969873415,"connected_time":3485000000000,"state":"active","ping":143},{"user_id":746,"name":"computer, show me frog pictures","steam_id":76561198169755734,"connected_time":6550000000000,"state":"active","ping":61},{"user_id":855,"name":"NEBULA","steam_id":76561198086878595,"connected_time":582000000000,"state":"active","ping":78},{"user_id":842,"name":"Willy Wonker","steam_id":76561198082944789,"connected_time":1807000000000,"state":"active","ping":79},{"user_id":860,"name":"Tweeterhead","steam_id":76561198399117913,"connected_time":245000000000,"state":"active","ping":49},{"user_id":736,"name":"Gary, 40, soul sucking 9-5","steam_id":76561198073812888,"connected_time":7822000000000,"state":"active","ping":53},{"user_id":834,"name":"Balla Knight","steam_id":76561198849764285,"connected_time":2753000000000,"state":"active","ping":131},{"user_id":848,"name":"p9 Doctor™","steam_id":76561198134309750,"connected_time":1541000000000,"state":"active","ping":102},{"user_id":823,"name":"Closed.","steam_id":76561198212598967,"connected_time":3641000000000,"state":"active","ping":76},{"user_id":825,"name":"Level 99 Mudcrab","steam_id":76561198077452771,"connected_time":2964000000000,"state":"active","ping":57},{"user_id":854,"name":"Ducks","steam_id":76561198130038345,"connected_time":726000000000,"state":"active","ping":66},{"user_id":819,"name":"delight","steam_id":76561197980280272,"connected_time":4008000000000,"state":"active","ping":46},{"user_id":864,"name":"Aü","steam_id":76561199031241776,"connected_time":174000000000,"state":"active","ping":101},{"user_id":815,"name":"Attrition","steam_id":76561197969881916,"connected_time":4437000000000,"state":"active","ping":47},{"user_id":861,"name":"GKEmperor","steam_id":76561197995187011,"connected_time":230000000000,"state":"active","ping":56},{"user_id":862,"name":"jeffus13","steam_id":76561199347238848,"connected_time":214000000000,"state":"active","ping":75},{"user_id":863,"name":"lynt","steam_id":76561198988333976,"connected_time":201000000000,"state":"active","ping":115},{"user_id":804,"name":"p9 jorts","steam_id":76561199041179985,"connected_time":5090000000000,"state":"active","ping":69},{"user_id":845,"name":"snoogy woogy buggy","steam_id":76561198894676484,"connected_time":1770000000000,"state":"active","ping":75}]},{"server_id":119,"name":"Uncletopia | Seattle | 2 | All Maps","name_short":"sea-2","host":"sea-1.us.uncletopia.com","port":27025,"enabled":true,"region":"us-west","cc":"us","latitude":47.608013,"longitude":-122.33517,"reserved":0,"last_update":"0001-01-01T00:00:00Z","name_a2s":"Uncletopia | Seattle | 2 | All Maps","protocol":17,"map":"pl_pier","folder":"tf","game":"Team Fortress","app_id":440,"player_count":24,"max_players":24,"Bots":0,"server_type":"Dedicated","server_os":"Linux","password":true,"vac":true,"version":"7757534","steam_id":85568392924469998,"keywords":["nocrits","nodmgspread","payload","uncletopia"],"game_id":440,"stv_port":27026,"stv_name":"Uncletopia | Seattle | 2 | All Maps | STV","players":[{"user_id":737,"name":"samiryou'rebreakingthecar","steam_id":76561198421913648,"connected_time":1561000000000,"state":"active","ping":49},{"user_id":753,"name":"Quirked up Ratgirl","steam_id":76561198061310347,"connected_time":931000000000,"state":"active","ping":52},{"user_id":744,"name":"exephur","steam_id":76561198135763234,"connected_time":1290000000000,"state":"active","ping":66},{"user_id":760,"name":"Clagger","steam_id":76561198066701092,"connected_time":245000000000,"state":"active","ping":42},{"user_id":756,"name":"Username","steam_id":76561198855586261,"connected_time":514000000000,"state":"active","ping":70},{"user_id":739,"name":"NéoGothique🕯","steam_id":76561198003467269,"connected_time":1493000000000,"state":"active","ping":105},{"user_id":759,"name":"Henry Townshend","steam_id":76561198266948202,"connected_time":409000000000,"state":"active","ping":86},{"user_id":659,"name":"Yune","steam_id":76561198039324447,"connected_time":7621000000000,"state":"active","ping":156},{"user_id":715,"name":"trackpad gaming | f2p","steam_id":76561198840414371,"connected_time":3408000000000,"state":"active","ping":51},{"user_id":741,"name":"ElectronX","steam_id":76561198116034988,"connected_time":1377000000000,"state":"active","ping":83},{"user_id":758,"name":"zab11","steam_id":76561198115856002,"connected_time":475000000000,"state":"active","ping":79},{"user_id":750,"name":"goldhed","steam_id":76561198051751133,"connected_time":1130000000000,"state":"active","ping":58},{"user_id":728,"name":"Sniff","steam_id":76561198010270922,"connected_time":2947000000000,"state":"active","ping":45},{"user_id":745,"name":"Karl Wheezer","steam_id":76561198848722936,"connected_time":1259000000000,"state":"active","ping":52},{"user_id":718,"name":"SvicidalBug","steam_id":76561198221390504,"connected_time":3387000000000,"state":"active","ping":66},{"user_id":730,"name":"I am The Spy","steam_id":76561198067131857,"connected_time":2683000000000,"state":"active","ping":117},{"user_id":757,"name":"rxqueen","steam_id":76561198049258493,"connected_time":510000000000,"state":"active","ping":47},{"user_id":747,"name":"aPowerfulRat","steam_id":76561198847473387,"connected_time":1237000000000,"state":"active","ping":48},{"user_id":695,"name":"Niykin","steam_id":76561198044779043,"connected_time":5148000000000,"state":"active","ping":121},{"user_id":754,"name":"Korbi.","steam_id":76561198355711373,"connected_time":769000000000,"state":"active","ping":70},{"user_id":729,"name":"Hamster Flusher","steam_id":76561198072396659,"connected_time":2825000000000,"state":"active","ping":131},{"user_id":755,"name":"Akustin","steam_id":76561198110015463,"connected_time":736000000000,"state":"active","ping":89},{"user_id":749,"name":"charley","steam_id":76561198828238339,"connected_time":1207000000000,"state":"active","ping":105},{"user_id":752,"name":"They/Them Rattussy","steam_id":76561198238186628,"connected_time":948000000000,"state":"active","ping":87}]},{"server_id":406,"name":"Uncletopia | Seattle | 3 | Stopwatch Beta","name_short":"sea-3","host":"sea-1.us.uncletopia.com","port":27035,"enabled":true,"region":"us-west","cc":"us","latitude":47.608013,"longitude":-122.33517,"reserved":0,"last_update":"0001-01-01T00:00:00Z","name_a2s":"Uncletopia | Seattle | 3 | Stopwatch Beta","protocol":17,"map":"workshop/koth_ashville_final.ugc2130459942","folder":"tf","game":"Team Fortress","app_id":440,"player_count":0,"max_players":24,"Bots":0,"server_type":"Dedicated","server_os":"Linux","password":true,"vac":true,"version":"7757534","steam_id":85568392924515217,"keywords":["cp","nocrits","nodmgspread","uncletopia"],"game_id":440,"stv_port":27036,"stv_name":"Uncletopia | Seattle | 3 | Stopwatch Beta | STV","players":null},{"server_id":17,"name":"Uncletopia | San Francisco | 1 | All Maps","name_short":"sfo-1","host":"sfo-1.us.uncletopia.com","port":27015,"enabled":true,"region":"us-west","cc":"us","latitude":37.77397,"longitude":-122.4313,"reserved":0,"last_update":"0001-01-01T00:00:00Z","name_a2s":"Uncletopia | San Francisco | 1 | All Maps","protocol":17,"map":"pl_snowycoast","folder":"tf","game":"Team Fortress","app_id":440,"player_count":24,"max_players":24,"Bots":0,"server_type":"Dedicated","server_os":"Linux","password":true,"vac":true,"version":"7757534","steam_id":85568392924469999,"keywords":["nocrits","nodmgspread","payload","uncletopia"],"game_id":440,"stv_port":27016,"stv_name":"Uncletopia | San Francisco | 1 | All Maps | STV","players":[{"user_id":906,"name":"Dragonsalt","steam_id":76561198141927559,"connected_time":1908000000000,"state":"active","ping":60},{"user_id":916,"name":"Shamrock Shake Oct.10.2020 @8pm","steam_id":76561198833313201,"connected_time":716000000000,"state":"active","ping":61},{"user_id":920,"name":"Flipari","steam_id":76561198399012971,"connected_time":596000000000,"state":"active","ping":56},{"user_id":900,"name":"Arsonist Goose","steam_id":76561198147441830,"connected_time":2090000000000,"state":"active","ping":56},{"user_id":867,"name":"MegaBron James","steam_id":76561198066091050,"connected_time":3662000000000,"state":"active","ping":74},{"user_id":922,"name":"ROGUE-PLANET","steam_id":76561198116023052,"connected_time":146000000000,"state":"active","ping":74},{"user_id":895,"name":"Thunder","steam_id":76561198097721532,"connected_time":2293000000000,"state":"active","ping":57},{"user_id":871,"name":"Buswolley","steam_id":76561197995205571,"connected_time":3484000000000,"state":"active","ping":53},{"user_id":896,"name":"Courier711","steam_id":76561198053232343,"connected_time":2263000000000,"state":"active","ping":69},{"user_id":913,"name":"nylapoot","steam_id":76561199273822633,"connected_time":949000000000,"state":"active","ping":69},{"user_id":908,"name":"Pie","steam_id":76561198054721133,"connected_time":1772000000000,"state":"active","ping":73},{"user_id":898,"name":"Durazorn","steam_id":76561198096327396,"connected_time":2151000000000,"state":"active","ping":118},{"user_id":840,"name":"lol","steam_id":76561198026491738,"connected_time":6121000000000,"state":"active","ping":62},{"user_id":917,"name":"Hsepirn","steam_id":76561198152395431,"connected_time":696000000000,"state":"active","ping":70},{"user_id":762,"name":"Dr. B Busta","steam_id":76561198206387303,"connected_time":9500000000000,"state":"active","ping":46},{"user_id":914,"name":"PunishedCrab","steam_id":76561198079650017,"connected_time":769000000000,"state":"active","ping":75},{"user_id":915,"name":"Quon Grene for Vice Prez","steam_id":76561198127545817,"connected_time":766000000000,"state":"active","ping":69},{"user_id":882,"name":"SadVeggie","steam_id":76561198163430099,"connected_time":2809000000000,"state":"active","ping":151},{"user_id":910,"name":"tobrehto","steam_id":76561198097544038,"connected_time":1364000000000,"state":"active","ping":70},{"user_id":899,"name":"Hipster Monkey","steam_id":76561197961022492,"connected_time":2135000000000,"state":"active","ping":48},{"user_id":921,"name":"Danmnation","steam_id":76561199029201184,"connected_time":565000000000,"state":"active","ping":77},{"user_id":919,"name":"chrome 2008 (she/they)","steam_id":76561198321277216,"connected_time":647000000000,"state":"active","ping":56},{"user_id":918,"name":"Cinna Mon","steam_id":76561198005840633,"connected_time":686000000000,"state":"active","ping":71},{"user_id":852,"name":"NathanSomething","steam_id":76561198927509821,"connected_time":5504000000000,"state":"active","ping":101}]},{"server_id":18,"name":"Uncletopia | San Francisco | 2 | All Maps","name_short":"sfo-2","host":"sfo-1.us.uncletopia.com","port":27025,"enabled":true,"region":"us-west","cc":"us","latitude":37.77397,"longitude":-122.4313,"reserved":0,"last_update":"0001-01-01T00:00:00Z","name_a2s":"Uncletopia | San Francisco | 2 | All Maps","protocol":17,"map":"pl_badwater","folder":"tf","game":"Team Fortress","app_id":440,"player_count":24,"max_players":24,"Bots":0,"server_type":"Dedicated","server_os":"Linux","password":true,"vac":true,"version":"7757534","steam_id":85568392924470000,"keywords":["nocrits","nodmgspread","payload","uncletopia"],"game_id":440,"stv_port":27026,"stv_name":"Uncletopia | San Francisco | 2 | All Maps | STV","players":[{"user_id":90,"name":"Satori Komeiji","steam_id":76561198158211423,"connected_time":918000000000,"state":"active","ping":56},{"user_id":54,"name":"perc 10","steam_id":76561198116471653,"connected_time":2690000000000,"state":"active","ping":53},{"user_id":110,"name":"Eremital","steam_id":76561198069557669,"connected_time":197000000000,"state":"active","ping":331},{"user_id":111,"name":"Nuts","steam_id":76561199258535559,"connected_time":170000000000,"state":"active","ping":66},{"user_id":114,"name":"Cactus","steam_id":76561198149762619,"connected_time":133000000000,"state":"active","ping":67},{"user_id":119,"name":"cass","steam_id":76561198074502046,"connected_time":26000000000,"state":"active","ping":137},{"user_id":92,"name":"ScreamingGoaten","steam_id":76561199245321424,"connected_time":819000000000,"state":"active","ping":113},{"user_id":115,"name":"IHUNTZ","steam_id":76561198390109907,"connected_time":133000000000,"state":"active","ping":69},{"user_id":94,"name":"Qrowniniee","steam_id":76561198273028245,"connected_time":697000000000,"state":"active","ping":72},{"user_id":116,"name":"JayLatne","steam_id":76561198258221077,"connected_time":129000000000,"state":"active","ping":65},{"user_id":83,"name":"Rond Gong The Dong Machine","steam_id":76561198283349215,"connected_time":1302000000000,"state":"active","ping":99},{"user_id":95,"name":"Fear mé","steam_id":76561198212969373,"connected_time":630000000000,"state":"active","ping":50},{"user_id":100,"name":"Isopentyl Ethanoate","steam_id":76561198116389072,"connected_time":390000000000,"state":"active","ping":85},{"user_id":101,"name":"Homete Homete","steam_id":76561198005615283,"connected_time":294000000000,"state":"active","ping":39},{"user_id":53,"name":"eau:","steam_id":76561198110020262,"connected_time":2879000000000,"state":"active","ping":50},{"user_id":98,"name":"monkey","steam_id":76561198080479697,"connected_time":582000000000,"state":"active","ping":107},{"user_id":102,"name":"Salazar9","steam_id":76561198049903973,"connected_time":294000000000,"state":"active","ping":75},{"user_id":103,"name":"fox point ranger","steam_id":76561198000765454,"connected_time":286000000000,"state":"active","ping":55},{"user_id":109,"name":"Rusty","steam_id":76561198178868626,"connected_time":209000000000,"state":"active","ping":92},{"user_id":105,"name":"Darth Humis","steam_id":76561198879506239,"connected_time":276000000000,"state":"active","ping":65},{"user_id":117,"name":"mumbles(muted)","steam_id":76561197994528974,"connected_time":97000000000,"state":"active","ping":99},{"user_id":118,"name":"Lozhka_S_Kakashkoy","steam_id":76561199477440178,"connected_time":68000000000,"state":"active","ping":254},{"user_id":106,"name":"tf3aflyingmouse","steam_id":76561198058134934,"connected_time":266000000000,"state":"active","ping":72},{"user_id":108,"name":"TheDogeIsReal","steam_id":76561199331300024,"connected_time":236000000000,"state":"active","ping":81}]},{"server_id":19,"name":"Uncletopia | San Francisco | 3 | Stopwatch Beta","name_short":"sfo-3","host":"sfo-1.us.uncletopia.com","port":27035,"enabled":true,"region":"us-west","cc":"us","latitude":37.77397,"longitude":-122.4313,"reserved":0,"last_update":"0001-01-01T00:00:00Z","name_a2s":"Uncletopia | San Francisco | 3 | Stopwatch Beta","protocol":17,"map":"pl_swiftwater_final1","folder":"tf","game":"Team Fortress","app_id":440,"player_count":0,"max_players":24,"Bots":0,"server_type":"Dedicated","server_os":"Linux","password":true,"vac":true,"version":"7757534","steam_id":85568392924742824,"keywords":["nocrits","nodmgspread","payload","uncletopia"],"game_id":440,"stv_port":27036,"stv_name":"Uncletopia | San Francisco | 3 | Stopwatch Beta | STV","players":null},{"server_id":20,"name":"Uncletopia | San Francisco | 4 | Community","name_short":"sfo-4","host":"sfo-1.us.uncletopia.com","port":27045,"enabled":true,"region":"us-west","cc":"us","latitude":37.77397,"longitude":-122.4313,"reserved":0,"last_update":"0001-01-01T00:00:00Z","name_a2s":"Uncletopia | San Francisco | 4 | Community","protocol":17,"map":"workshop/pl_fifthcurve_rc1.ugc648227046","folder":"tf","game":"Team Fortress","app_id":440,"player_count":13,"max_players":24,"Bots":0,"server_type":"Dedicated","server_os":"Linux","password":true,"vac":true,"version":"7757534","steam_id":85568392924742826,"keywords":["nocrits","nodmgspread","payload","uncletopia"],"game_id":440,"stv_port":27046,"stv_name":"Uncletopia | San Francisco | 4 | Community | STV","players":[{"user_id":320,"name":"Honey Boo Boo","steam_id":76561198119340886,"connected_time":1518000000000,"state":"active","ping":85},{"user_id":325,"name":"TheArachnidGamer","steam_id":76561198304986752,"connected_time":1261000000000,"state":"active","ping":73},{"user_id":179,"name":"SOLDIER TF2","steam_id":76561198203170652,"connected_time":12934000000000,"state":"active","ping":89},{"user_id":341,"name":"Protogen killer (f2p)","steam_id":76561199206078246,"connected_time":10000000000,"state":"spawning","ping":272},{"user_id":337,"name":"Celia [ +/- ] ✔","steam_id":76561198067164431,"connected_time":158000000000,"state":"active","ping":56},{"user_id":339,"name":"reiidaya","steam_id":76561198325306660,"connected_time":46000000000,"state":"active","ping":60},{"user_id":340,"name":"the gamer","steam_id":76561198334059206,"connected_time":44000000000,"state":"active","ping":45},{"user_id":252,"name":"Auynonymous","steam_id":76561198027509458,"connected_time":8553000000000,"state":"active","ping":85},{"user_id":312,"name":"Biggie Grug","steam_id":76561198042998887,"connected_time":3063000000000,"state":"active","ping":77},{"user_id":297,"name":"Xtar","steam_id":76561198301774048,"connected_time":4560000000000,"state":"active","ping":82},{"user_id":291,"name":"Greenpikmin","steam_id":76561198137310107,"connected_time":5144000000000,"state":"active","ping":50},{"user_id":298,"name":"cbagels","steam_id":76561198453866972,"connected_time":4550000000000,"state":"active","ping":64},{"user_id":332,"name":"420blzItM8","steam_id":76561198137983285,"connected_time":873000000000,"state":"active","ping":97}]},{"server_id":141,"name":"Uncletopia | Sydney | 1 | All Maps","name_short":"syd-1","host":"syd-1.au.uncletopia.com","port":27015,"enabled":true,"region":"au","cc":"au","latitude":-33.865143,"longitude":151.2099,"reserved":0,"last_update":"0001-01-01T00:00:00Z","name_a2s":"Uncletopia | Sydney | 1 | All Maps","protocol":17,"map":"pl_badwater","folder":"tf","game":"Team Fortress","app_id":440,"player_count":24,"max_players":24,"Bots":0,"server_type":"Dedicated","server_os":"Linux","password":true,"vac":true,"version":"7757534","steam_id":85568392924470001,"keywords":["nocrits","nodmgspread","payload","uncletopia"],"game_id":440,"stv_port":27016,"stv_name":"Uncletopia | Sydney | 1 | All Maps | STV","players":[{"user_id":313,"name":"GoodoDarco","steam_id":76561198322623838,"connected_time":4263000000000,"state":"active","ping":59},{"user_id":342,"name":"primal","steam_id":76561198257852006,"connected_time":2040000000000,"state":"active","ping":65},{"user_id":343,"name":"Greenie Weenie","steam_id":76561198147970145,"connected_time":2024000000000,"state":"active","ping":39},{"user_id":363,"name":"weezer","steam_id":76561199439508788,"connected_time":462000000000,"state":"active","ping":65},{"user_id":358,"name":"ForUnlimitedඞ","steam_id":76561198025037215,"connected_time":1292000000000,"state":"active","ping":52},{"user_id":356,"name":"smite","steam_id":76561198845304189,"connected_time":1366000000000,"state":"active","ping":75},{"user_id":362,"name":"xenocat","steam_id":76561198271400004,"connected_time":626000000000,"state":"active","ping":58},{"user_id":346,"name":"numbers on the boards","steam_id":76561198034306834,"connected_time":1799000000000,"state":"active","ping":44},{"user_id":371,"name":"Snake101","steam_id":76561198418910767,"connected_time":48000000000,"state":"active","ping":55},{"user_id":365,"name":"Luden","steam_id":76561198069165922,"connected_time":287000000000,"state":"active","ping":70},{"user_id":360,"name":"tim88435","steam_id":76561198089653987,"connected_time":962000000000,"state":"active","ping":65},{"user_id":322,"name":"Nigel Homeless","steam_id":76561198207746773,"connected_time":3917000000000,"state":"active","ping":69},{"user_id":369,"name":"Aris","steam_id":76561198192392987,"connected_time":90000000000,"state":"active","ping":163},{"user_id":347,"name":"Ethos","steam_id":76561197970514852,"connected_time":1783000000000,"state":"active","ping":55},{"user_id":367,"name":"bison","steam_id":76561198183851230,"connected_time":244000000000,"state":"active","ping":84},{"user_id":323,"name":"Mail Bomb Victim","steam_id":76561198284533039,"connected_time":3888000000000,"state":"active","ping":52},{"user_id":357,"name":"Ralph Wiggum","steam_id":76561198243808014,"connected_time":1328000000000,"state":"active","ping":49},{"user_id":328,"name":"APileOfBeef","steam_id":76561198250706680,"connected_time":3800000000000,"state":"active","ping":68},{"user_id":272,"name":"KindredGarlic","steam_id":76561198862857120,"connected_time":7260000000000,"state":"active","ping":42},{"user_id":304,"name":"sav","steam_id":76561198058760041,"connected_time":5255000000000,"state":"active","ping":72},{"user_id":368,"name":"dynahunt","steam_id":76561199164330784,"connected_time":221000000000,"state":"active","ping":170},{"user_id":335,"name":"MrMist","steam_id":76561199382679347,"connected_time":3023000000000,"state":"active","ping":66},{"user_id":359,"name":"Symphony377","steam_id":76561198051564385,"connected_time":1276000000000,"state":"active","ping":79},{"user_id":332,"name":"SUSHIMAN","steam_id":76561199089989428,"connected_time":3112000000000,"state":"active","ping":96}]},{"server_id":123,"name":"Uncletopia | Sydney | 2 | All Maps","name_short":"syd-2","host":"syd-1.au.uncletopia.com","port":27025,"enabled":true,"region":"au","cc":"au","latitude":-33.865143,"longitude":151.2099,"reserved":0,"last_update":"0001-01-01T00:00:00Z","name_a2s":"Uncletopia | Sydney | 2 | All Maps","protocol":17,"map":"pl_snowycoast","folder":"tf","game":"Team Fortress","app_id":440,"player_count":24,"max_players":24,"Bots":0,"server_type":"Dedicated","server_os":"Linux","password":true,"vac":true,"version":"7757534","steam_id":85568392924470002,"keywords":["nocrits","nodmgspread","payload","uncletopia"],"game_id":440,"stv_port":27026,"stv_name":"Uncletopia | Sydney | 2 | All Maps | STV","players":[{"user_id":166,"name":"beth.cubitt","steam_id":76561198454733447,"connected_time":1391000000000,"state":"active","ping":85},{"user_id":91,"name":"Snowy","steam_id":76561198255720598,"connected_time":7088000000000,"state":"active","ping":43},{"user_id":167,"name":"Motormouth","steam_id":76561197980851839,"connected_time":1315000000000,"state":"active","ping":88},{"user_id":184,"name":"El Chupacabra","steam_id":76561198070641651,"connected_time":718000000000,"state":"active","ping":45},{"user_id":168,"name":"Gnat","steam_id":76561198109747863,"connected_time":1305000000000,"state":"active","ping":105},{"user_id":170,"name":"TTV ChocoMilk","steam_id":76561198167049794,"connected_time":1275000000000,"state":"active","ping":72},{"user_id":165,"name":"¯\\_(ツ)_/¯","steam_id":76561199206182584,"connected_time":1479000000000,"state":"active","ping":64},{"user_id":162,"name":"Chubb","steam_id":76561198812068222,"connected_time":1985000000000,"state":"active","ping":71},{"user_id":152,"name":"Captain Canadia","steam_id":76561198167967735,"connected_time":2474000000000,"state":"active","ping":51},{"user_id":171,"name":"Zieria","steam_id":76561199261811388,"connected_time":1240000000000,"state":"active","ping":34},{"user_id":63,"name":"mushroom","steam_id":76561197992336470,"connected_time":8683000000000,"state":"active","ping":91},{"user_id":159,"name":"whiteshaq","steam_id":76561198131988811,"connected_time":2138000000000,"state":"active","ping":77},{"user_id":176,"name":"SaltierThanYou","steam_id":76561198444395188,"connected_time":965000000000,"state":"active","ping":83},{"user_id":187,"name":"kamO","steam_id":76561198000303139,"connected_time":28000000000,"state":"active","ping":73},{"user_id":186,"name":"THE GREAT AND POWERFUL TRIXIE","steam_id":76561198040018349,"connected_time":192000000000,"state":"active","ping":45},{"user_id":173,"name":"Blazey 伊達 政宗","steam_id":76561197971082275,"connected_time":1112000000000,"state":"active","ping":123},{"user_id":158,"name":"Pompadouraus","steam_id":76561198327530525,"connected_time":2184000000000,"state":"active","ping":74},{"user_id":146,"name":"Mac","steam_id":76561198063407128,"connected_time":2692000000000,"state":"active","ping":50},{"user_id":185,"name":"xtra","steam_id":76561197998962418,"connected_time":327000000000,"state":"active","ping":65},{"user_id":188,"name":"squrrel","steam_id":76561198083429611,"connected_time":10000000000,"state":"spawning","ping":197},{"user_id":78,"name":"DiscardedBiscuit","steam_id":76561197996894720,"connected_time":7910000000000,"state":"active","ping":87},{"user_id":183,"name":"Matchfighter","steam_id":76561198043200309,"connected_time":730000000000,"state":"active","ping":53},{"user_id":161,"name":"Crabloid","steam_id":76561199081848498,"connected_time":2010000000000,"state":"active","ping":68},{"user_id":182,"name":"Apteryx","steam_id":76561197976460834,"connected_time":803000000000,"state":"active","ping":59}]},{"server_id":395,"name":"Uncletopia | Sydney | 3 | All Maps","name_short":"syd-3","host":"syd-1.au.uncletopia.com","port":27035,"enabled":true,"region":"au","cc":"au","latitude":-33.865143,"longitude":151.2099,"reserved":0,"last_update":"0001-01-01T00:00:00Z","name_a2s":"Uncletopia | Sydney | 3 | All Maps","protocol":17,"map":"cp_altitude","folder":"tf","game":"Team Fortress","app_id":440,"player_count":0,"max_players":24,"Bots":0,"server_type":"Dedicated","server_os":"Linux","password":true,"vac":true,"version":"7757534","steam_id":85568392925194467,"keywords":["cp","nocrits","nodmgspread","uncletopia"],"game_id":440,"stv_port":27036,"stv_name":"Uncletopia | Sydney | 3 | All Maps | STV","players":null},{"server_id":396,"name":"Uncletopia | Sydney | 4 | All Maps","name_short":"syd-4","host":"syd-1.au.uncletopia.com","port":27045,"enabled":true,"region":"au","cc":"au","latitude":-33.865143,"longitude":151.2099,"reserved":0,"last_update":"0001-01-01T00:00:00Z","name_a2s":"Uncletopia | Sydney | 4 | All Maps","protocol":17,"map":"koth_lakeside_final","folder":"tf","game":"Team Fortress","app_id":440,"player_count":0,"max_players":24,"Bots":0,"server_type":"Dedicated","server_os":"Linux","password":true,"vac":true,"version":"7757534","steam_id":85568392925397958,"keywords":["cp","nocrits","nodmgspread","uncletopia"],"game_id":440,"stv_port":27046,"stv_name":"Uncletopia | Sydney | 4 | All Maps | STV","players":null},{"server_id":58,"name":"Uncletopia | Sydney | 5 | Stopwatch Beta","name_short":"syd-5","host":"syd-1.au.uncletopia.com","port":27055,"enabled":true,"region":"au","cc":"au","latitude":-33.865143,"longitude":151.2099,"reserved":0,"last_update":"0001-01-01T00:00:00Z","name_a2s":"Uncletopia | Sydney | 5 | Stopwatch Beta","protocol":17,"map":"pl_upward","folder":"tf","game":"Team Fortress","app_id":440,"player_count":0,"max_players":24,"Bots":0,"server_type":"Dedicated","server_os":"Linux","password":true,"vac":true,"version":"7757534","steam_id":85568392925397959,"keywords":["nocrits","nodmgspread","payload","uncletopia"],"game_id":440,"stv_port":27056,"stv_name":"Uncletopia | Sydney | 5 | Stopwatch Beta | STV","players":null},{"server_id":59,"name":"Uncletopia | Sydney | 6 | Community","name_short":"syd-6","host":"syd-1.au.uncletopia.com","port":27065,"enabled":true,"region":"au","cc":"au","latitude":-33.865143,"longitude":151.2099,"reserved":0,"last_update":"0001-01-01T00:00:00Z","name_a2s":"Uncletopia | Sydney | 6 | Community","protocol":17,"map":"workshop/cp_kalinka_rc6a.ugc1272700588","folder":"tf","game":"Team Fortress","app_id":440,"player_count":1,"max_players":24,"Bots":0,"server_type":"Dedicated","server_os":"Linux","password":true,"vac":true,"version":"7757534","steam_id":85568392925397960,"keywords":["cp","nocrits","nodmgspread","uncletopia"],"game_id":440,"stv_port":27066,"stv_name":"Uncletopia | Sydney | 6 | Community | STV","players":[{"user_id":8,"name":"Zilvera","steam_id":76561198065801850,"connected_time":682000000000,"state":"active","ping":101}]},{"server_id":49,"name":"Uncletopia | Warsaw | 1 | All Maps","name_short":"waw-1","host":"waw-1.pl.uncletopia.com","port":27015,"enabled":true,"region":"eu","cc":"pl","latitude":52.2297,"longitude":21.017532,"reserved":0,"last_update":"0001-01-01T00:00:00Z","name_a2s":"","protocol":0,"map":"","folder":"","game":"","app_id":0,"player_count":0,"max_players":0,"Bots":0,"server_type":"","server_os":"","password":false,"vac":false,"version":"","steam_id":0,"keywords":null,"game_id":0,"stv_port":0,"stv_name":"","players":null},{"server_id":50,"name":"Uncletopia | Warsaw | 2 | All Maps","name_short":"waw-2","host":"waw-1.pl.uncletopia.com","port":27025,"enabled":true,"region":"eu","cc":"pl","latitude":52.2297,"longitude":21.017532,"reserved":0,"last_update":"0001-01-01T00:00:00Z","name_a2s":"Uncletopia | Warsaw | 2 | All Maps","protocol":17,"map":"koth_viaduct","folder":"tf","game":"Team Fortress","app_id":440,"player_count":0,"max_players":24,"Bots":0,"server_type":"Dedicated","server_os":"Linux","password":true,"vac":true,"version":"7757534","steam_id":85568392925397851,"keywords":["cp","nocrits","nodmgspread","uncletopia"],"game_id":440,"stv_port":27026,"stv_name":"Uncletopia | Warsaw | 2 | All Maps | STV","players":null},{"server_id":51,"name":"Uncletopia | Warsaw | 3 | All Maps","name_short":"waw-3","host":"waw-1.pl.uncletopia.com","port":27035,"enabled":true,"region":"eu","cc":"pl","latitude":52.2297,"longitude":21.017532,"reserved":0,"last_update":"0001-01-01T00:00:00Z","name_a2s":"Uncletopia | Warsaw | 3 | All Maps","protocol":17,"map":"pl_badwater","folder":"tf","game":"Team Fortress","app_id":440,"player_count":0,"max_players":24,"Bots":0,"server_type":"Dedicated","server_os":"Linux","password":true,"vac":true,"version":"7757534","steam_id":85568392925397852,"keywords":["nocrits","nodmgspread","payload","uncletopia"],"game_id":440,"stv_port":27036,"stv_name":"Uncletopia | Warsaw | 3 | All Maps | STV","players":null},{"server_id":52,"name":"Uncletopia | Warsaw | 4 | All Maps","name_short":"waw-4","host":"waw-1.pl.uncletopia.com","port":27045,"enabled":true,"region":"eu","cc":"pl","latitude":52.2297,"longitude":21.017532,"reserved":0,"last_update":"0001-01-01T00:00:00Z","name_a2s":"Uncletopia | Warsaw | 4 | All Maps","protocol":17,"map":"koth_lakeside_final","folder":"tf","game":"Team Fortress","app_id":440,"player_count":0,"max_players":24,"Bots":0,"server_type":"Dedicated","server_os":"Linux","password":true,"vac":true,"version":"7757534","steam_id":85568392925397853,"keywords":["cp","nocrits","nodmgspread","uncletopia"],"game_id":440,"stv_port":27046,"stv_name":"Uncletopia | Warsaw | 4 | All Maps | STV","players":null},{"server_id":53,"name":"Uncletopia | Warsaw | 5 | Stopwatch Beta","name_short":"waw-5","host":"waw-1.pl.uncletopia.com","port":27055,"enabled":true,"region":"eu","cc":"pl","latitude":52.2297,"longitude":21.017532,"reserved":0,"last_update":"0001-01-01T00:00:00Z","name_a2s":"Uncletopia | Warsaw | 5 | Stopwatch Beta","protocol":17,"map":"pl_borneo","folder":"tf","game":"Team Fortress","app_id":440,"player_count":0,"max_players":24,"Bots":0,"server_type":"Dedicated","server_os":"Linux","password":true,"vac":true,"version":"7757534","steam_id":85568392925397854,"keywords":["nocrits","nodmgspread","payload","uncletopia"],"game_id":440,"stv_port":27056,"stv_name":"Uncletopia | Warsaw | 5 | Stopwatch Beta | STV","players":null},{"server_id":54,"name":"Uncletopia | Warsaw | 6 | Community","name_short":"waw-6","host":"waw-1.pl.uncletopia.com","port":27065,"enabled":true,"region":"eu","cc":"pl","latitude":52.2297,"longitude":21.017532,"reserved":0,"last_update":"0001-01-01T00:00:00Z","name_a2s":"Uncletopia | Warsaw | 6 | Community","protocol":17,"map":"koth_lakeside_final","folder":"tf","game":"Team Fortress","app_id":440,"player_count":0,"max_players":24,"Bots":0,"server_type":"Dedicated","server_os":"Linux","password":true,"vac":true,"version":"7757534","steam_id":85568392925397856,"keywords":["cp","nocrits","nodmgspread","uncletopia"],"game_id":440,"stv_port":27066,"stv_name":"Uncletopia | Warsaw | 6 | Community | STV","players":null}]}