{"status":true,"message":"","result":[{"server_id":9,"name":"Uncletopia | Atlanta | 1 | All Maps","name_short":"atl-1","host":"atl-1.us.uncletopia.com","port":27015,"enabled":true,"region":"us-east","cc":"us","latitude":33.753746,"longitude":-84.38633,"reserved":0,"last_update":"0001-01-01T00:00:00Z","name_a2s":"Uncletopia | Atlanta | 1 | All Maps","protocol":17,"map":"pl_barnblitz","folder":"tf","game":"Team Fortress","app_id":440,"player_count":0,"max_players":24,"Bots":0,"server_type":"Dedicated","server_os":"Linux","password":true,"vac":true,"version":"7742253","steam_id":85568392924469982,"keywords":["nocrits","nodmgspread","payload","uncletopia"],"game_id":440,"stv_port":27016,"stv_name":"Uncletopia | Atlanta | 1 | All Maps | STV","players":null},{"server_id":400,"name":"Uncletopia | Atlanta | 3 | Stopwatch Beta","name_short":"atl-3","host":"atl-1.us.uncletopia.com","port":27035,"enabled":true,"region":"us-east","cc":"us","latitude":33.753746,"longitude":-84.38633,"reserved":0,"last_update":"0001-01-01T00:00:00Z","name_a2s":"Uncletopia | Atlanta | 3 | Stopwatch Beta","protocol":17,"map":"pl_pier","folder":"tf","game":"Team Fortress","app_id":440,"player_count":0,"max_players":24,"Bots":0,"server_type":"Dedicated","server_os":"Linux","password":true,"vac":true,"version":"7742253","steam_id":85568392924515187,"keywords":["nocrits","nodmgspread","payload","uncletopia"],"game_id":440,"stv_port":27036,"stv_name":"Uncletopia | Atlanta | 3 | Stopwatch Beta | STV","players":null},{"server_id":401,"name":"Uncletopia | Atlanta | 4 | No Payload","name_short":"atl-4","host":"atl-1.us.uncletopia.com","port":27045,"enabled":true,"region":"us-east","cc":"us","latitude":33.753746,"longitude":-84.38633,"reserved":0,"last_update":"0001-01-01T00:00:00Z","name_a2s":"Uncletopia | Atlanta | 4 | No Payload","protocol":17,"map":"pl_pier","folder":"tf","game":"Team Fortress","app_id":440,"player_count":0,"max_players":24,"Bots":0,"server_type":"Dedicated","server_os":"Linux","password":true,"vac":true,"version":"7723704","steam_id":85568392924515188,"keywords":["nocrits","nodmgspread","payload","uncletopia"],"game_id":440,"stv_port":27046,"stv_name":"Uncletopia | Atlanta | 4 | No Payload | STV","players":null},{"server_id":2,"name":"Uncletopia | Chicago | 1 | All Maps","name_short":"chi-1","host":"chi-1.us.uncletopia.com","port":27015,"enabled":true,"region":"us-central","cc":"us","latitude":41.881832,"longitude":-87.62318,"reserved":0,"last_update":"0001-01-01T00:00:00Z","name_a2s":"Uncletopia | Chicago | 1 | All Maps","protocol":17,"map":"koth_harvest_final","folder":"tf","game":"Team Fortress","app_id":440,"player_count":17,"max_players":24,"Bots":0,"server_type":"Dedicated","server_os":"Linux","password":true,"vac":true,"version":"7742253","steam_id":85568392924469984,"keywords":["cp","nocrits","nodmgspread","uncletopia"],"game_id":440,"stv_port":27016,"stv_name":"Uncletopia | Chicago | 1 | All Maps | STV","players":[{"user_id":770,"name":"kametro4","steam_id":76561198835430429,"connected_time":525000000000,"state":"active","ping":101},{"user_id":773,"name":"Zebulon Pike","steam_id":76561198025719753,"connected_time":57000000000,"state":"active","ping":87},{"user_id":772,"name":"Montrik","steam_id":76561198853974976,"connected_time":164000000000,"state":"active","ping":205},{"user_id":774,"name":"Sexyrevolver","steam_id":76561199058132505,"connected_time":53000000000,"state":"spawning","ping":55},{"user_id":775,"name":"ZombieDog[N8]","steam_id":76561198056076918,"connected_time":16000000000,"state":"active","ping":202},{"user_id":771,"name":"learning sniper :)","steam_id":76561198161076003,"connected_time":463000000000,"state":"active","ping":73},{"user_id":744,"name":"Char Aznable","steam_id":76561198041630663,"connected_time":2933000000000,"state":"active","ping":61},{"user_id":736,"name":"LNRPdeadshot","steam_id":76561199160013540,"connected_time":3140000000000,"state":"active","ping":81},{"user_id":757,"name":"Moychel","steam_id":76561198135551500,"connected_time":1618000000000,"state":"active","ping":111},{"user_id":690,"name":"Furry Saul Goodman","steam_id":76561198069580305,"connected_time":7094000000000,"state":"active","ping":47},{"user_id":701,"name":"debin","steam_id":76561198070711217,"connected_time":5838000000000,"state":"active","ping":53},{"user_id":760,"name":"Crazy","steam_id":76561198102772209,"connected_time":1144000000000,"state":"active","ping":59},{"user_id":756,"name":"Ye ( I Love Caulk ) West","steam_id":76561198068830312,"connected_time":1641000000000,"state":"active","ping":38},{"user_id":755,"name":"Myracle","steam_id":76561198070916920,"connected_time":2036000000000,"state":"active","ping":46},{"user_id":751,"name":"Captian Wobbs","steam_id":76561198142884936,"connected_time":2342000000000,"state":"active","ping":78},{"user_id":765,"name":"Anarch","steam_id":76561198342216547,"connected_time":940000000000,"state":"active","ping":176},{"user_id":764,"name":"Deryn Sharp","steam_id":76561198047017346,"connected_time":980000000000,"state":"active","ping":101}]},{"server_id":106,"name":"Uncletopia | Chicago | 2 | All Maps","name_short":"chi-2","host":"chi-1.us.uncletopia.com","port":27025,"enabled":true,"region":"us-central","cc":"us","latitude":41.881832,"longitude":-87.62318,"reserved":0,"last_update":"0001-01-01T00:00:00Z","name_a2s":"Uncletopia | Chicago | 2 | All Maps","protocol":17,"map":"pl_borneo","folder":"tf","game":"Team Fortress","app_id":440,"player_count":0,"max_players":24,"Bots":0,"server_type":"Dedicated","server_os":"Linux","password":true,"vac":true,"version":"7742253","steam_id":85568392924469985,"keywords":["nocrits","nodmgspread","payload","uncletopia"],"game_id":440,"stv_port":27026,"stv_name":"Uncletopia | Chicago | 2 | All Maps | STV","players":null},{"server_id":402,"name":"Uncletopia | Chicago | 3 | All Maps","name_short":"chi-3","host":"chi-1.us.uncletopia.com","port":27035,"enabled":true,"region":"us-central","cc":"us","latitude":41.881832,"longitude":-87.62318,"reserved":0,"last_update":"0001-01-01T00:00:00Z","name_a2s":"Uncletopia | Chicago | 3 | All Maps","protocol":17,"map":"pl_snowycoast","folder":"tf","game":"Team Fortress","app_id":440,"player_count":0,"max_players":24,"Bots":0,"server_type":"Dedicated","server_os":"Linux","password":true,"vac":true,"version":"7742253","steam_id":85568392924515191,"keywords":["nocrits","nodmgspread","payload","uncletopia"],"game_id":440,"stv_port":27036,"stv_name":"Uncletopia | Chicago | 3 | All Maps | STV","players":null},{"server_id":403,"name":"Uncletopia | Chicago | 4 | All Maps","name_short":"chi-4","host":"chi-1.us.uncletopia.com","port":27045,"enabled":true,"region":"us-central","cc":"us","latitude":41.881832,"longitude":-87.62318,"reserved":0,"last_update":"0001-01-01T00:00:00Z","name_a2s":"Uncletopia | Chicago | 4 | All Maps","protocol":17,"map":"koth_lakeside_final","folder":"tf","game":"Team Fortress","app_id":440,"player_count":0,"max_players":24,"Bots":0,"server_type":"Dedicated","server_os":"Linux","password":true,"vac":true,"version":"7742253","steam_id":85568392924515193,"keywords":["cp","nocrits","nodmgspread","uncletopia"],"game_id":440,"stv_port":27046,"stv_name":"Uncletopia | Chicago | 4 | All Maps | STV","players":null},{"server_id":36,"name":"Uncletopia | Chicago | 5 | All Maps","name_short":"chi-5","host":"chi-2.us.uncletopia.com","port":27015,"enabled":true,"region":"us-central","cc":"us","latitude":41.881832,"longitude":-87.62318,"reserved":0,"last_update":"0001-01-01T00:00:00Z","name_a2s":"Uncletopia | Chicago | 5 | All Maps","protocol":17,"map":"pl_badwater","folder":"tf","game":"Team Fortress","app_id":440,"player_count":24,"max_players":24,"Bots":0,"server_type":"Dedicated","server_os":"Linux","password":true,"vac":true,"version":"7742253","steam_id":85568392924866362,"keywords":["nocrits","nodmgspread","payload","uncletopia"],"game_id":440,"stv_port":27016,"stv_name":"Uncletopia | Chicago | 5 | All Maps | STV","players":[{"user_id":677,"name":"KittyClock","steam_id":76561198971354161,"connected_time":4183000000000,"state":"active","ping":60},{"user_id":723,"name":"That Sounds Serious","steam_id":76561198247719128,"connected_time":338000000000,"state":"active","ping":117},{"user_id":698,"name":"‚ùÑBrrr-azorn‚ùÑ","steam_id":76561198096327396,"connected_time":2278000000000,"state":"active","ping":123},{"user_id":699,"name":"Purple brain","steam_id":76561198103924707,"connected_time":2181000000000,"state":"active","ping":57},{"user_id":695,"name":"illya","steam_id":76561198063099828,"connected_time":2385000000000,"state":"active","ping":56},{"user_id":679,"name":"Milano","steam_id":76561198051889174,"connected_time":4116000000000,"state":"active","ping":107},{"user_id":717,"name":"Unholy","steam_id":76561198058312481,"connected_time":941000000000,"state":"active","ping":87},{"user_id":721,"name":"munchin on sum midnight snacks","steam_id":76561198319442494,"connected_time":443000000000,"state":"active","ping":105},{"user_id":724,"name":"Abbashea","steam_id":76561199182136969,"connected_time":73000000000,"state":"active","ping":83},{"user_id":710,"name":"‚ù§Graphite Muncher‚ù§","steam_id":76561199200969139,"connected_time":1827000000000,"state":"active","ping":137},{"user_id":711,"name":"MUG","steam_id":76561199353656571,"connected_time":1816000000000,"state":"active","ping":58},{"user_id":701,"name":"Genesis","steam_id":76561198019496869,"connected_time":2142000000000,"state":"active","ping":95},{"user_id":713,"name":"Dumpy","steam_id":76561198067167895,"connected_time":1263000000000,"state":"active","ping":65},{"user_id":719,"name":"BuddyMocha","steam_id":76561198054654515,"connected_time":797000000000,"state":"active","ping":47},{"user_id":712,"name":"Sasu","steam_id":76561198893447505,"connected_time":1812000000000,"state":"active","ping":84},{"user_id":696,"name":"d-_-b","steam_id":76561198120725877,"connected_time":2382000000000,"state":"active","ping":61},{"user_id":648,"name":"Alex Narex","steam_id":76561198814364412,"connected_time":7068000000000,"state":"active","ping":102},{"user_id":704,"name":"Detective obvious (f2p)","steam_id":76561198977045933,"connected_time":2067000000000,"state":"active","ping":72},{"user_id":716,"name":"sora","steam_id":76561198094256973,"connected_time":1023000000000,"state":"active","ping":104},{"user_id":706,"name":"howtobepker","steam_id":76561198115053865,"connected_time":2023000000000,"state":"active","ping":82},{"user_id":643,"name":"DarkForce8","steam_id":76561198853892261,"connected_time":7994000000000,"state":"active","ping":112},{"user_id":720,"name":"keffers","steam_id":76561198202338796,"connected_time":621000000000,"state":"active","ping":75},{"user_id":675,"name":"Daddy-O Dizzy","steam_id":76561198292349348,"connected_time":5109000000000,"state":"active","ping":71},{"user_id":676,"name":"Souper Scott","steam_id":76561198045518926,"connected_time":5078000000000,"state":"active","ping":66}]},{"server_id":37,"name":"Uncletopia | Chicago | 6 | All Maps","name_short":"chi-6","host":"chi-2.us.uncletopia.com","port":27025,"enabled":true,"region":"us-central","cc":"us","latitude":41.881832,"longitude":-87.62318,"reserved":0,"last_update":"0001-01-01T00:00:00Z","name_a2s":"Uncletopia | Chicago | 6 | All Maps","protocol":17,"map":"pl_pier","folder":"tf","game":"Team Fortress","app_id":440,"player_count":19,"max_players":24,"Bots":0,"server_type":"Dedicated","server_os":"Linux","password":true,"vac":true,"version":"7742253","steam_id":85568392924866363,"keywords":["nocrits","nodmgspread","payload","uncletopia"],"game_id":440,"stv_port":27026,"stv_name":"Uncletopia | Chicago | 6 | All Maps | STV","players":[{"user_id":901,"name":"Aeterna Victrix","steam_id":76561198067701236,"connected_time":44000000000,"state":"active","ping":50},{"user_id":889,"name":"Username","steam_id":76561199033122306,"connected_time":1009000000000,"state":"active","ping":86},{"user_id":886,"name":"double screen shed tail","steam_id":76561198102868313,"connected_time":1391000000000,"state":"active","ping":75},{"user_id":902,"name":"Dr.BendyBones","steam_id":76561198048846641,"connected_time":26000000000,"state":"active","ping":54},{"user_id":897,"name":"Not_an_Ace","steam_id":76561198819106762,"connected_time":372000000000,"state":"active","ping":75},{"user_id":784,"name":"Brass beast heavy","steam_id":76561198274197623,"connected_time":8811000000000,"state":"active","ping":143},{"user_id":860,"name":"mutual slump","steam_id":76561198122628769,"connected_time":3392000000000,"state":"active","ping":54},{"user_id":893,"name":"Some Dood on the Internet","steam_id":76561198054657687,"connected_time":663000000000,"state":"active","ping":108},{"user_id":887,"name":"mucho mejor","steam_id":76561198122854617,"connected_time":1184000000000,"state":"active","ping":45},{"user_id":873,"name":"shellaa","steam_id":76561198044124102,"connected_time":2920000000000,"state":"active","ping":69},{"user_id":899,"name":"Kul","steam_id":76561198281968187,"connected_time":362000000000,"state":"active","ping":91},{"user_id":874,"name":"Bri","steam_id":76561198089908485,"connected_time":2912000000000,"state":"active","ping":102},{"user_id":867,"name":"Cine Hamal","steam_id":76561198079619374,"connected_time":3055000000000,"state":"active","ping":71},{"user_id":883,"name":"Walnut","steam_id":76561198024954863,"connected_time":1666000000000,"state":"active","ping":48},{"user_id":850,"name":"Chrisscar","steam_id":76561198086298130,"connected_time":3850000000000,"state":"active","ping":102},{"user_id":885,"name":"totally not a pile of beans","steam_id":76561198119851931,"connected_time":1521000000000,"state":"active","ping":70},{"user_id":875,"name":"Rye","steam_id":76561198071514966,"connected_time":2894000000000,"state":"active","ping":63},{"user_id":884,"name":"mobile dispenser","steam_id":76561198036162718,"connected_time":1630000000000,"state":"active","ping":55},{"user_id":888,"name":"ahab","steam_id":76561198211780469,"connected_time":1171000000000,"state":"active","ping":33}]},{"server_id":38,"name":"Uncletopia | Chicago | 7 | Stopwatch Beta","name_short":"chi-7","host":"chi-2.us.uncletopia.com","port":27035,"enabled":true,"region":"us-central","cc":"us","latitude":41.881832,"longitude":-87.62318,"reserved":0,"last_update":"0001-01-01T00:00:00Z","name_a2s":"Uncletopia | Chicago | 7 | Stopwatch Beta","protocol":17,"map":"workshop/pl_badwater_pro_v12.ugc2142942074","folder":"tf","game":"Team Fortress","app_id":440,"player_count":0,"max_players":24,"Bots":0,"server_type":"Dedicated","server_os":"Linux","password":true,"vac":true,"version":"7742253","steam_id":85568392924866364,"keywords":["nocrits","nodmgspread","payload","uncletopia"],"game_id":440,"stv_port":27036,"stv_name":"Uncletopia | Chicago | 7 | Stopwatch Beta | STV","players":null},{"server_id":39,"name":"Uncletopia | Chicago | 8 | Community","name_short":"chi-8","host":"chi-2.us.uncletopia.com","port":27045,"enabled":true,"region":"us-central","cc":"us","latitude":41.881832,"longitude":-87.62318,"reserved":0,"last_update":"0001-01-01T00:00:00Z","name_a2s":"Uncletopia | Chicago | 8 | Community","protocol":17,"map":"workshop/koth_ashville_final.ugc2130459942","folder":"tf","game":"Team Fortress","app_id":440,"player_count":0,"max_players":24,"Bots":0,"server_type":"Dedicated","server_os":"Linux","password":true,"vac":true,"version":"7742253","steam_id":85568392924866365,"keywords":["cp","nocrits","nodmgspread","uncletopia"],"game_id":440,"stv_port":27046,"stv_name":"Uncletopia | Chicago | 8 | Community | STV","players":null},{"server_id":8,"name":"Uncletopia | Dallas | 1 | All Maps","name_short":"dal-1","host":"dal-1.us.uncletopia.com","port":27015,"enabled":true,"region":"us-central","cc":"us","latitude":32.779167,"longitude":-96.80889,"reserved":0,"last_update":"0001-01-01T00:00:00Z","name_a2s":"Uncletopia | Dallas | 1 | All Maps","protocol":17,"map":"pl_badwater","folder":"tf","game":"Team Fortress","app_id":440,"player_count":24,"max_players":24,"Bots":0,"server_type":"Dedicated","server_os":"Linux","password":true,"vac":true,"version":"7742253","steam_id":85568392924469986,"keywords":["nocrits","nodmgspread","payload","uncletopia"],"game_id":440,"stv_port":27016,"stv_name":"Uncletopia | Dallas | 1 | All Maps | STV","players":[{"user_id":691,"name":"defcon","steam_id":76561198100656328,"connected_time":2205000000000,"state":"active","ping":71},{"user_id":667,"name":"Dillon","steam_id":76561198191469611,"connected_time":3246000000000,"state":"active","ping":99},{"user_id":709,"name":"(real)","steam_id":76561198072651849,"connected_time":506000000000,"state":"active","ping":57},{"user_id":713,"name":"Emma","steam_id":76561198318093783,"connected_time":121000000000,"state":"active","ping":60},{"user_id":698,"name":"Pie‚Ñ¢","steam_id":76561198158312625,"connected_time":1388000000000,"state":"active","ping":128},{"user_id":672,"name":"Shortbane","steam_id":76561198247166584,"connected_time":2871000000000,"state":"active","ping":50},{"user_id":707,"name":"germba","steam_id":76561198421591995,"connected_time":576000000000,"state":"active","ping":116},{"user_id":651,"name":"üéÄ Chode Puncher üéÄ","steam_id":76561198118740818,"connected_time":4204000000000,"state":"active","ping":132},{"user_id":693,"name":"Jello","steam_id":76561198890633732,"connected_time":1669000000000,"state":"active","ping":64},{"user_id":706,"name":"Breadskate","steam_id":76561198087730803,"connected_time":617000000000,"state":"active","ping":105},{"user_id":694,"name":"sly1","steam_id":76561198049014977,"connected_time":1640000000000,"state":"active","ping":63},{"user_id":712,"name":"PirateJet","steam_id":76561198050858744,"connected_time":316000000000,"state":"active","ping":81},{"user_id":711,"name":"Michiru Kagemori","steam_id":76561198257241799,"connected_time":481000000000,"state":"active","ping":48},{"user_id":697,"name":"QueeQuee","steam_id":76561198070804012,"connected_time":1615000000000,"state":"active","ping":67},{"user_id":702,"name":"Jagger","steam_id":76561198087410575,"connected_time":1085000000000,"state":"active","ping":73},{"user_id":688,"name":"flexer_2000","steam_id":76561198084422657,"connected_time":2359000000000,"state":"active","ping":76},{"user_id":704,"name":"mappy","steam_id":76561198027207244,"connected_time":709000000000,"state":"active","ping":74},{"user_id":705,"name":"Wunder","steam_id":76561198018919271,"connected_time":619000000000,"state":"active","ping":95},{"user_id":703,"name":"Pepsi-Man","steam_id":76561198052061790,"connected_time":1035000000000,"state":"active","ping":83},{"user_id":685,"name":"deech","steam_id":76561198066429444,"connected_time":2429000000000,"state":"active","ping":77},{"user_id":708,"name":"DORATHEEXPLORER","steam_id":76561198124773931,"connected_time":567000000000,"state":"active","ping":81},{"user_id":641,"name":"Hindmost","steam_id":76561199081837220,"connected_time":5142000000000,"state":"active","ping":115},{"user_id":686,"name":"Batso","steam_id":76561198106589452,"connected_time":2413000000000,"state":"active","ping":86},{"user_id":714,"name":"ash","steam_id":76561198127890645,"connected_time":121000000000,"state":"active","ping":83}]},{"server_id":108,"name":"Uncletopia | Dallas | 2 | All Maps","name_short":"dal-2","host":"dal-1.us.uncletopia.com","port":27025,"enabled":true,"region":"us-central","cc":"us","latitude":32.779167,"longitude":-96.80889,"reserved":0,"last_update":"0001-01-01T00:00:00Z","name_a2s":"Uncletopia | Dallas | 2 | All Maps","protocol":17,"map":"ctf_2fort","folder":"tf","game":"Team Fortress","app_id":440,"player_count":0,"max_players":24,"Bots":0,"server_type":"Dedicated","server_os":"Linux","password":true,"vac":true,"version":"7742253","steam_id":85568392924469988,"keywords":["ctf","nocrits","nodmgspread","uncletopia"],"game_id":440,"stv_port":27026,"stv_name":"Uncletopia | Dallas | 2 | All Maps | STV","players":null},{"server_id":5,"name":"Uncletopia | Frankfurt | 1 | All Maps","name_short":"frk-1","host":"frk-1.de.uncletopia.com","port":27015,"enabled":true,"region":"eu","cc":"de","latitude":50.110924,"longitude":8.682127,"reserved":0,"last_update":"0001-01-01T00:00:00Z","name_a2s":"Uncletopia | Frankfurt | 1 | All Maps","protocol":17,"map":"pl_borneo","folder":"tf","game":"Team Fortress","app_id":440,"player_count":0,"max_players":24,"Bots":0,"server_type":"Dedicated","server_os":"Linux","password":true,"vac":true,"version":"7742253","steam_id":85568392924469989,"keywords":["nocrits","nodmgspread","payload","uncletopia"],"game_id":440,"stv_port":27016,"stv_name":"Uncletopia | Frankfurt | 1 | All Maps | STV","players":null},{"server_id":110,"name":"Uncletopia | Frankfurt | 2 | All Maps","name_short":"frk-2","host":"frk-1.de.uncletopia.com","port":27025,"enabled":true,"region":"eu","cc":"de","latitude":50.110924,"longitude":8.682127,"reserved":0,"last_update":"0001-01-01T00:00:00Z","name_a2s":"Uncletopia | Frankfurt | 2 | All Maps","protocol":17,"map":"pl_frontier_final","folder":"tf","game":"Team Fortress","app_id":440,"player_count":22,"max_players":24,"Bots":0,"server_type":"Dedicated","server_os":"Linux","password":true,"vac":true,"version":"7742253","steam_id":85568392924469990,"keywords":["nocrits","nodmgspread","payload","uncletopia"],"game_id":440,"stv_port":27026,"stv_name":"Uncletopia | Frankfurt | 2 | All Maps | STV","players":[{"user_id":38,"name":"The Wolf Leader","steam_id":76561198038007462,"connected_time":4796000000000,"state":"active","ping":60},{"user_id":91,"name":"Endo","steam_id":76561198058384245,"connected_time":75000000000,"state":"active","ping":60},{"user_id":93,"name":"Fluffed up Maverick","steam_id":76561198843516708,"connected_time":40000000000,"state":"active","ping":61},{"user_id":94,"name":"63756d","steam_id":76561198808699024,"connected_time":5000000000,"state":"spawning","ping":59},{"user_id":79,"name":"Bains","steam_id":76561198139457537,"connected_time":1389000000000,"state":"active","ping":134},{"user_id":80,"name":"–ü–µ–¥–∞–ª—å–∫–∞","steam_id":76561198844172196,"connected_time":1383000000000,"state":"active","ping":149},{"user_id":71,"name":"Pingutaro","steam_id":76561198112803718,"connected_time":2394000000000,"state":"active","ping":74},{"user_id":74,"name":"Iva","steam_id":76561198254963150,"connected_time":1500000000000,"state":"active","ping":56},{"user_id":33,"name":"father thomas +","steam_id":76561198355097756,"connected_time":5494000000000,"state":"active","ping":56},{"user_id":82,"name":"Castelle","steam_id":76561198427377981,"connected_time":1307000000000,"state":"active","ping":86},{"user_id":72,"name":"Sneaky boi","steam_id":76561199195985387,"connected_time":2312000000000,"state":"active","ping":80},{"user_id":51,"name":"300 Ping Gaming [WLP]","steam_id":76561199042160997,"connected_time":3749000000000,"state":"active","ping":58},{"user_id":87,"name":"VIN WEASEL","steam_id":76561198014387066,"connected_time":491000000000,"state":"active","ping":53},{"user_id":53,"name":"Milkman $tripper money","steam_id":76561198977948250,"connected_time":3725000000000,"state":"active","ping":63},{"user_id":60,"name":"Buenos D√≠as!","steam_id":76561198417999443,"connected_time":3453000000000,"state":"active","ping":131},{"user_id":81,"name":"29292929","steam_id":76561198317731483,"connected_time":1378000000000,"state":"spawning","ping":89},{"user_id":73,"name":"Grey","steam_id":76561198073954578,"connected_time":2264000000000,"state":"active","ping":84},{"user_id":63,"name":"Royal","steam_id":76561198157621024,"connected_time":3246000000000,"state":"active","ping":54},{"user_id":83,"name":"FERD","steam_id":76561198019956802,"connected_time":1236000000000,"state":"active","ping":60},{"user_id":66,"name":"GunGuy","steam_id":76561198124510978,"connected_time":3050000000000,"state":"active","ping":46},{"user_id":85,"name":"Slooshie","steam_id":76561198008749909,"connected_time":858000000000,"state":"spawning","ping":107},{"user_id":90,"name":"Lazulura","steam_id":76561198103569919,"connected_time":310000000000,"state":"active","ping":91}]},{"server_id":308,"name":"Uncletopia | Frankfurt | 3 | All Maps","name_short":"frk-3","host":"frk-1.de.uncletopia.com","port":27035,"enabled":true,"region":"eu","cc":"de","latitude":50.110924,"longitude":8.682127,"reserved":0,"last_update":"0001-01-01T00:00:00Z","name_a2s":"Uncletopia | Frankfurt | 3 | All Maps","protocol":17,"map":"cp_dustbowl","folder":"tf","game":"Team Fortress","app_id":440,"player_count":0,"max_players":24,"Bots":0,"server_type":"Dedicated","server_os":"Linux","password":true,"vac":true,"version":"7742253","steam_id":85568392924504274,"keywords":["cp","nocrits","nodmgspread","uncletopia"],"game_id":440,"stv_port":27036,"stv_name":"Uncletopia | Frankfurt | 3 | All Maps | STV","players":null},{"server_id":309,"name":"Uncletopia | Frankfurt | 4 | All Maps","name_short":"frk-4","host":"frk-1.de.uncletopia.com","port":27045,"enabled":true,"region":"eu","cc":"de","latitude":50.110924,"longitude":8.682127,"reserved":0,"last_update":"0001-01-01T00:00:00Z","name_a2s":"Uncletopia | Frankfurt | 4 | All Maps","protocol":17,"map":"cp_sunshine","folder":"tf","game":"Team Fortress","app_id":440,"player_count":0,"max_players":24,"Bots":0,"server_type":"Dedicated","server_os":"Linux","password":true,"vac":true,"version":"7742253","steam_id":85568392924504275,"keywords":["cp","nocrits","nodmgspread","uncletopia"],"game_id":440,"stv_port":27046,"stv_name":"Uncletopia | Frankfurt | 4 | All Maps | STV","players":null},{"server_id":310,"name":"Uncletopia | Frankfurt | 5 | All Maps","name_short":"frk-5","host":"frk-1.de.uncletopia.com","port":27055,"enabled":true,"region":"eu","cc":"de","latitude":50.110924,"longitude":8.682127,"reserved":0,"last_update":"0001-01-01T00:00:00Z","name_a2s":"Uncletopia | Frankfurt | 5 | All Maps","protocol":17,"map":"cp_snakewater_final1","folder":"tf","game":"Team Fortress","app_id":440,"player_count":0,"max_players":24,"Bots":0,"server_type":"Dedicated","server_os":"Linux","password":true,"vac":true,"version":"7742253","steam_id":85568392924504277,"keywords":["cp","nocrits","nodmgspread","uncletopia"],"game_id":440,"stv_port":27056,"stv_name":"Uncletopia | Frankfurt | 5 | All Maps | STV","players":null},{"server_id":311,"name":"Uncletopia | Frankfurt | 6 | All Maps","name_short":"frk-6","host":"frk-1.de.uncletopia.com","port":27065,"enabled":true,"region":"eu","cc":"de","latitude":50.110924,"longitude":8.682127,"reserved":0,"last_update":"0001-01-01T00:00:00Z","name_a2s":"Uncletopia | Frankfurt | 6 | All Maps","protocol":17,"map":"koth_lakeside_final","folder":"tf","game":"Team Fortress","app_id":440,"player_count":0,"max_players":24,"Bots":0,"server_type":"Dedicated","server_os":"Linux","password":true,"vac":true,"version":"7742253","steam_id":85568392924504278,"keywords":["cp","nocrits","nodmgspread","uncletopia"],"game_id":440,"stv_port":27066,"stv_name":"Uncletopia | Frankfurt | 6 | All Maps | STV","players":null},{"server_id":23,"name":"Uncletopia | Frankfurt | 7 | Stopwatch Beta","name_short":"frk-7","host":"frk-1.de.uncletopia.com","port":27075,"enabled":true,"region":"eu","cc":"de","latitude":50.110924,"longitude":8.682127,"reserved":0,"last_update":"0001-01-01T00:00:00Z","name_a2s":"Uncletopia | Frankfurt | 7 | Stopwatch Beta","protocol":17,"map":"pl_badwater","folder":"tf","game":"Team Fortress","app_id":440,"player_count":0,"max_players":24,"Bots":0,"server_type":"Dedicated","server_os":"Linux","password":true,"vac":true,"version":"7742253","steam_id":85568392924742827,"keywords":["nocrits","nodmgspread","payload","uncletopia"],"game_id":440,"stv_port":27076,"stv_name":"Uncletopia | Frankfurt | 7 | Stopwatch Beta | STV","players":null},{"server_id":24,"name":"Uncletopia | Frankfurt | 8 | Community","name_short":"frk-8","host":"frk-1.de.uncletopia.com","port":27085,"enabled":true,"region":"eu","cc":"de","latitude":50.110924,"longitude":8.682127,"reserved":0,"last_update":"0001-01-01T00:00:00Z","name_a2s":"Uncletopia | Frankfurt | 8 | Community","protocol":17,"map":"koth_cascade","folder":"tf","game":"Team Fortress","app_id":440,"player_count":0,"max_players":24,"Bots":0,"server_type":"Dedicated","server_os":"Linux","password":true,"vac":true,"version":"7742253","steam_id":85568392924742828,"keywords":["cp","nocrits","nodmgspread","uncletopia"],"game_id":440,"stv_port":27086,"stv_name":"Uncletopia | Frankfurt | 8 | Community | STV","players":null},{"server_id":202,"name":"Uncletopia | Hong Kong | 1 | All Maps","name_short":"hgk-1","host":"hgk-1.hk.uncletopia.com","port":27015,"enabled":true,"region":"asia","cc":"hk","latitude":22.302711,"longitude":114.177216,"reserved":0,"last_update":"0001-01-01T00:00:00Z","name_a2s":"Uncletopia | Hong Kong | 1 | All Maps","protocol":17,"map":"koth_viaduct","folder":"tf","game":"Team Fortress","app_id":440,"player_count":24,"max_players":24,"Bots":0,"server_type":"Dedicated","server_os":"Linux","password":true,"vac":true,"version":"7742253","steam_id":85568392924494504,"keywords":["cp","nocrits","nodmgspread","uncletopia"],"game_id":440,"stv_port":27016,"stv_name":"Uncletopia | Hong Kong | 1 | All Maps | STV","players":[{"user_id":233,"name":"gilsomnia","steam_id":76561198830813639,"connected_time":809000000000,"state":"active","ping":110},{"user_id":175,"name":"Noyour","steam_id":76561198323259830,"connected_time":5421000000000,"state":"active","ping":115},{"user_id":241,"name":"I FUCKING HATE SALT","steam_id":76561199174449723,"connected_time":133000000000,"state":"active","ping":133},{"user_id":193,"name":"sterzun","steam_id":76561198300004922,"connected_time":3222000000000,"state":"active","ping":110},{"user_id":201,"name":"Zacy","steam_id":76561198114841670,"connected_time":2811000000000,"state":"active","ping":64},{"user_id":236,"name":"fortnite free vbuck 2022","steam_id":76561198819895048,"connected_time":654000000000,"state":"active","ping":40},{"user_id":214,"name":"Freeze tag","steam_id":76561198300383067,"connected_time":1553000000000,"state":"active","ping":66},{"user_id":210,"name":"ConHosh1","steam_id":76561199387718733,"connected_time":1740000000000,"state":"active","ping":67},{"user_id":180,"name":"can we get much higher","steam_id":76561199390507975,"connected_time":4547000000000,"state":"active","ping":44},{"user_id":239,"name":"Wardaddy","steam_id":76561199229248492,"connected_time":596000000000,"state":"active","ping":84},{"user_id":238,"name":"pardo","steam_id":76561198230213828,"connected_time":629000000000,"state":"active","ping":61},{"user_id":240,"name":"poot","steam_id":76561199020600466,"connected_time":227000000000,"state":"active","ping":71},{"user_id":198,"name":"MR.SAM","steam_id":76561198014846677,"connected_time":2989000000000,"state":"active","ping":48},{"user_id":155,"name":"moguizhong","steam_id":76561198152588681,"connected_time":6669000000000,"state":"active","ping":83},{"user_id":232,"name":"…îu·ó°‡∂û …ü∆®u·íê","steam_id":76561199031283970,"connected_time":917000000000,"state":"active","ping":78},{"user_id":217,"name":"attaac","steam_id":76561198144750492,"connected_time":1491000000000,"state":"active","ping":78},{"user_id":218,"name":"Pandemo","steam_id":76561198024666110,"connected_time":1407000000000,"state":"active","ping":37},{"user_id":219,"name":"DC","steam_id":76561198837122605,"connected_time":1304000000000,"state":"active","ping":60},{"user_id":204,"name":"Du57Y","steam_id":76561198120973476,"connected_time":2003000000000,"state":"active","ping":91},{"user_id":220,"name":"MS PowerPoint","steam_id":76561198369523192,"connected_time":1272000000000,"state":"active","ping":62},{"user_id":222,"name":"c‡∂ûre be‡∂ûr m‡∂ûn","steam_id":76561198163549065,"connected_time":1179000000000,"state":"active","ping":98},{"user_id":229,"name":"meme","steam_id":76561199446900365,"connected_time":965000000000,"state":"active","ping":90},{"user_id":182,"name":"Urotsuki","steam_id":76561198074339034,"connected_time":4531000000000,"state":"active","ping":79},{"user_id":227,"name":"c.na4","steam_id":76561198965889429,"connected_time":1011000000000,"state":"active","ping":100}]},{"server_id":1,"name":"Uncletopia | Los Angeles | 1 | All Maps","name_short":"lax-1","host":"lax-1.us.uncletopia.com","port":27015,"enabled":true,"region":"us-west","cc":"us","latitude":33.94279,"longitude":-118.41004,"reserved":0,"last_update":"0001-01-01T00:00:00Z","name_a2s":"Uncletopia | Los Angeles | 1 | All Maps","protocol":17,"map":"pl_wutville_event","folder":"tf","game":"Team Fortress","app_id":440,"player_count":0,"max_players":24,"Bots":0,"server_type":"Dedicated","server_os":"Linux","password":true,"vac":true,"version":"7742253","steam_id":85568392924469991,"keywords":["nocrits","nodmgspread","payload","uncletopia"],"game_id":440,"stv_port":27016,"stv_name":"Uncletopia | Los Angeles | 1 | All Maps | STV","players":null},{"server_id":112,"name":"Uncletopia | Los Angeles | 2 | All Maps","name_short":"lax-2","host":"lax-1.us.uncletopia.com","port":27025,"enabled":true,"region":"us-west","cc":"us","latitude":33.94279,"longitude":-118.41004,"reserved":0,"last_update":"0001-01-01T00:00:00Z","name_a2s":"Uncletopia | Los Angeles | 2 | All Maps","protocol":17,"map":"pl_snowycoast","folder":"tf","game":"Team Fortress","app_id":440,"player_count":11,"max_players":24,"Bots":0,"server_type":"Dedicated","server_os":"Linux","password":true,"vac":true,"version":"7742253","steam_id":85568392924469992,"keywords":["nocrits","nodmgspread","payload","uncletopia"],"game_id":440,"stv_port":27026,"stv_name":"Uncletopia | Los Angeles | 2 | All Maps | STV","players":[{"user_id":142,"name":"Wham Mistress","steam_id":76561198115422032,"connected_time":273000000000,"state":"active","ping":57},{"user_id":140,"name":"Farmer caboose","steam_id":76561198117370670,"connected_time":613000000000,"state":"active","ping":75},{"user_id":143,"name":"Special Gorilla","steam_id":76561198120705900,"connected_time":254000000000,"state":"active","ping":53},{"user_id":144,"name":"Antreuse","steam_id":76561198219721132,"connected_time":203000000000,"state":"active","ping":63},{"user_id":145,"name":"Room","steam_id":76561199174579733,"connected_time":169000000000,"state":"active","ping":111},{"user_id":146,"name":"mona cosplayer","steam_id":76561198384206719,"connected_time":155000000000,"state":"active","ping":59},{"user_id":147,"name":"Carl The Alpha","steam_id":76561198308512832,"connected_time":57000000000,"state":"active","ping":54},{"user_id":132,"name":"Carnamate","steam_id":76561198138077990,"connected_time":1885000000000,"state":"active","ping":93},{"user_id":126,"name":"Whisper!","steam_id":76561198119609795,"connected_time":2439000000000,"state":"active","ping":53},{"user_id":133,"name":"rock gaming","steam_id":76561199402868311,"connected_time":1801000000000,"state":"active","ping":62},{"user_id":96,"name":"Anthid","steam_id":76561198074493797,"connected_time":4744000000000,"state":"active","ping":75}]},{"server_id":324,"name":"Uncletopia | Los Angeles | 3 | All Maps","name_short":"lax-3","host":"lax-1.us.uncletopia.com","port":27035,"enabled":true,"region":"us-west","cc":"us","latitude":33.94279,"longitude":-118.41004,"reserved":0,"last_update":"0001-01-01T00:00:00Z","name_a2s":"Uncletopia | Los Angeles | 3 | All Maps","protocol":17,"map":"cp_process_final","folder":"tf","game":"Team Fortress","app_id":440,"player_count":0,"max_players":24,"Bots":0,"server_type":"Dedicated","server_os":"Linux","password":true,"vac":true,"version":"7742253","steam_id":85568392924510198,"keywords":["cp","nocrits","nodmgspread","uncletopia"],"game_id":440,"stv_port":27036,"stv_name":"Uncletopia | Los Angeles | 3 | All Maps | STV","players":null},{"server_id":25,"name":"Uncletopia | Los Angeles | 4 | Stopwatch Beta","name_short":"lax-4","host":"lax-1.us.uncletopia.com","port":27045,"enabled":true,"region":"us-west","cc":"us","latitude":33.94279,"longitude":-118.41004,"reserved":0,"last_update":"0001-01-01T00:00:00Z","name_a2s":"Uncletopia | Los Angeles | 4 | Stopwatch Beta","protocol":17,"map":"workshop/koth_clearcut_b15.ugc2107050255","folder":"tf","game":"Team Fortress","app_id":440,"player_count":0,"max_players":24,"Bots":0,"server_type":"Dedicated","server_os":"Linux","password":true,"vac":true,"version":"7742253","steam_id":85568392924510199,"keywords":["cp","nocrits","nodmgspread","uncletopia"],"game_id":440,"stv_port":27046,"stv_name":"Uncletopia | Los Angeles | 4 | Stopwatch Beta | STV","players":null},{"server_id":11,"name":"Uncletopia | London | 1 | All Maps","name_short":"lon-1","host":"lon-1.uk.uncletopia.com","port":27015,"enabled":true,"region":"eu","cc":"gb","latitude":51.509865,"longitude":-0.118092,"reserved":0,"last_update":"0001-01-01T00:00:00Z","name_a2s":"Uncletopia | London | 1 | All Maps","protocol":17,"map":"pl_upward","folder":"tf","game":"Team Fortress","app_id":440,"player_count":24,"max_players":24,"Bots":0,"server_type":"Dedicated","server_os":"Linux","password":true,"vac":true,"version":"7742253","steam_id":85568392924367362,"keywords":["nocrits","nodmgspread","payload","uncletopia"],"game_id":440,"stv_port":27016,"stv_name":"Uncletopia | London | 1 | All Maps | STV","players":[{"user_id":108,"name":"Delab Le Fou","steam_id":76561198846356572,"connected_time":1870000000000,"state":"active","ping":96},{"user_id":4,"name":"R A S M U S","steam_id":76561198279799226,"connected_time":8249000000000,"state":"active","ping":67},{"user_id":126,"name":"Binky","steam_id":76561198116681081,"connected_time":498000000000,"state":"active","ping":105},{"user_id":92,"name":"ZoDoR)))","steam_id":76561199439508307,"connected_time":2488000000000,"state":"active","ping":166},{"user_id":124,"name":"GoldenBiker","steam_id":76561198969560937,"connected_time":620000000000,"state":"active","ping":103},{"user_id":122,"name":"p!ke","steam_id":76561198416081952,"connected_time":690000000000,"state":"active","ping":57},{"user_id":9,"name":"Melon","steam_id":76561198150893860,"connected_time":8242000000000,"state":"active","ping":80},{"user_id":74,"name":"resetasee","steam_id":76561198930253694,"connected_time":3786000000000,"state":"active","ping":101},{"user_id":90,"name":"BalSock","steam_id":76561198165339392,"connected_time":2664000000000,"state":"active","ping":93},{"user_id":103,"name":"alleopold","steam_id":76561199055478676,"connected_time":2041000000000,"state":"active","ping":150},{"user_id":109,"name":"Gernhardt Reinlunzen #savetf2","steam_id":76561198147571688,"connected_time":1683000000000,"state":"active","ping":60},{"user_id":123,"name":"autistic luigi","steam_id":76561199218285040,"connected_time":642000000000,"state":"active","ping":71},{"user_id":15,"name":"DocTwoEight","steam_id":76561198153488940,"connected_time":8229000000000,"state":"active","ping":76},{"user_id":84,"name":"duster cat","steam_id":76561198832231975,"connected_time":2806000000000,"state":"active","ping":92},{"user_id":56,"name":"Accident","steam_id":76561198115160396,"connected_time":6031000000000,"state":"active","ping":72},{"user_id":110,"name":"Schrody","steam_id":76561198260285179,"connected_time":1678000000000,"state":"active","ping":94},{"user_id":120,"name":"YV","steam_id":76561198147868242,"connected_time":714000000000,"state":"active","ping":60},{"user_id":113,"name":"albanian sleeper agent","steam_id":76561198302166119,"connected_time":1612000000000,"state":"active","ping":44},{"user_id":106,"name":"k","steam_id":76561198818452217,"connected_time":1952000000000,"state":"active","ping":65},{"user_id":95,"name":"ugly","steam_id":76561199050412617,"connected_time":2352000000000,"state":"active","ping":129},{"user_id":125,"name":"bANji","steam_id":76561198108898161,"connected_time":550000000000,"state":"active","ping":47},{"user_id":100,"name":"GoCommitGibby","steam_id":76561198853933595,"connected_time":2181000000000,"state":"active","ping":83},{"user_id":127,"name":"Cu713","steam_id":76561198175463442,"connected_time":444000000000,"state":"active","ping":83},{"user_id":119,"name":"maxharmony","steam_id":76561198233819688,"connected_time":939000000000,"state":"active","ping":93}]},{"server_id":114,"name":"Uncletopia | London | 2 | All Maps","name_short":"lon-2","host":"lon-1.uk.uncletopia.com","port":27025,"enabled":true,"region":"eu","cc":"gb","latitude":51.509865,"longitude":-0.118092,"reserved":0,"last_update":"0001-01-01T00:00:00Z","name_a2s":"Uncletopia | London | 2 | All Maps","protocol":17,"map":"pl_swiftwater_final1","folder":"tf","game":"Team Fortress","app_id":440,"player_count":0,"max_players":24,"Bots":0,"server_type":"Dedicated","server_os":"Linux","password":true,"vac":true,"version":"7742253","steam_id":85568392924470941,"keywords":["nocrits","nodmgspread","payload","uncletopia"],"game_id":440,"stv_port":27026,"stv_name":"Uncletopia | London | 2 | All Maps | STV","players":null},{"server_id":320,"name":"Uncletopia | London | 3 | All Maps","name_short":"lon-3","host":"lon-1.uk.uncletopia.com","port":27035,"enabled":true,"region":"eu","cc":"gb","latitude":51.509865,"longitude":-0.118092,"reserved":0,"last_update":"0001-01-01T00:00:00Z","name_a2s":"Uncletopia | London | 3 | All Maps","protocol":17,"map":"pl_upward","folder":"tf","game":"Team Fortress","app_id":440,"player_count":0,"max_players":24,"Bots":0,"server_type":"Dedicated","server_os":"Linux","password":true,"vac":true,"version":"7742253","steam_id":85568392924510192,"keywords":["nocrits","nodmgspread","payload","uncletopia"],"game_id":440,"stv_port":27036,"stv_name":"Uncletopia | London | 3 | All Maps | STV","players":null},{"server_id":321,"name":"Uncletopia | London | 4 | All Maps","name_short":"lon-4","host":"lon-1.uk.uncletopia.com","port":27045,"enabled":true,"region":"eu","cc":"gb","latitude":51.509865,"longitude":-0.118092,"reserved":0,"last_update":"0001-01-01T00:00:00Z","name_a2s":"Uncletopia | London | 4 | All Maps","protocol":17,"map":"koth_highpass","folder":"tf","game":"Team Fortress","app_id":440,"player_count":0,"max_players":24,"Bots":0,"server_type":"Dedicated","server_os":"Linux","password":true,"vac":true,"version":"7742253","steam_id":85568392924510193,"keywords":["cp","nocrits","nodmgspread","uncletopia"],"game_id":440,"stv_port":27046,"stv_name":"Uncletopia | London | 4 | All Maps | STV","players":null},{"server_id":21,"name":"Uncletopia | London | 5 | All Maps","name_short":"lon-5","host":"lon-1.uk.uncletopia.com","port":27055,"enabled":true,"region":"eu","cc":"gb","latitude":51.509865,"longitude":-0.118092,"reserved":0,"last_update":"0001-01-01T00:00:00Z","name_a2s":"Uncletopia | London | 5 | All Maps","protocol":17,"map":"koth_highpass","folder":"tf","game":"Team Fortress","app_id":440,"player_count":0,"max_players":24,"Bots":0,"server_type":"Dedicated","server_os":"Linux","password":true,"vac":true,"version":"7742253","steam_id":85568392924742829,"keywords":["cp","nocrits","nodmgspread","uncletopia"],"game_id":440,"stv_port":27056,"stv_name":"Uncletopia | London | 5 | All Maps | STV","players":null},{"server_id":22,"name":"Uncletopia | London | 6 | All Maps","name_short":"lon-6","host":"lon-1.uk.uncletopia.com","port":27065,"enabled":true,"region":"eu","cc":"gb","latitude":51.509865,"longitude":-0.118092,"reserved":0,"last_update":"0001-01-01T00:00:00Z","name_a2s":"Uncletopia | London | 6 | All Maps","protocol":17,"map":"pl_borneo","folder":"tf","game":"Team Fortress","app_id":440,"player_count":0,"max_players":24,"Bots":0,"server_type":"Dedicated","server_os":"Linux","password":true,"vac":true,"version":"7742253","steam_id":85568392924742830,"keywords":["nocrits","nodmgspread","payload","uncletopia"],"game_id":440,"stv_port":27066,"stv_name":"Uncletopia | London | 6 | All Maps | STV","players":null},{"server_id":40,"name":"Uncletopia | London | 7 | No Payload","name_short":"lon-7","host":"lon-1.uk.uncletopia.com","port":27075,"enabled":true,"region":"eu","cc":"gb","latitude":51.509865,"longitude":-0.118092,"reserved":0,"last_update":"0001-01-01T00:00:00Z","name_a2s":"Uncletopia | London | 7 | No Payload","protocol":17,"map":"koth_viaduct","folder":"tf","game":"Team Fortress","app_id":440,"player_count":0,"max_players":24,"Bots":0,"server_type":"Dedicated","server_os":"Linux","password":true,"vac":true,"version":"7742253","steam_id":85568392924964314,"keywords":["cp","nocrits","nodmgspread","uncletopia"],"game_id":440,"stv_port":27076,"stv_name":"Uncletopia | London | 7 | No Payload | STV","players":null},{"server_id":41,"name":"Uncletopia | London | 8 | Community","name_short":"lon-8","host":"lon-1.uk.uncletopia.com","port":27085,"enabled":true,"region":"eu","cc":"gb","latitude":51.509865,"longitude":-0.118092,"reserved":0,"last_update":"0001-01-01T00:00:00Z","name_a2s":"Uncletopia | London | 8 | Community","protocol":17,"map":"cp_altitude","folder":"tf","game":"Team Fortress","app_id":440,"player_count":0,"max_players":24,"Bots":0,"server_type":"Dedicated","server_os":"Linux","password":true,"vac":true,"version":"7742253","steam_id":85568392924964315,"keywords":["cp","nocrits","nodmgspread","uncletopia"],"game_id":440,"stv_port":27086,"stv_name":"Uncletopia | London | 8 | Community | STV","players":null},{"server_id":300,"name":"Uncletopia | Montr√©al | 1 | All Maps","name_short":"mtl-1","host":"mtl-1.ca.uncletopia.com","port":27015,"enabled":true,"region":"us-east","cc":"ca","latitude":45.50889,"longitude":-73.56167,"reserved":0,"last_update":"0001-01-01T00:00:00Z","name_a2s":"Uncletopia | Montr√©al | 1 | All Maps","protocol":17,"map":"koth_cascade","folder":"tf","game":"Team Fortress","app_id":440,"player_count":0,"max_players":24,"Bots":0,"server_type":"Dedicated","server_os":"Linux","password":true,"vac":true,"version":"7742253","steam_id":85568392924500087,"keywords":["cp","nocrits","nodmgspread","uncletopia"],"game_id":440,"stv_port":27016,"stv_name":"Uncletopia | Montr√©al | 1 | All Maps | STV","players":null},{"server_id":301,"name":"Uncletopia | Montr√©al | 2 | All Maps","name_short":"mtl-2","host":"mtl-1.ca.uncletopia.com","port":27025,"enabled":true,"region":"us-east","cc":"ca","latitude":45.50889,"longitude":-73.56167,"reserved":0,"last_update":"0001-01-01T00:00:00Z","name_a2s":"Uncletopia | Montr√©al | 2 | All Maps","protocol":17,"map":"koth_highpass","folder":"tf","game":"Team Fortress","app_id":440,"player_count":0,"max_players":24,"Bots":0,"server_type":"Dedicated","server_os":"Linux","password":true,"vac":true,"version":"7742253","steam_id":85568392924500088,"keywords":["cp","nocrits","nodmgspread","uncletopia"],"game_id":440,"stv_port":27026,"stv_name":"Uncletopia | Montr√©al | 2 | All Maps | STV","players":null},{"server_id":302,"name":"Uncletopia | Montr√©al | 3 | All Maps","name_short":"mtl-3","host":"mtl-1.ca.uncletopia.com","port":27035,"enabled":true,"region":"us-east","cc":"ca","latitude":45.50889,"longitude":-73.56167,"reserved":0,"last_update":"0001-01-01T00:00:00Z","name_a2s":"Uncletopia | Montr√©al | 3 | All Maps","protocol":17,"map":"koth_highpass","folder":"tf","game":"Team Fortress","app_id":440,"player_count":0,"max_players":24,"Bots":0,"server_type":"Dedicated","server_os":"Linux","password":true,"vac":true,"version":"7742253","steam_id":85568392924500089,"keywords":["cp","nocrits","nodmgspread","uncletopia"],"game_id":440,"stv_port":27036,"stv_name":"Uncletopia | Montr√©al | 3 | All Maps | STV","players":null},{"server_id":303,"name":"Uncletopia | Montr√©al | 4 | No Payload","name_short":"mtl-4","host":"mtl-1.ca.uncletopia.com","port":27045,"enabled":true,"region":"us-east","cc":"ca","latitude":45.50889,"longitude":-73.56167,"reserved":0,"last_update":"0001-01-01T00:00:00Z","name_a2s":"Uncletopia | Montr√©al | 4 | No Payload","protocol":17,"map":"cp_steel","folder":"tf","game":"Team Fortress","app_id":440,"player_count":0,"max_players":24,"Bots":0,"server_type":"Dedicated","server_os":"Linux","password":true,"vac":true,"version":"7742253","steam_id":85568392924500090,"keywords":["cp","nocrits","nodmgspread","uncletopia"],"game_id":440,"stv_port":27046,"stv_name":"Uncletopia | Montr√©al | 4 | No Payload | STV","players":null},{"server_id":13,"name":"Uncletopia | New York City | 1 | All Maps","name_short":"nyc-1","host":"nyc-1.us.uncletopia.com","port":27015,"enabled":true,"region":"us-east","cc":"us","latitude":40.73061,"longitude":-73.93524,"reserved":0,"last_update":"0001-01-01T00:00:00Z","name_a2s":"Uncletopia | New York City | 1 | All Maps","protocol":17,"map":"cp_process_final","folder":"tf","game":"Team Fortress","app_id":440,"player_count":0,"max_players":24,"Bots":0,"server_type":"Dedicated","server_os":"Linux","password":true,"vac":true,"version":"7742253","steam_id":85568392924469993,"keywords":["cp","nocrits","nodmgspread","uncletopia"],"game_id":440,"stv_port":27016,"stv_name":"Uncletopia | New York City | 1 | All Maps | STV","players":null},{"server_id":14,"name":"Uncletopia | New York City | 2 | All Maps","name_short":"nyc-2","host":"nyc-1.us.uncletopia.com","port":27025,"enabled":true,"region":"us-east","cc":"us","latitude":40.73061,"longitude":-73.93524,"reserved":0,"last_update":"0001-01-01T00:00:00Z","name_a2s":"Uncletopia | New York City | 2 | All Maps","protocol":17,"map":"pl_snowycoast","folder":"tf","game":"Team Fortress","app_id":440,"player_count":18,"max_players":24,"Bots":0,"server_type":"Dedicated","server_os":"Linux","password":true,"vac":true,"version":"7742253","steam_id":85568392924469994,"keywords":["nocrits","nodmgspread","payload","uncletopia"],"game_id":440,"stv_port":27026,"stv_name":"Uncletopia | New York City | 2 | All Maps | STV","players":[{"user_id":668,"name":"fabilu","steam_id":76561199146319480,"connected_time":1242000000000,"state":"active","ping":119},{"user_id":624,"name":"Yahoo Jones","steam_id":76561199467426549,"connected_time":3826000000000,"state":"active","ping":60},{"user_id":677,"name":"Revco","steam_id":76561198175894878,"connected_time":567000000000,"state":"active","ping":88},{"user_id":687,"name":"kezia","steam_id":76561198059815894,"connected_time":79000000000,"state":"active","ping":60},{"user_id":688,"name":"Magitrex","steam_id":76561199088811754,"connected_time":60000000000,"state":"active","ping":90},{"user_id":673,"name":"Withur From My Singing Monsters","steam_id":76561198272471440,"connected_time":843000000000,"state":"active","ping":89},{"user_id":681,"name":"Goroungo","steam_id":76561198962808454,"connected_time":408000000000,"state":"active","ping":123},{"user_id":674,"name":"ScoutBox","steam_id":76561198111539895,"connected_time":677000000000,"state":"active","ping":113},{"user_id":642,"name":"aqua","steam_id":76561199407709552,"connected_time":2497000000000,"state":"active","ping":66},{"user_id":684,"name":"kitrod","steam_id":76561198814135622,"connected_time":318000000000,"state":"active","ping":90},{"user_id":587,"name":"HorseCooker","steam_id":76561198076588370,"connected_time":7586000000000,"state":"active","ping":58},{"user_id":678,"name":"alber","steam_id":76561199021737235,"connected_time":562000000000,"state":"active","ping":59},{"user_id":685,"name":"Zekinler","steam_id":76561198868861099,"connected_time":275000000000,"state":"active","ping":65},{"user_id":666,"name":"Ace Attorney","steam_id":76561198133011705,"connected_time":1423000000000,"state":"active","ping":44},{"user_id":686,"name":"Rusted Cake","steam_id":76561198209755931,"connected_time":155000000000,"state":"active","ping":107},{"user_id":689,"name":"Ping","steam_id":76561199206514106,"connected_time":26000000000,"state":"active","ping":72},{"user_id":679,"name":"ash^","steam_id":76561198388233907,"connected_time":555000000000,"state":"active","ping":89},{"user_id":664,"name":"Dang","steam_id":76561198288874083,"connected_time":1529000000000,"state":"active","ping":106}]},{"server_id":15,"name":"Uncletopia | New York City | 3 | Stopwatch Beta","name_short":"nyc-3","host":"nyc-1.us.uncletopia.com","port":27035,"enabled":true,"region":"us-east","cc":"us","latitude":40.73061,"longitude":-73.93524,"reserved":0,"last_update":"0001-01-01T00:00:00Z","name_a2s":"Uncletopia | New York City | 3 | Stopwatch Beta","protocol":17,"map":"workshop/koth_bagel_rc5.ugc2514036946","folder":"tf","game":"Team Fortress","app_id":440,"player_count":0,"max_players":24,"Bots":0,"server_type":"Dedicated","server_os":"Linux","password":true,"vac":true,"version":"7742253","steam_id":85568392924742820,"keywords":["cp","nocrits","nodmgspread","uncletopia"],"game_id":440,"stv_port":27036,"stv_name":"Uncletopia | New York City | 3 | Stopwatch Beta | STV","players":null},{"server_id":16,"name":"Uncletopia | New York City | 4 | Community","name_short":"nyc-4","host":"nyc-1.us.uncletopia.com","port":27045,"enabled":true,"region":"us-east","cc":"us","latitude":40.73061,"longitude":-73.93524,"reserved":0,"last_update":"0001-01-01T00:00:00Z","name_a2s":"Uncletopia | New York City | 4 | Community","protocol":17,"map":"workshop/koth_bagel_rc5.ugc2514036946","folder":"tf","game":"Team Fortress","app_id":440,"player_count":0,"max_players":24,"Bots":0,"server_type":"Dedicated","server_os":"Linux","password":true,"vac":true,"version":"7742253","steam_id":85568392924742821,"keywords":["cp","nocrits","nodmgspread","uncletopia"],"game_id":440,"stv_port":27046,"stv_name":"Uncletopia | New York City | 4 | Community | STV","players":null},{"server_id":142,"name":"Uncletopia | S√£o Paulo | 1 | All Maps","name_short":"sao-1","host":"sao-1.br.uncletopia.com","port":27015,"enabled":true,"region":"sa","cc":"br","latitude":-23.533773,"longitude":-46.62529,"reserved":0,"last_update":"0001-01-01T00:00:00Z","name_a2s":"Uncletopia | S√£o Paulo | 1 | All Maps","protocol":17,"map":"koth_lakeside_final","folder":"tf","game":"Team Fortress","app_id":440,"player_count":0,"max_players":24,"Bots":0,"server_type":"Dedicated","server_os":"Linux","password":true,"vac":true,"version":"7742253","steam_id":85568392924469996,"keywords":["cp","nocrits","nodmgspread","uncletopia"],"game_id":440,"stv_port":27016,"stv_name":"Uncletopia | S√£o Paulo | 1 | All Maps | STV","players":null},{"server_id":143,"name":"Uncletopia | S√£o Paulo | 2 | All Maps","name_short":"sao-2","host":"sao-2.br.uncletopia.com","port":27015,"enabled":true,"region":"sa","cc":"br","latitude":-23.533773,"longitude":-46.62529,"reserved":0,"last_update":"0001-01-01T00:00:00Z","name_a2s":"Uncletopia | S√£o Paulo | 2 | All Maps","protocol":17,"map":"koth_viaduct","folder":"tf","game":"Team Fortress","app_id":440,"player_count":0,"max_players":24,"Bots":0,"server_type":"Dedicated","server_os":"Linux","password":true,"vac":true,"version":"7742253","steam_id":85568392924485349,"keywords":["cp","nocrits","nodmgspread","uncletopia"],"game_id":440,"stv_port":27016,"stv_name":"Uncletopia | S√£o Paulo | 2 | All Maps | STV","players":null},{"server_id":7,"name":"Uncletopia | Seattle | 1 | All Maps","name_short":"sea-1","host":"sea-1.us.uncletopia.com","port":27015,"enabled":true,"region":"us-west","cc":"us","latitude":47.608013,"longitude":-122.33517,"reserved":0,"last_update":"0001-01-01T00:00:00Z","name_a2s":"Uncletopia | Seattle | 1 | All Maps","protocol":17,"map":"cp_process_final","folder":"tf","game":"Team Fortress","app_id":440,"player_count":12,"max_players":24,"Bots":0,"server_type":"Dedicated","server_os":"Linux","password":true,"vac":true,"version":"7742253","steam_id":85568392924469997,"keywords":["cp","nocrits","nodmgspread","uncletopia"],"game_id":440,"stv_port":27016,"stv_name":"Uncletopia | Seattle | 1 | All Maps | STV","players":[{"user_id":823,"name":"the bush pyro","steam_id":76561198391442709,"connected_time":162000000000,"state":"active","ping":120},{"user_id":824,"name":"lunch","steam_id":76561198189100461,"connected_time":152000000000,"state":"active","ping":48},{"user_id":825,"name":"mommy","steam_id":76561198129195009,"connected_time":75000000000,"state":"active","ping":60},{"user_id":820,"name":"Sly Marbo","steam_id":76561198135271741,"connected_time":203000000000,"state":"active","ping":54},{"user_id":821,"name":"TurboRaspberry","steam_id":76561199215360629,"connected_time":197000000000,"state":"active","ping":43},{"user_id":818,"name":"Kay Z1014","steam_id":76561198374228296,"connected_time":210000000000,"state":"active","ping":58},{"user_id":733,"name":"lavender","steam_id":76561199069518286,"connected_time":9640000000000,"state":"active","ping":72},{"user_id":816,"name":"azureglxy","steam_id":76561198861388315,"connected_time":835000000000,"state":"active","ping":52},{"user_id":806,"name":"Shaquille Oatmeal","steam_id":76561198283213819,"connected_time":2074000000000,"state":"active","ping":74},{"user_id":803,"name":"MEDICINAL CRACK ENJOYER","steam_id":76561198113427343,"connected_time":2097000000000,"state":"active","ping":80},{"user_id":814,"name":"doopsies","steam_id":76561198083000867,"connected_time":1095000000000,"state":"active","ping":48},{"user_id":805,"name":"Ruthless Lucas","steam_id":76561199118070947,"connected_time":2081000000000,"state":"active","ping":65}]},{"server_id":119,"name":"Uncletopia | Seattle | 2 | All Maps","name_short":"sea-2","host":"sea-1.us.uncletopia.com","port":27025,"enabled":true,"region":"us-west","cc":"us","latitude":47.608013,"longitude":-122.33517,"reserved":0,"last_update":"0001-01-01T00:00:00Z","name_a2s":"Uncletopia | Seattle | 2 | All Maps","protocol":17,"map":"pl_frontier_final","folder":"tf","game":"Team Fortress","app_id":440,"player_count":24,"max_players":24,"Bots":0,"server_type":"Dedicated","server_os":"Linux","password":true,"vac":true,"version":"7742253","steam_id":85568392924469998,"keywords":["nocrits","nodmgspread","payload","uncletopia"],"game_id":440,"stv_port":27026,"stv_name":"Uncletopia | Seattle | 2 | All Maps | STV","players":[{"user_id":412,"name":"vanillain","steam_id":76561198058617608,"connected_time":4881000000000,"state":"active","ping":91},{"user_id":458,"name":"Killroy NQP ‚ù§","steam_id":76561198006983771,"connected_time":1363000000000,"state":"active","ping":125},{"user_id":428,"name":"hotdog every meal","steam_id":76561198392514273,"connected_time":3992000000000,"state":"active","ping":60},{"user_id":456,"name":"CheeseCake488","steam_id":76561199407617942,"connected_time":1417000000000,"state":"active","ping":113},{"user_id":411,"name":"sniffy","steam_id":76561198184933255,"connected_time":5084000000000,"state":"active","ping":83},{"user_id":469,"name":"j.black","steam_id":76561197974493959,"connected_time":289000000000,"state":"active","ping":134},{"user_id":463,"name":"goldhed","steam_id":76561198051751133,"connected_time":938000000000,"state":"active","ping":61},{"user_id":432,"name":"MinusSoup918","steam_id":76561198060902773,"connected_time":3968000000000,"state":"active","ping":91},{"user_id":446,"name":"MyMonkeyBaby","steam_id":76561198046896670,"connected_time":2797000000000,"state":"active","ping":63},{"user_id":468,"name":"pooping.peter.2009","steam_id":76561198171368867,"connected_time":424000000000,"state":"active","ping":76},{"user_id":455,"name":"Sir Galahad","steam_id":76561198195999859,"connected_time":1476000000000,"state":"active","ping":52},{"user_id":453,"name":"mub","steam_id":76561197961943948,"connected_time":2042000000000,"state":"active","ping":49},{"user_id":430,"name":"......","steam_id":76561198067612741,"connected_time":3973000000000,"state":"active","ping":46},{"user_id":413,"name":"cody","steam_id":76561198025826213,"connected_time":4879000000000,"state":"active","ping":116},{"user_id":459,"name":"vartion","steam_id":76561198272996824,"connected_time":1351000000000,"state":"active","ping":54},{"user_id":449,"name":"Naffers","steam_id":76561198195957335,"connected_time":2407000000000,"state":"active","ping":45},{"user_id":461,"name":"seats","steam_id":76561197998756039,"connected_time":1172000000000,"state":"active","ping":79},{"user_id":450,"name":"Bubbamanme","steam_id":76561198119778504,"connected_time":2406000000000,"state":"active","ping":48},{"user_id":462,"name":"NeoN","steam_id":76561198117608366,"connected_time":1170000000000,"state":"active","ping":38},{"user_id":417,"name":"itsudatte","steam_id":76561198048992536,"connected_time":4814000000000,"state":"active","ping":118},{"user_id":418,"name":"cyborgor","steam_id":76561198040782513,"connected_time":4788000000000,"state":"active","ping":62},{"user_id":464,"name":"self sufficient kitten","steam_id":76561197960592612,"connected_time":666000000000,"state":"active","ping":57},{"user_id":470,"name":"SvicidalBug","steam_id":76561198221390504,"connected_time":212000000000,"state":"active","ping":76},{"user_id":467,"name":"River Rat","steam_id":76561198116383976,"connected_time":539000000000,"state":"active","ping":68}]},{"server_id":406,"name":"Uncletopia | Seattle | 3 | Stopwatch Beta","name_short":"sea-3","host":"sea-1.us.uncletopia.com","port":27035,"enabled":true,"region":"us-west","cc":"us","latitude":47.608013,"longitude":-122.33517,"reserved":0,"last_update":"0001-01-01T00:00:00Z","name_a2s":"Uncletopia | Seattle | 3 | Stopwatch Beta","protocol":17,"map":"pl_swiftwater_final1","folder":"tf","game":"Team Fortress","app_id":440,"player_count":0,"max_players":24,"Bots":0,"server_type":"Dedicated","server_os":"Linux","password":true,"vac":true,"version":"7742253","steam_id":85568392924515217,"keywords":["nocrits","nodmgspread","payload","uncletopia"],"game_id":440,"stv_port":27036,"stv_name":"Uncletopia | Seattle | 3 | Stopwatch Beta | STV","players":null},{"server_id":17,"name":"Uncletopia | San Francisco | 1 | All Maps","name_short":"sfo-1","host":"sfo-1.us.uncletopia.com","port":27015,"enabled":true,"region":"us-west","cc":"us","latitude":37.77397,"longitude":-122.4313,"reserved":0,"last_update":"0001-01-01T00:00:00Z","name_a2s":"Uncletopia | San Francisco | 1 | All Maps","protocol":17,"map":"pl_badwater","folder":"tf","game":"Team Fortress","app_id":440,"player_count":0,"max_players":24,"Bots":0,"server_type":"Dedicated","server_os":"Linux","password":true,"vac":true,"version":"7742253","steam_id":85568392924469999,"keywords":["nocrits","nodmgspread","payload","uncletopia"],"game_id":440,"stv_port":27016,"stv_name":"Uncletopia | San Francisco | 1 | All Maps | STV","players":null},{"server_id":18,"name":"Uncletopia | San Francisco | 2 | All Maps","name_short":"sfo-2","host":"sfo-1.us.uncletopia.com","port":27025,"enabled":true,"region":"us-west","cc":"us","latitude":37.77397,"longitude":-122.4313,"reserved":0,"last_update":"0001-01-01T00:00:00Z","name_a2s":"Uncletopia | San Francisco | 2 | All Maps","protocol":17,"map":"pl_borneo","folder":"tf","game":"Team Fortress","app_id":440,"player_count":24,"max_players":24,"Bots":0,"server_type":"Dedicated","server_os":"Linux","password":true,"vac":true,"version":"7742253","steam_id":85568392924470000,"keywords":["nocrits","nodmgspread","payload","uncletopia"],"game_id":440,"stv_port":27026,"stv_name":"Uncletopia | San Francisco | 2 | All Maps | STV","players":[{"user_id":261,"name":"JJJJJ","steam_id":76561197980633611,"connected_time":5175000000000,"state":"active","ping":90},{"user_id":280,"name":"KaaK","steam_id":76561198152882096,"connected_time":4711000000000,"state":"active","ping":74},{"user_id":314,"name":"Jack from Jack in The Box","steam_id":76561199083594971,"connected_time":1232000000000,"state":"active","ping":61},{"user_id":305,"name":"bapeyape","steam_id":76561198121198363,"connected_time":2311000000000,"state":"active","ping":112},{"user_id":240,"name":"ChuChu","steam_id":76561199443647976,"connected_time":6031000000000,"state":"active","ping":110},{"user_id":318,"name":"oil","steam_id":76561198099980149,"connected_time":492000000000,"state":"active","ping":57},{"user_id":263,"name":"Ediot","steam_id":76561199349494096,"connected_time":5151000000000,"state":"active","ping":134},{"user_id":316,"name":"‚õßAlkahestry","steam_id":76561198109641497,"connected_time":543000000000,"state":"active","ping":52},{"user_id":311,"name":"Plaid","steam_id":76561198059154289,"connected_time":1895000000000,"state":"active","ping":80},{"user_id":315,"name":"Swag5","steam_id":76561198065311356,"connected_time":562000000000,"state":"active","ping":50},{"user_id":296,"name":"N0_J0K3","steam_id":76561198287102197,"connected_time":3543000000000,"state":"active","ping":86},{"user_id":313,"name":"im low on health (hurt)","steam_id":76561198035698704,"connected_time":1358000000000,"state":"active","ping":53},{"user_id":307,"name":"Billy Williams","steam_id":76561198109509578,"connected_time":2262000000000,"state":"active","ping":71},{"user_id":321,"name":"Swag6","steam_id":76561198064110837,"connected_time":305000000000,"state":"active","ping":43},{"user_id":274,"name":"The Teufort Misogynist","steam_id":76561198080775161,"connected_time":4900000000000,"state":"active","ping":64},{"user_id":265,"name":"üÖúüÖîüÖîüÖöüÖ¢üÖ£üÖî\ufffd\ufffd\ufffd","steam_id":76561197999748343,"connected_time":5118000000000,"state":"active","ping":84},{"user_id":303,"name":"fa√ßade","steam_id":76561199157009256,"connected_time":2496000000000,"state":"active","ping":45},{"user_id":312,"name":"awesomegirl9","steam_id":76561199245670274,"connected_time":1496000000000,"state":"active","ping":60},{"user_id":308,"name":"HeartBreak","steam_id":76561198014550428,"connected_time":2042000000000,"state":"active","ping":75},{"user_id":282,"name":"Taste Of Pancakes","steam_id":76561198158784641,"connected_time":4404000000000,"state":"active","ping":73},{"user_id":269,"name":"azusa","steam_id":76561198049483469,"connected_time":5085000000000,"state":"active","ping":86},{"user_id":317,"name":"drrockso20[MicS]","steam_id":76561198001003987,"connected_time":543000000000,"state":"active","ping":60},{"user_id":309,"name":"'sian","steam_id":76561198005133606,"connected_time":2032000000000,"state":"active","ping":80},{"user_id":320,"name":"thug richard","steam_id":76561198822222646,"connected_time":486000000000,"state":"active","ping":66}]},{"server_id":19,"name":"Uncletopia | San Francisco | 3 | Stopwatch Beta","name_short":"sfo-3","host":"sfo-1.us.uncletopia.com","port":27035,"enabled":true,"region":"us-west","cc":"us","latitude":37.77397,"longitude":-122.4313,"reserved":0,"last_update":"0001-01-01T00:00:00Z","name_a2s":"Uncletopia | San Francisco | 3 | Stopwatch Beta","protocol":17,"map":"workshop/koth_ashville_final.ugc2130459942","folder":"tf","game":"Team Fortress","app_id":440,"player_count":0,"max_players":24,"Bots":0,"server_type":"Dedicated","server_os":"Linux","password":true,"vac":true,"version":"7742253","steam_id":85568392924742824,"keywords":["cp","nocrits","nodmgspread","uncletopia"],"game_id":440,"stv_port":27036,"stv_name":"Uncletopia | San Francisco | 3 | Stopwatch Beta | STV","players":null},{"server_id":20,"name":"Uncletopia | San Francisco | 4 | Community","name_short":"sfo-4","host":"sfo-1.us.uncletopia.com","port":27045,"enabled":true,"region":"us-west","cc":"us","latitude":37.77397,"longitude":-122.4313,"reserved":0,"last_update":"0001-01-01T00:00:00Z","name_a2s":"Uncletopia | San Francisco | 4 | Community","protocol":17,"map":"workshop/pl_eruption_b9a.ugc2807898013","folder":"tf","game":"Team Fortress","app_id":440,"player_count":0,"max_players":24,"Bots":0,"server_type":"Dedicated","server_os":"Linux","password":true,"vac":true,"version":"7742253","steam_id":85568392924742826,"keywords":["nocrits","nodmgspread","payload","uncletopia"],"game_id":440,"stv_port":27046,"stv_name":"Uncletopia | San Francisco | 4 | Community | STV","players":null},{"server_id":141,"name":"Uncletopia | Sydney | 1 | All Maps","name_short":"syd-1","host":"syd-1.au.uncletopia.com","port":27015,"enabled":true,"region":"au","cc":"au","latitude":-33.865143,"longitude":151.2099,"reserved":0,"last_update":"0001-01-01T00:00:00Z","name_a2s":"Uncletopia | Sydney | 1 | All Maps","protocol":17,"map":"koth_cascade","folder":"tf","game":"Team Fortress","app_id":440,"player_count":24,"max_players":24,"Bots":0,"server_type":"Dedicated","server_os":"Linux","password":true,"vac":true,"version":"7742253","steam_id":85568392924470001,"keywords":["cp","nocrits","nodmgspread","uncletopia"],"game_id":440,"stv_port":27016,"stv_name":"Uncletopia | Sydney | 1 | All Maps | STV","players":[{"user_id":270,"name":"RA RA","steam_id":76561198361139900,"connected_time":912000000000,"state":"active","ping":60},{"user_id":280,"name":"Matt","steam_id":76561198006791420,"connected_time":91000000000,"state":"active","ping":88},{"user_id":261,"name":"beth.cubitt","steam_id":76561198454733447,"connected_time":1290000000000,"state":"active","ping":80},{"user_id":233,"name":"Saint","steam_id":76561198241813158,"connected_time":3189000000000,"state":"active","ping":52},{"user_id":234,"name":"Del Davis","steam_id":76561199365669004,"connected_time":3174000000000,"state":"active","ping":59},{"user_id":185,"name":"Lv 9 Reborn Nubblet","steam_id":76561198069483103,"connected_time":6587000000000,"state":"active","ping":89},{"user_id":235,"name":"Razorfibs","steam_id":76561198041957860,"connected_time":3135000000000,"state":"active","ping":60},{"user_id":245,"name":"(1)Del Davis","steam_id":76561199009189725,"connected_time":2323000000000,"state":"active","ping":62},{"user_id":269,"name":"Cheese","steam_id":76561199216534486,"connected_time":972000000000,"state":"active","ping":83},{"user_id":281,"name":"sadgasm","steam_id":76561198008230563,"connected_time":33000000000,"state":"active","ping":47},{"user_id":271,"name":"Bitcoin Gazillionare","steam_id":76561198411811796,"connected_time":877000000000,"state":"active","ping":75},{"user_id":272,"name":"Pickled Cow","steam_id":76561198292517991,"connected_time":872000000000,"state":"active","ping":45},{"user_id":267,"name":"CheeseFlag126","steam_id":76561199262769917,"connected_time":1073000000000,"state":"active","ping":49},{"user_id":276,"name":"Fuzz","steam_id":76561198063077180,"connected_time":721000000000,"state":"active","ping":56},{"user_id":251,"name":"FyreFeat","steam_id":76561198068428930,"connected_time":2059000000000,"state":"active","ping":46},{"user_id":252,"name":"Kevin","steam_id":76561198046089618,"connected_time":2053000000000,"state":"active","ping":47},{"user_id":224,"name":"MrHam -BvM-","steam_id":76561198250818060,"connected_time":4051000000000,"state":"active","ping":65},{"user_id":282,"name":"Manbake","steam_id":76561198043455984,"connected_time":0,"state":"spawning","ping":10},{"user_id":274,"name":"EpicGuy4227","steam_id":76561198094132328,"connected_time":841000000000,"state":"active","ping":53},{"user_id":277,"name":"Easel (any/all)","steam_id":76561198049213583,"connected_time":698000000000,"state":"active","ping":62},{"user_id":278,"name":"triip","steam_id":76561198009092833,"connected_time":195000000000,"state":"active","ping":60},{"user_id":263,"name":"Dr Barry Mundy PhD","steam_id":76561198034512686,"connected_time":1208000000000,"state":"active","ping":35},{"user_id":264,"name":"Garry's Mod Rod","steam_id":76561197977993958,"connected_time":1199000000000,"state":"active","ping":50},{"user_id":218,"name":"perturb","steam_id":76561198085124297,"connected_time":5209000000000,"state":"active","ping":49}]},{"server_id":123,"name":"Uncletopia | Sydney | 2 | All Maps","name_short":"syd-2","host":"syd-1.au.uncletopia.com","port":27025,"enabled":true,"region":"au","cc":"au","latitude":-33.865143,"longitude":151.2099,"reserved":0,"last_update":"0001-01-01T00:00:00Z","name_a2s":"Uncletopia | Sydney | 2 | All Maps","protocol":17,"map":"pl_borneo","folder":"tf","game":"Team Fortress","app_id":440,"player_count":24,"max_players":24,"Bots":0,"server_type":"Dedicated","server_os":"Linux","password":true,"vac":true,"version":"7742253","steam_id":85568392924470002,"keywords":["nocrits","nodmgspread","payload","uncletopia"],"game_id":440,"stv_port":27026,"stv_name":"Uncletopia | Sydney | 2 | All Maps | STV","players":[{"user_id":495,"name":"great question! :)","steam_id":76561198132937542,"connected_time":4437000000000,"state":"active","ping":61},{"user_id":562,"name":"Shade","steam_id":76561198072275581,"connected_time":97000000000,"state":"active","ping":50},{"user_id":564,"name":"gun spy TF2","steam_id":76561199446773766,"connected_time":31000000000,"state":"active","ping":81},{"user_id":554,"name":"Kiwoo","steam_id":76561198097429186,"connected_time":417000000000,"state":"active","ping":91},{"user_id":526,"name":"Pompadouraus","steam_id":76561198327530525,"connected_time":2545000000000,"state":"active","ping":74},{"user_id":563,"name":"J_dub","steam_id":76561198079513685,"connected_time":70000000000,"state":"active","ping":63},{"user_id":545,"name":"internetkittenz13","steam_id":76561198881042979,"connected_time":1103000000000,"state":"active","ping":74},{"user_id":536,"name":"vrooom","steam_id":76561198075376393,"connected_time":1605000000000,"state":"active","ping":54},{"user_id":558,"name":"Zeal","steam_id":76561198060829393,"connected_time":161000000000,"state":"active","ping":66},{"user_id":548,"name":"Sett irl","steam_id":76561198046239819,"connected_time":711000000000,"state":"active","ping":87},{"user_id":543,"name":"DuckyDynamite13","steam_id":76561199409179311,"connected_time":1280000000000,"state":"active","ping":75},{"user_id":541,"name":"poisy","steam_id":76561198141708685,"connected_time":1342000000000,"state":"active","ping":49},{"user_id":549,"name":"WhisperQuiet","steam_id":76561198083914464,"connected_time":690000000000,"state":"active","ping":128},{"user_id":555,"name":"Sherpa","steam_id":76561198018913829,"connected_time":326000000000,"state":"active","ping":52},{"user_id":559,"name":"lol. lmao, even.","steam_id":76561198025225448,"connected_time":157000000000,"state":"active","ping":88},{"user_id":560,"name":"mrphy","steam_id":76561198251574728,"connected_time":115000000000,"state":"active","ping":45},{"user_id":561,"name":"Rhettoric","steam_id":76561198989342441,"connected_time":102000000000,"state":"active","ping":54},{"user_id":552,"name":"HAND BANANA","steam_id":76561197960279341,"connected_time":438000000000,"state":"active","ping":60},{"user_id":546,"name":"squrrel","steam_id":76561198083429611,"connected_time":1003000000000,"state":"active","ping":74},{"user_id":514,"name":"Korvid66","steam_id":76561198321471147,"connected_time":3399000000000,"state":"active","ping":88},{"user_id":544,"name":"xX_sexhaver_Xx(real)","steam_id":76561199205171109,"connected_time":1267000000000,"state":"active","ping":65},{"user_id":547,"name":"hadouken","steam_id":76561198019740135,"connected_time":946000000000,"state":"active","ping":70},{"user_id":506,"name":"‡∏∏bifcheg","steam_id":76561198319806610,"connected_time":3855000000000,"state":"active","ping":65},{"user_id":565,"name":"1bean234","steam_id":76561198054698346,"connected_time":19000000000,"state":"spawning","ping":73}]},{"server_id":395,"name":"Uncletopia | Sydney | 3 | All Maps","name_short":"syd-3","host":"syd-1.au.uncletopia.com","port":27035,"enabled":true,"region":"au","cc":"au","latitude":-33.865143,"longitude":151.2099,"reserved":0,"last_update":"0001-01-01T00:00:00Z","name_a2s":"Uncletopia | Sydney | 3 | All Maps","protocol":17,"map":"koth_lakeside_final","folder":"tf","game":"Team Fortress","app_id":440,"player_count":0,"max_players":24,"Bots":0,"server_type":"Dedicated","server_os":"Linux","password":true,"vac":true,"version":"7742253","steam_id":85568392925194467,"keywords":["cp","nocrits","nodmgspread","uncletopia"],"game_id":440,"stv_port":27036,"stv_name":"Uncletopia | Sydney | 3 | All Maps | STV","players":null},{"server_id":396,"name":"Uncletopia | Sydney | 4 | All Maps","name_short":"syd-4","host":"syd-1.au.uncletopia.com","port":27045,"enabled":true,"region":"au","cc":"au","latitude":-33.865143,"longitude":151.2099,"reserved":0,"last_update":"0001-01-01T00:00:00Z","name_a2s":"Uncletopia | Sydney | 4 | All Maps","protocol":17,"map":"koth_lakeside_final","folder":"tf","game":"Team Fortress","app_id":440,"player_count":0,"max_players":24,"Bots":0,"server_type":"Dedicated","server_os":"Linux","password":true,"vac":true,"version":"7742253","steam_id":85568392925397958,"keywords":["cp","nocrits","nodmgspread","uncletopia"],"game_id":440,"stv_port":27046,"stv_name":"Uncletopia | Sydney | 4 | All Maps | STV","players":null},{"server_id":58,"name":"Uncletopia | Sydney | 5 | Stopwatch Beta","name_short":"syd-5","host":"syd-1.au.uncletopia.com","port":27055,"enabled":true,"region":"au","cc":"au","latitude":-33.865143,"longitude":151.2099,"reserved":0,"last_update":"0001-01-01T00:00:00Z","name_a2s":"Uncletopia | Sydney | 5 | Stopwatch Beta","protocol":17,"map":"cp_sunshine","folder":"tf","game":"Team Fortress","app_id":440,"player_count":0,"max_players":24,"Bots":0,"server_type":"Dedicated","server_os":"Linux","password":true,"vac":true,"version":"7742253","steam_id":85568392925397959,"keywords":["cp","nocrits","nodmgspread","uncletopia"],"game_id":440,"stv_port":27056,"stv_name":"Uncletopia | Sydney | 5 | Stopwatch Beta | STV","players":null},{"server_id":59,"name":"Uncletopia | Sydney | 6 | Community","name_short":"syd-6","host":"syd-1.au.uncletopia.com","port":27065,"enabled":true,"region":"au","cc":"au","latitude":-33.865143,"longitude":151.2099,"reserved":0,"last_update":"0001-01-01T00:00:00Z","name_a2s":"Uncletopia | Sydney | 6 | Community","protocol":17,"map":"workshop/koth_ramjam_rc1.ugc459778887","folder":"tf","game":"Team Fortress","app_id":440,"player_count":0,"max_players":24,"Bots":0,"server_type":"Dedicated","server_os":"Linux","password":true,"vac":true,"version":"7742253","steam_id":85568392925397960,"keywords":["cp","nocrits","nodmgspread","uncletopia"],"game_id":440,"stv_port":27066,"stv_name":"Uncletopia | Sydney | 6 | Community | STV","players":null},{"server_id":49,"name":"Uncletopia | Warsaw | 1 | All Maps","name_short":"waw-1","host":"waw-1.pl.uncletopia.com","port":27015,"enabled":true,"region":"eu","cc":"pl","latitude":52.2297,"longitude":21.017532,"reserved":0,"last_update":"0001-01-01T00:00:00Z","name_a2s":"","protocol":0,"map":"","folder":"","game":"","app_id":0,"player_count":0,"max_players":0,"Bots":0,"server_type":"","server_os":"","password":false,"vac":false,"version":"","steam_id":0,"keywords":null,"game_id":0,"stv_port":0,"stv_name":"","players":null},{"server_id":50,"name":"Uncletopia | Warsaw | 2 | All Maps","name_short":"waw-2","host":"waw-1.pl.uncletopia.com","port":27025,"enabled":true,"region":"eu","cc":"pl","latitude":52.2297,"longitude":21.017532,"reserved":0,"last_update":"0001-01-01T00:00:00Z","name_a2s":"Uncletopia | Warsaw | 2 | All Maps","protocol":17,"map":"pl_upward","folder":"tf","game":"Team Fortress","app_id":440,"player_count":0,"max_players":24,"Bots":0,"server_type":"Dedicated","server_os":"Linux","password":true,"vac":true,"version":"7742253","steam_id":85568392925397851,"keywords":["nocrits","nodmgspread","payload","uncletopia"],"game_id":440,"stv_port":27026,"stv_name":"Uncletopia | Warsaw | 2 | All Maps | STV","players":null},{"server_id":51,"name":"Uncletopia | Warsaw | 3 | All Maps","name_short":"waw-3","host":"waw-1.pl.uncletopia.com","port":27035,"enabled":true,"region":"eu","cc":"pl","latitude":52.2297,"longitude":21.017532,"reserved":0,"last_update":"0001-01-01T00:00:00Z","name_a2s":"Uncletopia | Warsaw | 3 | All Maps","protocol":17,"map":"koth_lakeside_final","folder":"tf","game":"Team Fortress","app_id":440,"player_count":0,"max_players":24,"Bots":0,"server_type":"Dedicated","server_os":"Linux","password":true,"vac":true,"version":"7742253","steam_id":85568392925397852,"keywords":["cp","nocrits","nodmgspread","uncletopia"],"game_id":440,"stv_port":27036,"stv_name":"Uncletopia | Warsaw | 3 | All Maps | STV","players":null},{"server_id":52,"name":"Uncletopia | Warsaw | 4 | All Maps","name_short":"waw-4","host":"waw-1.pl.uncletopia.com","port":27045,"enabled":true,"region":"eu","cc":"pl","latitude":52.2297,"longitude":21.017532,"reserved":0,"last_update":"0001-01-01T00:00:00Z","name_a2s":"Uncletopia | Warsaw | 4 | All Maps","protocol":17,"map":"pl_upward","folder":"tf","game":"Team Fortress","app_id":440,"player_count":0,"max_players":24,"Bots":0,"server_type":"Dedicated","server_os":"Linux","password":true,"vac":true,"version":"7742253","steam_id":85568392925397853,"keywords":["nocrits","nodmgspread","payload","uncletopia"],"game_id":440,"stv_port":27046,"stv_name":"Uncletopia | Warsaw | 4 | All Maps | STV","players":null},{"server_id":53,"name":"Uncletopia | Warsaw | 5 | Stopwatch Beta","name_short":"waw-5","host":"waw-1.pl.uncletopia.com","port":27055,"enabled":true,"region":"eu","cc":"pl","latitude":52.2297,"longitude":21.017532,"reserved":0,"last_update":"0001-01-01T00:00:00Z","name_a2s":"Uncletopia | Warsaw | 5 | Stopwatch Beta","protocol":17,"map":"pl_swiftwater_final1","folder":"tf","game":"Team Fortress","app_id":440,"player_count":0,"max_players":24,"Bots":0,"server_type":"Dedicated","server_os":"Linux","password":true,"vac":true,"version":"7742253","steam_id":85568392925397854,"keywords":["nocrits","nodmgspread","payload","uncletopia"],"game_id":440,"stv_port":27056,"stv_name":"Uncletopia | Warsaw | 5 | Stopwatch Beta | STV","players":null},{"server_id":54,"name":"Uncletopia | Warsaw | 6 | Community","name_short":"waw-6","host":"waw-1.pl.uncletopia.com","port":27065,"enabled":true,"region":"eu","cc":"pl","latitude":52.2297,"longitude":21.017532,"reserved":0,"last_update":"0001-01-01T00:00:00Z","name_a2s":"Uncletopia | Warsaw | 6 | Community","protocol":17,"map":"koth_highpass","folder":"tf","game":"Team Fortress","app_id":440,"player_count":0,"max_players":24,"Bots":0,"server_type":"Dedicated","server_os":"Linux","password":true,"vac":true,"version":"7742253","steam_id":85568392925397856,"keywords":["cp","nocrits","nodmgspread","uncletopia"],"game_id":440,"stv_port":27066,"stv_name":"Uncletopia | Warsaw | 6 | Community | STV","players":null}]}