{"status":true,"message":"","result":[{"server_id":9,"name":"Uncletopia | Atlanta | 1 | All Maps","name_short":"atl-1","host":"atl-1.us.uncletopia.com","port":27015,"enabled":true,"region":"us-east","cc":"us","latitude":33.753746,"longitude":-84.38633,"reserved":0,"last_update":"0001-01-01T00:00:00Z","name_a2s":"Uncletopia | Atlanta | 1 | All Maps","protocol":17,"map":"pl_barnblitz","folder":"tf","game":"Team Fortress","app_id":440,"player_count":24,"max_players":24,"Bots":0,"server_type":"Dedicated","server_os":"Linux","password":true,"vac":true,"version":"7961495","steam_id":85568392924469982,"keywords":["nocrits","nodmgspread","payload","uncletopia"],"game_id":440,"stv_port":27016,"stv_name":"Uncletopia | Atlanta | 1 | All Maps | STV","players":[{"user_id":265,"name":"ash","steam_id":76561198127890645,"connected_time":2378000000000,"state":"active","ping":75},{"user_id":285,"name":"merz","steam_id":76561198067473301,"connected_time":157000000000,"state":"active","ping":75},{"user_id":226,"name":"eish","steam_id":76561198089463603,"connected_time":6227000000000,"state":"active","ping":118},{"user_id":210,"name":"Pandie","steam_id":76561198043879755,"connected_time":7216000000000,"state":"active","ping":86},{"user_id":276,"name":"Stinkly","steam_id":76561198045010846,"connected_time":712000000000,"state":"active","ping":87},{"user_id":268,"name":"Dragus","steam_id":76561198032967285,"connected_time":2158000000000,"state":"active","ping":76},{"user_id":273,"name":"BIG HOG","steam_id":76561198079923652,"connected_time":1059000000000,"state":"active","ping":64},{"user_id":271,"name":"BotchyAlarm8","steam_id":76561198092682129,"connected_time":1583000000000,"state":"active","ping":75},{"user_id":234,"name":"Ice || Black ツ","steam_id":76561198308680638,"connected_time":5630000000000,"state":"active","ping":38},{"user_id":258,"name":"lu","steam_id":76561198080731872,"connected_time":3066000000000,"state":"active","ping":91},{"user_id":275,"name":"Albino Jellyfish","steam_id":76561198208561097,"connected_time":777000000000,"state":"active","ping":57},{"user_id":267,"name":"lil hog","steam_id":76561199230929836,"connected_time":2210000000000,"state":"active","ping":79},{"user_id":263,"name":"Sup m8","steam_id":76561198081659121,"connected_time":2486000000000,"state":"active","ping":60},{"user_id":283,"name":"Flint","steam_id":76561198066547582,"connected_time":198000000000,"state":"active","ping":111},{"user_id":241,"name":"Okpar","steam_id":76561199221067945,"connected_time":5381000000000,"state":"active","ping":77},{"user_id":242,"name":"Onyx","steam_id":76561198275349640,"connected_time":5294000000000,"state":"active","ping":76},{"user_id":264,"name":"trianamarco780","steam_id":76561199084319677,"connected_time":2475000000000,"state":"active","ping":120},{"user_id":282,"name":"fathead","steam_id":76561198150155615,"connected_time":241000000000,"state":"active","ping":115},{"user_id":278,"name":"Yoyo","steam_id":76561199000583700,"connected_time":660000000000,"state":"active","ping":69},{"user_id":286,"name":"Que-sus-dilla","steam_id":76561198125712564,"connected_time":151000000000,"state":"active","ping":169},{"user_id":257,"name":"Vee (very cool)","steam_id":76561198330432889,"connected_time":3359000000000,"state":"active","ping":75},{"user_id":185,"name":"substance","steam_id":76561198050103868,"connected_time":9619000000000,"state":"active","ping":107},{"user_id":227,"name":"coolkid","steam_id":76561198072600034,"connected_time":6222000000000,"state":"active","ping":185},{"user_id":262,"name":"Bunni","steam_id":76561198045391493,"connected_time":2531000000000,"state":"active","ping":70}]},{"server_id":104,"name":"Uncletopia | Atlanta | 2 | All Maps","name_short":"atl-2","host":"atl-1.us.uncletopia.com","port":27025,"enabled":true,"region":"us-east","cc":"us","latitude":33.753746,"longitude":-84.38633,"reserved":0,"last_update":"0001-01-01T00:00:00Z","name_a2s":"Uncletopia | Atlanta | 2 | All Maps","protocol":17,"map":"cp_altitude","folder":"tf","game":"Team Fortress","app_id":440,"player_count":24,"max_players":24,"Bots":0,"server_type":"Dedicated","server_os":"Linux","password":true,"vac":true,"version":"7961495","steam_id":85568392924469983,"keywords":["cp","nocrits","nodmgspread","uncletopia"],"game_id":440,"stv_port":27026,"stv_name":"Uncletopia | Atlanta | 2 | All Maps | STV","players":[{"user_id":20,"name":"Resident Goober","steam_id":76561199205471969,"connected_time":4686000000000,"state":"active","ping":85},{"user_id":72,"name":"Reckless Klondike","steam_id":76561198060904416,"connected_time":992000000000,"state":"active","ping":77},{"user_id":75,"name":"GoofyAhGamingGuy","steam_id":76561199331315881,"connected_time":775000000000,"state":"active","ping":82},{"user_id":68,"name":"Beta Fish","steam_id":76561198073504861,"connected_time":1389000000000,"state":"active","ping":46},{"user_id":70,"name":"Idiot Sandwhich","steam_id":76561198178295858,"connected_time":1066000000000,"state":"active","ping":74},{"user_id":73,"name":"cube","steam_id":76561197991759721,"connected_time":908000000000,"state":"active","ping":60},{"user_id":29,"name":"torres","steam_id":76561198965797029,"connected_time":3481000000000,"state":"active","ping":109},{"user_id":89,"name":"Furrio","steam_id":76561198174104607,"connected_time":327000000000,"state":"active","ping":92},{"user_id":54,"name":"Vv","steam_id":76561199052196750,"connected_time":2455000000000,"state":"active","ping":82},{"user_id":87,"name":"Irish Demolitioner","steam_id":76561199409598692,"connected_time":346000000000,"state":"active","ping":92},{"user_id":88,"name":"Architect","steam_id":76561198015242016,"connected_time":341000000000,"state":"active","ping":64},{"user_id":41,"name":"Bald Vegeta","steam_id":76561198844143746,"connected_time":2762000000000,"state":"active","ping":87},{"user_id":83,"name":"Cheeseburger","steam_id":76561198044131927,"connected_time":566000000000,"state":"active","ping":45},{"user_id":64,"name":"Lefty [Gentlemen of Leisure]","steam_id":76561197980825914,"connected_time":1596000000000,"state":"active","ping":82},{"user_id":59,"name":"aaaxel","steam_id":76561198137430598,"connected_time":2237000000000,"state":"active","ping":90},{"user_id":61,"name":"smellyloser86","steam_id":76561199198703435,"connected_time":2012000000000,"state":"active","ping":93},{"user_id":67,"name":"Pbomberrr","steam_id":76561198291198185,"connected_time":1451000000000,"state":"active","ping":84},{"user_id":60,"name":"PunchedHornet","steam_id":76561198226479172,"connected_time":2070000000000,"state":"active","ping":87},{"user_id":90,"name":"Sir_Dounut_III","steam_id":76561198447537093,"connected_time":298000000000,"state":"active","ping":91},{"user_id":44,"name":"Newph","steam_id":76561198826359519,"connected_time":2754000000000,"state":"active","ping":85},{"user_id":85,"name":"Bandoleon","steam_id":76561199075155791,"connected_time":533000000000,"state":"active","ping":75},{"user_id":47,"name":"Vaudeville Villain","steam_id":76561197991063996,"connected_time":2724000000000,"state":"active","ping":77},{"user_id":65,"name":"Tweek Tweak","steam_id":76561198445739792,"connected_time":1564000000000,"state":"active","ping":66},{"user_id":74,"name":"Morallusionist","steam_id":76561199480240111,"connected_time":868000000000,"state":"active","ping":61}]},{"server_id":400,"name":"Uncletopia | Atlanta | 3 | Stopwatch","name_short":"atl-3","host":"atl-1.us.uncletopia.com","port":27035,"enabled":true,"region":"us-east","cc":"us","latitude":33.753746,"longitude":-84.38633,"reserved":0,"last_update":"0001-01-01T00:00:00Z","name_a2s":"Uncletopia | Atlanta | 3 | Stopwatch","protocol":17,"map":"cp_metalworks","folder":"tf","game":"Team Fortress","app_id":440,"player_count":20,"max_players":24,"Bots":0,"server_type":"Dedicated","server_os":"Linux","password":true,"vac":true,"version":"7961495","steam_id":85568392924515187,"keywords":["cp","nocrits","nodmgspread","uncletopia"],"game_id":440,"stv_port":27036,"stv_name":"Uncletopia | Atlanta | 3 | Stopwatch | STV","players":[{"user_id":35,"name":"TinyGrunt16","steam_id":76561199064951235,"connected_time":2071000000000,"state":"active","ping":73},{"user_id":36,"name":"Poodwecker","steam_id":76561198344264859,"connected_time":1998000000000,"state":"active","ping":78},{"user_id":41,"name":"101_the_Robot","steam_id":76561198331039848,"connected_time":1186000000000,"state":"active","ping":201},{"user_id":40,"name":"custodian","steam_id":76561198058793778,"connected_time":1423000000000,"state":"active","ping":75},{"user_id":58,"name":"Val E. Mato","steam_id":76561199095127790,"connected_time":134000000000,"state":"active","ping":75},{"user_id":59,"name":"GlaSS","steam_id":76561198829179726,"connected_time":125000000000,"state":"active","ping":73},{"user_id":38,"name":"YeeboBeebo","steam_id":76561198812879907,"connected_time":1807000000000,"state":"active","ping":73},{"user_id":39,"name":"Mazel-Tov✡Cocktail","steam_id":76561197979855281,"connected_time":1776000000000,"state":"active","ping":56},{"user_id":42,"name":"ScribblyTheScribble","steam_id":76561199446805070,"connected_time":1076000000000,"state":"active","ping":74},{"user_id":43,"name":"Fenastra","steam_id":76561199091492272,"connected_time":951000000000,"state":"active","ping":127},{"user_id":44,"name":".Sizzle","steam_id":76561198163266519,"connected_time":849000000000,"state":"active","ping":134},{"user_id":50,"name":"The_Epic_Conclusion","steam_id":76561198084250179,"connected_time":466000000000,"state":"active","ping":74},{"user_id":46,"name":"Adicus","steam_id":76561199069637256,"connected_time":656000000000,"state":"active","ping":86},{"user_id":47,"name":"Snoopy","steam_id":76561198273735974,"connected_time":583000000000,"state":"active","ping":85},{"user_id":48,"name":"Yiggs_","steam_id":76561198058742814,"connected_time":558000000000,"state":"active","ping":72},{"user_id":49,"name":"BP Oil Spill of 2010","steam_id":76561198127779099,"connected_time":550000000000,"state":"active","ping":85},{"user_id":51,"name":"Dottrina","steam_id":76561199013960207,"connected_time":434000000000,"state":"active","ping":116},{"user_id":52,"name":"dr chungy ph.d","steam_id":76561198215559840,"connected_time":390000000000,"state":"active","ping":56},{"user_id":53,"name":"goofbears","steam_id":76561199100831175,"connected_time":383000000000,"state":"active","ping":60},{"user_id":54,"name":"cucumper","steam_id":76561198079504588,"connected_time":383000000000,"state":"active","ping":53}]},{"server_id":401,"name":"Uncletopia | Atlanta | 4 | Community","name_short":"atl-4","host":"atl-1.us.uncletopia.com","port":27045,"enabled":true,"region":"us-east","cc":"us","latitude":33.753746,"longitude":-84.38633,"reserved":0,"last_update":"0001-01-01T00:00:00Z","name_a2s":"Uncletopia | Atlanta | 4 | Community","protocol":17,"map":"workshop/koth_ramjam_rc1.ugc459778887","folder":"tf","game":"Team Fortress","app_id":440,"player_count":18,"max_players":24,"Bots":0,"server_type":"Dedicated","server_os":"Linux","password":true,"vac":true,"version":"7961495","steam_id":85568392924515188,"keywords":["cp","nocrits","nodmgspread","uncletopia"],"game_id":440,"stv_port":27046,"stv_name":"Uncletopia | Atlanta | 4 | Community | STV","players":[{"user_id":190,"name":"Napalm","steam_id":76561198134101711,"connected_time":12000000000,"state":"spawning","ping":136},{"user_id":168,"name":"Ballz","steam_id":76561198316649623,"connected_time":1048000000000,"state":"active","ping":94},{"user_id":181,"name":"Kantamoe","steam_id":76561198046661611,"connected_time":875000000000,"state":"active","ping":60},{"user_id":163,"name":"Reject","steam_id":76561199232156472,"connected_time":2023000000000,"state":"active","ping":84},{"user_id":187,"name":"mdos","steam_id":76561198332133944,"connected_time":386000000000,"state":"active","ping":61},{"user_id":169,"name":"Cheezie4skin","steam_id":76561198880597826,"connected_time":986000000000,"state":"active","ping":58},{"user_id":180,"name":"Iwisp","steam_id":76561199146075380,"connected_time":955000000000,"state":"active","ping":74},{"user_id":182,"name":"INFINITE","steam_id":76561197971285557,"connected_time":871000000000,"state":"active","ping":61},{"user_id":146,"name":"Thats one spicy meat'a'ball","steam_id":76561199230265354,"connected_time":2792000000000,"state":"active","ping":71},{"user_id":183,"name":"Major Coom","steam_id":76561198038371512,"connected_time":838000000000,"state":"active","ping":82},{"user_id":128,"name":"rgmp9","steam_id":76561198388559821,"connected_time":3843000000000,"state":"active","ping":139},{"user_id":186,"name":"Rat God","steam_id":76561198066161598,"connected_time":701000000000,"state":"active","ping":71},{"user_id":184,"name":"LegendaireNic","steam_id":76561198211753861,"connected_time":822000000000,"state":"active","ping":81},{"user_id":158,"name":"Jazz2T","steam_id":76561198154418867,"connected_time":2266000000000,"state":"active","ping":77},{"user_id":74,"name":"I came (up)","steam_id":76561198057745131,"connected_time":6798000000000,"state":"active","ping":41},{"user_id":185,"name":"Thr33boys","steam_id":76561198035639627,"connected_time":797000000000,"state":"active","ping":70},{"user_id":167,"name":"Bippums","steam_id":76561198366406729,"connected_time":1523000000000,"state":"active","ping":77},{"user_id":156,"name":"Sweet Jesus","steam_id":76561198060068046,"connected_time":2424000000000,"state":"active","ping":82}]},{"server_id":2,"name":"Uncletopia | Chicago | 1 | All Maps","name_short":"chi-1","host":"chi-1.us.uncletopia.com","port":27015,"enabled":true,"region":"us-central","cc":"us","latitude":41.881832,"longitude":-87.62318,"reserved":0,"last_update":"0001-01-01T00:00:00Z","name_a2s":"Uncletopia | Chicago | 1 | All Maps","protocol":17,"map":"pl_frontier_final","folder":"tf","game":"Team Fortress","app_id":440,"player_count":24,"max_players":24,"Bots":0,"server_type":"Dedicated","server_os":"Linux","password":true,"vac":true,"version":"7961495","steam_id":85568392924469984,"keywords":["nocrits","nodmgspread","payload","uncletopia"],"game_id":440,"stv_port":27016,"stv_name":"Uncletopia | Chicago | 1 | All Maps | STV","players":[{"user_id":494,"name":"unalive_air","steam_id":76561199500246210,"connected_time":1159000000000,"state":"active","ping":65},{"user_id":506,"name":"blob","steam_id":76561198122375328,"connected_time":663000000000,"state":"active","ping":52},{"user_id":457,"name":"Stacks63bs","steam_id":76561198067797130,"connected_time":4354000000000,"state":"active","ping":83},{"user_id":493,"name":"Shwal","steam_id":76561198138840448,"connected_time":1255000000000,"state":"active","ping":80},{"user_id":508,"name":"oog","steam_id":76561199089730744,"connected_time":380000000000,"state":"active","ping":114},{"user_id":490,"name":"Technomancer","steam_id":76561198137758683,"connected_time":1498000000000,"state":"active","ping":94},{"user_id":432,"name":"Kero","steam_id":76561198343231436,"connected_time":7378000000000,"state":"active","ping":62},{"user_id":497,"name":"Plimbo","steam_id":76561198400838588,"connected_time":1016000000000,"state":"active","ping":61},{"user_id":482,"name":"Migute","steam_id":76561198332012726,"connected_time":2561000000000,"state":"active","ping":89},{"user_id":478,"name":"Chechens Spotted","steam_id":76561199028910893,"connected_time":2851000000000,"state":"active","ping":85},{"user_id":512,"name":"Bush.exe","steam_id":76561198124385307,"connected_time":68000000000,"state":"active","ping":66},{"user_id":491,"name":"medic enthusiast","steam_id":76561198323031964,"connected_time":1466000000000,"state":"active","ping":80},{"user_id":500,"name":"Muselk","steam_id":76561199289676387,"connected_time":884000000000,"state":"active","ping":82},{"user_id":481,"name":"WhrSkr","steam_id":76561198845227751,"connected_time":2611000000000,"state":"active","ping":62},{"user_id":504,"name":"fifteen22","steam_id":76561198138781868,"connected_time":766000000000,"state":"active","ping":81},{"user_id":487,"name":"Drilly22","steam_id":76561198068838338,"connected_time":2131000000000,"state":"active","ping":88},{"user_id":511,"name":"Snom","steam_id":76561198333827920,"connected_time":159000000000,"state":"active","ping":84},{"user_id":509,"name":"nav","steam_id":76561198872608266,"connected_time":373000000000,"state":"active","ping":71},{"user_id":429,"name":"Tito","steam_id":76561198041702529,"connected_time":7480000000000,"state":"active","ping":86},{"user_id":507,"name":"DoomedMakwa","steam_id":76561198167053158,"connected_time":624000000000,"state":"active","ping":70},{"user_id":510,"name":"=Silver=","steam_id":76561198292307127,"connected_time":368000000000,"state":"active","ping":95},{"user_id":480,"name":"nalezinik","steam_id":76561198030026119,"connected_time":2845000000000,"state":"active","ping":63},{"user_id":408,"name":"HOMIE","steam_id":76561198057325155,"connected_time":8760000000000,"state":"active","ping":66},{"user_id":492,"name":"Robot Rocker","steam_id":76561198050718267,"connected_time":1416000000000,"state":"active","ping":69}]},{"server_id":106,"name":"Uncletopia | Chicago | 2 | All Maps","name_short":"chi-2","host":"chi-1.us.uncletopia.com","port":27025,"enabled":true,"region":"us-central","cc":"us","latitude":41.881832,"longitude":-87.62318,"reserved":0,"last_update":"0001-01-01T00:00:00Z","name_a2s":"Uncletopia | Chicago | 2 | All Maps","protocol":17,"map":"koth_harvest_final","folder":"tf","game":"Team Fortress","app_id":440,"player_count":15,"max_players":24,"Bots":0,"server_type":"Dedicated","server_os":"Linux","password":true,"vac":true,"version":"7961495","steam_id":85568392924469985,"keywords":["cp","nocrits","nodmgspread","uncletopia"],"game_id":440,"stv_port":27026,"stv_name":"Uncletopia | Chicago | 2 | All Maps | STV","players":[{"user_id":171,"name":"D.E.O","steam_id":76561198096992957,"connected_time":708000000000,"state":"active","ping":119},{"user_id":13,"name":"medd","steam_id":76561198078238722,"connected_time":12005000000000,"state":"active","ping":85},{"user_id":118,"name":"Ping","steam_id":76561198072947773,"connected_time":5348000000000,"state":"active","ping":53},{"user_id":162,"name":"PPFitzenreit","steam_id":76561199381005210,"connected_time":1305000000000,"state":"active","ping":75},{"user_id":160,"name":"-=Bits=-Dinkleberg","steam_id":76561198080367616,"connected_time":1436000000000,"state":"active","ping":85},{"user_id":142,"name":"Mer","steam_id":76561198192171041,"connected_time":3513000000000,"state":"active","ping":120},{"user_id":169,"name":"SIN K4RMA","steam_id":76561198869287223,"connected_time":906000000000,"state":"active","ping":65},{"user_id":163,"name":"Deluxe_Taco34","steam_id":76561199037653437,"connected_time":1302000000000,"state":"active","ping":107},{"user_id":164,"name":"skaska4","steam_id":76561198080606141,"connected_time":1288000000000,"state":"active","ping":77},{"user_id":159,"name":"Dr_Cecil","steam_id":76561198873862113,"connected_time":1794000000000,"state":"active","ping":105},{"user_id":175,"name":"Headshotsnake","steam_id":76561198067130248,"connected_time":220000000000,"state":"active","ping":57},{"user_id":151,"name":"JustSomeInternetGuy","steam_id":76561199066037843,"connected_time":2977000000000,"state":"active","ping":73},{"user_id":174,"name":"Jerk Tryhard (roleplay)","steam_id":76561199470538309,"connected_time":293000000000,"state":"active","ping":58},{"user_id":155,"name":"Beebo, Son of Beebo","steam_id":76561198055948497,"connected_time":2262000000000,"state":"active","ping":60},{"user_id":172,"name":"jerma but crying and lesbian","steam_id":76561198110661425,"connected_time":558000000000,"state":"active","ping":51}]},{"server_id":402,"name":"Uncletopia | Chicago | 3 | All Maps","name_short":"chi-3","host":"chi-1.us.uncletopia.com","port":27035,"enabled":true,"region":"us-central","cc":"us","latitude":41.881832,"longitude":-87.62318,"reserved":0,"last_update":"0001-01-01T00:00:00Z","name_a2s":"Uncletopia | Chicago | 3 | All Maps","protocol":17,"map":"pl_pier","folder":"tf","game":"Team Fortress","app_id":440,"player_count":24,"max_players":24,"Bots":0,"server_type":"Dedicated","server_os":"Linux","password":true,"vac":true,"version":"7961495","steam_id":85568392924515191,"keywords":["nocrits","nodmgspread","payload","uncletopia"],"game_id":440,"stv_port":27036,"stv_name":"Uncletopia | Chicago | 3 | All Maps | STV","players":[{"user_id":395,"name":"Clean Lines","steam_id":76561197960691518,"connected_time":1589000000000,"state":"active","ping":50},{"user_id":413,"name":"bel","steam_id":76561198145600003,"connected_time":1241000000000,"state":"active","ping":61},{"user_id":402,"name":"MarauderOP","steam_id":76561199087316861,"connected_time":1432000000000,"state":"active","ping":74},{"user_id":412,"name":"Zoo Keeper Engie","steam_id":76561198064380111,"connected_time":1251000000000,"state":"active","ping":81},{"user_id":428,"name":"Liliotte","steam_id":76561198402788643,"connected_time":448000000000,"state":"active","ping":94},{"user_id":435,"name":"TJThomas","steam_id":76561198038292405,"connected_time":95000000000,"state":"active","ping":64},{"user_id":434,"name":"Malac","steam_id":76561198004482629,"connected_time":139000000000,"state":"active","ping":75},{"user_id":427,"name":"Wild_Rumpus","steam_id":76561198066393719,"connected_time":547000000000,"state":"active","ping":47},{"user_id":432,"name":"❤️Shady","steam_id":76561198125947844,"connected_time":150000000000,"state":"active","ping":96},{"user_id":410,"name":"who_dis?","steam_id":76561199156798560,"connected_time":1261000000000,"state":"active","ping":100},{"user_id":400,"name":"Fio4","steam_id":76561199221171536,"connected_time":1500000000000,"state":"active","ping":79},{"user_id":403,"name":"Joe Swanson","steam_id":76561198065327106,"connected_time":1417000000000,"state":"active","ping":74},{"user_id":404,"name":"majorbobfunction","steam_id":76561198042464632,"connected_time":1416000000000,"state":"active","ping":60},{"user_id":426,"name":"SadDragonMan","steam_id":76561198358280010,"connected_time":707000000000,"state":"active","ping":71},{"user_id":425,"name":"socializedCryptid","steam_id":76561198991665007,"connected_time":914000000000,"state":"active","ping":55},{"user_id":431,"name":"Cat on Your Porch","steam_id":76561197979078330,"connected_time":324000000000,"state":"active","ping":67},{"user_id":411,"name":"seemquell","steam_id":76561199003380346,"connected_time":1260000000000,"state":"active","ping":61},{"user_id":414,"name":"Red","steam_id":76561198800066692,"connected_time":1239000000000,"state":"active","ping":57},{"user_id":415,"name":"CertifiedCereal","steam_id":76561198055027895,"connected_time":1238000000000,"state":"active","ping":67},{"user_id":433,"name":"bane","steam_id":76561198196769297,"connected_time":150000000000,"state":"active","ping":58},{"user_id":417,"name":"dfox","steam_id":76561198079199051,"connected_time":1172000000000,"state":"active","ping":75},{"user_id":419,"name":"Mick","steam_id":76561198972619900,"connected_time":1076000000000,"state":"active","ping":71},{"user_id":422,"name":"aspiceeone","steam_id":76561198335426817,"connected_time":981000000000,"state":"active","ping":62},{"user_id":430,"name":"Artic_Ryuu","steam_id":76561198182194918,"connected_time":433000000000,"state":"active","ping":100}]},{"server_id":403,"name":"Uncletopia | Chicago | 4 | All Maps","name_short":"chi-4","host":"chi-1.us.uncletopia.com","port":27045,"enabled":true,"region":"us-central","cc":"us","latitude":41.881832,"longitude":-87.62318,"reserved":0,"last_update":"0001-01-01T00:00:00Z","name_a2s":"Uncletopia | Chicago | 4 | All Maps","protocol":17,"map":"cp_snakewater_final1","folder":"tf","game":"Team Fortress","app_id":440,"player_count":24,"max_players":24,"Bots":0,"server_type":"Dedicated","server_os":"Linux","password":true,"vac":true,"version":"7961495","steam_id":85568392924515193,"keywords":["cp","nocrits","nodmgspread","uncletopia"],"game_id":440,"stv_port":27046,"stv_name":"Uncletopia | Chicago | 4 | All Maps | STV","players":[{"user_id":282,"name":"Zoften","steam_id":76561198800343851,"connected_time":2051000000000,"state":"active","ping":69},{"user_id":314,"name":"Locksteel","steam_id":76561198050679036,"connected_time":407000000000,"state":"active","ping":141},{"user_id":302,"name":"warren","steam_id":76561198136331136,"connected_time":1084000000000,"state":"active","ping":75},{"user_id":315,"name":"ahab","steam_id":76561198211780469,"connected_time":402000000000,"state":"active","ping":34},{"user_id":292,"name":"for the king","steam_id":76561197973488858,"connected_time":1880000000000,"state":"active","ping":60},{"user_id":313,"name":"BigPapaBrogan","steam_id":76561199012814165,"connected_time":442000000000,"state":"active","ping":85},{"user_id":306,"name":"ZeroFour","steam_id":76561198209641323,"connected_time":628000000000,"state":"active","ping":55},{"user_id":169,"name":"D(b) Hell","steam_id":76561198067869016,"connected_time":10071000000000,"state":"active","ping":44},{"user_id":289,"name":"Sly_1087.TTV","steam_id":76561198188900013,"connected_time":1897000000000,"state":"active","ping":62},{"user_id":316,"name":"Mr. Mime","steam_id":76561199197676776,"connected_time":386000000000,"state":"active","ping":63},{"user_id":159,"name":"Schizoid Despot","steam_id":76561198141902905,"connected_time":10466000000000,"state":"active","ping":56},{"user_id":280,"name":"[NAME-REDACTED]","steam_id":76561198035682975,"connected_time":2370000000000,"state":"active","ping":65},{"user_id":307,"name":"GlingGlop95","steam_id":76561198386865528,"connected_time":616000000000,"state":"active","ping":76},{"user_id":261,"name":"mild mannered mystery man","steam_id":76561198072095399,"connected_time":4644000000000,"state":"active","ping":52},{"user_id":296,"name":"checkswing","steam_id":76561198999816132,"connected_time":1812000000000,"state":"active","ping":75},{"user_id":291,"name":"Jonah Hill from 21 Jump Street","steam_id":76561198811130843,"connected_time":1892000000000,"state":"active","ping":80},{"user_id":295,"name":"drain_bamage","steam_id":76561199381954163,"connected_time":1872000000000,"state":"active","ping":109},{"user_id":308,"name":"Duke Skywalker","steam_id":76561199231296521,"connected_time":606000000000,"state":"active","ping":70},{"user_id":270,"name":"Scrumpy Main","steam_id":76561198146302597,"connected_time":3825000000000,"state":"active","ping":58},{"user_id":312,"name":"BLØRG","steam_id":76561198036126673,"connected_time":553000000000,"state":"active","ping":82},{"user_id":273,"name":"Mystery of the Scoots","steam_id":76561198013057670,"connected_time":3603000000000,"state":"active","ping":73},{"user_id":278,"name":"Echo","steam_id":76561198103342230,"connected_time":3071000000000,"state":"active","ping":111},{"user_id":309,"name":"NUt","steam_id":76561198031007966,"connected_time":599000000000,"state":"active","ping":62},{"user_id":319,"name":"Razorsight","steam_id":76561198056981999,"connected_time":182000000000,"state":"active","ping":164}]},{"server_id":36,"name":"Uncletopia | Chicago | 5 | All Maps","name_short":"chi-5","host":"chi-2.us.uncletopia.com","port":27015,"enabled":true,"region":"us-central","cc":"us","latitude":41.881832,"longitude":-87.62318,"reserved":0,"last_update":"0001-01-01T00:00:00Z","name_a2s":"Uncletopia | Chicago | 5 | All Maps","protocol":17,"map":"ctf_turbine","folder":"tf","game":"Team Fortress","app_id":440,"player_count":12,"max_players":24,"Bots":0,"server_type":"Dedicated","server_os":"Linux","password":true,"vac":true,"version":"7961495","steam_id":85568392924866362,"keywords":["ctf","nocrits","nodmgspread","uncletopia"],"game_id":440,"stv_port":27016,"stv_name":"Uncletopia | Chicago | 5 | All Maps | STV","players":[{"user_id":102,"name":"Haveltherock27","steam_id":76561199219844391,"connected_time":59000000000,"state":"active","ping":83},{"user_id":19,"name":"Big Iron","steam_id":76561198798937656,"connected_time":3493000000000,"state":"active","ping":40},{"user_id":20,"name":"gremlin0o0","steam_id":76561199468331835,"connected_time":3418000000000,"state":"active","ping":167},{"user_id":95,"name":"Powered","steam_id":76561199298693128,"connected_time":335000000000,"state":"active","ping":60},{"user_id":23,"name":"Rythmitic","steam_id":76561198137198932,"connected_time":3363000000000,"state":"active","ping":73},{"user_id":93,"name":"The Hose on Upward","steam_id":76561197965092192,"connected_time":513000000000,"state":"active","ping":75},{"user_id":97,"name":"In Soviet America","steam_id":76561197998261826,"connected_time":268000000000,"state":"active","ping":55},{"user_id":91,"name":"Red","steam_id":76561198158243179,"connected_time":658000000000,"state":"active","ping":86},{"user_id":77,"name":"MrKokonut","steam_id":76561198879575825,"connected_time":1228000000000,"state":"active","ping":51},{"user_id":85,"name":"carrot cake","steam_id":76561198055174915,"connected_time":961000000000,"state":"active","ping":68},{"user_id":86,"name":"Jesse Bear","steam_id":76561198217075305,"connected_time":958000000000,"state":"active","ping":78},{"user_id":87,"name":"Butters495","steam_id":76561197998689042,"connected_time":949000000000,"state":"active","ping":81}]},{"server_id":37,"name":"Uncletopia | Chicago | 6 | All Maps","name_short":"chi-6","host":"chi-2.us.uncletopia.com","port":27025,"enabled":true,"region":"us-central","cc":"us","latitude":41.881832,"longitude":-87.62318,"reserved":0,"last_update":"0001-01-01T00:00:00Z","name_a2s":"Uncletopia | Chicago | 6 | All Maps","protocol":17,"map":"pl_borneo","folder":"tf","game":"Team Fortress","app_id":440,"player_count":24,"max_players":24,"Bots":0,"server_type":"Dedicated","server_os":"Linux","password":true,"vac":true,"version":"7961495","steam_id":85568392924866363,"keywords":["nocrits","nodmgspread","payload","uncletopia"],"game_id":440,"stv_port":27026,"stv_name":"Uncletopia | Chicago | 6 | All Maps | STV","players":[{"user_id":82,"name":"LordOfTheNoobs","steam_id":76561197962697523,"connected_time":1471000000000,"state":"active","ping":58},{"user_id":89,"name":"Vind Gnyr","steam_id":76561198042641211,"connected_time":605000000000,"state":"active","ping":78},{"user_id":71,"name":"Stealthguy724","steam_id":76561198195961430,"connected_time":2211000000000,"state":"active","ping":73},{"user_id":102,"name":"ark","steam_id":76561198041066271,"connected_time":38000000000,"state":"active","ping":76},{"user_id":58,"name":"American Dad","steam_id":76561198059711448,"connected_time":3312000000000,"state":"active","ping":74},{"user_id":30,"name":"stupid ape","steam_id":76561198350027075,"connected_time":4737000000000,"state":"active","ping":57},{"user_id":66,"name":"Willham","steam_id":76561198065755781,"connected_time":2685000000000,"state":"active","ping":83},{"user_id":81,"name":"Tangus","steam_id":76561199134172741,"connected_time":1533000000000,"state":"active","ping":104},{"user_id":83,"name":"barefoot fruitscato","steam_id":76561198094225038,"connected_time":1339000000000,"state":"active","ping":58},{"user_id":99,"name":"Sicko Mode (Chris Pratt Cover)","steam_id":76561198315786174,"connected_time":172000000000,"state":"active","ping":80},{"user_id":90,"name":"Servaos","steam_id":76561198113244990,"connected_time":589000000000,"state":"active","ping":69},{"user_id":101,"name":"sniper","steam_id":76561199445009981,"connected_time":156000000000,"state":"active","ping":98},{"user_id":73,"name":"fakeness","steam_id":76561198018811206,"connected_time":2201000000000,"state":"active","ping":83},{"user_id":92,"name":"sooley","steam_id":76561198134500189,"connected_time":583000000000,"state":"active","ping":44},{"user_id":100,"name":"Goomba gaming","steam_id":76561199470354045,"connected_time":168000000000,"state":"active","ping":128},{"user_id":41,"name":"Anyar","steam_id":76561198160174097,"connected_time":4407000000000,"state":"active","ping":63},{"user_id":93,"name":"reymundo","steam_id":76561197989412830,"connected_time":582000000000,"state":"active","ping":120},{"user_id":94,"name":"dekemori","steam_id":76561198373889573,"connected_time":560000000000,"state":"active","ping":83},{"user_id":95,"name":"9gon Salt","steam_id":76561198116645978,"connected_time":549000000000,"state":"active","ping":56},{"user_id":62,"name":"IAmAProfesonal","steam_id":76561199171858953,"connected_time":3171000000000,"state":"active","ping":58},{"user_id":63,"name":"wewos","steam_id":76561198243965308,"connected_time":2953000000000,"state":"active","ping":72},{"user_id":55,"name":"sooty","steam_id":76561198830243167,"connected_time":4014000000000,"state":"active","ping":75},{"user_id":97,"name":"feleven","steam_id":76561198853721046,"connected_time":322000000000,"state":"active","ping":74},{"user_id":68,"name":"playguy carter","steam_id":76561198080679337,"connected_time":2312000000000,"state":"active","ping":57}]},{"server_id":38,"name":"Uncletopia | Chicago | 7 | Stopwatch","name_short":"chi-7","host":"chi-2.us.uncletopia.com","port":27035,"enabled":true,"region":"us-central","cc":"us","latitude":41.881832,"longitude":-87.62318,"reserved":0,"last_update":"0001-01-01T00:00:00Z","name_a2s":"Uncletopia | Chicago | 7 | Stopwatch","protocol":17,"map":"cp_metalworks","folder":"tf","game":"Team Fortress","app_id":440,"player_count":1,"max_players":24,"Bots":0,"server_type":"Dedicated","server_os":"Linux","password":true,"vac":true,"version":"7961495","steam_id":85568392924866364,"keywords":["cp","nocrits","nodmgspread","uncletopia"],"game_id":440,"stv_port":27036,"stv_name":"Uncletopia | Chicago | 7 | Stopwatch | STV","players":[{"user_id":8,"name":"Herb","steam_id":76561198330311949,"connected_time":9000000000,"state":"active","ping":66}]},{"server_id":39,"name":"Uncletopia | Chicago | 8 | Community","name_short":"chi-8","host":"chi-2.us.uncletopia.com","port":27045,"enabled":true,"region":"us-central","cc":"us","latitude":41.881832,"longitude":-87.62318,"reserved":0,"last_update":"0001-01-01T00:00:00Z","name_a2s":"Uncletopia | Chicago | 8 | Community","protocol":17,"map":"workshop/cp_indulge.ugc528106646","folder":"tf","game":"Team Fortress","app_id":440,"player_count":0,"max_players":24,"Bots":0,"server_type":"Dedicated","server_os":"Linux","password":true,"vac":true,"version":"7961495","steam_id":85568392924866365,"keywords":["cp","nocrits","nodmgspread","uncletopia"],"game_id":440,"stv_port":27046,"stv_name":"Uncletopia | Chicago | 8 | Community | STV","players":null},{"server_id":8,"name":"Uncletopia | Dallas | 1 | All Maps","name_short":"dal-1","host":"dal-1.us.uncletopia.com","port":27015,"enabled":true,"region":"us-central","cc":"us","latitude":32.779167,"longitude":-96.80889,"reserved":0,"last_update":"0001-01-01T00:00:00Z","name_a2s":"Uncletopia | Dallas | 1 | All Maps","protocol":17,"map":"pl_pier","folder":"tf","game":"Team Fortress","app_id":440,"player_count":24,"max_players":24,"Bots":0,"server_type":"Dedicated","server_os":"Linux","password":true,"vac":true,"version":"7961495","steam_id":85568392924469986,"keywords":["nocrits","nodmgspread","payload","uncletopia"],"game_id":440,"stv_port":27016,"stv_name":"Uncletopia | Dallas | 1 | All Maps | STV","players":[{"user_id":208,"name":"Frank Horrigan","steam_id":76561198066504831,"connected_time":2651000000000,"state":"active","ping":101},{"user_id":219,"name":"Seller of Waffles","steam_id":76561198296018138,"connected_time":2319000000000,"state":"active","ping":73},{"user_id":174,"name":"Jutsu","steam_id":76561198058671945,"connected_time":4856000000000,"state":"active","ping":82},{"user_id":230,"name":"Blitzoetic","steam_id":76561198053239412,"connected_time":387000000000,"state":"active","ping":84},{"user_id":210,"name":"biggamehntr887","steam_id":76561198999431215,"connected_time":2631000000000,"state":"active","ping":85},{"user_id":28,"name":"Mr.Pan","steam_id":76561198069030613,"connected_time":13407000000000,"state":"active","ping":59},{"user_id":202,"name":"Titar Industries","steam_id":76561198143078476,"connected_time":2883000000000,"state":"active","ping":88},{"user_id":231,"name":"Flying Emu","steam_id":76561198121632924,"connected_time":378000000000,"state":"active","ping":52},{"user_id":204,"name":"deep fried water","steam_id":76561198077272494,"connected_time":2809000000000,"state":"active","ping":69},{"user_id":228,"name":"copium","steam_id":76561198870453115,"connected_time":450000000000,"state":"active","ping":81},{"user_id":211,"name":"Cargo","steam_id":76561198065535025,"connected_time":2623000000000,"state":"active","ping":90},{"user_id":185,"name":"conner","steam_id":76561198052911241,"connected_time":4408000000000,"state":"active","ping":98},{"user_id":232,"name":"Soul","steam_id":76561198149902575,"connected_time":377000000000,"state":"active","ping":103},{"user_id":201,"name":"Koffy","steam_id":76561198184386039,"connected_time":3293000000000,"state":"active","ping":79},{"user_id":203,"name":"schmuck","steam_id":76561198143789773,"connected_time":2816000000000,"state":"active","ping":49},{"user_id":227,"name":"THRONGLER","steam_id":76561198198563466,"connected_time":803000000000,"state":"active","ping":43},{"user_id":212,"name":"Haha, fat boi","steam_id":76561199186496740,"connected_time":2615000000000,"state":"active","ping":118},{"user_id":223,"name":"Squids023","steam_id":76561199013031576,"connected_time":1538000000000,"state":"active","ping":106},{"user_id":233,"name":"Captain Underbelly","steam_id":76561198811270935,"connected_time":347000000000,"state":"active","ping":91},{"user_id":171,"name":"SaaxoM","steam_id":76561198208256603,"connected_time":5501000000000,"state":"active","ping":97},{"user_id":173,"name":"TrashPanda (she/her)","steam_id":76561198447864095,"connected_time":4906000000000,"state":"active","ping":63},{"user_id":234,"name":"floppy muppet","steam_id":76561198003076261,"connected_time":339000000000,"state":"active","ping":96},{"user_id":236,"name":"JuanPonchoGringo™","steam_id":76561198038046899,"connected_time":167000000000,"state":"active","ping":89},{"user_id":215,"name":"Mongoose88","steam_id":76561197961442445,"connected_time":2512000000000,"state":"active","ping":96}]},{"server_id":108,"name":"Uncletopia | Dallas | 2 | All Maps","name_short":"dal-2","host":"dal-1.us.uncletopia.com","port":27025,"enabled":true,"region":"us-central","cc":"us","latitude":32.779167,"longitude":-96.80889,"reserved":0,"last_update":"0001-01-01T00:00:00Z","name_a2s":"Uncletopia | Dallas | 2 | All Maps","protocol":17,"map":"koth_cascade","folder":"tf","game":"Team Fortress","app_id":440,"player_count":21,"max_players":24,"Bots":0,"server_type":"Dedicated","server_os":"Linux","password":true,"vac":true,"version":"7961495","steam_id":85568392924469988,"keywords":["cp","nocrits","nodmgspread","uncletopia"],"game_id":440,"stv_port":27026,"stv_name":"Uncletopia | Dallas | 2 | All Maps | STV","players":[{"user_id":262,"name":"firefly","steam_id":76561198151308698,"connected_time":1314000000000,"state":"active","ping":51},{"user_id":283,"name":"Frost Paraselene","steam_id":76561198007332517,"connected_time":132000000000,"state":"active","ping":69},{"user_id":290,"name":"2JZ_","steam_id":76561198064027289,"connected_time":12000000000,"state":"active","ping":74},{"user_id":258,"name":"Killerfish360","steam_id":76561198115029584,"connected_time":1717000000000,"state":"active","ping":73},{"user_id":281,"name":"Bet","steam_id":76561198137096858,"connected_time":179000000000,"state":"active","ping":94},{"user_id":288,"name":"Fungal","steam_id":76561198078973439,"connected_time":18000000000,"state":"active","ping":77},{"user_id":266,"name":"big fish","steam_id":76561198186479818,"connected_time":735000000000,"state":"active","ping":90},{"user_id":267,"name":"MapleSyrup","steam_id":76561199222442855,"connected_time":612000000000,"state":"active","ping":82},{"user_id":269,"name":"saucing","steam_id":76561198209623111,"connected_time":515000000000,"state":"active","ping":80},{"user_id":270,"name":"antitrust","steam_id":76561198099225458,"connected_time":512000000000,"state":"active","ping":90},{"user_id":271,"name":"Limoki","steam_id":76561198416803878,"connected_time":496000000000,"state":"active","ping":44},{"user_id":272,"name":"u   had 2  be there,,","steam_id":76561198061966918,"connected_time":493000000000,"state":"active","ping":71},{"user_id":280,"name":"ShapedSilver","steam_id":76561199073305310,"connected_time":243000000000,"state":"active","ping":76},{"user_id":274,"name":"Antikythera","steam_id":76561198045923020,"connected_time":390000000000,"state":"active","ping":59},{"user_id":275,"name":"breathing meat donut","steam_id":76561198123566649,"connected_time":375000000000,"state":"active","ping":55},{"user_id":276,"name":"Wookie257","steam_id":76561198984452441,"connected_time":367000000000,"state":"active","ping":73},{"user_id":277,"name":"drugger. (makster implant)","steam_id":76561198353463585,"connected_time":363000000000,"state":"active","ping":85},{"user_id":278,"name":"Rock Kickass","steam_id":76561198450510841,"connected_time":345000000000,"state":"active","ping":99},{"user_id":282,"name":"squid game","steam_id":76561199248960166,"connected_time":152000000000,"state":"active","ping":89},{"user_id":286,"name":"shakoiwa","steam_id":76561199059441773,"connected_time":87000000000,"state":"active","ping":120},{"user_id":289,"name":"SneakiestSoldier","steam_id":76561199048165658,"connected_time":16000000000,"state":"spawning","ping":91}]},{"server_id":404,"name":"Uncletopia | Dallas | 3 | All Maps","name_short":"dal-3","host":"dal-1.us.uncletopia.com","port":27035,"enabled":true,"region":"us-central","cc":"us","latitude":32.779167,"longitude":-96.80889,"reserved":0,"last_update":"0001-01-01T00:00:00Z","name_a2s":"Uncletopia | Dallas | 3 | All Maps","protocol":17,"map":"pl_pier","folder":"tf","game":"Team Fortress","app_id":440,"player_count":24,"max_players":24,"Bots":0,"server_type":"Dedicated","server_os":"Linux","password":true,"vac":true,"version":"7961495","steam_id":85568392924515219,"keywords":["nocrits","nodmgspread","payload","uncletopia"],"game_id":440,"stv_port":27036,"stv_name":"Uncletopia | Dallas | 3 | All Maps | STV","players":[{"user_id":365,"name":"ArmaViviente","steam_id":76561198084098079,"connected_time":612000000000,"state":"active","ping":74},{"user_id":377,"name":"Brawns","steam_id":76561198045190199,"connected_time":230000000000,"state":"active","ping":99},{"user_id":327,"name":"WaWaSkittleTits","steam_id":76561198411234398,"connected_time":2390000000000,"state":"active","ping":107},{"user_id":342,"name":"PizzaFratello","steam_id":76561199059951970,"connected_time":1630000000000,"state":"active","ping":68},{"user_id":341,"name":"artemisjackson2","steam_id":76561199094686268,"connected_time":1669000000000,"state":"active","ping":95},{"user_id":340,"name":"Cottoneyes","steam_id":76561197994730627,"connected_time":1764000000000,"state":"active","ping":70},{"user_id":361,"name":"JellyParrot","steam_id":76561199190990163,"connected_time":706000000000,"state":"active","ping":76},{"user_id":353,"name":"Tension72-Ttv","steam_id":76561198340180652,"connected_time":1026000000000,"state":"active","ping":61},{"user_id":356,"name":"cool guy legs","steam_id":76561198099494670,"connected_time":813000000000,"state":"active","ping":96},{"user_id":350,"name":"VioletChan She/Her","steam_id":76561198074713124,"connected_time":1349000000000,"state":"active","ping":42},{"user_id":357,"name":"t**** beheader","steam_id":76561199395351700,"connected_time":778000000000,"state":"active","ping":74},{"user_id":352,"name":"U ω U","steam_id":76561198118802562,"connected_time":1047000000000,"state":"active","ping":96},{"user_id":348,"name":"Johnny Lawrence #JohnnyMaxxing","steam_id":76561199367141671,"connected_time":1419000000000,"state":"active","ping":90},{"user_id":349,"name":"lil guy","steam_id":76561198030786504,"connected_time":1371000000000,"state":"active","ping":68},{"user_id":362,"name":"Thequirka","steam_id":76561198968058652,"connected_time":671000000000,"state":"active","ping":102},{"user_id":363,"name":"whorgampus","steam_id":76561198043610132,"connected_time":664000000000,"state":"active","ping":76},{"user_id":378,"name":"tf2player001","steam_id":76561199497314797,"connected_time":205000000000,"state":"active","ping":115},{"user_id":366,"name":"SoCal Kaizer","steam_id":76561198334361081,"connected_time":610000000000,"state":"active","ping":106},{"user_id":367,"name":"under dale","steam_id":76561198081711979,"connected_time":609000000000,"state":"active","ping":91},{"user_id":368,"name":"Liebesträume","steam_id":76561198038862034,"connected_time":603000000000,"state":"active","ping":73},{"user_id":374,"name":"Universe Man","steam_id":76561197997710655,"connected_time":473000000000,"state":"active","ping":95},{"user_id":376,"name":"boo_thefeared","steam_id":76561198127967685,"connected_time":267000000000,"state":"active","ping":178},{"user_id":379,"name":"HOLY SHIT ITS TITTY LAND!!!!!!","steam_id":76561199389283507,"connected_time":42000000000,"state":"active","ping":105},{"user_id":373,"name":"Ockulus","steam_id":76561199069638460,"connected_time":519000000000,"state":"active","ping":85}]},{"server_id":405,"name":"Uncletopia | Dallas | 4 | Community","name_short":"dal-4","host":"dal-1.us.uncletopia.com","port":27045,"enabled":true,"region":"us-central","cc":"us","latitude":32.779167,"longitude":-96.80889,"reserved":0,"last_update":"0001-01-01T00:00:00Z","name_a2s":"Uncletopia | Dallas | 4 | Community","protocol":17,"map":"workshop/cp_hazyfort_rc6.ugc1365963729","folder":"tf","game":"Team Fortress","app_id":440,"player_count":24,"max_players":24,"Bots":0,"server_type":"Dedicated","server_os":"Linux","password":true,"vac":true,"version":"7961495","steam_id":85568392924515220,"keywords":["cp","nocrits","nodmgspread","uncletopia"],"game_id":440,"stv_port":27046,"stv_name":"Uncletopia | Dallas | 4 | Community | STV","players":[{"user_id":123,"name":"Viennetta","steam_id":76561198044088335,"connected_time":102000000000,"state":"active","ping":91},{"user_id":106,"name":"Black Mesa Security","steam_id":76561198161608111,"connected_time":1407000000000,"state":"active","ping":85},{"user_id":119,"name":"Therapy Goth","steam_id":76561198048448497,"connected_time":555000000000,"state":"active","ping":90},{"user_id":96,"name":"Quick-Fix","steam_id":76561198295501978,"connected_time":2220000000000,"state":"active","ping":70},{"user_id":112,"name":"Portal2Player","steam_id":76561198062870114,"connected_time":881000000000,"state":"active","ping":108},{"user_id":120,"name":"avilob","steam_id":76561198193126831,"connected_time":419000000000,"state":"active","ping":71},{"user_id":102,"name":"pyrotechnic","steam_id":76561198043558709,"connected_time":1478000000000,"state":"active","ping":105},{"user_id":122,"name":"thai","steam_id":76561198052462287,"connected_time":254000000000,"state":"active","ping":93},{"user_id":20,"name":"The Great Eagle Scourge of 1822","steam_id":76561198325086209,"connected_time":7491000000000,"state":"active","ping":89},{"user_id":114,"name":"White_Wizard_Named_Corona","steam_id":76561198055652735,"connected_time":843000000000,"state":"active","ping":68},{"user_id":115,"name":"viedoamges","steam_id":76561198025295263,"connected_time":718000000000,"state":"active","ping":52},{"user_id":104,"name":"CoCo the Crack Dealer","steam_id":76561198311592068,"connected_time":1446000000000,"state":"active","ping":77},{"user_id":26,"name":"Lamb","steam_id":76561198330819554,"connected_time":7355000000000,"state":"active","ping":89},{"user_id":98,"name":"hatsune.miku.2004","steam_id":76561198360184510,"connected_time":2105000000000,"state":"active","ping":66},{"user_id":116,"name":"Mr. CubeX","steam_id":76561198805603832,"connected_time":714000000000,"state":"active","ping":104},{"user_id":83,"name":"ĐïɐȐɹɦɆa","steam_id":76561198981411945,"connected_time":3226000000000,"state":"active","ping":76},{"user_id":74,"name":"SanitysEdge","steam_id":76561198130732813,"connected_time":3796000000000,"state":"active","ping":79},{"user_id":59,"name":"who ate the cheese","steam_id":76561198275408467,"connected_time":4889000000000,"state":"active","ping":51},{"user_id":117,"name":"Incarnadine","steam_id":76561198119684930,"connected_time":688000000000,"state":"active","ping":85},{"user_id":121,"name":"smallchild","steam_id":76561198815210285,"connected_time":413000000000,"state":"active","ping":70},{"user_id":124,"name":"Lock'd","steam_id":76561198170108230,"connected_time":41000000000,"state":"active","ping":62},{"user_id":86,"name":"Pyro Jay","steam_id":76561198082331364,"connected_time":3130000000000,"state":"active","ping":89},{"user_id":66,"name":"catfish from toontown","steam_id":76561198060070002,"connected_time":4719000000000,"state":"active","ping":63},{"user_id":68,"name":"Jimmy McGill","steam_id":76561198135137213,"connected_time":4643000000000,"state":"active","ping":50}]},{"server_id":5,"name":"Uncletopia | Frankfurt | 1 | All Maps","name_short":"frk-1","host":"frk-1.de.uncletopia.com","port":27015,"enabled":true,"region":"eu","cc":"de","latitude":50.110924,"longitude":8.682127,"reserved":0,"last_update":"0001-01-01T00:00:00Z","name_a2s":"Uncletopia | Frankfurt | 1 | All Maps","protocol":17,"map":"pl_goldrush","folder":"tf","game":"Team Fortress","app_id":440,"player_count":24,"max_players":24,"Bots":0,"server_type":"Dedicated","server_os":"Linux","password":true,"vac":true,"version":"7961495","steam_id":85568392924469989,"keywords":["nocrits","nodmgspread","payload","uncletopia"],"game_id":440,"stv_port":27016,"stv_name":"Uncletopia | Frankfurt | 1 | All Maps | STV","players":[{"user_id":941,"name":"Fu Manchu","steam_id":76561197995224539,"connected_time":3126000000000,"state":"active","ping":79},{"user_id":893,"name":"WasserGurke","steam_id":76561198372482746,"connected_time":6456000000000,"state":"active","ping":55},{"user_id":940,"name":"footballween","steam_id":76561198796143531,"connected_time":3156000000000,"state":"active","ping":57},{"user_id":930,"name":"Fidacha","steam_id":76561198003060881,"connected_time":3542000000000,"state":"active","ping":60},{"user_id":967,"name":"MR BUBBLES","steam_id":76561198019005259,"connected_time":1107000000000,"state":"active","ping":98},{"user_id":978,"name":"joachym","steam_id":76561198428579761,"connected_time":322000000000,"state":"active","ping":61},{"user_id":977,"name":"Qdarks","steam_id":76561198013391340,"connected_time":486000000000,"state":"active","ping":145},{"user_id":968,"name":"agent_richi","steam_id":76561199218542987,"connected_time":1103000000000,"state":"active","ping":51},{"user_id":979,"name":"snowii","steam_id":76561198836246326,"connected_time":319000000000,"state":"active","ping":95},{"user_id":970,"name":"markettin","steam_id":76561198159222202,"connected_time":1064000000000,"state":"active","ping":67},{"user_id":964,"name":"Nuuskis","steam_id":76561198084042012,"connected_time":1487000000000,"state":"active","ping":83},{"user_id":971,"name":"frutta","steam_id":76561198131786352,"connected_time":1045000000000,"state":"active","ping":91},{"user_id":975,"name":"TheDeath","steam_id":76561198265038954,"connected_time":795000000000,"state":"active","ping":70},{"user_id":947,"name":"pardner","steam_id":76561198451471161,"connected_time":2585000000000,"state":"active","ping":66},{"user_id":980,"name":"Joe","steam_id":76561198145639903,"connected_time":296000000000,"state":"active","ping":104},{"user_id":981,"name":"otto","steam_id":76561198888223024,"connected_time":197000000000,"state":"active","ping":161},{"user_id":961,"name":"Coke Zero","steam_id":76561198158562873,"connected_time":1688000000000,"state":"active","ping":62},{"user_id":956,"name":"Joo ♦","steam_id":76561197987609203,"connected_time":1950000000000,"state":"active","ping":73},{"user_id":982,"name":"randompixel","steam_id":76561198003941207,"connected_time":131000000000,"state":"active","ping":70},{"user_id":957,"name":"Tormax","steam_id":76561197961182658,"connected_time":1933000000000,"state":"active","ping":92},{"user_id":935,"name":"Dr. Jabbinton","steam_id":76561198180007387,"connected_time":3412000000000,"state":"active","ping":53},{"user_id":963,"name":"Hyppy ja liipasin pohjaan :D","steam_id":76561198080669698,"connected_time":1585000000000,"state":"active","ping":113},{"user_id":966,"name":"sokige","steam_id":76561198167112371,"connected_time":1363000000000,"state":"active","ping":93},{"user_id":853,"name":"Syll","steam_id":76561198040736202,"connected_time":9176000000000,"state":"active","ping":89}]},{"server_id":110,"name":"Uncletopia | Frankfurt | 2 | All Maps","name_short":"frk-2","host":"frk-1.de.uncletopia.com","port":27025,"enabled":true,"region":"eu","cc":"de","latitude":50.110924,"longitude":8.682127,"reserved":0,"last_update":"0001-01-01T00:00:00Z","name_a2s":"Uncletopia | Frankfurt | 2 | All Maps","protocol":17,"map":"koth_viaduct","folder":"tf","game":"Team Fortress","app_id":440,"player_count":0,"max_players":24,"Bots":0,"server_type":"Dedicated","server_os":"Linux","password":true,"vac":true,"version":"7961495","steam_id":85568392924469990,"keywords":["cp","nocrits","nodmgspread","uncletopia"],"game_id":440,"stv_port":27026,"stv_name":"Uncletopia | Frankfurt | 2 | All Maps | STV","players":null},{"server_id":308,"name":"Uncletopia | Frankfurt | 3 | All Maps","name_short":"frk-3","host":"frk-1.de.uncletopia.com","port":27035,"enabled":true,"region":"eu","cc":"de","latitude":50.110924,"longitude":8.682127,"reserved":0,"last_update":"0001-01-01T00:00:00Z","name_a2s":"Uncletopia | Frankfurt | 3 | All Maps","protocol":17,"map":"cp_altitude","folder":"tf","game":"Team Fortress","app_id":440,"player_count":11,"max_players":24,"Bots":0,"server_type":"Dedicated","server_os":"Linux","password":true,"vac":true,"version":"7961495","steam_id":85568392924504274,"keywords":["cp","nocrits","nodmgspread","uncletopia"],"game_id":440,"stv_port":27036,"stv_name":"Uncletopia | Frankfurt | 3 | All Maps | STV","players":[{"user_id":540,"name":"retard medic","steam_id":76561198077421906,"connected_time":3331000000000,"state":"active","ping":53},{"user_id":555,"name":"thennui","steam_id":76561198202888356,"connected_time":1857000000000,"state":"spawning","ping":153},{"user_id":574,"name":"✧₊⁎༚","steam_id":76561199441196540,"connected_time":94000000000,"state":"active","ping":58},{"user_id":557,"name":"BELADIT","steam_id":76561198011911501,"connected_time":1847000000000,"state":"active","ping":61},{"user_id":528,"name":"sinkuchan","steam_id":76561198054012474,"connected_time":4431000000000,"state":"active","ping":54},{"user_id":549,"name":"Merciz","steam_id":76561197971808715,"connected_time":2397000000000,"state":"active","ping":82},{"user_id":573,"name":"filthy","steam_id":76561198089069719,"connected_time":115000000000,"state":"active","ping":76},{"user_id":569,"name":"Valfezant","steam_id":76561199063983797,"connected_time":764000000000,"state":"spawning","ping":216},{"user_id":561,"name":"tl.rybar","steam_id":76561197960377282,"connected_time":1778000000000,"state":"active","ping":45},{"user_id":570,"name":"kenny","steam_id":76561199102477437,"connected_time":641000000000,"state":"active","ping":103},{"user_id":562,"name":"Not Sussy Tanuki","steam_id":76561198137289375,"connected_time":1719000000000,"state":"active","ping":92}]},{"server_id":309,"name":"Uncletopia | Frankfurt | 4 | All Maps","name_short":"frk-4","host":"frk-1.de.uncletopia.com","port":27045,"enabled":true,"region":"eu","cc":"de","latitude":50.110924,"longitude":8.682127,"reserved":0,"last_update":"0001-01-01T00:00:00Z","name_a2s":"Uncletopia | Frankfurt | 4 | All Maps","protocol":17,"map":"koth_highpass","folder":"tf","game":"Team Fortress","app_id":440,"player_count":0,"max_players":24,"Bots":0,"server_type":"Dedicated","server_os":"Linux","password":true,"vac":true,"version":"7961495","steam_id":85568392924504275,"keywords":["cp","nocrits","nodmgspread","uncletopia"],"game_id":440,"stv_port":27046,"stv_name":"Uncletopia | Frankfurt | 4 | All Maps | STV","players":null},{"server_id":310,"name":"Uncletopia | Frankfurt | 5 | All Maps","name_short":"frk-5","host":"frk-1.de.uncletopia.com","port":27055,"enabled":true,"region":"eu","cc":"de","latitude":50.110924,"longitude":8.682127,"reserved":0,"last_update":"0001-01-01T00:00:00Z","name_a2s":"Uncletopia | Frankfurt | 5 | All Maps","protocol":17,"map":"pl_borneo","folder":"tf","game":"Team Fortress","app_id":440,"player_count":23,"max_players":24,"Bots":0,"server_type":"Dedicated","server_os":"Linux","password":true,"vac":true,"version":"7961495","steam_id":85568392924504277,"keywords":["nocrits","nodmgspread","payload","uncletopia"],"game_id":440,"stv_port":27056,"stv_name":"Uncletopia | Frankfurt | 5 | All Maps | STV","players":[{"user_id":778,"name":"Mälli Jari","steam_id":76561198060954095,"connected_time":749000000000,"state":"active","ping":94},{"user_id":781,"name":"Veethicc","steam_id":76561198064043209,"connected_time":725000000000,"state":"active","ping":59},{"user_id":782,"name":"tone","steam_id":76561197975301462,"connected_time":640000000000,"state":"active","ping":106},{"user_id":771,"name":"etc","steam_id":76561197998394797,"connected_time":1004000000000,"state":"active","ping":48},{"user_id":792,"name":"SparkyDoodles - Artist","steam_id":76561198060128235,"connected_time":44000000000,"state":"active","ping":73},{"user_id":795,"name":"OogaBoogaGla","steam_id":76561198110556073,"connected_time":24000000000,"state":"spawning","ping":72},{"user_id":783,"name":"meistjr","steam_id":76561198077240093,"connected_time":594000000000,"state":"active","ping":60},{"user_id":784,"name":"Toasted Toby","steam_id":76561198002139581,"connected_time":567000000000,"state":"active","ping":69},{"user_id":733,"name":"sHIFTINGvORTEX","steam_id":76561198231648332,"connected_time":3264000000000,"state":"active","ping":76},{"user_id":794,"name":"HexStar","steam_id":76561198114027574,"connected_time":37000000000,"state":"active","ping":75},{"user_id":787,"name":".jekeb","steam_id":76561198073126202,"connected_time":481000000000,"state":"active","ping":59},{"user_id":788,"name":"jones","steam_id":76561198044434971,"connected_time":472000000000,"state":"active","ping":58},{"user_id":723,"name":"Sabour","steam_id":76561197963965445,"connected_time":4697000000000,"state":"active","ping":60},{"user_id":766,"name":"The economy","steam_id":76561198358275344,"connected_time":1398000000000,"state":"active","ping":69},{"user_id":750,"name":"azzy","steam_id":76561198061293740,"connected_time":2273000000000,"state":"active","ping":75},{"user_id":737,"name":"Phalcon","steam_id":76561197987051394,"connected_time":3105000000000,"state":"active","ping":64},{"user_id":763,"name":"Doctor Rudy G. Numpad","steam_id":76561198440881106,"connected_time":1525000000000,"state":"active","ping":71},{"user_id":789,"name":"barker","steam_id":76561198128319767,"connected_time":470000000000,"state":"active","ping":48},{"user_id":797,"name":"Duane Adelier","steam_id":76561198132233372,"connected_time":5000000000,"state":"spawning","ping":78},{"user_id":551,"name":"else1","steam_id":76561197996558319,"connected_time":16450000000000,"state":"active","ping":75},{"user_id":738,"name":"DarthMurloc_OW","steam_id":76561198075577711,"connected_time":3096000000000,"state":"active","ping":68},{"user_id":796,"name":"rummy","steam_id":76561197997573379,"connected_time":14000000000,"state":"active","ping":89},{"user_id":791,"name":"Stop The Violence","steam_id":76561198044876779,"connected_time":377000000000,"state":"active","ping":77}]},{"server_id":311,"name":"Uncletopia | Frankfurt | 6 | All Maps","name_short":"frk-6","host":"frk-1.de.uncletopia.com","port":27065,"enabled":true,"region":"eu","cc":"de","latitude":50.110924,"longitude":8.682127,"reserved":0,"last_update":"0001-01-01T00:00:00Z","name_a2s":"Uncletopia | Frankfurt | 6 | All Maps","protocol":17,"map":"pl_frontier_final","folder":"tf","game":"Team Fortress","app_id":440,"player_count":0,"max_players":24,"Bots":0,"server_type":"Dedicated","server_os":"Linux","password":true,"vac":true,"version":"7961495","steam_id":85568392924504278,"keywords":["nocrits","nodmgspread","payload","uncletopia"],"game_id":440,"stv_port":27066,"stv_name":"Uncletopia | Frankfurt | 6 | All Maps | STV","players":null},{"server_id":23,"name":"Uncletopia | Frankfurt | 7 | Stopwatch","name_short":"frk-7","host":"frk-1.de.uncletopia.com","port":27075,"enabled":true,"region":"eu","cc":"de","latitude":50.110924,"longitude":8.682127,"reserved":0,"last_update":"0001-01-01T00:00:00Z","name_a2s":"Uncletopia | Frankfurt | 7 | Stopwatch","protocol":17,"map":"workshop/pl_vigil_rc10.ugc1266210012","folder":"tf","game":"Team Fortress","app_id":440,"player_count":0,"max_players":24,"Bots":0,"server_type":"Dedicated","server_os":"Linux","password":true,"vac":true,"version":"7961495","steam_id":85568392924742827,"keywords":["nocrits","nodmgspread","payload","uncletopia"],"game_id":440,"stv_port":27076,"stv_name":"Uncletopia | Frankfurt | 7 | Stopwatch | STV","players":null},{"server_id":24,"name":"Uncletopia | Frankfurt | 8 | Community","name_short":"frk-8","host":"frk-1.de.uncletopia.com","port":27085,"enabled":true,"region":"eu","cc":"de","latitude":50.110924,"longitude":8.682127,"reserved":0,"last_update":"0001-01-01T00:00:00Z","name_a2s":"Uncletopia | Frankfurt | 8 | Community","protocol":17,"map":"workshop/cp_bruhstbowl_b6.ugc2878604990","folder":"tf","game":"Team Fortress","app_id":440,"player_count":0,"max_players":24,"Bots":0,"server_type":"Dedicated","server_os":"Linux","password":true,"vac":true,"version":"7961495","steam_id":85568392924742828,"keywords":["cp","nocrits","nodmgspread","uncletopia"],"game_id":440,"stv_port":27086,"stv_name":"Uncletopia | Frankfurt | 8 | Community | STV","players":null},{"server_id":202,"name":"Uncletopia | Hong Kong | 1 | All Maps","name_short":"hgk-1","host":"hgk-1.hk.uncletopia.com","port":27015,"enabled":true,"region":"asia","cc":"hk","latitude":22.302711,"longitude":114.177216,"reserved":0,"last_update":"0001-01-01T00:00:00Z","name_a2s":"Uncletopia | Hong Kong | 1 | All Maps","protocol":17,"map":"pl_frontier_final","folder":"tf","game":"Team Fortress","app_id":440,"player_count":0,"max_players":24,"Bots":0,"server_type":"Dedicated","server_os":"Linux","password":true,"vac":true,"version":"7961495","steam_id":85568392924494504,"keywords":["nocrits","nodmgspread","payload","uncletopia"],"game_id":440,"stv_port":27016,"stv_name":"Uncletopia | Hong Kong | 1 | All Maps | STV","players":null},{"server_id":1,"name":"Uncletopia | Los Angeles | 1 | All Maps","name_short":"lax-1","host":"lax-1.us.uncletopia.com","port":27015,"enabled":true,"region":"us-west","cc":"us","latitude":33.94279,"longitude":-118.41004,"reserved":0,"last_update":"0001-01-01T00:00:00Z","name_a2s":"Uncletopia | Los Angeles | 1 | All Maps","protocol":17,"map":"pl_upward","folder":"tf","game":"Team Fortress","app_id":440,"player_count":1,"max_players":24,"Bots":0,"server_type":"Dedicated","server_os":"Linux","password":true,"vac":true,"version":"7961495","steam_id":85568392924469991,"keywords":["nocrits","nodmgspread","payload","uncletopia"],"game_id":440,"stv_port":27016,"stv_name":"Uncletopia | Los Angeles | 1 | All Maps | STV","players":[{"user_id":16,"name":"TheDoctorIsIn","steam_id":76561198322058639,"connected_time":175000000000,"state":"active","ping":372}]},{"server_id":112,"name":"Uncletopia | Los Angeles | 2 | All Maps","name_short":"lax-2","host":"lax-1.us.uncletopia.com","port":27025,"enabled":true,"region":"us-west","cc":"us","latitude":33.94279,"longitude":-118.41004,"reserved":0,"last_update":"0001-01-01T00:00:00Z","name_a2s":"Uncletopia | Los Angeles | 2 | All Maps","protocol":17,"map":"pl_barnblitz","folder":"tf","game":"Team Fortress","app_id":440,"player_count":24,"max_players":24,"Bots":0,"server_type":"Dedicated","server_os":"Linux","password":true,"vac":true,"version":"7961495","steam_id":85568392924469992,"keywords":["nocrits","nodmgspread","payload","uncletopia"],"game_id":440,"stv_port":27026,"stv_name":"Uncletopia | Los Angeles | 2 | All Maps | STV","players":[{"user_id":40,"name":"Seshreb","steam_id":76561198846614634,"connected_time":1894000000000,"state":"active","ping":61},{"user_id":22,"name":"Tmiracle","steam_id":76561198052375275,"connected_time":2912000000000,"state":"active","ping":50},{"user_id":25,"name":"usedhalfcart","steam_id":76561198072621852,"connected_time":2689000000000,"state":"active","ping":74},{"user_id":65,"name":"jdm","steam_id":76561199497603020,"connected_time":527000000000,"state":"active","ping":49},{"user_id":62,"name":"Grilled Jizo","steam_id":76561199250875340,"connected_time":544000000000,"state":"active","ping":91},{"user_id":61,"name":"SneekiCheekiQbone","steam_id":76561198045077980,"connected_time":1011000000000,"state":"active","ping":45},{"user_id":29,"name":"imng","steam_id":76561198014988031,"connected_time":2393000000000,"state":"active","ping":100},{"user_id":48,"name":"Bly","steam_id":76561198824691581,"connected_time":1697000000000,"state":"active","ping":119},{"user_id":31,"name":"Jojogun0","steam_id":76561198058545921,"connected_time":2381000000000,"state":"active","ping":120},{"user_id":67,"name":"XxDragon4321xX","steam_id":76561198046705735,"connected_time":78000000000,"state":"active","ping":69},{"user_id":59,"name":"Alejandro","steam_id":76561197970051493,"connected_time":1177000000000,"state":"active","ping":151},{"user_id":36,"name":"MusicalRenard","steam_id":76561198028505926,"connected_time":2107000000000,"state":"active","ping":55},{"user_id":38,"name":"[☯] randomshagz*","steam_id":76561197968666646,"connected_time":2028000000000,"state":"active","ping":61},{"user_id":39,"name":"PercNowitzki","steam_id":76561198278942481,"connected_time":1934000000000,"state":"active","ping":53},{"user_id":55,"name":"François Viète","steam_id":76561198072975518,"connected_time":1421000000000,"state":"active","ping":101},{"user_id":42,"name":"Platinum","steam_id":76561198052463484,"connected_time":1831000000000,"state":"active","ping":50},{"user_id":43,"name":"Velika, Necro Master","steam_id":76561198063445881,"connected_time":1827000000000,"state":"active","ping":90},{"user_id":49,"name":"Who","steam_id":76561198013049671,"connected_time":1681000000000,"state":"active","ping":57},{"user_id":45,"name":"awe","steam_id":76561198338739253,"connected_time":1808000000000,"state":"active","ping":61},{"user_id":57,"name":"Gyr0sphere","steam_id":76561198183900735,"connected_time":1278000000000,"state":"active","ping":62},{"user_id":51,"name":"professional twelve year old","steam_id":76561198858796870,"connected_time":1616000000000,"state":"active","ping":71},{"user_id":60,"name":"Hasterberg","steam_id":76561198968097614,"connected_time":1056000000000,"state":"active","ping":57},{"user_id":58,"name":"hyaz, +rep.","steam_id":76561199100342013,"connected_time":1277000000000,"state":"active","ping":50},{"user_id":64,"name":"The Geezer Bandit","steam_id":76561199059733640,"connected_time":544000000000,"state":"active","ping":48}]},{"server_id":324,"name":"Uncletopia | Los Angeles | 3 | All Maps","name_short":"lax-3","host":"lax-1.us.uncletopia.com","port":27035,"enabled":true,"region":"us-west","cc":"us","latitude":33.94279,"longitude":-118.41004,"reserved":0,"last_update":"0001-01-01T00:00:00Z","name_a2s":"Uncletopia | Los Angeles | 3 | All Maps","protocol":17,"map":"pl_upward","folder":"tf","game":"Team Fortress","app_id":440,"player_count":0,"max_players":24,"Bots":0,"server_type":"Dedicated","server_os":"Linux","password":true,"vac":true,"version":"7961495","steam_id":85568392924510198,"keywords":["nocrits","nodmgspread","payload","uncletopia"],"game_id":440,"stv_port":27036,"stv_name":"Uncletopia | Los Angeles | 3 | All Maps | STV","players":null},{"server_id":25,"name":"Uncletopia | Los Angeles | 4 | Stopwatch","name_short":"lax-4","host":"lax-1.us.uncletopia.com","port":27045,"enabled":true,"region":"us-west","cc":"us","latitude":33.94279,"longitude":-118.41004,"reserved":0,"last_update":"0001-01-01T00:00:00Z","name_a2s":"Uncletopia | Los Angeles | 4 | Stopwatch","protocol":17,"map":"pl_barnblitz","folder":"tf","game":"Team Fortress","app_id":440,"player_count":0,"max_players":24,"Bots":0,"server_type":"Dedicated","server_os":"Linux","password":true,"vac":true,"version":"7961495","steam_id":85568392924510199,"keywords":["nocrits","nodmgspread","payload","uncletopia"],"game_id":440,"stv_port":27046,"stv_name":"Uncletopia | Los Angeles | 4 | Stopwatch | STV","players":null},{"server_id":11,"name":"Uncletopia | London | 1 | All Maps","name_short":"lon-1","host":"lon-1.uk.uncletopia.com","port":27015,"enabled":true,"region":"eu","cc":"gb","latitude":51.509865,"longitude":-0.118092,"reserved":0,"last_update":"0001-01-01T00:00:00Z","name_a2s":"Uncletopia | London | 1 | All Maps","protocol":17,"map":"pl_upward","folder":"tf","game":"Team Fortress","app_id":440,"player_count":24,"max_players":24,"Bots":0,"server_type":"Dedicated","server_os":"Linux","password":true,"vac":true,"version":"7961495","steam_id":85568392924367362,"keywords":["nocrits","nodmgspread","payload","uncletopia"],"game_id":440,"stv_port":27016,"stv_name":"Uncletopia | London | 1 | All Maps | STV","players":[{"user_id":689,"name":"TEACUPS AND KETTLES","steam_id":76561198083017384,"connected_time":2455000000000,"state":"active","ping":82},{"user_id":715,"name":"gibb (official)","steam_id":76561198074097655,"connected_time":537000000000,"state":"active","ping":106},{"user_id":684,"name":"Aaron","steam_id":76561197990046953,"connected_time":3594000000000,"state":"active","ping":56},{"user_id":604,"name":"SuperBob103","steam_id":76561199175360012,"connected_time":12244000000000,"state":"active","ping":46},{"user_id":686,"name":"irritable vowel syndrome","steam_id":76561198117033273,"connected_time":3455000000000,"state":"active","ping":53},{"user_id":713,"name":"Tree","steam_id":76561197989948420,"connected_time":961000000000,"state":"active","ping":58},{"user_id":653,"name":"Borat","steam_id":76561198122226417,"connected_time":6416000000000,"state":"active","ping":45},{"user_id":699,"name":"frosty","steam_id":76561198094560834,"connected_time":1239000000000,"state":"active","ping":45},{"user_id":718,"name":"Klorophyte","steam_id":76561198885112655,"connected_time":327000000000,"state":"active","ping":126},{"user_id":712,"name":"GLUEEATER hedon","steam_id":76561198249832770,"connected_time":1013000000000,"state":"active","ping":45},{"user_id":670,"name":"bebed bedba bedda","steam_id":76561198277943630,"connected_time":4440000000000,"state":"active","ping":78},{"user_id":706,"name":"Shallaska","steam_id":76561198019030896,"connected_time":1081000000000,"state":"active","ping":85},{"user_id":702,"name":"Peaky","steam_id":76561198107751532,"connected_time":1141000000000,"state":"active","ping":64},{"user_id":696,"name":"Fissure","steam_id":76561198272595481,"connected_time":1406000000000,"state":"active","ping":70},{"user_id":698,"name":"SOPHIIAA","steam_id":76561198443798981,"connected_time":1323000000000,"state":"active","ping":75},{"user_id":700,"name":"Štěpán","steam_id":76561198275742101,"connected_time":1227000000000,"state":"active","ping":70},{"user_id":643,"name":"beebo","steam_id":76561199120277007,"connected_time":7805000000000,"state":"active","ping":61},{"user_id":673,"name":"breakfast burrito","steam_id":76561198148606969,"connected_time":4133000000000,"state":"active","ping":79},{"user_id":717,"name":"teddy","steam_id":76561198007436837,"connected_time":480000000000,"state":"active","ping":75},{"user_id":678,"name":"sora","steam_id":76561198096547662,"connected_time":4039000000000,"state":"active","ping":53},{"user_id":720,"name":"simon","steam_id":76561198160514633,"connected_time":115000000000,"state":"active","ping":62},{"user_id":680,"name":"Purps","steam_id":76561198053886680,"connected_time":3856000000000,"state":"active","ping":47},{"user_id":705,"name":"Doc","steam_id":76561198025886068,"connected_time":1109000000000,"state":"active","ping":119},{"user_id":649,"name":"Mei","steam_id":76561198363464483,"connected_time":7078000000000,"state":"active","ping":83}]},{"server_id":114,"name":"Uncletopia | London | 2 | All Maps","name_short":"lon-2","host":"lon-1.uk.uncletopia.com","port":27025,"enabled":true,"region":"eu","cc":"gb","latitude":51.509865,"longitude":-0.118092,"reserved":0,"last_update":"0001-01-01T00:00:00Z","name_a2s":"Uncletopia | London | 2 | All Maps","protocol":17,"map":"pl_frontier_final","folder":"tf","game":"Team Fortress","app_id":440,"player_count":24,"max_players":24,"Bots":0,"server_type":"Dedicated","server_os":"Linux","password":true,"vac":true,"version":"7961495","steam_id":85568392924470941,"keywords":["nocrits","nodmgspread","payload","uncletopia"],"game_id":440,"stv_port":27026,"stv_name":"Uncletopia | London | 2 | All Maps | STV","players":[{"user_id":959,"name":"BuzzBees ❤","steam_id":76561198101502273,"connected_time":309000000000,"state":"active","ping":60},{"user_id":957,"name":"H-say","steam_id":76561198177400362,"connected_time":658000000000,"state":"active","ping":98},{"user_id":961,"name":"kriegabald","steam_id":76561198072987833,"connected_time":82000000000,"state":"active","ping":61},{"user_id":941,"name":"Bobirulez","steam_id":76561198009125458,"connected_time":1037000000000,"state":"active","ping":105},{"user_id":942,"name":"NeonNewt","steam_id":76561198066699212,"connected_time":977000000000,"state":"active","ping":52},{"user_id":926,"name":"volkiano","steam_id":76561198319802031,"connected_time":2229000000000,"state":"active","ping":45},{"user_id":947,"name":"Sorexsum","steam_id":76561198137086495,"connected_time":895000000000,"state":"active","ping":64},{"user_id":943,"name":"OutOfDucks","steam_id":76561198166376227,"connected_time":953000000000,"state":"active","ping":62},{"user_id":964,"name":"\"med u suck\" - my tf2c team","steam_id":76561198051852765,"connected_time":32000000000,"state":"active","ping":75},{"user_id":929,"name":"cold#panda","steam_id":76561199220136710,"connected_time":1847000000000,"state":"active","ping":121},{"user_id":956,"name":"Leo","steam_id":76561198277086310,"connected_time":760000000000,"state":"active","ping":54},{"user_id":936,"name":"Mr_Pulse_","steam_id":76561198095001602,"connected_time":1285000000000,"state":"active","ping":101},{"user_id":945,"name":"Sentry Gun (Mahitmal)","steam_id":76561198254664484,"connected_time":937000000000,"state":"active","ping":45},{"user_id":946,"name":"Doctor Marijuana","steam_id":76561198288289879,"connected_time":924000000000,"state":"active","ping":46},{"user_id":962,"name":":|","steam_id":76561198145232617,"connected_time":79000000000,"state":"active","ping":38},{"user_id":949,"name":"Paste","steam_id":76561198139275322,"connected_time":864000000000,"state":"active","ping":106},{"user_id":950,"name":"tone'","steam_id":76561198055552635,"connected_time":853000000000,"state":"active","ping":63},{"user_id":888,"name":"The Lady","steam_id":76561198029895809,"connected_time":4634000000000,"state":"active","ping":85},{"user_id":951,"name":"syms","steam_id":76561198066679812,"connected_time":833000000000,"state":"active","ping":86},{"user_id":952,"name":"Tri-","steam_id":76561198133524794,"connected_time":828000000000,"state":"active","ping":75},{"user_id":953,"name":"🃔 Katarina","steam_id":76561198065652251,"connected_time":826000000000,"state":"active","ping":49},{"user_id":954,"name":"KittyKate ❤","steam_id":76561198116340817,"connected_time":824000000000,"state":"active","ping":94},{"user_id":955,"name":"sad monkey","steam_id":76561198116530769,"connected_time":818000000000,"state":"active","ping":87}]},{"server_id":320,"name":"Uncletopia | London | 3 | All Maps","name_short":"lon-3","host":"lon-1.uk.uncletopia.com","port":27035,"enabled":true,"region":"eu","cc":"gb","latitude":51.509865,"longitude":-0.118092,"reserved":0,"last_update":"0001-01-01T00:00:00Z","name_a2s":"Uncletopia | London | 3 | All Maps","protocol":17,"map":"koth_viaduct","folder":"tf","game":"Team Fortress","app_id":440,"player_count":0,"max_players":24,"Bots":0,"server_type":"Dedicated","server_os":"Linux","password":true,"vac":true,"version":"7961495","steam_id":85568392924510192,"keywords":["cp","nocrits","nodmgspread","uncletopia"],"game_id":440,"stv_port":27036,"stv_name":"Uncletopia | London | 3 | All Maps | STV","players":null},{"server_id":321,"name":"Uncletopia | London | 4 | All Maps","name_short":"lon-4","host":"lon-1.uk.uncletopia.com","port":27045,"enabled":true,"region":"eu","cc":"gb","latitude":51.509865,"longitude":-0.118092,"reserved":0,"last_update":"0001-01-01T00:00:00Z","name_a2s":"Uncletopia | London | 4 | All Maps","protocol":17,"map":"pl_snowycoast","folder":"tf","game":"Team Fortress","app_id":440,"player_count":0,"max_players":24,"Bots":0,"server_type":"Dedicated","server_os":"Linux","password":true,"vac":true,"version":"7961495","steam_id":85568392924510193,"keywords":["nocrits","nodmgspread","payload","uncletopia"],"game_id":440,"stv_port":27046,"stv_name":"Uncletopia | London | 4 | All Maps | STV","players":null},{"server_id":21,"name":"Uncletopia | London | 5 | All Maps","name_short":"lon-5","host":"lon-1.uk.uncletopia.com","port":27055,"enabled":true,"region":"eu","cc":"gb","latitude":51.509865,"longitude":-0.118092,"reserved":0,"last_update":"0001-01-01T00:00:00Z","name_a2s":"Uncletopia | London | 5 | All Maps","protocol":17,"map":"pl_upward","folder":"tf","game":"Team Fortress","app_id":440,"player_count":24,"max_players":24,"Bots":0,"server_type":"Dedicated","server_os":"Linux","password":true,"vac":true,"version":"7961495","steam_id":85568392924742829,"keywords":["nocrits","nodmgspread","payload","uncletopia"],"game_id":440,"stv_port":27056,"stv_name":"Uncletopia | London | 5 | All Maps | STV","players":[{"user_id":611,"name":"Donac Dum","steam_id":76561198064089294,"connected_time":1003000000000,"state":"active","ping":78},{"user_id":620,"name":"Tornado","steam_id":76561198025684320,"connected_time":814000000000,"state":"active","ping":74},{"user_id":623,"name":"Hunter64","steam_id":76561199121947938,"connected_time":766000000000,"state":"active","ping":87},{"user_id":621,"name":"Grog the caveman","steam_id":76561199040975062,"connected_time":812000000000,"state":"active","ping":80},{"user_id":619,"name":"Luciat","steam_id":76561198114216087,"connected_time":823000000000,"state":"active","ping":76},{"user_id":622,"name":"SpidermansHoe","steam_id":76561199245385617,"connected_time":789000000000,"state":"active","ping":91},{"user_id":624,"name":"demi-god","steam_id":76561198218440699,"connected_time":765000000000,"state":"active","ping":109},{"user_id":584,"name":"u snooze u loose","steam_id":76561198040690770,"connected_time":3065000000000,"state":"active","ping":53},{"user_id":625,"name":"Knightmare","steam_id":76561198153019338,"connected_time":760000000000,"state":"active","ping":90},{"user_id":633,"name":"Jayem","steam_id":76561198076470685,"connected_time":568000000000,"state":"active","ping":99},{"user_id":591,"name":"PxE","steam_id":76561198038034899,"connected_time":2498000000000,"state":"active","ping":89},{"user_id":626,"name":"Collisto","steam_id":76561198023609460,"connected_time":746000000000,"state":"active","ping":116},{"user_id":627,"name":"slothm442","steam_id":76561199487265826,"connected_time":745000000000,"state":"active","ping":117},{"user_id":555,"name":"Cosmetic brain","steam_id":76561198055936410,"connected_time":4871000000000,"state":"active","ping":90},{"user_id":600,"name":"ack","steam_id":76561198139796077,"connected_time":1682000000000,"state":"active","ping":88},{"user_id":601,"name":"Sid","steam_id":76561198150774595,"connected_time":1566000000000,"state":"active","ping":45},{"user_id":628,"name":"goblin","steam_id":76561198170334258,"connected_time":720000000000,"state":"active","ping":81},{"user_id":603,"name":"Freshwater Shrimp","steam_id":76561198079492726,"connected_time":1519000000000,"state":"active","ping":114},{"user_id":630,"name":"Real (Real)","steam_id":76561198323425034,"connected_time":676000000000,"state":"active","ping":68},{"user_id":604,"name":"Cranbury","steam_id":76561198079170457,"connected_time":1510000000000,"state":"active","ping":46},{"user_id":631,"name":"Doggo336","steam_id":76561198166707002,"connected_time":662000000000,"state":"active","ping":44},{"user_id":632,"name":"boppy","steam_id":76561199222546982,"connected_time":601000000000,"state":"active","ping":50},{"user_id":590,"name":"Luuklin","steam_id":76561198093127283,"connected_time":2604000000000,"state":"active","ping":65},{"user_id":608,"name":"Clique","steam_id":76561198184360615,"connected_time":1305000000000,"state":"active","ping":124}]},{"server_id":22,"name":"Uncletopia | London | 6 | All Maps","name_short":"lon-6","host":"lon-1.uk.uncletopia.com","port":27065,"enabled":true,"region":"eu","cc":"gb","latitude":51.509865,"longitude":-0.118092,"reserved":0,"last_update":"0001-01-01T00:00:00Z","name_a2s":"Uncletopia | London | 6 | All Maps","protocol":17,"map":"plr_nightfall_final","folder":"tf","game":"Team Fortress","app_id":440,"player_count":0,"max_players":24,"Bots":0,"server_type":"Dedicated","server_os":"Linux","password":true,"vac":true,"version":"7961495","steam_id":85568392924742830,"keywords":["nocrits","nodmgspread","payload","uncletopia"],"game_id":440,"stv_port":27066,"stv_name":"Uncletopia | London | 6 | All Maps | STV","players":null},{"server_id":40,"name":"Uncletopia | London | 7 | Stopwatch","name_short":"lon-7","host":"lon-1.uk.uncletopia.com","port":27075,"enabled":true,"region":"eu","cc":"gb","latitude":51.509865,"longitude":-0.118092,"reserved":0,"last_update":"0001-01-01T00:00:00Z","name_a2s":"Uncletopia | London | 7 | Stopwatch","protocol":17,"map":"workshop/pl_barnblitz_pro7.ugc582280235","folder":"tf","game":"Team Fortress","app_id":440,"player_count":0,"max_players":24,"Bots":0,"server_type":"Dedicated","server_os":"Linux","password":true,"vac":true,"version":"7961495","steam_id":85568392924964314,"keywords":["nocrits","nodmgspread","payload","uncletopia"],"game_id":440,"stv_port":27076,"stv_name":"Uncletopia | London | 7 | Stopwatch | STV","players":null},{"server_id":41,"name":"Uncletopia | London | 8 | Community","name_short":"lon-8","host":"lon-1.uk.uncletopia.com","port":27085,"enabled":true,"region":"eu","cc":"gb","latitude":51.509865,"longitude":-0.118092,"reserved":0,"last_update":"0001-01-01T00:00:00Z","name_a2s":"Uncletopia | London | 8 | Community","protocol":17,"map":"workshop/pl_highwood_b13.ugc1769496557","folder":"tf","game":"Team Fortress","app_id":440,"player_count":0,"max_players":24,"Bots":0,"server_type":"Dedicated","server_os":"Linux","password":true,"vac":true,"version":"7961495","steam_id":85568392924964315,"keywords":["nocrits","nodmgspread","payload","uncletopia"],"game_id":440,"stv_port":27086,"stv_name":"Uncletopia | London | 8 | Community | STV","players":null},{"server_id":300,"name":"Uncletopia | Montréal | 1 | One Thousand Uncles","name_short":"mtl-1","host":"mtl-1.ca.uncletopia.com","port":27015,"enabled":true,"region":"us-east","cc":"ca","latitude":45.50889,"longitude":-73.56167,"reserved":0,"last_update":"0001-01-01T00:00:00Z","name_a2s":"","protocol":0,"map":"","folder":"","game":"","app_id":0,"player_count":5,"max_players":0,"Bots":0,"server_type":"","server_os":"","password":false,"vac":false,"version":"","steam_id":0,"keywords":null,"game_id":0,"stv_port":0,"stv_name":"","players":[{"user_id":331,"name":"a1hogdogsupply","steam_id":76561199465443397,"connected_time":6528000000000,"state":"active","ping":111},{"user_id":412,"name":"Seek \u0026 Destroy","steam_id":76561199153776236,"connected_time":1618000000000,"state":"active","ping":73},{"user_id":416,"name":"Cervidé","steam_id":76561198098579497,"connected_time":814000000000,"state":"active","ping":32},{"user_id":410,"name":"ALLNIGHTRIOT","steam_id":76561198061667773,"connected_time":2444000000000,"state":"active","ping":70},{"user_id":390,"name":"Poyo Boyo","steam_id":76561198010201227,"connected_time":2928000000000,"state":"active","ping":60}]},{"server_id":301,"name":"Uncletopia | Montréal | 2 | One Thousand Uncles","name_short":"mtl-2","host":"mtl-1.ca.uncletopia.com","port":27025,"enabled":true,"region":"us-east","cc":"ca","latitude":45.50889,"longitude":-73.56167,"reserved":0,"last_update":"0001-01-01T00:00:00Z","name_a2s":"","protocol":0,"map":"","folder":"","game":"","app_id":0,"player_count":3,"max_players":0,"Bots":0,"server_type":"","server_os":"","password":false,"vac":false,"version":"","steam_id":0,"keywords":null,"game_id":0,"stv_port":0,"stv_name":"","players":[{"user_id":89,"name":"The Fragrance of Dark Coffee","steam_id":76561198013111370,"connected_time":2661000000000,"state":"active","ping":58},{"user_id":106,"name":"Jimmy Pubetron","steam_id":76561198077634776,"connected_time":2623000000000,"state":"active","ping":230},{"user_id":109,"name":"gamingontoast","steam_id":76561199128807583,"connected_time":2382000000000,"state":"active","ping":64}]},{"server_id":302,"name":"Uncletopia | Montréal | 3 | One Thousand Uncles","name_short":"mtl-3","host":"mtl-1.ca.uncletopia.com","port":27035,"enabled":true,"region":"us-east","cc":"ca","latitude":45.50889,"longitude":-73.56167,"reserved":0,"last_update":"0001-01-01T00:00:00Z","name_a2s":"","protocol":0,"map":"","folder":"","game":"","app_id":0,"player_count":4,"max_players":0,"Bots":0,"server_type":"","server_os":"","password":false,"vac":false,"version":"","steam_id":0,"keywords":null,"game_id":0,"stv_port":0,"stv_name":"","players":[{"user_id":54,"name":"CrashoQuemado","steam_id":76561199088362195,"connected_time":905000000000,"state":"active","ping":213},{"user_id":71,"name":"curi promedio","steam_id":76561199212700053,"connected_time":801000000000,"state":"active","ping":143},{"user_id":88,"name":"4","steam_id":76561198833384755,"connected_time":631000000000,"state":"active","ping":43},{"user_id":89,"name":"avantime","steam_id":76561199203175541,"connected_time":492000000000,"state":"active","ping":76}]},{"server_id":13,"name":"Uncletopia | New York City | 1 | All Maps","name_short":"nyc-1","host":"nyc-1.us.uncletopia.com","port":27015,"enabled":true,"region":"us-east","cc":"us","latitude":40.73061,"longitude":-73.93524,"reserved":0,"last_update":"0001-01-01T00:00:00Z","name_a2s":"Uncletopia | New York City | 1 | All Maps","protocol":17,"map":"pl_barnblitz","folder":"tf","game":"Team Fortress","app_id":440,"player_count":22,"max_players":24,"Bots":0,"server_type":"Dedicated","server_os":"Linux","password":true,"vac":true,"version":"7961495","steam_id":85568392924469993,"keywords":["nocrits","nodmgspread","payload","uncletopia"],"game_id":440,"stv_port":27016,"stv_name":"Uncletopia | New York City | 1 | All Maps | STV","players":[{"user_id":229,"name":"Herdez Hot Salsa","steam_id":76561197991740906,"connected_time":1309000000000,"state":"active","ping":66},{"user_id":214,"name":"nhbiker","steam_id":76561198081277675,"connected_time":1974000000000,"state":"active","ping":45},{"user_id":207,"name":"Joy","steam_id":76561198073690173,"connected_time":2539000000000,"state":"active","ping":55},{"user_id":240,"name":"spherewithahat","steam_id":76561199122192660,"connected_time":233000000000,"state":"active","ping":57},{"user_id":235,"name":"hihi","steam_id":76561198353388809,"connected_time":775000000000,"state":"active","ping":75},{"user_id":232,"name":"Dominias","steam_id":76561198259120452,"connected_time":1166000000000,"state":"active","ping":55},{"user_id":212,"name":"Blk_Mage_Ctype","steam_id":76561198041290184,"connected_time":2281000000000,"state":"active","ping":53},{"user_id":239,"name":"Stonks","steam_id":76561199490085068,"connected_time":716000000000,"state":"active","ping":62},{"user_id":227,"name":"puddles","steam_id":76561198110832624,"connected_time":1536000000000,"state":"active","ping":76},{"user_id":223,"name":"Lucille_Bluth","steam_id":76561198206133916,"connected_time":1697000000000,"state":"active","ping":70},{"user_id":233,"name":"CornDog","steam_id":76561198249446918,"connected_time":960000000000,"state":"active","ping":34},{"user_id":186,"name":"algebruh","steam_id":76561199379415267,"connected_time":4597000000000,"state":"active","ping":82},{"user_id":204,"name":"caberknight tf2  (f2p-ish)","steam_id":76561199273882768,"connected_time":2666000000000,"state":"active","ping":61},{"user_id":217,"name":"Ass Clapius","steam_id":76561199501253431,"connected_time":1917000000000,"state":"active","ping":32},{"user_id":225,"name":"spimtmot733","steam_id":76561199029189825,"connected_time":1634000000000,"state":"active","ping":62},{"user_id":213,"name":"Matthew McConaughey","steam_id":76561198091893367,"connected_time":2096000000000,"state":"active","ping":58},{"user_id":226,"name":"87987974","steam_id":76561198046948758,"connected_time":1614000000000,"state":"active","ping":84},{"user_id":187,"name":"SuperNovaFox","steam_id":76561198052172564,"connected_time":4595000000000,"state":"active","ping":77},{"user_id":234,"name":"meinsword","steam_id":76561198272653535,"connected_time":790000000000,"state":"active","ping":70},{"user_id":163,"name":"Femboy Medic Main","steam_id":76561198268225109,"connected_time":6836000000000,"state":"active","ping":80},{"user_id":195,"name":"Mirelas","steam_id":76561198839360212,"connected_time":3143000000000,"state":"active","ping":78},{"user_id":237,"name":"Mad Rex512","steam_id":76561198193533117,"connected_time":766000000000,"state":"active","ping":60}]},{"server_id":14,"name":"Uncletopia | New York City | 2 | All Maps","name_short":"nyc-2","host":"nyc-1.us.uncletopia.com","port":27025,"enabled":true,"region":"us-east","cc":"us","latitude":40.73061,"longitude":-73.93524,"reserved":0,"last_update":"0001-01-01T00:00:00Z","name_a2s":"Uncletopia | New York City | 2 | All Maps","protocol":17,"map":"pl_pier","folder":"tf","game":"Team Fortress","app_id":440,"player_count":24,"max_players":24,"Bots":0,"server_type":"Dedicated","server_os":"Linux","password":true,"vac":true,"version":"7961495","steam_id":85568392924469994,"keywords":["nocrits","nodmgspread","payload","uncletopia"],"game_id":440,"stv_port":27026,"stv_name":"Uncletopia | New York City | 2 | All Maps | STV","players":[{"user_id":131,"name":"BarrowBaron","steam_id":76561198013633236,"connected_time":6000000000000,"state":"active","ping":54},{"user_id":189,"name":"cyberas","steam_id":76561198257092290,"connected_time":616000000000,"state":"active","ping":70},{"user_id":152,"name":"H0wlr","steam_id":76561198012332824,"connected_time":4746000000000,"state":"active","ping":45},{"user_id":182,"name":"TheBoxWizard","steam_id":76561198447992832,"connected_time":1743000000000,"state":"active","ping":44},{"user_id":127,"name":"Grandpapi Yolpapi","steam_id":76561198010748612,"connected_time":6574000000000,"state":"active","ping":83},{"user_id":142,"name":"Voracious Puma","steam_id":76561197963621649,"connected_time":5584000000000,"state":"active","ping":89},{"user_id":158,"name":"BeerPowder","steam_id":76561198058129400,"connected_time":4074000000000,"state":"active","ping":42},{"user_id":184,"name":"Forklift the Certified","steam_id":76561198239688766,"connected_time":1681000000000,"state":"active","ping":49},{"user_id":199,"name":"leumas","steam_id":76561198240408540,"connected_time":135000000000,"state":"active","ping":44},{"user_id":177,"name":"local","steam_id":76561198068709732,"connected_time":2483000000000,"state":"active","ping":73},{"user_id":187,"name":"dumpster defender","steam_id":76561198270926835,"connected_time":734000000000,"state":"active","ping":102},{"user_id":200,"name":"TheMadHattah","steam_id":76561198066587266,"connected_time":81000000000,"state":"active","ping":71},{"user_id":193,"name":"oppenheimer style","steam_id":76561198026664629,"connected_time":451000000000,"state":"active","ping":44},{"user_id":192,"name":"GigaPenguin","steam_id":76561198805906456,"connected_time":495000000000,"state":"spawning","ping":44},{"user_id":181,"name":"F2P","steam_id":76561199501469347,"connected_time":2090000000000,"state":"active","ping":92},{"user_id":188,"name":"Kriegsman","steam_id":76561198398761223,"connected_time":732000000000,"state":"active","ping":65},{"user_id":139,"name":"GoldtoothFour","steam_id":76561198055529332,"connected_time":5925000000000,"state":"active","ping":73},{"user_id":198,"name":"Max","steam_id":76561198029782094,"connected_time":143000000000,"state":"active","ping":75},{"user_id":194,"name":"Leroy","steam_id":76561199013064727,"connected_time":392000000000,"state":"active","ping":108},{"user_id":196,"name":"ExtraSoap","steam_id":76561198008712409,"connected_time":288000000000,"state":"active","ping":48},{"user_id":195,"name":"cosmic ambiance","steam_id":76561198042788986,"connected_time":358000000000,"state":"active","ping":70},{"user_id":164,"name":"Weebmcgee","steam_id":76561198081231557,"connected_time":3766000000000,"state":"active","ping":63},{"user_id":190,"name":"cactail","steam_id":76561198238898732,"connected_time":541000000000,"state":"active","ping":68},{"user_id":174,"name":"G2 DamDam","steam_id":76561198173095997,"connected_time":2994000000000,"state":"active","ping":46}]},{"server_id":15,"name":"Uncletopia | New York City | 3 | Stopwatch","name_short":"nyc-3","host":"nyc-1.us.uncletopia.com","port":27035,"enabled":true,"region":"us-east","cc":"us","latitude":40.73061,"longitude":-73.93524,"reserved":0,"last_update":"0001-01-01T00:00:00Z","name_a2s":"Uncletopia | New York City | 3 | Stopwatch","protocol":17,"map":"pl_borneo","folder":"tf","game":"Team Fortress","app_id":440,"player_count":0,"max_players":24,"Bots":0,"server_type":"Dedicated","server_os":"Linux","password":true,"vac":true,"version":"7961495","steam_id":85568392924742820,"keywords":["nocrits","nodmgspread","payload","uncletopia"],"game_id":440,"stv_port":27036,"stv_name":"Uncletopia | New York City | 3 | Stopwatch | STV","players":null},{"server_id":16,"name":"Uncletopia | New York City | 4 | Community","name_short":"nyc-4","host":"nyc-1.us.uncletopia.com","port":27045,"enabled":true,"region":"us-east","cc":"us","latitude":40.73061,"longitude":-73.93524,"reserved":0,"last_update":"0001-01-01T00:00:00Z","name_a2s":"Uncletopia | New York City | 4 | Community","protocol":17,"map":"workshop/koth_ramjam_rc1.ugc459778887","folder":"tf","game":"Team Fortress","app_id":440,"player_count":0,"max_players":24,"Bots":0,"server_type":"Dedicated","server_os":"Linux","password":true,"vac":true,"version":"7961495","steam_id":85568392924742821,"keywords":["cp","nocrits","nodmgspread","uncletopia"],"game_id":440,"stv_port":27046,"stv_name":"Uncletopia | New York City | 4 | Community | STV","players":null},{"server_id":142,"name":"Uncletopia | São Paulo | 1 | All Maps","name_short":"sao-1","host":"sao-1.br.uncletopia.com","port":27015,"enabled":true,"region":"sa","cc":"br","latitude":-23.533773,"longitude":-46.62529,"reserved":0,"last_update":"0001-01-01T00:00:00Z","name_a2s":"Uncletopia | São Paulo | 1 | All Maps","protocol":17,"map":"koth_cascade","folder":"tf","game":"Team Fortress","app_id":440,"player_count":3,"max_players":24,"Bots":0,"server_type":"Dedicated","server_os":"Linux","password":true,"vac":true,"version":"7961495","steam_id":85568392924469996,"keywords":["cp","nocrits","nodmgspread","uncletopia"],"game_id":440,"stv_port":27016,"stv_name":"Uncletopia | São Paulo | 1 | All Maps | STV","players":[{"user_id":50,"name":"Eddy#8154","steam_id":76561199131776735,"connected_time":279000000000,"state":"active","ping":65},{"user_id":51,"name":"rulissinho2018","steam_id":76561198969776858,"connected_time":273000000000,"state":"active","ping":80},{"user_id":53,"name":"Zeico","steam_id":76561198878509947,"connected_time":152000000000,"state":"active","ping":44}]},{"server_id":143,"name":"Uncletopia | São Paulo | 2 | Community","name_short":"sao-2","host":"sao-2.br.uncletopia.com","port":27015,"enabled":true,"region":"sa","cc":"br","latitude":-23.533773,"longitude":-46.62529,"reserved":0,"last_update":"0001-01-01T00:00:00Z","name_a2s":"Uncletopia | São Paulo | 2 | Community","protocol":17,"map":"workshop/koth_product_final.ugc454272353","folder":"tf","game":"Team Fortress","app_id":440,"player_count":0,"max_players":24,"Bots":0,"server_type":"Dedicated","server_os":"Linux","password":true,"vac":true,"version":"7961495","steam_id":85568392924485349,"keywords":["cp","nocrits","nodmgspread","uncletopia"],"game_id":440,"stv_port":27016,"stv_name":"Uncletopia | São Paulo | 2 | Community | STV","players":null},{"server_id":7,"name":"Uncletopia | Seattle | 1 | All Maps","name_short":"sea-1","host":"sea-1.us.uncletopia.com","port":27015,"enabled":true,"region":"us-west","cc":"us","latitude":47.608013,"longitude":-122.33517,"reserved":0,"last_update":"0001-01-01T00:00:00Z","name_a2s":"Uncletopia | Seattle | 1 | All Maps","protocol":17,"map":"pl_rumford_event","folder":"tf","game":"Team Fortress","app_id":440,"player_count":17,"max_players":24,"Bots":0,"server_type":"Dedicated","server_os":"Linux","password":true,"vac":true,"version":"7961495","steam_id":85568392924469997,"keywords":["nocrits","nodmgspread","payload","uncletopia"],"game_id":440,"stv_port":27016,"stv_name":"Uncletopia | Seattle | 1 | All Maps | STV","players":[{"user_id":276,"name":"greenpeace","steam_id":76561197983221708,"connected_time":2252000000000,"state":"active","ping":62},{"user_id":292,"name":"Tomato","steam_id":76561197996472649,"connected_time":814000000000,"state":"active","ping":113},{"user_id":235,"name":"slushy :))","steam_id":76561198135281802,"connected_time":5731000000000,"state":"active","ping":34},{"user_id":263,"name":"Firedust19","steam_id":76561198153238631,"connected_time":3238000000000,"state":"active","ping":77},{"user_id":272,"name":"goos  e","steam_id":76561198036774894,"connected_time":2559000000000,"state":"active","ping":38},{"user_id":285,"name":"fwoov","steam_id":76561198129166260,"connected_time":1232000000000,"state":"active","ping":80},{"user_id":270,"name":"mansteam905","steam_id":76561199488421021,"connected_time":2670000000000,"state":"active","ping":122},{"user_id":271,"name":"Dimple","steam_id":76561198980324190,"connected_time":2665000000000,"state":"spawning","ping":333},{"user_id":288,"name":"MantisToboggan","steam_id":76561197969447887,"connected_time":1108000000000,"state":"active","ping":56},{"user_id":294,"name":"box","steam_id":76561198049531483,"connected_time":465000000000,"state":"active","ping":123},{"user_id":286,"name":"FidelGuevara","steam_id":76561198368296171,"connected_time":1115000000000,"state":"active","ping":90},{"user_id":295,"name":"Darkgigglemonster","steam_id":76561198870649125,"connected_time":430000000000,"state":"active","ping":76},{"user_id":297,"name":"Starpillow ♡","steam_id":76561198095034817,"connected_time":59000000000,"state":"active","ping":59},{"user_id":283,"name":"CRT Cutie","steam_id":76561198055970193,"connected_time":1588000000000,"state":"active","ping":135},{"user_id":293,"name":"Chris P. Wiener","steam_id":76561198168808551,"connected_time":688000000000,"state":"active","ping":47},{"user_id":277,"name":"Embie","steam_id":76561198358221011,"connected_time":2070000000000,"state":"active","ping":49},{"user_id":291,"name":"Mi cara","steam_id":76561198190771759,"connected_time":975000000000,"state":"active","ping":105}]},{"server_id":119,"name":"Uncletopia | Seattle | 2 | All Maps","name_short":"sea-2","host":"sea-1.us.uncletopia.com","port":27025,"enabled":true,"region":"us-west","cc":"us","latitude":47.608013,"longitude":-122.33517,"reserved":0,"last_update":"0001-01-01T00:00:00Z","name_a2s":"Uncletopia | Seattle | 2 | All Maps","protocol":17,"map":"pl_borneo","folder":"tf","game":"Team Fortress","app_id":440,"player_count":6,"max_players":24,"Bots":0,"server_type":"Dedicated","server_os":"Linux","password":true,"vac":true,"version":"7961495","steam_id":85568392924469998,"keywords":["nocrits","nodmgspread","payload","uncletopia"],"game_id":440,"stv_port":27026,"stv_name":"Uncletopia | Seattle | 2 | All Maps | STV","players":[{"user_id":27,"name":"Villchip","steam_id":76561198198599982,"connected_time":2822000000000,"state":"active","ping":46},{"user_id":26,"name":"ole_diggy","steam_id":76561198970212746,"connected_time":3009000000000,"state":"active","ping":123},{"user_id":28,"name":"asm_ghost","steam_id":76561199205363547,"connected_time":1215000000000,"state":"active","ping":81},{"user_id":29,"name":"fey","steam_id":76561198119191002,"connected_time":920000000000,"state":"active","ping":80},{"user_id":30,"name":"Uncle Wahzoinsky","steam_id":76561199462907840,"connected_time":682000000000,"state":"active","ping":53},{"user_id":31,"name":"mafia is mafia","steam_id":76561198042574722,"connected_time":450000000000,"state":"active","ping":45}]},{"server_id":406,"name":"Uncletopia | Seattle | 3 | Stopwatch","name_short":"sea-3","host":"sea-1.us.uncletopia.com","port":27035,"enabled":true,"region":"us-west","cc":"us","latitude":47.608013,"longitude":-122.33517,"reserved":0,"last_update":"0001-01-01T00:00:00Z","name_a2s":"Uncletopia | Seattle | 3 | Stopwatch","protocol":17,"map":"workshop/pl_vigil_rc10.ugc1266210012","folder":"tf","game":"Team Fortress","app_id":440,"player_count":0,"max_players":24,"Bots":0,"server_type":"Dedicated","server_os":"Linux","password":true,"vac":true,"version":"7961495","steam_id":85568392924515217,"keywords":["nocrits","nodmgspread","payload","uncletopia"],"game_id":440,"stv_port":27036,"stv_name":"Uncletopia | Seattle | 3 | Stopwatch | STV","players":null},{"server_id":17,"name":"Uncletopia | San Francisco | 1 | All Maps","name_short":"sfo-1","host":"sfo-1.us.uncletopia.com","port":27015,"enabled":true,"region":"us-west","cc":"us","latitude":37.77397,"longitude":-122.4313,"reserved":0,"last_update":"0001-01-01T00:00:00Z","name_a2s":"Uncletopia | San Francisco | 1 | All Maps","protocol":17,"map":"koth_cascade","folder":"tf","game":"Team Fortress","app_id":440,"player_count":0,"max_players":24,"Bots":0,"server_type":"Dedicated","server_os":"Linux","password":true,"vac":true,"version":"7961495","steam_id":85568392924469999,"keywords":["cp","nocrits","nodmgspread","uncletopia"],"game_id":440,"stv_port":27016,"stv_name":"Uncletopia | San Francisco | 1 | All Maps | STV","players":null},{"server_id":18,"name":"Uncletopia | San Francisco | 2 | All Maps","name_short":"sfo-2","host":"sfo-1.us.uncletopia.com","port":27025,"enabled":true,"region":"us-west","cc":"us","latitude":37.77397,"longitude":-122.4313,"reserved":0,"last_update":"0001-01-01T00:00:00Z","name_a2s":"Uncletopia | San Francisco | 2 | All Maps","protocol":17,"map":"cp_snakewater_final1","folder":"tf","game":"Team Fortress","app_id":440,"player_count":0,"max_players":24,"Bots":0,"server_type":"Dedicated","server_os":"Linux","password":true,"vac":true,"version":"7961495","steam_id":85568392924470000,"keywords":["cp","nocrits","nodmgspread","uncletopia"],"game_id":440,"stv_port":27026,"stv_name":"Uncletopia | San Francisco | 2 | All Maps | STV","players":null},{"server_id":19,"name":"Uncletopia | San Francisco | 3 | Stopwatch","name_short":"sfo-3","host":"sfo-1.us.uncletopia.com","port":27035,"enabled":true,"region":"us-west","cc":"us","latitude":37.77397,"longitude":-122.4313,"reserved":0,"last_update":"0001-01-01T00:00:00Z","name_a2s":"Uncletopia | San Francisco | 3 | Stopwatch","protocol":17,"map":"pl_pier","folder":"tf","game":"Team Fortress","app_id":440,"player_count":0,"max_players":24,"Bots":0,"server_type":"Dedicated","server_os":"Linux","password":true,"vac":true,"version":"7961495","steam_id":85568392924742824,"keywords":["nocrits","nodmgspread","payload","uncletopia"],"game_id":440,"stv_port":27036,"stv_name":"Uncletopia | San Francisco | 3 | Stopwatch | STV","players":null},{"server_id":20,"name":"Uncletopia | San Francisco | 4 | Community","name_short":"sfo-4","host":"sfo-1.us.uncletopia.com","port":27045,"enabled":true,"region":"us-west","cc":"us","latitude":37.77397,"longitude":-122.4313,"reserved":0,"last_update":"0001-01-01T00:00:00Z","name_a2s":"Uncletopia | San Francisco | 4 | Community","protocol":17,"map":"pl_pier","folder":"tf","game":"Team Fortress","app_id":440,"player_count":0,"max_players":24,"Bots":0,"server_type":"Dedicated","server_os":"Linux","password":true,"vac":true,"version":"7961495","steam_id":85568392924742826,"keywords":["nocrits","nodmgspread","payload","uncletopia"],"game_id":440,"stv_port":27046,"stv_name":"Uncletopia | San Francisco | 4 | Community | STV","players":null},{"server_id":141,"name":"Uncletopia | Sydney | 1 | All Maps","name_short":"syd-1","host":"syd-1.au.uncletopia.com","port":27015,"enabled":true,"region":"au","cc":"au","latitude":-33.865143,"longitude":151.2099,"reserved":0,"last_update":"0001-01-01T00:00:00Z","name_a2s":"Uncletopia | Sydney | 1 | All Maps","protocol":17,"map":"koth_viaduct","folder":"tf","game":"Team Fortress","app_id":440,"player_count":0,"max_players":24,"Bots":0,"server_type":"Dedicated","server_os":"Linux","password":true,"vac":true,"version":"7961495","steam_id":85568392924470001,"keywords":["cp","nocrits","nodmgspread","uncletopia"],"game_id":440,"stv_port":27016,"stv_name":"Uncletopia | Sydney | 1 | All Maps | STV","players":null},{"server_id":123,"name":"Uncletopia | Sydney | 2 | All Maps","name_short":"syd-2","host":"syd-1.au.uncletopia.com","port":27025,"enabled":true,"region":"au","cc":"au","latitude":-33.865143,"longitude":151.2099,"reserved":0,"last_update":"0001-01-01T00:00:00Z","name_a2s":"Uncletopia | Sydney | 2 | All Maps","protocol":17,"map":"koth_lakeside_final","folder":"tf","game":"Team Fortress","app_id":440,"player_count":0,"max_players":24,"Bots":0,"server_type":"Dedicated","server_os":"Linux","password":true,"vac":true,"version":"7961495","steam_id":85568392924470002,"keywords":["cp","nocrits","nodmgspread","uncletopia"],"game_id":440,"stv_port":27026,"stv_name":"Uncletopia | Sydney | 2 | All Maps | STV","players":null},{"server_id":395,"name":"Uncletopia | Sydney | 3 | All Maps","name_short":"syd-3","host":"syd-1.au.uncletopia.com","port":27035,"enabled":true,"region":"au","cc":"au","latitude":-33.865143,"longitude":151.2099,"reserved":0,"last_update":"0001-01-01T00:00:00Z","name_a2s":"Uncletopia | Sydney | 3 | All Maps","protocol":17,"map":"cp_dustbowl","folder":"tf","game":"Team Fortress","app_id":440,"player_count":0,"max_players":24,"Bots":0,"server_type":"Dedicated","server_os":"Linux","password":true,"vac":true,"version":"7961495","steam_id":85568392925194467,"keywords":["cp","nocrits","nodmgspread","uncletopia"],"game_id":440,"stv_port":27036,"stv_name":"Uncletopia | Sydney | 3 | All Maps | STV","players":null},{"server_id":396,"name":"Uncletopia | Sydney | 4 | All Maps","name_short":"syd-4","host":"syd-1.au.uncletopia.com","port":27045,"enabled":true,"region":"au","cc":"au","latitude":-33.865143,"longitude":151.2099,"reserved":0,"last_update":"0001-01-01T00:00:00Z","name_a2s":"Uncletopia | Sydney | 4 | All Maps","protocol":17,"map":"pl_snowycoast","folder":"tf","game":"Team Fortress","app_id":440,"player_count":0,"max_players":24,"Bots":0,"server_type":"Dedicated","server_os":"Linux","password":true,"vac":true,"version":"7961495","steam_id":85568392925397958,"keywords":["nocrits","nodmgspread","payload","uncletopia"],"game_id":440,"stv_port":27046,"stv_name":"Uncletopia | Sydney | 4 | All Maps | STV","players":null},{"server_id":58,"name":"Uncletopia | Sydney | 5 | Stopwatch","name_short":"syd-5","host":"syd-1.au.uncletopia.com","port":27055,"enabled":true,"region":"au","cc":"au","latitude":-33.865143,"longitude":151.2099,"reserved":0,"last_update":"0001-01-01T00:00:00Z","name_a2s":"Uncletopia | Sydney | 5 | Stopwatch","protocol":17,"map":"pl_frontier_final","folder":"tf","game":"Team Fortress","app_id":440,"player_count":0,"max_players":24,"Bots":0,"server_type":"Dedicated","server_os":"Linux","password":true,"vac":true,"version":"7961495","steam_id":85568392925397959,"keywords":["nocrits","nodmgspread","payload","uncletopia"],"game_id":440,"stv_port":27056,"stv_name":"Uncletopia | Sydney | 5 | Stopwatch | STV","players":null},{"server_id":59,"name":"Uncletopia | Sydney | 6 | Community","name_short":"syd-6","host":"syd-1.au.uncletopia.com","port":27065,"enabled":true,"region":"au","cc":"au","latitude":-33.865143,"longitude":151.2099,"reserved":0,"last_update":"0001-01-01T00:00:00Z","name_a2s":"Uncletopia | Sydney | 6 | Community","protocol":17,"map":"cp_sunshine","folder":"tf","game":"Team Fortress","app_id":440,"player_count":0,"max_players":24,"Bots":0,"server_type":"Dedicated","server_os":"Linux","password":true,"vac":true,"version":"7961495","steam_id":85568392925397960,"keywords":["cp","nocrits","nodmgspread","uncletopia"],"game_id":440,"stv_port":27066,"stv_name":"Uncletopia | Sydney | 6 | Community | STV","players":null},{"server_id":49,"name":"Uncletopia | Warsaw | 1 | One Thousand Uncles","name_short":"waw-1","host":"waw-1.pl.uncletopia.com","port":27015,"enabled":true,"region":"eu","cc":"pl","latitude":52.2297,"longitude":21.017532,"reserved":0,"last_update":"0001-01-01T00:00:00Z","name_a2s":"Uncletopia | Warsaw | 1 | One Thousand Uncles","protocol":17,"map":"pl_chilly","folder":"tf","game":"Team Fortress","app_id":440,"player_count":0,"max_players":32,"Bots":0,"server_type":"Dedicated","server_os":"Linux","password":true,"vac":true,"version":"7961495","steam_id":85568392925397850,"keywords":["alltalk","danepve","increased_maxplayers","nocrits","norespawntime","payload","uncletopia"],"game_id":440,"stv_port":0,"stv_name":"","players":null},{"server_id":50,"name":"Uncletopia | Warsaw | 2 | One Thousand Uncles","name_short":"waw-2","host":"waw-1.pl.uncletopia.com","port":27025,"enabled":true,"region":"eu","cc":"pl","latitude":52.2297,"longitude":21.017532,"reserved":0,"last_update":"0001-01-01T00:00:00Z","name_a2s":"Uncletopia | Warsaw | 2 | One Thousand Uncles","protocol":17,"map":"pl_badwater","folder":"tf","game":"Team Fortress","app_id":440,"player_count":0,"max_players":32,"Bots":0,"server_type":"Dedicated","server_os":"Linux","password":true,"vac":true,"version":"7961495","steam_id":85568392925397851,"keywords":["alltalk","danepve","increased_maxplayers","nocrits","norespawntime","payload","uncletopia"],"game_id":440,"stv_port":0,"stv_name":"","players":null},{"server_id":51,"name":"Uncletopia | Warsaw | 3 | All Maps","name_short":"waw-3","host":"waw-1.pl.uncletopia.com","port":27035,"enabled":true,"region":"eu","cc":"pl","latitude":52.2297,"longitude":21.017532,"reserved":0,"last_update":"0001-01-01T00:00:00Z","name_a2s":"Uncletopia | Warsaw | 3 | All Maps","protocol":17,"map":"koth_highpass","folder":"tf","game":"Team Fortress","app_id":440,"player_count":0,"max_players":24,"Bots":0,"server_type":"Dedicated","server_os":"Linux","password":true,"vac":true,"version":"7961495","steam_id":85568392925397852,"keywords":["cp","nocrits","nodmgspread","uncletopia"],"game_id":440,"stv_port":27036,"stv_name":"Uncletopia | Warsaw | 3 | All Maps | STV","players":null},{"server_id":52,"name":"Uncletopia | Warsaw | 4 | All Maps","name_short":"waw-4","host":"waw-1.pl.uncletopia.com","port":27045,"enabled":true,"region":"eu","cc":"pl","latitude":52.2297,"longitude":21.017532,"reserved":0,"last_update":"0001-01-01T00:00:00Z","name_a2s":"Uncletopia | Warsaw | 4 | All Maps","protocol":17,"map":"koth_lakeside_final","folder":"tf","game":"Team Fortress","app_id":440,"player_count":0,"max_players":24,"Bots":0,"server_type":"Dedicated","server_os":"Linux","password":true,"vac":true,"version":"7961495","steam_id":85568392925397853,"keywords":["cp","nocrits","nodmgspread","uncletopia"],"game_id":440,"stv_port":27046,"stv_name":"Uncletopia | Warsaw | 4 | All Maps | STV","players":null},{"server_id":53,"name":"Uncletopia | Warsaw | 5 | Stopwatch","name_short":"waw-5","host":"waw-1.pl.uncletopia.com","port":27055,"enabled":true,"region":"eu","cc":"pl","latitude":52.2297,"longitude":21.017532,"reserved":0,"last_update":"0001-01-01T00:00:00Z","name_a2s":"Uncletopia | Warsaw | 5 | Stopwatch","protocol":17,"map":"koth_lakeside_final","folder":"tf","game":"Team Fortress","app_id":440,"player_count":0,"max_players":24,"Bots":0,"server_type":"Dedicated","server_os":"Linux","password":true,"vac":true,"version":"7961495","steam_id":85568392925397854,"keywords":["cp","nocrits","nodmgspread","uncletopia"],"game_id":440,"stv_port":27056,"stv_name":"Uncletopia | Warsaw | 5 | Stopwatch | STV","players":null},{"server_id":54,"name":"Uncletopia | Warsaw | 6 | Community","name_short":"waw-6","host":"waw-1.pl.uncletopia.com","port":27065,"enabled":true,"region":"eu","cc":"pl","latitude":52.2297,"longitude":21.017532,"reserved":0,"last_update":"0001-01-01T00:00:00Z","name_a2s":"Uncletopia | Warsaw | 6 | Community","protocol":17,"map":"workshop/rd_asteroid_redux_b1.ugc2154902912","folder":"tf","game":"Team Fortress","app_id":440,"player_count":0,"max_players":24,"Bots":0,"server_type":"Dedicated","server_os":"Linux","password":true,"vac":true,"version":"7961495","steam_id":85568392925397856,"keywords":["beta","nocrits","nodmgspread","rd","uncletopia"],"game_id":440,"stv_port":27066,"stv_name":"Uncletopia | Warsaw | 6 | Community | STV","players":null}]}