{"status":true,"message":"","result":[{"server_id":9,"name":"Uncletopia | Atlanta | 1 | All Maps","name_short":"atl-1","host":"atl-1.us.uncletopia.com","port":27015,"enabled":true,"region":"us-east","cc":"us","latitude":33.753746,"longitude":-84.38633,"reserved":0,"last_update":"0001-01-01T00:00:00Z","name_a2s":"Uncletopia | Atlanta | 1 | All Maps","protocol":17,"map":"pl_barnblitz","folder":"tf","game":"Team Fortress","app_id":440,"player_count":24,"max_players":24,"Bots":0,"server_type":"Dedicated","server_os":"Linux","password":true,"vac":true,"version":"7723704","steam_id":85568392924469982,"keywords":["nocrits","nodmgspread","payload","uncletopia"],"game_id":440,"stv_port":27016,"stv_name":"Uncletopia | Atlanta | 1 | All Maps | STV","players":[{"user_id":191,"name":"do you remember poptropica?","steam_id":76561199025227085,"connected_time":1468000000000,"state":"active","ping":75},{"user_id":172,"name":"Nyle","steam_id":76561198045652639,"connected_time":3141000000000,"state":"active","ping":109},{"user_id":184,"name":"dan","steam_id":76561198061589465,"connected_time":2153000000000,"state":"active","ping":60},{"user_id":173,"name":"The Great Eagle Scourge of 1822","steam_id":76561198325086209,"connected_time":3134000000000,"state":"active","ping":115},{"user_id":130,"name":"Whizzo the Clown","steam_id":76561197995910627,"connected_time":6099000000000,"state":"active","ping":79},{"user_id":197,"name":"name him golfball","steam_id":76561198068958789,"connected_time":618000000000,"state":"active","ping":49},{"user_id":190,"name":"Rick Assley","steam_id":76561198365019199,"connected_time":1687000000000,"state":"active","ping":79},{"user_id":153,"name":"Seru","steam_id":76561199219827214,"connected_time":4267000000000,"state":"active","ping":79},{"user_id":152,"name":"RubberyChicken","steam_id":76561198039095112,"connected_time":4279000000000,"state":"active","ping":58},{"user_id":185,"name":"Samus","steam_id":76561198121933439,"connected_time":2097000000000,"state":"active","ping":97},{"user_id":169,"name":"Mage","steam_id":76561198285026879,"connected_time":3436000000000,"state":"active","ping":74},{"user_id":192,"name":"ash","steam_id":76561198127890645,"connected_time":1301000000000,"state":"active","ping":61},{"user_id":189,"name":"earthtraveler413","steam_id":76561198865139926,"connected_time":1720000000000,"state":"active","ping":111},{"user_id":195,"name":"Lingus Loopus","steam_id":76561198041426868,"connected_time":701000000000,"state":"active","ping":78},{"user_id":196,"name":"Im High","steam_id":76561198049954886,"connected_time":647000000000,"state":"active","ping":74},{"user_id":150,"name":"Wolfwu - BUFF THE SPEED","steam_id":76561198864421290,"connected_time":4312000000000,"state":"active","ping":45},{"user_id":147,"name":"Takumi Fujiwara","steam_id":76561198146281101,"connected_time":5081000000000,"state":"active","ping":76},{"user_id":180,"name":"peter griffin","steam_id":76561198091218772,"connected_time":2540000000000,"state":"active","ping":67},{"user_id":174,"name":"Michelle","steam_id":76561198257887037,"connected_time":3107000000000,"state":"active","ping":122},{"user_id":177,"name":"Scorch","steam_id":76561198167024005,"connected_time":2921000000000,"state":"active","ping":60},{"user_id":123,"name":"xerro","steam_id":76561198323340524,"connected_time":7532000000000,"state":"active","ping":155},{"user_id":187,"name":"ATL1 | Sunny004","steam_id":76561198105397410,"connected_time":1988000000000,"state":"active","ping":60},{"user_id":81,"name":"Cookie_Crab","steam_id":76561198088116479,"connected_time":10629000000000,"state":"active","ping":71},{"user_id":198,"name":"ATL1 | Dec the halls","steam_id":76561199045608372,"connected_time":617000000000,"state":"active","ping":87}]},{"server_id":400,"name":"Uncletopia | Atlanta | 3 | All Maps","name_short":"atl-3","host":"atl-1.us.uncletopia.com","port":27035,"enabled":true,"region":"us-east","cc":"us","latitude":33.753746,"longitude":-84.38633,"reserved":0,"last_update":"0001-01-01T00:00:00Z","name_a2s":"Uncletopia | Atlanta | 3 | All Maps","protocol":17,"map":"cp_dustbowl","folder":"tf","game":"Team Fortress","app_id":440,"player_count":0,"max_players":24,"Bots":0,"server_type":"Dedicated","server_os":"Linux","password":true,"vac":true,"version":"7723704","steam_id":85568392924515187,"keywords":["cp","nocrits","nodmgspread","uncletopia"],"game_id":440,"stv_port":27036,"stv_name":"Uncletopia | Atlanta | 3 | All Maps | STV","players":null},{"server_id":401,"name":"Uncletopia | Atlanta | 4 | No Payload","name_short":"atl-4","host":"atl-1.us.uncletopia.com","port":27045,"enabled":true,"region":"us-east","cc":"us","latitude":33.753746,"longitude":-84.38633,"reserved":0,"last_update":"0001-01-01T00:00:00Z","name_a2s":"Uncletopia | Atlanta | 4 | No Payload","protocol":17,"map":"pl_pier","folder":"tf","game":"Team Fortress","app_id":440,"player_count":0,"max_players":24,"Bots":0,"server_type":"Dedicated","server_os":"Linux","password":true,"vac":true,"version":"7723704","steam_id":85568392924515188,"keywords":["nocrits","nodmgspread","payload","uncletopia"],"game_id":440,"stv_port":27046,"stv_name":"Uncletopia | Atlanta | 4 | No Payload | STV","players":null},{"server_id":2,"name":"Uncletopia | Chicago | 1 | All Maps","name_short":"chi-1","host":"chi-1.us.uncletopia.com","port":27015,"enabled":true,"region":"us-central","cc":"us","latitude":41.881832,"longitude":-87.62318,"reserved":0,"last_update":"0001-01-01T00:00:00Z","name_a2s":"Uncletopia | Chicago | 1 | All Maps","protocol":17,"map":"koth_lakeside_final","folder":"tf","game":"Team Fortress","app_id":440,"player_count":24,"max_players":24,"Bots":0,"server_type":"Dedicated","server_os":"Linux","password":true,"vac":true,"version":"7723704","steam_id":85568392924469984,"keywords":["cp","nocrits","nodmgspread","uncletopia"],"game_id":440,"stv_port":27016,"stv_name":"Uncletopia | Chicago | 1 | All Maps | STV","players":[{"user_id":195,"name":"The Krinkler","steam_id":76561198020308956,"connected_time":2712000000000,"state":"active","ping":60},{"user_id":221,"name":"trashboat","steam_id":76561199067882406,"connected_time":64000000000,"state":"active","ping":111},{"user_id":202,"name":"JFK Gamer","steam_id":76561199229169396,"connected_time":1350000000000,"state":"active","ping":65},{"user_id":185,"name":"Scooty.","steam_id":76561198138990283,"connected_time":2851000000000,"state":"active","ping":61},{"user_id":215,"name":"murderous deer","steam_id":76561198350832152,"connected_time":637000000000,"state":"active","ping":70},{"user_id":179,"name":"Carson","steam_id":76561198076771071,"connected_time":3470000000000,"state":"active","ping":45},{"user_id":206,"name":"Sauce Lord","steam_id":76561198059103441,"connected_time":1074000000000,"state":"active","ping":59},{"user_id":156,"name":"Mister Frank","steam_id":76561198161473385,"connected_time":4808000000000,"state":"active","ping":44},{"user_id":201,"name":"no","steam_id":76561198248853140,"connected_time":1371000000000,"state":"active","ping":48},{"user_id":196,"name":"Lv4 Gnoll Magus","steam_id":76561198042068995,"connected_time":2156000000000,"state":"active","ping":75},{"user_id":216,"name":"walrus2","steam_id":76561199079614516,"connected_time":633000000000,"state":"active","ping":50},{"user_id":213,"name":"Eye","steam_id":76561198065844668,"connected_time":707000000000,"state":"active","ping":60},{"user_id":167,"name":"kiwiichie ‚Çç·ê¢·ê¢‚Çé","steam_id":76561198315449521,"connected_time":4295000000000,"state":"active","ping":80},{"user_id":155,"name":"kairOs.fk","steam_id":76561197972421260,"connected_time":4829000000000,"state":"active","ping":59},{"user_id":214,"name":"Christmas Jukebox","steam_id":76561198025938411,"connected_time":687000000000,"state":"active","ping":65},{"user_id":200,"name":"Pneumo.","steam_id":76561197987911883,"connected_time":1378000000000,"state":"active","ping":119},{"user_id":177,"name":"Adam (Cursed Confetti Creature)","steam_id":76561198317690197,"connected_time":3730000000000,"state":"active","ping":43},{"user_id":190,"name":"Ecliptica","steam_id":76561198171951333,"connected_time":2823000000000,"state":"active","ping":104},{"user_id":173,"name":"Lost (15)","steam_id":76561198093713427,"connected_time":3994000000000,"state":"active","ping":68},{"user_id":220,"name":"Astori√¶!","steam_id":76561199090168858,"connected_time":94000000000,"state":"active","ping":61},{"user_id":170,"name":"Mury","steam_id":76561198069743049,"connected_time":4053000000000,"state":"active","ping":96},{"user_id":222,"name":"you are loved","steam_id":76561198108524571,"connected_time":11000000000,"state":"spawning","ping":83},{"user_id":198,"name":"Jerry Bondle","steam_id":76561198337512213,"connected_time":1802000000000,"state":"active","ping":63}]},{"server_id":106,"name":"Uncletopia | Chicago | 2 | All Maps","name_short":"chi-2","host":"chi-1.us.uncletopia.com","port":27025,"enabled":true,"region":"us-central","cc":"us","latitude":41.881832,"longitude":-87.62318,"reserved":0,"last_update":"0001-01-01T00:00:00Z","name_a2s":"Uncletopia | Chicago | 2 | All Maps","protocol":17,"map":"pl_swiftwater_final1","folder":"tf","game":"Team Fortress","app_id":440,"player_count":24,"max_players":24,"Bots":0,"server_type":"Dedicated","server_os":"Linux","password":true,"vac":true,"version":"7723704","steam_id":85568392924469985,"keywords":["nocrits","nodmgspread","payload","uncletopia"],"game_id":440,"stv_port":27026,"stv_name":"Uncletopia | Chicago | 2 | All Maps | STV","players":[{"user_id":44,"name":"Chompers","steam_id":76561198278697477,"connected_time":134000000000,"state":"active","ping":117},{"user_id":13,"name":"Owl Pacino","steam_id":76561197979970666,"connected_time":1786000000000,"state":"active","ping":57},{"user_id":15,"name":"KingSteve42","steam_id":76561198409455888,"connected_time":1740000000000,"state":"active","ping":114},{"user_id":23,"name":"katryna","steam_id":76561198023440304,"connected_time":749000000000,"state":"active","ping":57},{"user_id":19,"name":"Chris","steam_id":76561197970315094,"connected_time":1301000000000,"state":"active","ping":53},{"user_id":20,"name":"The Mighty Bungler","steam_id":76561198049810327,"connected_time":1230000000000,"state":"active","ping":61},{"user_id":24,"name":"fasterbum","steam_id":76561198142577444,"connected_time":683000000000,"state":"active","ping":52},{"user_id":25,"name":"Ninja Spy","steam_id":76561198076134864,"connected_time":655000000000,"state":"active","ping":91},{"user_id":28,"name":"Definitely Not A Replicant.","steam_id":76561198087464370,"connected_time":467000000000,"state":"active","ping":66},{"user_id":41,"name":"Caelius","steam_id":76561198165536929,"connected_time":176000000000,"state":"active","ping":103},{"user_id":30,"name":"‚ù§Breadshot (She)‚ù§","steam_id":76561199005756738,"connected_time":380000000000,"state":"active","ping":92},{"user_id":31,"name":"Le0901","steam_id":76561198372891244,"connected_time":348000000000,"state":"active","ping":66},{"user_id":32,"name":"Vec","steam_id":76561198044505262,"connected_time":314000000000,"state":"active","ping":87},{"user_id":33,"name":"squid game","steam_id":76561199248960166,"connected_time":301000000000,"state":"active","ping":87},{"user_id":38,"name":"B.Luga‚Ñ¢","steam_id":76561198046473460,"connected_time":202000000000,"state":"active","ping":71},{"user_id":36,"name":"MyamE","steam_id":76561198133278462,"connected_time":282000000000,"state":"active","ping":85},{"user_id":37,"name":"Kras","steam_id":76561198339398992,"connected_time":252000000000,"state":"active","ping":79},{"user_id":39,"name":"Agent Q","steam_id":76561198830829003,"connected_time":196000000000,"state":"active","ping":123},{"user_id":40,"name":"Albanian Jellypeen","steam_id":76561198034158810,"connected_time":196000000000,"state":"active","ping":55},{"user_id":42,"name":"marlex20","steam_id":76561198043779844,"connected_time":164000000000,"state":"active","ping":47},{"user_id":50,"name":"John Calibur","steam_id":76561197999986606,"connected_time":8000000000,"state":"spawning","ping":116},{"user_id":45,"name":"sansa musa","steam_id":76561198163723555,"connected_time":104000000000,"state":"active","ping":73},{"user_id":49,"name":"Yoyo","steam_id":76561199122577289,"connected_time":70000000000,"state":"active","ping":71},{"user_id":47,"name":"Liquid Metal Slime from DQ9","steam_id":76561198061621275,"connected_time":77000000000,"state":"active","ping":76}]},{"server_id":402,"name":"Uncletopia | Chicago | 3 | All Maps","name_short":"chi-3","host":"chi-1.us.uncletopia.com","port":27035,"enabled":true,"region":"us-central","cc":"us","latitude":41.881832,"longitude":-87.62318,"reserved":0,"last_update":"0001-01-01T00:00:00Z","name_a2s":"Uncletopia | Chicago | 3 | All Maps","protocol":17,"map":"pl_barnblitz","folder":"tf","game":"Team Fortress","app_id":440,"player_count":0,"max_players":24,"Bots":0,"server_type":"Dedicated","server_os":"Linux","password":true,"vac":true,"version":"7723704","steam_id":85568392924515191,"keywords":["nocrits","nodmgspread","payload","uncletopia"],"game_id":440,"stv_port":27036,"stv_name":"Uncletopia | Chicago | 3 | All Maps | STV","players":null},{"server_id":403,"name":"Uncletopia | Chicago | 4 | All Maps","name_short":"chi-4","host":"chi-1.us.uncletopia.com","port":27045,"enabled":true,"region":"us-central","cc":"us","latitude":41.881832,"longitude":-87.62318,"reserved":0,"last_update":"0001-01-01T00:00:00Z","name_a2s":"Uncletopia | Chicago | 4 | All Maps","protocol":17,"map":"koth_highpass","folder":"tf","game":"Team Fortress","app_id":440,"player_count":0,"max_players":24,"Bots":0,"server_type":"Dedicated","server_os":"Linux","password":true,"vac":true,"version":"7723704","steam_id":85568392924515193,"keywords":["cp","nocrits","nodmgspread","uncletopia"],"game_id":440,"stv_port":27046,"stv_name":"Uncletopia | Chicago | 4 | All Maps | STV","players":null},{"server_id":36,"name":"Uncletopia | Chicago | 5 | All Maps","name_short":"chi-5","host":"chi-2.us.uncletopia.com","port":27015,"enabled":true,"region":"us-central","cc":"us","latitude":41.881832,"longitude":-87.62318,"reserved":0,"last_update":"0001-01-01T00:00:00Z","name_a2s":"Uncletopia | Chicago | 5 | All Maps","protocol":17,"map":"koth_cascade","folder":"tf","game":"Team Fortress","app_id":440,"player_count":0,"max_players":24,"Bots":0,"server_type":"Dedicated","server_os":"Linux","password":true,"vac":true,"version":"7723704","steam_id":85568392924866362,"keywords":["cp","nocrits","nodmgspread","uncletopia"],"game_id":440,"stv_port":27016,"stv_name":"Uncletopia | Chicago | 5 | All Maps | STV","players":null},{"server_id":37,"name":"Uncletopia | Chicago | 6 | All Maps","name_short":"chi-6","host":"chi-2.us.uncletopia.com","port":27025,"enabled":true,"region":"us-central","cc":"us","latitude":41.881832,"longitude":-87.62318,"reserved":0,"last_update":"0001-01-01T00:00:00Z","name_a2s":"Uncletopia | Chicago | 6 | All Maps","protocol":17,"map":"pl_barnblitz","folder":"tf","game":"Team Fortress","app_id":440,"player_count":0,"max_players":24,"Bots":0,"server_type":"Dedicated","server_os":"Linux","password":true,"vac":true,"version":"7723704","steam_id":85568392924866363,"keywords":["nocrits","nodmgspread","payload","uncletopia"],"game_id":440,"stv_port":27026,"stv_name":"Uncletopia | Chicago | 6 | All Maps | STV","players":null},{"server_id":38,"name":"Uncletopia | Chicago | 7 | No Payload","name_short":"chi-7","host":"chi-2.us.uncletopia.com","port":27035,"enabled":true,"region":"us-central","cc":"us","latitude":41.881832,"longitude":-87.62318,"reserved":0,"last_update":"0001-01-01T00:00:00Z","name_a2s":"","protocol":0,"map":"","folder":"","game":"","app_id":0,"player_count":0,"max_players":0,"Bots":0,"server_type":"","server_os":"","password":false,"vac":false,"version":"","steam_id":0,"keywords":null,"game_id":0,"stv_port":0,"stv_name":"","players":null},{"server_id":39,"name":"Uncletopia | Chicago | 8 | Community","name_short":"chi-8","host":"chi-2.us.uncletopia.com","port":27045,"enabled":true,"region":"us-central","cc":"us","latitude":41.881832,"longitude":-87.62318,"reserved":0,"last_update":"0001-01-01T00:00:00Z","name_a2s":"Uncletopia | Chicago | 8 | Community","protocol":17,"map":"workshop/cp_reckoner_rc6.ugc674719999","folder":"tf","game":"Team Fortress","app_id":440,"player_count":0,"max_players":24,"Bots":0,"server_type":"Dedicated","server_os":"Linux","password":true,"vac":true,"version":"7723704","steam_id":85568392924866365,"keywords":["cp","nocrits","nodmgspread","uncletopia"],"game_id":440,"stv_port":27046,"stv_name":"Uncletopia | Chicago | 8 | Community | STV","players":null},{"server_id":8,"name":"Uncletopia | Dallas | 1 | All Maps","name_short":"dal-1","host":"dal-1.us.uncletopia.com","port":27015,"enabled":true,"region":"us-central","cc":"us","latitude":32.779167,"longitude":-96.80889,"reserved":0,"last_update":"0001-01-01T00:00:00Z","name_a2s":"Uncletopia | Dallas | 1 | All Maps","protocol":17,"map":"koth_viaduct","folder":"tf","game":"Team Fortress","app_id":440,"player_count":4,"max_players":24,"Bots":0,"server_type":"Dedicated","server_os":"Linux","password":true,"vac":true,"version":"7723704","steam_id":85568392924469986,"keywords":["cp","nocrits","nodmgspread","uncletopia"],"game_id":440,"stv_port":27016,"stv_name":"Uncletopia | Dallas | 1 | All Maps | STV","players":[{"user_id":8,"name":"BlueBoi2006","steam_id":76561199150475057,"connected_time":405000000000,"state":"active","ping":50},{"user_id":9,"name":"Ccpop123a","steam_id":76561198883889729,"connected_time":314000000000,"state":"active","ping":81},{"user_id":10,"name":"Maranata","steam_id":76561198830158092,"connected_time":286000000000,"state":"active","ping":74},{"user_id":11,"name":"A Suspiciously Moist Carpet","steam_id":76561198056666757,"connected_time":81000000000,"state":"active","ping":70}]},{"server_id":108,"name":"Uncletopia | Dallas | 2 | All Maps","name_short":"dal-2","host":"dal-1.us.uncletopia.com","port":27025,"enabled":true,"region":"us-central","cc":"us","latitude":32.779167,"longitude":-96.80889,"reserved":0,"last_update":"0001-01-01T00:00:00Z","name_a2s":"Uncletopia | Dallas | 2 | All Maps","protocol":17,"map":"cp_process_final","folder":"tf","game":"Team Fortress","app_id":440,"player_count":0,"max_players":24,"Bots":0,"server_type":"Dedicated","server_os":"Linux","password":true,"vac":true,"version":"7723704","steam_id":85568392924469988,"keywords":["cp","nocrits","nodmgspread","uncletopia"],"game_id":440,"stv_port":27026,"stv_name":"Uncletopia | Dallas | 2 | All Maps | STV","players":null},{"server_id":5,"name":"Uncletopia | Frankfurt | 1 | All Maps","name_short":"frk-1","host":"frk-1.de.uncletopia.com","port":27015,"enabled":true,"region":"eu","cc":"de","latitude":50.110924,"longitude":8.682127,"reserved":0,"last_update":"0001-01-01T00:00:00Z","name_a2s":"Uncletopia | Frankfurt | 1 | All Maps","protocol":17,"map":"cp_altitude","folder":"tf","game":"Team Fortress","app_id":440,"player_count":22,"max_players":24,"Bots":0,"server_type":"Dedicated","server_os":"Linux","password":true,"vac":true,"version":"7723704","steam_id":85568392924469989,"keywords":["cp","nocrits","nodmgspread","uncletopia"],"game_id":440,"stv_port":27016,"stv_name":"Uncletopia | Frankfurt | 1 | All Maps | STV","players":[{"user_id":291,"name":"alessiohotz09","steam_id":76561199183157080,"connected_time":443000000000,"state":"active","ping":51},{"user_id":292,"name":"Dr.Dag","steam_id":76561198301430910,"connected_time":347000000000,"state":"active","ping":66},{"user_id":294,"name":"Rodia","steam_id":76561197968293161,"connected_time":278000000000,"state":"active","ping":60},{"user_id":239,"name":"AFon","steam_id":76561198080783287,"connected_time":5107000000000,"state":"active","ping":99},{"user_id":295,"name":"Optimist 50","steam_id":76561198039631442,"connected_time":278000000000,"state":"active","ping":75},{"user_id":288,"name":"Realist 40","steam_id":76561198052476979,"connected_time":1037000000000,"state":"active","ping":75},{"user_id":298,"name":"Morocco NUMBER 3","steam_id":76561198846610729,"connected_time":134000000000,"state":"active","ping":153},{"user_id":296,"name":"Criductive","steam_id":76561198980102679,"connected_time":175000000000,"state":"active","ping":96},{"user_id":287,"name":"–ò–≤–∞–Ω–æ–≤","steam_id":76561198817596606,"connected_time":1149000000000,"state":"active","ping":56},{"user_id":251,"name":"Darky","steam_id":76561198004733239,"connected_time":4178000000000,"state":"active","ping":52},{"user_id":244,"name":"Viperense","steam_id":76561198036206811,"connected_time":4880000000000,"state":"active","ping":83},{"user_id":297,"name":"Leeroy Jenkins","steam_id":76561198137210227,"connected_time":141000000000,"state":"active","ping":76},{"user_id":253,"name":"Boobs rater","steam_id":76561198066977580,"connected_time":3937000000000,"state":"active","ping":90},{"user_id":299,"name":"lvl. 50 honkler","steam_id":76561198061688660,"connected_time":114000000000,"state":"active","ping":108},{"user_id":280,"name":"aolo2","steam_id":76561198037233986,"connected_time":1509000000000,"state":"active","ping":76},{"user_id":301,"name":"Yony","steam_id":76561199070569941,"connected_time":105000000000,"state":"active","ping":60},{"user_id":302,"name":"\u003e.\u003c","steam_id":76561199216923710,"connected_time":102000000000,"state":"active","ping":137},{"user_id":217,"name":"Goodb ye","steam_id":76561198862683773,"connected_time":5915000000000,"state":"active","ping":107},{"user_id":258,"name":"Assualt Monkei","steam_id":76561198971366983,"connected_time":3151000000000,"state":"active","ping":107},{"user_id":303,"name":"eric","steam_id":76561198141647497,"connected_time":47000000000,"state":"active","ping":62},{"user_id":223,"name":"Caliban","steam_id":76561197999696839,"connected_time":5823000000000,"state":"active","ping":99},{"user_id":282,"name":"Independent","steam_id":76561198068999873,"connected_time":1405000000000,"state":"active","ping":83}]},{"server_id":110,"name":"Uncletopia | Frankfurt | 2 | All Maps","name_short":"frk-2","host":"frk-1.de.uncletopia.com","port":27025,"enabled":true,"region":"eu","cc":"de","latitude":50.110924,"longitude":8.682127,"reserved":0,"last_update":"0001-01-01T00:00:00Z","name_a2s":"Uncletopia | Frankfurt | 2 | All Maps","protocol":17,"map":"pl_upward","folder":"tf","game":"Team Fortress","app_id":440,"player_count":23,"max_players":24,"Bots":0,"server_type":"Dedicated","server_os":"Linux","password":true,"vac":true,"version":"7723704","steam_id":85568392924469990,"keywords":["nocrits","nodmgspread","payload","uncletopia"],"game_id":440,"stv_port":27026,"stv_name":"Uncletopia | Frankfurt | 2 | All Maps | STV","players":[{"user_id":281,"name":"Fat Pigeon","steam_id":76561198817940142,"connected_time":5310000000000,"state":"active","ping":51},{"user_id":179,"name":"the arrival","steam_id":76561198189686075,"connected_time":12684000000000,"state":"active","ping":59},{"user_id":322,"name":"ImABush","steam_id":76561198304471896,"connected_time":2865000000000,"state":"active","ping":52},{"user_id":290,"name":"InfamousAxe","steam_id":76561198099504739,"connected_time":5075000000000,"state":"active","ping":111},{"user_id":335,"name":"not a nihilist","steam_id":76561198004340466,"connected_time":939000000000,"state":"active","ping":49},{"user_id":323,"name":"bh28","steam_id":76561198281243967,"connected_time":2850000000000,"state":"active","ping":47},{"user_id":341,"name":"where is my egg?","steam_id":76561198172542535,"connected_time":316000000000,"state":"active","ping":73},{"user_id":338,"name":"tallen","steam_id":76561198061708595,"connected_time":803000000000,"state":"active","ping":75},{"user_id":252,"name":"Carpe diem.","steam_id":76561199065917088,"connected_time":8597000000000,"state":"active","ping":63},{"user_id":187,"name":"retard","steam_id":76561199042470246,"connected_time":12305000000000,"state":"active","ping":56},{"user_id":333,"name":"Proto-arc","steam_id":76561198012776747,"connected_time":1799000000000,"state":"active","ping":60},{"user_id":342,"name":"Hat Lover","steam_id":76561198312283433,"connected_time":311000000000,"state":"active","ping":84},{"user_id":325,"name":"Gver3113","steam_id":76561198118659012,"connected_time":2325000000000,"state":"active","ping":75},{"user_id":291,"name":"Gordon Birdman","steam_id":76561198013382324,"connected_time":5072000000000,"state":"active","ping":75},{"user_id":339,"name":"Mr.Schnittlauch","steam_id":76561198295868113,"connected_time":464000000000,"state":"active","ping":53},{"user_id":336,"name":"Poot Poot","steam_id":76561199237768800,"connected_time":936000000000,"state":"active","ping":72},{"user_id":319,"name":"MrFish","steam_id":76561198853073331,"connected_time":3375000000000,"state":"active","ping":90},{"user_id":320,"name":"Insain Bolt!","steam_id":76561198025687726,"connected_time":3273000000000,"state":"active","ping":63},{"user_id":334,"name":"TheBeardedM1G","steam_id":76561198040208946,"connected_time":1656000000000,"state":"active","ping":60},{"user_id":331,"name":"3 Italians in a trenchcoat.","steam_id":76561198094993151,"connected_time":1863000000000,"state":"active","ping":54},{"user_id":327,"name":"gamer man","steam_id":76561198436817109,"connected_time":2059000000000,"state":"active","ping":69},{"user_id":324,"name":"Bones","steam_id":76561198065081225,"connected_time":2592000000000,"state":"active","ping":58},{"user_id":317,"name":"Engineer Gaming","steam_id":76561198866730509,"connected_time":3532000000000,"state":"active","ping":92}]},{"server_id":308,"name":"Uncletopia | Frankfurt | 3 | All Maps","name_short":"frk-3","host":"frk-1.de.uncletopia.com","port":27035,"enabled":true,"region":"eu","cc":"de","latitude":50.110924,"longitude":8.682127,"reserved":0,"last_update":"0001-01-01T00:00:00Z","name_a2s":"Uncletopia | Frankfurt | 3 | All Maps","protocol":17,"map":"pl_pier","folder":"tf","game":"Team Fortress","app_id":440,"player_count":24,"max_players":24,"Bots":0,"server_type":"Dedicated","server_os":"Linux","password":true,"vac":true,"version":"7723704","steam_id":85568392924504274,"keywords":["nocrits","nodmgspread","payload","uncletopia"],"game_id":440,"stv_port":27036,"stv_name":"Uncletopia | Frankfurt | 3 | All Maps | STV","players":[{"user_id":477,"name":"Bounter","steam_id":76561198072614188,"connected_time":2826000000000,"state":"active","ping":64},{"user_id":466,"name":"Cobb Salads","steam_id":76561197971140507,"connected_time":3362000000000,"state":"active","ping":63},{"user_id":506,"name":"Infantile Pillock","steam_id":76561198283851362,"connected_time":545000000000,"state":"active","ping":62},{"user_id":508,"name":"coulda chromed half the city","steam_id":76561199338003492,"connected_time":123000000000,"state":"active","ping":54},{"user_id":469,"name":"Pinkchup","steam_id":76561198106802803,"connected_time":3115000000000,"state":"active","ping":75},{"user_id":376,"name":"pl_z≈Çawoda","steam_id":76561198040588109,"connected_time":9238000000000,"state":"active","ping":77},{"user_id":503,"name":"scout TF2","steam_id":76561198072037878,"connected_time":919000000000,"state":"active","ping":61},{"user_id":505,"name":"guarda-chuva","steam_id":76561198078694330,"connected_time":607000000000,"state":"active","ping":44},{"user_id":494,"name":"√ÉNVS DR√ÉNVS","steam_id":76561198138733015,"connected_time":1930000000000,"state":"active","ping":112},{"user_id":481,"name":"sharkmax12312","steam_id":76561198996008569,"connected_time":2715000000000,"state":"active","ping":71},{"user_id":495,"name":"xocu","steam_id":76561198248994066,"connected_time":1824000000000,"state":"active","ping":72},{"user_id":507,"name":"üå≠üåº Hugee","steam_id":76561198245495152,"connected_time":314000000000,"state":"active","ping":63},{"user_id":470,"name":"pl_badwater","steam_id":76561198152184280,"connected_time":3114000000000,"state":"active","ping":77},{"user_id":471,"name":"Shumo","steam_id":76561198256223196,"connected_time":3106000000000,"state":"active","ping":79},{"user_id":457,"name":"üå≠ tendon *dafran junkrat","steam_id":76561198870764276,"connected_time":4006000000000,"state":"active","ping":75},{"user_id":499,"name":"Bob Sacamano","steam_id":76561198085610701,"connected_time":1306000000000,"state":"active","ping":80},{"user_id":502,"name":"–£–ø–æ—Ä–æ—Ç—ã–π –ë—é—Ä–µ—Ä","steam_id":76561198858901674,"connected_time":1018000000000,"state":"active","ping":109},{"user_id":488,"name":"frank","steam_id":76561198288866366,"connected_time":2341000000000,"state":"active","ping":69},{"user_id":501,"name":"Yelowchy","steam_id":76561198199416121,"connected_time":1045000000000,"state":"active","ping":101},{"user_id":500,"name":"XPullaHiiri","steam_id":76561198031652375,"connected_time":1058000000000,"state":"active","ping":85},{"user_id":468,"name":"James","steam_id":76561198138558005,"connected_time":3261000000000,"state":"active","ping":71},{"user_id":497,"name":"tristan","steam_id":76561198096097448,"connected_time":1460000000000,"state":"active","ping":54},{"user_id":484,"name":"kvlt","steam_id":76561198119420945,"connected_time":2680000000000,"state":"active","ping":81},{"user_id":455,"name":"We are in a world of magic","steam_id":76561198104745492,"connected_time":4103000000000,"state":"active","ping":64}]},{"server_id":309,"name":"Uncletopia | Frankfurt | 4 | All Maps","name_short":"frk-4","host":"frk-1.de.uncletopia.com","port":27045,"enabled":true,"region":"eu","cc":"de","latitude":50.110924,"longitude":8.682127,"reserved":0,"last_update":"0001-01-01T00:00:00Z","name_a2s":"Uncletopia | Frankfurt | 4 | All Maps","protocol":17,"map":"koth_highpass","folder":"tf","game":"Team Fortress","app_id":440,"player_count":14,"max_players":24,"Bots":0,"server_type":"Dedicated","server_os":"Linux","password":true,"vac":true,"version":"7723704","steam_id":85568392924504275,"keywords":["cp","nocrits","nodmgspread","uncletopia"],"game_id":440,"stv_port":27046,"stv_name":"Uncletopia | Frankfurt | 4 | All Maps | STV","players":[{"user_id":436,"name":"Wrabchev* Just_Smile","steam_id":76561198040645344,"connected_time":244000000000,"state":"active","ping":65},{"user_id":440,"name":"del2o","steam_id":76561199072601822,"connected_time":65000000000,"state":"active","ping":133},{"user_id":426,"name":"FaceShackle","steam_id":76561198038371397,"connected_time":663000000000,"state":"active","ping":42},{"user_id":442,"name":"kolechian","steam_id":76561198807891572,"connected_time":27000000000,"state":"spawning","ping":150},{"user_id":387,"name":"Superiumentarius","steam_id":76561198081642249,"connected_time":1522000000000,"state":"active","ping":56},{"user_id":438,"name":"DirtyFred","steam_id":76561198031814950,"connected_time":132000000000,"state":"active","ping":60},{"user_id":443,"name":"CATMOTHMAN","steam_id":76561199021561435,"connected_time":11000000000,"state":"spawning","ping":108},{"user_id":420,"name":"Exaggerated swagger of polack","steam_id":76561198133901720,"connected_time":797000000000,"state":"active","ping":51},{"user_id":381,"name":"cloud","steam_id":76561198179768931,"connected_time":1853000000000,"state":"active","ping":60},{"user_id":366,"name":"Jin","steam_id":76561198248878364,"connected_time":3200000000000,"state":"active","ping":45},{"user_id":382,"name":"bicycle seat (with rizz)","steam_id":76561198046873337,"connected_time":1816000000000,"state":"active","ping":65},{"user_id":399,"name":"Okacha","steam_id":76561198341166854,"connected_time":1285000000000,"state":"spawning","ping":108},{"user_id":395,"name":"hehe :3 \u003e\u003c","steam_id":76561198010662796,"connected_time":1459000000000,"state":"active","ping":46},{"user_id":396,"name":"Shlyk","steam_id":76561198333387103,"connected_time":1455000000000,"state":"active","ping":102}]},{"server_id":310,"name":"Uncletopia | Frankfurt | 5 | All Maps","name_short":"frk-5","host":"frk-1.de.uncletopia.com","port":27055,"enabled":true,"region":"eu","cc":"de","latitude":50.110924,"longitude":8.682127,"reserved":0,"last_update":"0001-01-01T00:00:00Z","name_a2s":"Uncletopia | Frankfurt | 5 | All Maps","protocol":17,"map":"pl_barnblitz","folder":"tf","game":"Team Fortress","app_id":440,"player_count":23,"max_players":24,"Bots":0,"server_type":"Dedicated","server_os":"Linux","password":true,"vac":true,"version":"7723704","steam_id":85568392924504277,"keywords":["nocrits","nodmgspread","payload","uncletopia"],"game_id":440,"stv_port":27056,"stv_name":"Uncletopia | Frankfurt | 5 | All Maps | STV","players":[{"user_id":249,"name":"bigwish | bmod.tf","steam_id":76561197997859723,"connected_time":2408000000000,"state":"active","ping":71},{"user_id":246,"name":"Fuktskadad","steam_id":76561198100941313,"connected_time":2545000000000,"state":"active","ping":76},{"user_id":275,"name":"Jamie Hyneman","steam_id":76561198364121077,"connected_time":58000000000,"state":"active","ping":108},{"user_id":269,"name":"M√®re-Lachaiselongue","steam_id":76561198261094295,"connected_time":1224000000000,"state":"active","ping":61},{"user_id":264,"name":"DrSpoonMan","steam_id":76561199214098986,"connected_time":1307000000000,"state":"active","ping":64},{"user_id":265,"name":"Vischan but worse","steam_id":76561199371650805,"connected_time":1297000000000,"state":"active","ping":94},{"user_id":266,"name":"SamDaPiRatE","steam_id":76561197969053733,"connected_time":1283000000000,"state":"active","ping":68},{"user_id":257,"name":"Trawiz","steam_id":76561198104794896,"connected_time":2021000000000,"state":"active","ping":67},{"user_id":232,"name":"Walle","steam_id":76561197995148937,"connected_time":2929000000000,"state":"active","ping":55},{"user_id":272,"name":"Samus","steam_id":76561198045943019,"connected_time":795000000000,"state":"active","ping":46},{"user_id":233,"name":"mesoni","steam_id":76561199141290973,"connected_time":2923000000000,"state":"active","ping":91},{"user_id":270,"name":"boo_thefeared","steam_id":76561198127967685,"connected_time":1130000000000,"state":"active","ping":63},{"user_id":273,"name":"teona","steam_id":76561198008107656,"connected_time":584000000000,"state":"active","ping":55},{"user_id":215,"name":"Diana Ball","steam_id":76561198382533813,"connected_time":3778000000000,"state":"active","ping":66},{"user_id":253,"name":"dotdotdot","steam_id":76561198057628751,"connected_time":2150000000000,"state":"active","ping":62},{"user_id":217,"name":"–ò–Ω—Å–ø–µ–∫—Ç–æ—Ä –ê—Ç–∞—Å","steam_id":76561199175688390,"connected_time":3685000000000,"state":"active","ping":76},{"user_id":268,"name":"yummy_treat_for_mr_beast","steam_id":76561198010251613,"connected_time":1282000000000,"state":"active","ping":84},{"user_id":239,"name":"dustee","steam_id":76561198023486582,"connected_time":2738000000000,"state":"active","ping":76},{"user_id":274,"name":"Dr. WAH","steam_id":76561198297778149,"connected_time":479000000000,"state":"active","ping":76},{"user_id":259,"name":"Wayart","steam_id":76561198042051613,"connected_time":1937000000000,"state":"active","ping":74},{"user_id":251,"name":"Soerlssoelss√∂en","steam_id":76561197993060585,"connected_time":2314000000000,"state":"active","ping":64},{"user_id":198,"name":"Nick","steam_id":76561198036109469,"connected_time":5142000000000,"state":"active","ping":99},{"user_id":247,"name":"VOIEISEONHIRVIO","steam_id":76561197996902035,"connected_time":2512000000000,"state":"active","ping":63}]},{"server_id":311,"name":"Uncletopia | Frankfurt | 6 | All Maps","name_short":"frk-6","host":"frk-1.de.uncletopia.com","port":27065,"enabled":true,"region":"eu","cc":"de","latitude":50.110924,"longitude":8.682127,"reserved":0,"last_update":"0001-01-01T00:00:00Z","name_a2s":"Uncletopia | Frankfurt | 6 | All Maps","protocol":17,"map":"pl_pier","folder":"tf","game":"Team Fortress","app_id":440,"player_count":20,"max_players":24,"Bots":0,"server_type":"Dedicated","server_os":"Linux","password":true,"vac":true,"version":"7723704","steam_id":85568392924504278,"keywords":["nocrits","nodmgspread","payload","uncletopia"],"game_id":440,"stv_port":27066,"stv_name":"Uncletopia | Frankfurt | 6 | All Maps | STV","players":[{"user_id":165,"name":"skrimgxral","steam_id":76561198271936950,"connected_time":1142000000000,"state":"active","ping":73},{"user_id":170,"name":"r06u3","steam_id":76561198254099253,"connected_time":505000000000,"state":"active","ping":182},{"user_id":152,"name":"CM32MAker","steam_id":76561199157487382,"connected_time":1444000000000,"state":"active","ping":169},{"user_id":111,"name":"Cobraz0r","steam_id":76561198017693962,"connected_time":3849000000000,"state":"active","ping":74},{"user_id":112,"name":"Mihai","steam_id":76561199181038346,"connected_time":3841000000000,"state":"active","ping":86},{"user_id":168,"name":"Mr.Fix","steam_id":76561199017362445,"connected_time":774000000000,"state":"active","ping":97},{"user_id":171,"name":"CatCreamBear","steam_id":76561198065314267,"connected_time":444000000000,"state":"active","ping":71},{"user_id":158,"name":"choob303","steam_id":76561198206375860,"connected_time":1285000000000,"state":"active","ping":72},{"user_id":172,"name":"System","steam_id":76561199442503973,"connected_time":430000000000,"state":"active","ping":45},{"user_id":173,"name":"I-I","steam_id":76561198267969436,"connected_time":408000000000,"state":"active","ping":68},{"user_id":161,"name":"43291842381","steam_id":76561198038160325,"connected_time":1266000000000,"state":"active","ping":73},{"user_id":34,"name":"Raxor","steam_id":76561198239927434,"connected_time":9355000000000,"state":"active","ping":90},{"user_id":178,"name":"bANji","steam_id":76561198108898161,"connected_time":286000000000,"state":"active","ping":43},{"user_id":154,"name":"BlindManCassidy1829","steam_id":76561198429658370,"connected_time":1310000000000,"state":"active","ping":122},{"user_id":122,"name":"Painfully Average","steam_id":76561198381881577,"connected_time":3590000000000,"state":"active","ping":134},{"user_id":174,"name":"Scipionemiliano","steam_id":76561198027646559,"connected_time":347000000000,"state":"active","ping":98},{"user_id":176,"name":"john fortress","steam_id":76561198202668788,"connected_time":316000000000,"state":"active","ping":66},{"user_id":179,"name":"Taska","steam_id":76561198807325888,"connected_time":202000000000,"state":"active","ping":99},{"user_id":169,"name":"why rum gone","steam_id":76561198158484784,"connected_time":590000000000,"state":"active","ping":60},{"user_id":177,"name":"Check Your Posture!","steam_id":76561198097466136,"connected_time":300000000000,"state":"active","ping":61}]},{"server_id":23,"name":"Uncletopia | Frankfurt | 7 | No Payload","name_short":"frk-7","host":"frk-1.de.uncletopia.com","port":27075,"enabled":true,"region":"eu","cc":"de","latitude":50.110924,"longitude":8.682127,"reserved":0,"last_update":"0001-01-01T00:00:00Z","name_a2s":"Uncletopia | Frankfurt | 7 | No Payload","protocol":17,"map":"koth_sawmill","folder":"tf","game":"Team Fortress","app_id":440,"player_count":2,"max_players":24,"Bots":0,"server_type":"Dedicated","server_os":"Linux","password":true,"vac":true,"version":"7723704","steam_id":85568392924742827,"keywords":["cp","nocrits","nodmgspread","uncletopia"],"game_id":440,"stv_port":27076,"stv_name":"Uncletopia | Frankfurt | 7 | No Payload | STV","players":[{"user_id":21,"name":"Auri","steam_id":76561198009314672,"connected_time":498000000000,"state":"active","ping":41},{"user_id":22,"name":"Serkawi - 79","steam_id":76561197999131494,"connected_time":373000000000,"state":"active","ping":40}]},{"server_id":24,"name":"Uncletopia | Frankfurt | 8 | Community","name_short":"frk-8","host":"frk-1.de.uncletopia.com","port":27085,"enabled":true,"region":"eu","cc":"de","latitude":50.110924,"longitude":8.682127,"reserved":0,"last_update":"0001-01-01T00:00:00Z","name_a2s":"Uncletopia | Frankfurt | 8 | Community","protocol":17,"map":"workshop/koth_ashville_final.ugc2130459942","folder":"tf","game":"Team Fortress","app_id":440,"player_count":0,"max_players":24,"Bots":0,"server_type":"Dedicated","server_os":"Linux","password":true,"vac":true,"version":"7723704","steam_id":85568392924742828,"keywords":["cp","nocrits","nodmgspread","uncletopia"],"game_id":440,"stv_port":27086,"stv_name":"Uncletopia | Frankfurt | 8 | Community | STV","players":null},{"server_id":202,"name":"Uncletopia | Hong Kong | 1 | All Maps","name_short":"hgk-1","host":"hgk-1.hk.uncletopia.com","port":27015,"enabled":true,"region":"asia","cc":"hk","latitude":22.302711,"longitude":114.177216,"reserved":0,"last_update":"0001-01-01T00:00:00Z","name_a2s":"Uncletopia | Hong Kong | 1 | All Maps","protocol":17,"map":"koth_cascade","folder":"tf","game":"Team Fortress","app_id":440,"player_count":0,"max_players":24,"Bots":0,"server_type":"Dedicated","server_os":"Linux","password":true,"vac":true,"version":"7723704","steam_id":85568392924494504,"keywords":["cp","nocrits","nodmgspread","uncletopia"],"game_id":440,"stv_port":27016,"stv_name":"Uncletopia | Hong Kong | 1 | All Maps | STV","players":null},{"server_id":1,"name":"Uncletopia | Los Angeles | 1 | All Maps","name_short":"lax-1","host":"lax-1.us.uncletopia.com","port":27015,"enabled":true,"region":"us-west","cc":"us","latitude":33.94279,"longitude":-118.41004,"reserved":0,"last_update":"0001-01-01T00:00:00Z","name_a2s":"Uncletopia | Los Angeles | 1 | All Maps","protocol":17,"map":"cp_sunshine","folder":"tf","game":"Team Fortress","app_id":440,"player_count":0,"max_players":24,"Bots":0,"server_type":"Dedicated","server_os":"Linux","password":true,"vac":true,"version":"7723704","steam_id":85568392924469991,"keywords":["cp","nocrits","nodmgspread","uncletopia"],"game_id":440,"stv_port":27016,"stv_name":"Uncletopia | Los Angeles | 1 | All Maps | STV","players":null},{"server_id":112,"name":"Uncletopia | Los Angeles | 2 | All Maps","name_short":"lax-2","host":"lax-1.us.uncletopia.com","port":27025,"enabled":true,"region":"us-west","cc":"us","latitude":33.94279,"longitude":-118.41004,"reserved":0,"last_update":"0001-01-01T00:00:00Z","name_a2s":"Uncletopia | Los Angeles | 2 | All Maps","protocol":17,"map":"pl_pier","folder":"tf","game":"Team Fortress","app_id":440,"player_count":0,"max_players":24,"Bots":0,"server_type":"Dedicated","server_os":"Linux","password":true,"vac":true,"version":"7723704","steam_id":85568392924469992,"keywords":["nocrits","nodmgspread","payload","uncletopia"],"game_id":440,"stv_port":27026,"stv_name":"Uncletopia | Los Angeles | 2 | All Maps | STV","players":null},{"server_id":324,"name":"Uncletopia | Los Angeles | 3 | All Maps","name_short":"lax-3","host":"lax-1.us.uncletopia.com","port":27035,"enabled":true,"region":"us-west","cc":"us","latitude":33.94279,"longitude":-118.41004,"reserved":0,"last_update":"0001-01-01T00:00:00Z","name_a2s":"Uncletopia | Los Angeles | 3 | All Maps","protocol":17,"map":"koth_highpass","folder":"tf","game":"Team Fortress","app_id":440,"player_count":0,"max_players":24,"Bots":0,"server_type":"Dedicated","server_os":"Linux","password":true,"vac":true,"version":"7723704","steam_id":85568392924510198,"keywords":["cp","nocrits","nodmgspread","uncletopia"],"game_id":440,"stv_port":27036,"stv_name":"Uncletopia | Los Angeles | 3 | All Maps | STV","players":null},{"server_id":25,"name":"Uncletopia | Los Angeles | 4 | No Payload","name_short":"lax-4","host":"lax-1.us.uncletopia.com","port":27045,"enabled":true,"region":"us-west","cc":"us","latitude":33.94279,"longitude":-118.41004,"reserved":0,"last_update":"0001-01-01T00:00:00Z","name_a2s":"Uncletopia | Los Angeles | 4 | No Payload","protocol":17,"map":"cp_mountainlab","folder":"tf","game":"Team Fortress","app_id":440,"player_count":0,"max_players":24,"Bots":0,"server_type":"Dedicated","server_os":"Linux","password":true,"vac":true,"version":"7723704","steam_id":85568392924510199,"keywords":["cp","nocrits","nodmgspread","uncletopia"],"game_id":440,"stv_port":27046,"stv_name":"Uncletopia | Los Angeles | 4 | No Payload | STV","players":null},{"server_id":11,"name":"Uncletopia | London | 1 | All Maps","name_short":"lon-1","host":"lon-1.uk.uncletopia.com","port":27015,"enabled":true,"region":"eu","cc":"gb","latitude":51.509865,"longitude":-0.118092,"reserved":0,"last_update":"0001-01-01T00:00:00Z","name_a2s":"Uncletopia | London | 1 | All Maps","protocol":17,"map":"cp_snakewater_final1","folder":"tf","game":"Team Fortress","app_id":440,"player_count":18,"max_players":24,"Bots":0,"server_type":"Dedicated","server_os":"Linux","password":true,"vac":true,"version":"7723704","steam_id":85568392924367362,"keywords":["cp","nocrits","nodmgspread","uncletopia"],"game_id":440,"stv_port":27016,"stv_name":"Uncletopia | London | 1 | All Maps | STV","players":[{"user_id":333,"name":"nudjura","steam_id":76561198281986139,"connected_time":2014000000000,"state":"active","ping":43},{"user_id":339,"name":"The Funny Cat-Heaby","steam_id":76561198439978112,"connected_time":1969000000000,"state":"active","ping":93},{"user_id":326,"name":"GodOfGobboz","steam_id":76561198154677956,"connected_time":2443000000000,"state":"active","ping":81},{"user_id":349,"name":"MLG ANIMAL MASTER","steam_id":76561198256262286,"connected_time":1176000000000,"state":"active","ping":47},{"user_id":321,"name":"dingus","steam_id":76561199015769330,"connected_time":2672000000000,"state":"active","ping":137},{"user_id":355,"name":"Bajas","steam_id":76561198179339326,"connected_time":27000000000,"state":"active","ping":84},{"user_id":342,"name":"Midoriaga","steam_id":76561198010699090,"connected_time":1697000000000,"state":"active","ping":54},{"user_id":353,"name":"Pogi820","steam_id":76561198320573568,"connected_time":238000000000,"state":"active","ping":128},{"user_id":351,"name":"Shizu","steam_id":76561198289448882,"connected_time":1154000000000,"state":"active","ping":60},{"user_id":352,"name":"Belithe","steam_id":76561198082612324,"connected_time":678000000000,"state":"active","ping":58},{"user_id":274,"name":"Zero","steam_id":76561199383267408,"connected_time":4552000000000,"state":"active","ping":137},{"user_id":338,"name":"eggslut","steam_id":76561198010752241,"connected_time":1975000000000,"state":"active","ping":63},{"user_id":340,"name":"ldshwt","steam_id":76561198090364357,"connected_time":1967000000000,"state":"active","ping":60},{"user_id":313,"name":"dog","steam_id":76561198066521617,"connected_time":3179000000000,"state":"active","ping":116},{"user_id":354,"name":"Dane","steam_id":76561199013368332,"connected_time":227000000000,"state":"active","ping":59},{"user_id":325,"name":"water bottle","steam_id":76561199141538535,"connected_time":2504000000000,"state":"active","ping":40},{"user_id":348,"name":"Z'nacky09","steam_id":76561198041994406,"connected_time":1271000000000,"state":"active","ping":67},{"user_id":346,"name":"Cass","steam_id":76561198934205195,"connected_time":1551000000000,"state":"active","ping":48}]},{"server_id":114,"name":"Uncletopia | London | 2 | All Maps","name_short":"lon-2","host":"lon-1.uk.uncletopia.com","port":27025,"enabled":true,"region":"eu","cc":"gb","latitude":51.509865,"longitude":-0.118092,"reserved":0,"last_update":"0001-01-01T00:00:00Z","name_a2s":"Uncletopia | London | 2 | All Maps","protocol":17,"map":"pl_pier","folder":"tf","game":"Team Fortress","app_id":440,"player_count":21,"max_players":24,"Bots":0,"server_type":"Dedicated","server_os":"Linux","password":true,"vac":true,"version":"7723704","steam_id":85568392924470941,"keywords":["nocrits","nodmgspread","payload","uncletopia"],"game_id":440,"stv_port":27026,"stv_name":"Uncletopia | London | 2 | All Maps | STV","players":[{"user_id":419,"name":"VK2124 :D","steam_id":76561198111130688,"connected_time":1821000000000,"state":"active","ping":59},{"user_id":422,"name":"trans werewolf","steam_id":76561198107235989,"connected_time":1792000000000,"state":"active","ping":74},{"user_id":417,"name":"JimTheMagicJumper","steam_id":76561197996773886,"connected_time":1846000000000,"state":"active","ping":39},{"user_id":308,"name":"DonnytheDutchman","steam_id":76561198260295055,"connected_time":4507000000000,"state":"active","ping":66},{"user_id":423,"name":"nut","steam_id":76561199013069888,"connected_time":1789000000000,"state":"active","ping":88},{"user_id":299,"name":"Mathieu.","steam_id":76561198039268163,"connected_time":4999000000000,"state":"active","ping":65},{"user_id":465,"name":"Surfergeo","steam_id":76561198135538230,"connected_time":897000000000,"state":"active","ping":50},{"user_id":473,"name":"Sugar bowl","steam_id":76561199116413509,"connected_time":634000000000,"state":"active","ping":56},{"user_id":487,"name":"Weed Obama","steam_id":76561198082407601,"connected_time":229000000000,"state":"active","ping":70},{"user_id":426,"name":"Nonwhal","steam_id":76561198367938399,"connected_time":1775000000000,"state":"active","ping":120},{"user_id":342,"name":"Avocado [Ham Mafia]","steam_id":76561199007231261,"connected_time":3073000000000,"state":"active","ping":68},{"user_id":329,"name":"cow tools","steam_id":76561198216447231,"connected_time":3913000000000,"state":"active","ping":45},{"user_id":335,"name":"kyzziƒì","steam_id":76561198099021004,"connected_time":3131000000000,"state":"active","ping":124},{"user_id":291,"name":"VolcanicArts","steam_id":76561198063453246,"connected_time":5382000000000,"state":"active","ping":53},{"user_id":420,"name":"Creative","steam_id":76561198835034247,"connected_time":1819000000000,"state":"active","ping":83},{"user_id":381,"name":"Ta–øgen","steam_id":76561198120329367,"connected_time":2412000000000,"state":"active","ping":79},{"user_id":463,"name":"frbuz","steam_id":76561198327135462,"connected_time":973000000000,"state":"active","ping":179},{"user_id":370,"name":"L√∏bbeh","steam_id":76561198071861251,"connected_time":2545000000000,"state":"active","ping":84},{"user_id":344,"name":"After8","steam_id":76561198090750865,"connected_time":3055000000000,"state":"active","ping":75},{"user_id":464,"name":"Mondi","steam_id":76561198061005766,"connected_time":964000000000,"state":"active","ping":60},{"user_id":468,"name":"heavy sings (real)","steam_id":76561199023804405,"connected_time":841000000000,"state":"active","ping":72}]},{"server_id":320,"name":"Uncletopia | London | 3 | All Maps","name_short":"lon-3","host":"lon-1.uk.uncletopia.com","port":27035,"enabled":true,"region":"eu","cc":"gb","latitude":51.509865,"longitude":-0.118092,"reserved":0,"last_update":"0001-01-01T00:00:00Z","name_a2s":"Uncletopia | London | 3 | All Maps","protocol":17,"map":"koth_cascade","folder":"tf","game":"Team Fortress","app_id":440,"player_count":2,"max_players":24,"Bots":0,"server_type":"Dedicated","server_os":"Linux","password":true,"vac":true,"version":"7723704","steam_id":85568392924510192,"keywords":["cp","nocrits","nodmgspread","uncletopia"],"game_id":440,"stv_port":27036,"stv_name":"Uncletopia | London | 3 | All Maps | STV","players":[{"user_id":19,"name":"justin_ (f2p and real)","steam_id":76561198839843428,"connected_time":532000000000,"state":"active","ping":121},{"user_id":20,"name":"ran is running","steam_id":76561199443185667,"connected_time":532000000000,"state":"active","ping":122}]},{"server_id":321,"name":"Uncletopia | London | 4 | All Maps","name_short":"lon-4","host":"lon-1.uk.uncletopia.com","port":27045,"enabled":true,"region":"eu","cc":"gb","latitude":51.509865,"longitude":-0.118092,"reserved":0,"last_update":"0001-01-01T00:00:00Z","name_a2s":"Uncletopia | London | 4 | All Maps","protocol":17,"map":"pl_barnblitz","folder":"tf","game":"Team Fortress","app_id":440,"player_count":24,"max_players":24,"Bots":0,"server_type":"Dedicated","server_os":"Linux","password":true,"vac":true,"version":"7723704","steam_id":85568392924510193,"keywords":["nocrits","nodmgspread","payload","uncletopia"],"game_id":440,"stv_port":27046,"stv_name":"Uncletopia | London | 4 | All Maps | STV","players":[{"user_id":322,"name":"EatAtJojos","steam_id":76561199228871811,"connected_time":673000000000,"state":"active","ping":86},{"user_id":268,"name":"Octoblue64","steam_id":76561198388997283,"connected_time":4594000000000,"state":"active","ping":48},{"user_id":318,"name":"Blazmobins","steam_id":76561198082899401,"connected_time":1025000000000,"state":"active","ping":41},{"user_id":315,"name":"Aled","steam_id":76561197980057489,"connected_time":1237000000000,"state":"active","ping":51},{"user_id":326,"name":"DonPascualino","steam_id":76561198039736512,"connected_time":195000000000,"state":"active","ping":51},{"user_id":308,"name":"King_Nothing","steam_id":76561198313701436,"connected_time":1762000000000,"state":"active","ping":89},{"user_id":320,"name":"macauw","steam_id":76561198010467088,"connected_time":1001000000000,"state":"active","ping":53},{"user_id":222,"name":"Rat, the ungodly rat #SaveTF2","steam_id":76561199126577423,"connected_time":6894000000000,"state":"active","ping":73},{"user_id":269,"name":":/","steam_id":76561199382587543,"connected_time":4450000000000,"state":"active","ping":71},{"user_id":324,"name":"InnocentCitizen","steam_id":76561198944471063,"connected_time":305000000000,"state":"active","ping":34},{"user_id":325,"name":"Mr.Cupcake","steam_id":76561198152711174,"connected_time":248000000000,"state":"active","ping":73},{"user_id":309,"name":"Kaen Bedehem","steam_id":76561198084056545,"connected_time":1753000000000,"state":"active","ping":69},{"user_id":262,"name":"xX_GamingGilf_Xx","steam_id":76561199118876157,"connected_time":4889000000000,"state":"active","ping":55},{"user_id":323,"name":"krVsh","steam_id":76561198370541349,"connected_time":549000000000,"state":"active","ping":45},{"user_id":321,"name":"Phil3k.","steam_id":76561198283072297,"connected_time":967000000000,"state":"active","ping":61},{"user_id":302,"name":"Farmercy","steam_id":76561198000038039,"connected_time":2139000000000,"state":"active","ping":71},{"user_id":310,"name":"Smoogle McDoogle","steam_id":76561198138121795,"connected_time":1750000000000,"state":"active","ping":67},{"user_id":314,"name":"Heavy Box","steam_id":76561198053624882,"connected_time":1362000000000,"state":"active","ping":91},{"user_id":301,"name":"Roman Polanski","steam_id":76561198108321988,"connected_time":2261000000000,"state":"active","ping":68},{"user_id":304,"name":"jankomit","steam_id":76561198043024857,"connected_time":1888000000000,"state":"active","ping":83},{"user_id":327,"name":"azzy","steam_id":76561198061293740,"connected_time":119000000000,"state":"active","ping":80},{"user_id":297,"name":"Acheron","steam_id":76561198306593373,"connected_time":2446000000000,"state":"active","ping":75},{"user_id":294,"name":"NonProphet","steam_id":76561198280149820,"connected_time":2703000000000,"state":"active","ping":53},{"user_id":290,"name":"Rat head","steam_id":76561198184360615,"connected_time":2778000000000,"state":"active","ping":94}]},{"server_id":21,"name":"Uncletopia | London | 5 | All Maps","name_short":"lon-5","host":"lon-1.uk.uncletopia.com","port":27055,"enabled":true,"region":"eu","cc":"gb","latitude":51.509865,"longitude":-0.118092,"reserved":0,"last_update":"0001-01-01T00:00:00Z","name_a2s":"Uncletopia | London | 5 | All Maps","protocol":17,"map":"pl_pier","folder":"tf","game":"Team Fortress","app_id":440,"player_count":1,"max_players":24,"Bots":0,"server_type":"Dedicated","server_os":"Linux","password":true,"vac":true,"version":"7723704","steam_id":85568392924742829,"keywords":["nocrits","nodmgspread","payload","uncletopia"],"game_id":440,"stv_port":27056,"stv_name":"Uncletopia | London | 5 | All Maps | STV","players":[{"user_id":12,"name":"Denialman (Muted)","steam_id":76561198309182092,"connected_time":160000000000,"state":"active","ping":66}]},{"server_id":22,"name":"Uncletopia | London | 6 | All Maps","name_short":"lon-6","host":"lon-1.uk.uncletopia.com","port":27065,"enabled":true,"region":"eu","cc":"gb","latitude":51.509865,"longitude":-0.118092,"reserved":0,"last_update":"0001-01-01T00:00:00Z","name_a2s":"Uncletopia | London | 6 | All Maps","protocol":17,"map":"pl_upward","folder":"tf","game":"Team Fortress","app_id":440,"player_count":16,"max_players":24,"Bots":0,"server_type":"Dedicated","server_os":"Linux","password":true,"vac":true,"version":"7723704","steam_id":85568392924742830,"keywords":["nocrits","nodmgspread","payload","uncletopia"],"game_id":440,"stv_port":27066,"stv_name":"Uncletopia | London | 6 | All Maps | STV","players":[{"user_id":8,"name":"Nambo Chimbanskey","steam_id":76561198134646593,"connected_time":1938000000000,"state":"active","ping":45},{"user_id":41,"name":"‚ôøsnail thumbler‚ôø","steam_id":76561198125147268,"connected_time":73000000000,"state":"active","ping":44},{"user_id":42,"name":"Bonk","steam_id":76561198844193324,"connected_time":71000000000,"state":"active","ping":45},{"user_id":43,"name":"J enjoyer","steam_id":76561198055561981,"connected_time":48000000000,"state":"active","ping":45},{"user_id":40,"name":"Mr.McNuggets","steam_id":76561199205631497,"connected_time":172000000000,"state":"active","ping":45},{"user_id":13,"name":"Hexagon","steam_id":76561198151205758,"connected_time":1170000000000,"state":"active","ping":60},{"user_id":27,"name":"Hkitchen","steam_id":76561198194779526,"connected_time":532000000000,"state":"active","ping":35},{"user_id":18,"name":"cheesecake.","steam_id":76561198426604784,"connected_time":781000000000,"state":"active","ping":54},{"user_id":32,"name":"Swagrid","steam_id":76561198051029653,"connected_time":412000000000,"state":"active","ping":121},{"user_id":24,"name":"Circular","steam_id":76561198001536710,"connected_time":740000000000,"state":"active","ping":43},{"user_id":28,"name":"Tort","steam_id":76561198329646769,"connected_time":525000000000,"state":"active","ping":47},{"user_id":30,"name":"Salesman","steam_id":76561198045527771,"connected_time":467000000000,"state":"active","ping":55},{"user_id":34,"name":"This Guy Is Fucked Up!","steam_id":76561198139303045,"connected_time":336000000000,"state":"active","ping":89},{"user_id":35,"name":"sillycatlover","steam_id":76561199208283508,"connected_time":307000000000,"state":"active","ping":80},{"user_id":39,"name":"Dolcelatte","steam_id":76561198038501770,"connected_time":229000000000,"state":"active","ping":60},{"user_id":38,"name":"Meat","steam_id":76561198132134056,"connected_time":246000000000,"state":"active","ping":72}]},{"server_id":40,"name":"Uncletopia | London | 7 | No Payload","name_short":"lon-7","host":"lon-1.uk.uncletopia.com","port":27075,"enabled":true,"region":"eu","cc":"gb","latitude":51.509865,"longitude":-0.118092,"reserved":0,"last_update":"0001-01-01T00:00:00Z","name_a2s":"Uncletopia | London | 7 | No Payload","protocol":17,"map":"koth_harvest_final","folder":"tf","game":"Team Fortress","app_id":440,"player_count":20,"max_players":24,"Bots":0,"server_type":"Dedicated","server_os":"Linux","password":true,"vac":true,"version":"7723704","steam_id":85568392924964314,"keywords":["cp","nocrits","nodmgspread","uncletopia"],"game_id":440,"stv_port":27076,"stv_name":"Uncletopia | London | 7 | No Payload | STV","players":[{"user_id":17,"name":"Insanitybomb","steam_id":76561198048707708,"connected_time":2519000000000,"state":"active","ping":52},{"user_id":62,"name":"Garden Freeman","steam_id":76561199073314677,"connected_time":327000000000,"state":"active","ping":71},{"user_id":59,"name":"Anri Okita's Massive Milkers","steam_id":76561199186352720,"connected_time":447000000000,"state":"active","ping":61},{"user_id":19,"name":"Shawty","steam_id":76561198256704286,"connected_time":2359000000000,"state":"active","ping":62},{"user_id":20,"name":"Fbafroguy","steam_id":76561199113010473,"connected_time":2338000000000,"state":"active","ping":56},{"user_id":46,"name":"adriankurek","steam_id":76561199349026873,"connected_time":978000000000,"state":"active","ping":65},{"user_id":22,"name":"PerskuleBenener","steam_id":76561198156899375,"connected_time":2019000000000,"state":"active","ping":89},{"user_id":23,"name":"Redmailbox","steam_id":76561198042930322,"connected_time":1923000000000,"state":"active","ping":67},{"user_id":48,"name":"Paper plane Mike","steam_id":76561198367921934,"connected_time":827000000000,"state":"active","ping":49},{"user_id":25,"name":"Frazzles","steam_id":76561199228009586,"connected_time":1714000000000,"state":"active","ping":51},{"user_id":42,"name":"marky__b","steam_id":76561198002794817,"connected_time":1116000000000,"state":"active","ping":57},{"user_id":27,"name":"pkp86","steam_id":76561198259581671,"connected_time":1559000000000,"state":"active","ping":128},{"user_id":56,"name":"hamude.alsarhan2011","steam_id":76561199259727736,"connected_time":660000000000,"state":"active","ping":61},{"user_id":29,"name":"pawcio2091","steam_id":76561198262515197,"connected_time":1547000000000,"state":"active","ping":102},{"user_id":60,"name":"MrPeekachoo","steam_id":76561198995252774,"connected_time":421000000000,"state":"active","ping":42},{"user_id":68,"name":"Who?","steam_id":76561198271901063,"connected_time":127000000000,"state":"active","ping":52},{"user_id":52,"name":"Sheerluck Holmes","steam_id":76561198051161936,"connected_time":738000000000,"state":"active","ping":49},{"user_id":54,"name":"Blastimus","steam_id":76561198040070927,"connected_time":725000000000,"state":"active","ping":107},{"user_id":55,"name":"DeepBlue","steam_id":76561198140075795,"connected_time":689000000000,"state":"active","ping":63},{"user_id":65,"name":"Michael","steam_id":76561198003146906,"connected_time":260000000000,"state":"active","ping":45}]},{"server_id":41,"name":"Uncletopia | London | 8 | Community","name_short":"lon-8","host":"lon-1.uk.uncletopia.com","port":27085,"enabled":true,"region":"eu","cc":"gb","latitude":51.509865,"longitude":-0.118092,"reserved":0,"last_update":"0001-01-01T00:00:00Z","name_a2s":"Uncletopia | London | 8 | Community","protocol":17,"map":"workshop/koth_bagel_rc5.ugc2514036946","folder":"tf","game":"Team Fortress","app_id":440,"player_count":0,"max_players":24,"Bots":0,"server_type":"Dedicated","server_os":"Linux","password":true,"vac":true,"version":"7723704","steam_id":85568392924964315,"keywords":["cp","nocrits","nodmgspread","uncletopia"],"game_id":440,"stv_port":27086,"stv_name":"Uncletopia | London | 8 | Community | STV","players":null},{"server_id":300,"name":"Uncletopia | Montr√©al | 1 | All Maps","name_short":"mtl-1","host":"mtl-1.ca.uncletopia.com","port":27015,"enabled":true,"region":"us-east","cc":"ca","latitude":45.50889,"longitude":-73.56167,"reserved":0,"last_update":"0001-01-01T00:00:00Z","name_a2s":"","protocol":0,"map":"","folder":"","game":"","app_id":0,"player_count":0,"max_players":0,"Bots":0,"server_type":"","server_os":"","password":false,"vac":false,"version":"","steam_id":0,"keywords":null,"game_id":0,"stv_port":0,"stv_name":"","players":null},{"server_id":301,"name":"Uncletopia | Montr√©al | 2 | All Maps","name_short":"mtl-2","host":"mtl-1.ca.uncletopia.com","port":27025,"enabled":true,"region":"us-east","cc":"ca","latitude":45.50889,"longitude":-73.56167,"reserved":0,"last_update":"0001-01-01T00:00:00Z","name_a2s":"","protocol":0,"map":"","folder":"","game":"","app_id":0,"player_count":0,"max_players":0,"Bots":0,"server_type":"","server_os":"","password":false,"vac":false,"version":"","steam_id":0,"keywords":null,"game_id":0,"stv_port":0,"stv_name":"","players":null},{"server_id":302,"name":"Uncletopia | Montr√©al | 3 | All Maps","name_short":"mtl-3","host":"mtl-1.ca.uncletopia.com","port":27035,"enabled":true,"region":"us-east","cc":"ca","latitude":45.50889,"longitude":-73.56167,"reserved":0,"last_update":"0001-01-01T00:00:00Z","name_a2s":"","protocol":0,"map":"","folder":"","game":"","app_id":0,"player_count":0,"max_players":0,"Bots":0,"server_type":"","server_os":"","password":false,"vac":false,"version":"","steam_id":0,"keywords":null,"game_id":0,"stv_port":0,"stv_name":"","players":null},{"server_id":303,"name":"Uncletopia | Montr√©al | 4 | No Payload","name_short":"mtl-4","host":"mtl-1.ca.uncletopia.com","port":27045,"enabled":true,"region":"us-east","cc":"ca","latitude":45.50889,"longitude":-73.56167,"reserved":0,"last_update":"0001-01-01T00:00:00Z","name_a2s":"","protocol":0,"map":"","folder":"","game":"","app_id":0,"player_count":0,"max_players":0,"Bots":0,"server_type":"","server_os":"","password":false,"vac":false,"version":"","steam_id":0,"keywords":null,"game_id":0,"stv_port":0,"stv_name":"","players":null},{"server_id":13,"name":"Uncletopia | New York City | 1 | All Maps","name_short":"nyc-1","host":"nyc-1.us.uncletopia.com","port":27015,"enabled":true,"region":"us-east","cc":"us","latitude":40.73061,"longitude":-73.93524,"reserved":0,"last_update":"0001-01-01T00:00:00Z","name_a2s":"Uncletopia | New York City | 1 | All Maps","protocol":17,"map":"pl_snowycoast","folder":"tf","game":"Team Fortress","app_id":440,"player_count":24,"max_players":24,"Bots":0,"server_type":"Dedicated","server_os":"Linux","password":true,"vac":true,"version":"7723704","steam_id":85568392924469993,"keywords":["nocrits","nodmgspread","payload","uncletopia"],"game_id":440,"stv_port":27016,"stv_name":"Uncletopia | New York City | 1 | All Maps | STV","players":[{"user_id":3,"name":"PapaPatrick","steam_id":76561199017975241,"connected_time":1968000000000,"state":"active","ping":85},{"user_id":4,"name":"Crow","steam_id":76561198064799398,"connected_time":1810000000000,"state":"active","ping":81},{"user_id":33,"name":"J O V A","steam_id":76561198090333536,"connected_time":294000000000,"state":"active","ping":65},{"user_id":6,"name":"sheep","steam_id":76561198172943006,"connected_time":1389000000000,"state":"active","ping":60},{"user_id":22,"name":"Unwavering Flavor","steam_id":76561198053306065,"connected_time":846000000000,"state":"active","ping":90},{"user_id":8,"name":"Tsk","steam_id":76561197992797530,"connected_time":1324000000000,"state":"active","ping":64},{"user_id":9,"name":"Benforce010","steam_id":76561199220886530,"connected_time":1321000000000,"state":"active","ping":94},{"user_id":38,"name":"STOP RIGHT THERE CRIMINAL SCUM","steam_id":76561198202273263,"connected_time":159000000000,"state":"active","ping":74},{"user_id":11,"name":"Bee_Pirate","steam_id":76561199000599111,"connected_time":1257000000000,"state":"active","ping":63},{"user_id":12,"name":"Baguette ü•ñ","steam_id":76561198102279151,"connected_time":1213000000000,"state":"active","ping":77},{"user_id":13,"name":"madturtle3","steam_id":76561198146953474,"connected_time":1208000000000,"state":"active","ping":107},{"user_id":30,"name":"Polygunner","steam_id":76561199165741650,"connected_time":520000000000,"state":"active","ping":65},{"user_id":15,"name":"Cassini","steam_id":76561198318526294,"connected_time":1128000000000,"state":"active","ping":49},{"user_id":16,"name":"vieodmsgea","steam_id":76561198025295263,"connected_time":1083000000000,"state":"active","ping":90},{"user_id":34,"name":"jade","steam_id":76561198044363630,"connected_time":280000000000,"state":"active","ping":45},{"user_id":40,"name":"20tsr08","steam_id":76561199245566580,"connected_time":90000000000,"state":"active","ping":107},{"user_id":35,"name":"Norisa|trade.tf","steam_id":76561198241262702,"connected_time":278000000000,"state":"active","ping":71},{"user_id":36,"name":"Batman","steam_id":76561198202427509,"connected_time":259000000000,"state":"active","ping":60},{"user_id":39,"name":"Sigiferd","steam_id":76561198148788110,"connected_time":134000000000,"state":"active","ping":138},{"user_id":32,"name":"SLiPpeRyJoe.nosound","steam_id":76561197977206359,"connected_time":490000000000,"state":"active","ping":74},{"user_id":26,"name":"GeraldyJones65","steam_id":76561199122297098,"connected_time":669000000000,"state":"active","ping":55},{"user_id":27,"name":"Azura","steam_id":76561197995406947,"connected_time":629000000000,"state":"active","ping":90},{"user_id":37,"name":"Atlas","steam_id":76561198127975050,"connected_time":231000000000,"state":"active","ping":72},{"user_id":31,"name":"What are you doing?!","steam_id":76561198405248691,"connected_time":520000000000,"state":"active","ping":127}]},{"server_id":14,"name":"Uncletopia | New York City | 2 | All Maps","name_short":"nyc-2","host":"nyc-1.us.uncletopia.com","port":27025,"enabled":true,"region":"us-east","cc":"us","latitude":40.73061,"longitude":-73.93524,"reserved":0,"last_update":"0001-01-01T00:00:00Z","name_a2s":"Uncletopia | New York City | 2 | All Maps","protocol":17,"map":"pl_pier","folder":"tf","game":"Team Fortress","app_id":440,"player_count":24,"max_players":24,"Bots":0,"server_type":"Dedicated","server_os":"Linux","password":true,"vac":true,"version":"7723704","steam_id":85568392924469994,"keywords":["nocrits","nodmgspread","payload","uncletopia"],"game_id":440,"stv_port":27026,"stv_name":"Uncletopia | New York City | 2 | All Maps | STV","players":[{"user_id":68,"name":"frank","steam_id":76561198045436159,"connected_time":761000000000,"state":"active","ping":50},{"user_id":5,"name":"User","steam_id":76561198123471222,"connected_time":3973000000000,"state":"active","ping":54},{"user_id":77,"name":"takids12","steam_id":76561199058799553,"connected_time":51000000000,"state":"active","ping":53},{"user_id":78,"name":"Sanic_Bum","steam_id":76561198094179822,"connected_time":44000000000,"state":"active","ping":44},{"user_id":11,"name":"Potatofamine \"Coalminer\" Carbom","steam_id":76561199078518364,"connected_time":2904000000000,"state":"active","ping":61},{"user_id":12,"name":"Salad Days","steam_id":76561198110323694,"connected_time":2900000000000,"state":"active","ping":62},{"user_id":35,"name":"Big Man","steam_id":76561198882986104,"connected_time":2332000000000,"state":"active","ping":60},{"user_id":58,"name":"solar control","steam_id":76561198838282369,"connected_time":1610000000000,"state":"active","ping":59},{"user_id":60,"name":"novu","steam_id":76561198886997024,"connected_time":1503000000000,"state":"active","ping":66},{"user_id":47,"name":"Young-OG","steam_id":76561198058800479,"connected_time":1822000000000,"state":"active","ping":75},{"user_id":18,"name":"catgirl giantess in heat","steam_id":76561198439042583,"connected_time":2688000000000,"state":"active","ping":105},{"user_id":73,"name":"HushChild6666","steam_id":76561198285219858,"connected_time":450000000000,"state":"active","ping":109},{"user_id":48,"name":"{[F.H]} Hydroida","steam_id":76561197999797274,"connected_time":1811000000000,"state":"active","ping":72},{"user_id":74,"name":"Mortimer Khan","steam_id":76561197968829990,"connected_time":417000000000,"state":"active","ping":49},{"user_id":75,"name":"le fromage","steam_id":76561198084230569,"connected_time":363000000000,"state":"active","ping":61},{"user_id":61,"name":"Funne Monke","steam_id":76561198147868601,"connected_time":1252000000000,"state":"active","ping":106},{"user_id":79,"name":"Rhutebeer","steam_id":76561198018302761,"connected_time":21000000000,"state":"active","ping":108},{"user_id":76,"name":"Laggy","steam_id":76561198125110756,"connected_time":348000000000,"state":"active","ping":98},{"user_id":70,"name":"Pulsating Red Member (cool)","steam_id":76561198128206689,"connected_time":611000000000,"state":"active","ping":65},{"user_id":27,"name":"BuckShotBarva","steam_id":76561198170425169,"connected_time":2479000000000,"state":"active","ping":71},{"user_id":43,"name":"Dave's Sushi Addict","steam_id":76561199134895220,"connected_time":1882000000000,"state":"active","ping":48},{"user_id":80,"name":"jenny ‚òÜ","steam_id":76561198190106735,"connected_time":16000000000,"state":"spawning","ping":57},{"user_id":53,"name":"CFGU || RAWRWAFL","steam_id":76561198032118386,"connected_time":1697000000000,"state":"active","ping":96},{"user_id":44,"name":"SuperJagops","steam_id":76561198034689716,"connected_time":1882000000000,"state":"active","ping":49}]},{"server_id":15,"name":"Uncletopia | New York City | 3 | All Maps","name_short":"nyc-3","host":"nyc-1.us.uncletopia.com","port":27035,"enabled":true,"region":"us-east","cc":"us","latitude":40.73061,"longitude":-73.93524,"reserved":0,"last_update":"0001-01-01T00:00:00Z","name_a2s":"Uncletopia | New York City | 3 | All Maps","protocol":17,"map":"pl_frontier_final","folder":"tf","game":"Team Fortress","app_id":440,"player_count":6,"max_players":24,"Bots":0,"server_type":"Dedicated","server_os":"Linux","password":true,"vac":true,"version":"7723704","steam_id":85568392924742820,"keywords":["nocrits","nodmgspread","payload","uncletopia"],"game_id":440,"stv_port":27036,"stv_name":"Uncletopia | New York City | 3 | All Maps | STV","players":[{"user_id":3,"name":"ColdZer0","steam_id":76561198196564817,"connected_time":838000000000,"state":"active","ping":34},{"user_id":4,"name":"Mr. Sir Mentlegen","steam_id":76561198156429799,"connected_time":830000000000,"state":"active","ping":80},{"user_id":5,"name":"World Officer","steam_id":76561198981368673,"connected_time":813000000000,"state":"active","ping":69},{"user_id":6,"name":"Brote","steam_id":76561199150214054,"connected_time":804000000000,"state":"active","ping":77},{"user_id":7,"name":"ptero","steam_id":76561198165830647,"connected_time":527000000000,"state":"active","ping":54},{"user_id":10,"name":"steelborg","steam_id":76561198427292802,"connected_time":159000000000,"state":"active","ping":98}]},{"server_id":16,"name":"Uncletopia | New York City | 4 | Community","name_short":"nyc-4","host":"nyc-1.us.uncletopia.com","port":27045,"enabled":true,"region":"us-east","cc":"us","latitude":40.73061,"longitude":-73.93524,"reserved":0,"last_update":"0001-01-01T00:00:00Z","name_a2s":"Uncletopia | New York City | 4 | Community","protocol":17,"map":"cp_process_final","folder":"tf","game":"Team Fortress","app_id":440,"player_count":0,"max_players":24,"Bots":0,"server_type":"Dedicated","server_os":"Linux","password":true,"vac":true,"version":"7723704","steam_id":85568392924742821,"keywords":["cp","nocrits","nodmgspread","uncletopia"],"game_id":440,"stv_port":27046,"stv_name":"Uncletopia | New York City | 4 | Community | STV","players":null},{"server_id":142,"name":"Uncletopia | S√£o Paulo | 1 | All Maps","name_short":"sao-1","host":"sao-1.br.uncletopia.com","port":27015,"enabled":true,"region":"sa","cc":"br","latitude":-23.533773,"longitude":-46.62529,"reserved":0,"last_update":"0001-01-01T00:00:00Z","name_a2s":"Uncletopia | S√£o Paulo | 1 | All Maps","protocol":17,"map":"pl_frontier_final","folder":"tf","game":"Team Fortress","app_id":440,"player_count":0,"max_players":24,"Bots":0,"server_type":"Dedicated","server_os":"Linux","password":true,"vac":true,"version":"7723704","steam_id":85568392924469996,"keywords":["nocrits","nodmgspread","payload","uncletopia"],"game_id":440,"stv_port":27016,"stv_name":"Uncletopia | S√£o Paulo | 1 | All Maps | STV","players":null},{"server_id":143,"name":"Uncletopia | S√£o Paulo | 2 | All Maps","name_short":"sao-2","host":"sao-2.br.uncletopia.com","port":27015,"enabled":true,"region":"sa","cc":"br","latitude":-23.533773,"longitude":-46.62529,"reserved":0,"last_update":"0001-01-01T00:00:00Z","name_a2s":"Uncletopia | S√£o Paulo | 2 | All Maps","protocol":17,"map":"pl_barnblitz","folder":"tf","game":"Team Fortress","app_id":440,"player_count":0,"max_players":24,"Bots":0,"server_type":"Dedicated","server_os":"Linux","password":true,"vac":true,"version":"7723704","steam_id":85568392924485349,"keywords":["nocrits","nodmgspread","payload","uncletopia"],"game_id":440,"stv_port":27016,"stv_name":"Uncletopia | S√£o Paulo | 2 | All Maps | STV","players":null},{"server_id":7,"name":"Uncletopia | Seattle | 1 | All Maps","name_short":"sea-1","host":"sea-1.us.uncletopia.com","port":27015,"enabled":true,"region":"us-west","cc":"us","latitude":47.608013,"longitude":-122.33517,"reserved":0,"last_update":"0001-01-01T00:00:00Z","name_a2s":"Uncletopia | Seattle | 1 | All Maps","protocol":17,"map":"koth_viaduct","folder":"tf","game":"Team Fortress","app_id":440,"player_count":1,"max_players":24,"Bots":0,"server_type":"Dedicated","server_os":"Linux","password":true,"vac":true,"version":"7723704","steam_id":85568392924469997,"keywords":["cp","nocrits","nodmgspread","uncletopia"],"game_id":440,"stv_port":27016,"stv_name":"Uncletopia | Seattle | 1 | All Maps | STV","players":[{"user_id":5,"name":"Cloud","steam_id":76561198272454184,"connected_time":1697000000000,"state":"active","ping":168}]},{"server_id":119,"name":"Uncletopia | Seattle | 2 | All Maps","name_short":"sea-2","host":"sea-1.us.uncletopia.com","port":27025,"enabled":true,"region":"us-west","cc":"us","latitude":47.608013,"longitude":-122.33517,"reserved":0,"last_update":"0001-01-01T00:00:00Z","name_a2s":"Uncletopia | Seattle | 2 | All Maps","protocol":17,"map":"pl_badwater","folder":"tf","game":"Team Fortress","app_id":440,"player_count":0,"max_players":24,"Bots":0,"server_type":"Dedicated","server_os":"Linux","password":true,"vac":true,"version":"7723704","steam_id":85568392924469998,"keywords":["nocrits","nodmgspread","payload","uncletopia"],"game_id":440,"stv_port":27026,"stv_name":"Uncletopia | Seattle | 2 | All Maps | STV","players":null},{"server_id":17,"name":"Uncletopia | San Francisco | 1 | All Maps","name_short":"sfo-1","host":"sfo-1.us.uncletopia.com","port":27015,"enabled":true,"region":"us-west","cc":"us","latitude":37.77397,"longitude":-122.4313,"reserved":0,"last_update":"0001-01-01T00:00:00Z","name_a2s":"Uncletopia | San Francisco | 1 | All Maps","protocol":17,"map":"koth_viaduct","folder":"tf","game":"Team Fortress","app_id":440,"player_count":0,"max_players":24,"Bots":0,"server_type":"Dedicated","server_os":"Linux","password":true,"vac":true,"version":"7723704","steam_id":85568392924469999,"keywords":["cp","nocrits","nodmgspread","uncletopia"],"game_id":440,"stv_port":27016,"stv_name":"Uncletopia | San Francisco | 1 | All Maps | STV","players":null},{"server_id":18,"name":"Uncletopia | San Francisco | 2 | All Maps","name_short":"sfo-2","host":"sfo-1.us.uncletopia.com","port":27025,"enabled":true,"region":"us-west","cc":"us","latitude":37.77397,"longitude":-122.4313,"reserved":0,"last_update":"0001-01-01T00:00:00Z","name_a2s":"Uncletopia | San Francisco | 2 | All Maps","protocol":17,"map":"cp_dustbowl","folder":"tf","game":"Team Fortress","app_id":440,"player_count":0,"max_players":24,"Bots":0,"server_type":"Dedicated","server_os":"Linux","password":true,"vac":true,"version":"7723704","steam_id":85568392924470000,"keywords":["cp","nocrits","nodmgspread","uncletopia"],"game_id":440,"stv_port":27026,"stv_name":"Uncletopia | San Francisco | 2 | All Maps | STV","players":null},{"server_id":19,"name":"Uncletopia | San Francisco | 3 | No Payload","name_short":"sfo-3","host":"sfo-1.us.uncletopia.com","port":27035,"enabled":true,"region":"us-west","cc":"us","latitude":37.77397,"longitude":-122.4313,"reserved":0,"last_update":"0001-01-01T00:00:00Z","name_a2s":"Uncletopia | San Francisco | 3 | No Payload","protocol":17,"map":"pl_snowycoast","folder":"tf","game":"Team Fortress","app_id":440,"player_count":0,"max_players":24,"Bots":0,"server_type":"Dedicated","server_os":"Linux","password":true,"vac":true,"version":"7723704","steam_id":85568392924742824,"keywords":["nocrits","nodmgspread","payload","uncletopia"],"game_id":440,"stv_port":27036,"stv_name":"Uncletopia | San Francisco | 3 | No Payload | STV","players":null},{"server_id":20,"name":"Uncletopia | San Francisco | 4 | Community","name_short":"sfo-4","host":"sfo-1.us.uncletopia.com","port":27045,"enabled":true,"region":"us-west","cc":"us","latitude":37.77397,"longitude":-122.4313,"reserved":0,"last_update":"0001-01-01T00:00:00Z","name_a2s":"Uncletopia | San Francisco | 4 | Community","protocol":17,"map":"pl_frontier_final","folder":"tf","game":"Team Fortress","app_id":440,"player_count":0,"max_players":24,"Bots":0,"server_type":"Dedicated","server_os":"Linux","password":true,"vac":true,"version":"7723704","steam_id":85568392924742826,"keywords":["nocrits","nodmgspread","payload","uncletopia"],"game_id":440,"stv_port":27046,"stv_name":"Uncletopia | San Francisco | 4 | Community | STV","players":null},{"server_id":141,"name":"Uncletopia | Sydney | 1 | All Maps","name_short":"syd-1","host":"syd-1.au.uncletopia.com","port":27015,"enabled":true,"region":"au","cc":"au","latitude":-33.865143,"longitude":151.2099,"reserved":0,"last_update":"0001-01-01T00:00:00Z","name_a2s":"Uncletopia | Sydney | 1 | All Maps","protocol":17,"map":"pl_frontier_final","folder":"tf","game":"Team Fortress","app_id":440,"player_count":0,"max_players":24,"Bots":0,"server_type":"Dedicated","server_os":"Linux","password":true,"vac":true,"version":"7723704","steam_id":85568392924470001,"keywords":["nocrits","nodmgspread","payload","uncletopia"],"game_id":440,"stv_port":27016,"stv_name":"Uncletopia | Sydney | 1 | All Maps | STV","players":null},{"server_id":123,"name":"Uncletopia | Sydney | 2 | All Maps","name_short":"syd-2","host":"syd-1.au.uncletopia.com","port":27025,"enabled":true,"region":"au","cc":"au","latitude":-33.865143,"longitude":151.2099,"reserved":0,"last_update":"0001-01-01T00:00:00Z","name_a2s":"Uncletopia | Sydney | 2 | All Maps","protocol":17,"map":"cp_sunshine","folder":"tf","game":"Team Fortress","app_id":440,"player_count":0,"max_players":24,"Bots":0,"server_type":"Dedicated","server_os":"Linux","password":true,"vac":true,"version":"7723704","steam_id":85568392924470002,"keywords":["cp","nocrits","nodmgspread","uncletopia"],"game_id":440,"stv_port":27026,"stv_name":"Uncletopia | Sydney | 2 | All Maps | STV","players":null},{"server_id":395,"name":"Uncletopia | Sydney | 3 | All Maps","name_short":"syd-3","host":"syd-1.au.uncletopia.com","port":27035,"enabled":true,"region":"au","cc":"au","latitude":-33.865143,"longitude":151.2099,"reserved":0,"last_update":"0001-01-01T00:00:00Z","name_a2s":"Uncletopia | Sydney | 3 | All Maps","protocol":17,"map":"cp_altitude","folder":"tf","game":"Team Fortress","app_id":440,"player_count":0,"max_players":24,"Bots":0,"server_type":"Dedicated","server_os":"Linux","password":true,"vac":true,"version":"7723704","steam_id":85568392925194467,"keywords":["cp","nocrits","nodmgspread","uncletopia"],"game_id":440,"stv_port":27036,"stv_name":"Uncletopia | Sydney | 3 | All Maps | STV","players":null},{"server_id":396,"name":"Uncletopia | Sydney | 4 | All Maps","name_short":"syd-4","host":"syd-1.au.uncletopia.com","port":27045,"enabled":true,"region":"au","cc":"au","latitude":-33.865143,"longitude":151.2099,"reserved":0,"last_update":"0001-01-01T00:00:00Z","name_a2s":"Uncletopia | Sydney | 4 | All Maps","protocol":17,"map":"cp_altitude","folder":"tf","game":"Team Fortress","app_id":440,"player_count":0,"max_players":24,"Bots":0,"server_type":"Dedicated","server_os":"Linux","password":true,"vac":true,"version":"7723704","steam_id":85568392925397958,"keywords":["cp","nocrits","nodmgspread","uncletopia"],"game_id":440,"stv_port":27046,"stv_name":"Uncletopia | Sydney | 4 | All Maps | STV","players":null},{"server_id":58,"name":"Uncletopia | Sydney | 5 | No Payload","name_short":"syd-5","host":"syd-1.au.uncletopia.com","port":27055,"enabled":true,"region":"au","cc":"au","latitude":-33.865143,"longitude":151.2099,"reserved":0,"last_update":"0001-01-01T00:00:00Z","name_a2s":"Uncletopia | Sydney | 5 | No Payload","protocol":17,"map":"koth_cascade","folder":"tf","game":"Team Fortress","app_id":440,"player_count":0,"max_players":24,"Bots":0,"server_type":"Dedicated","server_os":"Linux","password":true,"vac":true,"version":"7723704","steam_id":85568392925397959,"keywords":["cp","nocrits","nodmgspread","uncletopia"],"game_id":440,"stv_port":27056,"stv_name":"Uncletopia | Sydney | 5 | No Payload | STV","players":null},{"server_id":59,"name":"Uncletopia | Sydney | 6 | Community","name_short":"syd-6","host":"syd-1.au.uncletopia.com","port":27065,"enabled":true,"region":"au","cc":"au","latitude":-33.865143,"longitude":151.2099,"reserved":0,"last_update":"0001-01-01T00:00:00Z","name_a2s":"Uncletopia | Sydney | 6 | Community","protocol":17,"map":"koth_lakeside_final","folder":"tf","game":"Team Fortress","app_id":440,"player_count":0,"max_players":24,"Bots":0,"server_type":"Dedicated","server_os":"Linux","password":true,"vac":true,"version":"7723704","steam_id":85568392925397960,"keywords":["cp","nocrits","nodmgspread","uncletopia"],"game_id":440,"stv_port":27066,"stv_name":"Uncletopia | Sydney | 6 | Community | STV","players":null},{"server_id":49,"name":"Uncletopia | Warsaw | 1 | All Maps","name_short":"waw-1","host":"waw-1.pl.uncletopia.com","port":27015,"enabled":true,"region":"eu","cc":"pl","latitude":52.2297,"longitude":21.017532,"reserved":0,"last_update":"0001-01-01T00:00:00Z","name_a2s":"Uncletopia | Warsaw | 1 | All Maps","protocol":17,"map":"cp_snakewater_final1","folder":"tf","game":"Team Fortress","app_id":440,"player_count":0,"max_players":24,"Bots":0,"server_type":"Dedicated","server_os":"Linux","password":true,"vac":true,"version":"7723704","steam_id":85568392925397850,"keywords":["cp","nocrits","nodmgspread","uncletopia"],"game_id":440,"stv_port":27016,"stv_name":"Uncletopia | Warsaw | 1 | All Maps | STV","players":null},{"server_id":50,"name":"Uncletopia | Warsaw | 2 | All Maps","name_short":"waw-2","host":"waw-1.pl.uncletopia.com","port":27025,"enabled":true,"region":"eu","cc":"pl","latitude":52.2297,"longitude":21.017532,"reserved":0,"last_update":"0001-01-01T00:00:00Z","name_a2s":"Uncletopia | Warsaw | 2 | All Maps","protocol":17,"map":"pl_snowycoast","folder":"tf","game":"Team Fortress","app_id":440,"player_count":0,"max_players":24,"Bots":0,"server_type":"Dedicated","server_os":"Linux","password":true,"vac":true,"version":"7723704","steam_id":85568392925397851,"keywords":["nocrits","nodmgspread","payload","uncletopia"],"game_id":440,"stv_port":27026,"stv_name":"Uncletopia | Warsaw | 2 | All Maps | STV","players":null},{"server_id":51,"name":"Uncletopia | Warsaw | 3 | All Maps","name_short":"waw-3","host":"waw-1.pl.uncletopia.com","port":27035,"enabled":true,"region":"eu","cc":"pl","latitude":52.2297,"longitude":21.017532,"reserved":0,"last_update":"0001-01-01T00:00:00Z","name_a2s":"Uncletopia | Warsaw | 3 | All Maps","protocol":17,"map":"koth_lakeside_final","folder":"tf","game":"Team Fortress","app_id":440,"player_count":0,"max_players":24,"Bots":0,"server_type":"Dedicated","server_os":"Linux","password":true,"vac":true,"version":"7723704","steam_id":85568392925397852,"keywords":["cp","nocrits","nodmgspread","uncletopia"],"game_id":440,"stv_port":27036,"stv_name":"Uncletopia | Warsaw | 3 | All Maps | STV","players":null},{"server_id":52,"name":"Uncletopia | Warsaw | 4 | All Maps","name_short":"waw-4","host":"waw-1.pl.uncletopia.com","port":27045,"enabled":true,"region":"eu","cc":"pl","latitude":52.2297,"longitude":21.017532,"reserved":0,"last_update":"0001-01-01T00:00:00Z","name_a2s":"Uncletopia | Warsaw | 4 | All Maps","protocol":17,"map":"pl_swiftwater_final1","folder":"tf","game":"Team Fortress","app_id":440,"player_count":0,"max_players":24,"Bots":0,"server_type":"Dedicated","server_os":"Linux","password":true,"vac":true,"version":"7723704","steam_id":85568392925397853,"keywords":["nocrits","nodmgspread","payload","uncletopia"],"game_id":440,"stv_port":27046,"stv_name":"Uncletopia | Warsaw | 4 | All Maps | STV","players":null},{"server_id":53,"name":"Uncletopia | Warsaw | 5 | No Payload","name_short":"waw-5","host":"waw-1.pl.uncletopia.com","port":27055,"enabled":true,"region":"eu","cc":"pl","latitude":52.2297,"longitude":21.017532,"reserved":0,"last_update":"0001-01-01T00:00:00Z","name_a2s":"Uncletopia | Warsaw | 5 | No Payload","protocol":17,"map":"koth_highpass","folder":"tf","game":"Team Fortress","app_id":440,"player_count":0,"max_players":24,"Bots":0,"server_type":"Dedicated","server_os":"Linux","password":true,"vac":true,"version":"7723704","steam_id":85568392925397854,"keywords":["cp","nocrits","nodmgspread","uncletopia"],"game_id":440,"stv_port":27056,"stv_name":"Uncletopia | Warsaw | 5 | No Payload | STV","players":null},{"server_id":54,"name":"Uncletopia | Warsaw | 6 | Community","name_short":"waw-6","host":"waw-1.pl.uncletopia.com","port":27065,"enabled":true,"region":"eu","cc":"pl","latitude":52.2297,"longitude":21.017532,"reserved":0,"last_update":"0001-01-01T00:00:00Z","name_a2s":"Uncletopia | Warsaw | 6 | Community","protocol":17,"map":"koth_viaduct","folder":"tf","game":"Team Fortress","app_id":440,"player_count":0,"max_players":24,"Bots":0,"server_type":"Dedicated","server_os":"Linux","password":true,"vac":true,"version":"7723704","steam_id":85568392925397856,"keywords":["cp","nocrits","nodmgspread","uncletopia"],"game_id":440,"stv_port":27066,"stv_name":"Uncletopia | Warsaw | 6 | Community | STV","players":null}]}