{"status":true,"message":"","result":[{"server_id":2,"name":"Uncletopia | Chicago | 1 | All Maps","name_short":"chi-1","host":"chi-1.us.uncletopia.com","port":27015,"enabled":true,"region":"us-central","cc":"us","latitude":41.881832,"longitude":-87.62318,"reserved":0,"last_update":"0001-01-01T00:00:00Z","name_a2s":"Uncletopia | Chicago | 1 | All Maps","protocol":17,"map":"pl_badwater","folder":"tf","game":"Team Fortress","app_id":440,"player_count":24,"max_players":24,"Bots":0,"server_type":"Dedicated","server_os":"Linux","password":true,"vac":true,"version":"7932396","steam_id":85568392924469984,"keywords":["nocrits","nodmgspread","payload","uncletopia"],"game_id":440,"stv_port":27016,"stv_name":"Uncletopia | Chicago | 1 | All Maps | STV","players":[{"user_id":91,"name":"Maybe","steam_id":76561198268304564,"connected_time":2269000000000,"state":"active","ping":79},{"user_id":18,"name":"Varie","steam_id":76561199454930210,"connected_time":6929000000000,"state":"active","ping":79},{"user_id":124,"name":"GotYourNose","steam_id":76561198803527852,"connected_time":325000000000,"state":"active","ping":62},{"user_id":115,"name":"Scout","steam_id":76561198081464125,"connected_time":471000000000,"state":"active","ping":65},{"user_id":123,"name":"berserker_tf2 yt","steam_id":76561198303464488,"connected_time":426000000000,"state":"active","ping":58},{"user_id":100,"name":"Ceiling Man","steam_id":76561198003959902,"connected_time":1658000000000,"state":"active","ping":56},{"user_id":120,"name":"Jirachi","steam_id":76561198341537452,"connected_time":453000000000,"state":"active","ping":79},{"user_id":103,"name":"shiggyyy","steam_id":76561198443298608,"connected_time":1372000000000,"state":"active","ping":47},{"user_id":104,"name":"GorillaDaSpinna","steam_id":76561198069130872,"connected_time":1362000000000,"state":"active","ping":35},{"user_id":81,"name":"steakfarmasian","steam_id":76561198212754036,"connected_time":3191000000000,"state":"active","ping":49},{"user_id":76,"name":"ZeN","steam_id":76561199098746585,"connected_time":3436000000000,"state":"active","ping":55},{"user_id":94,"name":"Somebodyp36","steam_id":76561198850961948,"connected_time":2221000000000,"state":"active","ping":76},{"user_id":112,"name":"Mank","steam_id":76561198189421005,"connected_time":566000000000,"state":"active","ping":53},{"user_id":105,"name":"braydzy","steam_id":76561198410894699,"connected_time":1362000000000,"state":"active","ping":53},{"user_id":83,"name":"kasper ring","steam_id":76561198263271697,"connected_time":3068000000000,"state":"active","ping":42},{"user_id":106,"name":"El Bozo","steam_id":76561198010370396,"connected_time":1350000000000,"state":"active","ping":48},{"user_id":107,"name":"good_s1r","steam_id":76561199010842391,"connected_time":1183000000000,"state":"active","ping":66},{"user_id":119,"name":"sawrik","steam_id":76561198018808213,"connected_time":454000000000,"state":"active","ping":68},{"user_id":121,"name":"Milkmur","steam_id":76561198210043821,"connected_time":451000000000,"state":"active","ping":68},{"user_id":69,"name":"emerge","steam_id":76561198186882891,"connected_time":3813000000000,"state":"active","ping":65},{"user_id":116,"name":"swift","steam_id":76561198190461447,"connected_time":468000000000,"state":"active","ping":45},{"user_id":77,"name":"TheDerpingNoob","steam_id":76561198109783729,"connected_time":3433000000000,"state":"active","ping":48},{"user_id":86,"name":"Obelisk","steam_id":76561198049416866,"connected_time":2576000000000,"state":"active","ping":77},{"user_id":65,"name":"Skele","steam_id":76561198154574280,"connected_time":4052000000000,"state":"active","ping":65}]},{"server_id":106,"name":"Uncletopia | Chicago | 2 | All Maps","name_short":"chi-2","host":"chi-1.us.uncletopia.com","port":27025,"enabled":true,"region":"us-central","cc":"us","latitude":41.881832,"longitude":-87.62318,"reserved":0,"last_update":"0001-01-01T00:00:00Z","name_a2s":"Uncletopia | Chicago | 2 | All Maps","protocol":17,"map":"pl_swiftwater_final1","folder":"tf","game":"Team Fortress","app_id":440,"player_count":24,"max_players":24,"Bots":0,"server_type":"Dedicated","server_os":"Linux","password":true,"vac":true,"version":"7932396","steam_id":85568392924469985,"keywords":["nocrits","nodmgspread","payload","uncletopia"],"game_id":440,"stv_port":27026,"stv_name":"Uncletopia | Chicago | 2 | All Maps | STV","players":[{"user_id":386,"name":"pb","steam_id":76561197999666480,"connected_time":5933000000000,"state":"active","ping":93},{"user_id":487,"name":"rwrangler05","steam_id":76561198922899122,"connected_time":1002000000000,"state":"active","ping":93},{"user_id":484,"name":"Chaos","steam_id":76561199068325065,"connected_time":1028000000000,"state":"active","ping":94},{"user_id":496,"name":"CherriKat","steam_id":76561198821297512,"connected_time":25000000000,"state":"active","ping":101},{"user_id":486,"name":"InvaderAlex","steam_id":76561198039232451,"connected_time":1013000000000,"state":"active","ping":83},{"user_id":488,"name":"Froggy Chair","steam_id":76561198259695175,"connected_time":1000000000000,"state":"active","ping":55},{"user_id":485,"name":"Try Gardening","steam_id":76561198120311340,"connected_time":1021000000000,"state":"active","ping":46},{"user_id":493,"name":"Kedata","steam_id":76561198047750050,"connected_time":954000000000,"state":"active","ping":38},{"user_id":475,"name":"Dr Nefario","steam_id":76561198254646194,"connected_time":1760000000000,"state":"active","ping":57},{"user_id":390,"name":"KingCrawful","steam_id":76561198104291657,"connected_time":5801000000000,"state":"active","ping":65},{"user_id":489,"name":"Bandee","steam_id":76561198974233692,"connected_time":991000000000,"state":"active","ping":74},{"user_id":344,"name":"pong_","steam_id":76561198166982558,"connected_time":9621000000000,"state":"active","ping":81},{"user_id":481,"name":"H.","steam_id":76561198074951179,"connected_time":1397000000000,"state":"active","ping":63},{"user_id":490,"name":"Cliff Uppercut","steam_id":76561197999439391,"connected_time":990000000000,"state":"active","ping":74},{"user_id":495,"name":"Torrensz64(But weezer)","steam_id":76561198239036482,"connected_time":216000000000,"state":"active","ping":51},{"user_id":492,"name":"Robert Grang√©","steam_id":76561198078225717,"connected_time":982000000000,"state":"active","ping":62},{"user_id":497,"name":"MrGuy","steam_id":76561198273687872,"connected_time":20000000000,"state":"spawning","ping":60},{"user_id":379,"name":"The CEO of cement","steam_id":76561199107177460,"connected_time":6529000000000,"state":"active","ping":101},{"user_id":447,"name":"Music Man","steam_id":76561199123296782,"connected_time":4812000000000,"state":"active","ping":59},{"user_id":483,"name":"BetoelAff es","steam_id":76561198377842585,"connected_time":1163000000000,"state":"active","ping":123},{"user_id":299,"name":"melvinsaurus56430","steam_id":76561198170276601,"connected_time":14241000000000,"state":"active","ping":85},{"user_id":479,"name":"Stranger in a Strange Land","steam_id":76561198049843671,"connected_time":1665000000000,"state":"active","ping":60},{"user_id":468,"name":"Hob-Goblin Jim The IV","steam_id":76561199046650666,"connected_time":2679000000000,"state":"active","ping":54}]},{"server_id":402,"name":"Uncletopia | Chicago | 3 | All Maps","name_short":"chi-3","host":"chi-1.us.uncletopia.com","port":27035,"enabled":true,"region":"us-central","cc":"us","latitude":41.881832,"longitude":-87.62318,"reserved":0,"last_update":"0001-01-01T00:00:00Z","name_a2s":"Uncletopia | Chicago | 3 | All Maps","protocol":17,"map":"cp_snakewater_final1","folder":"tf","game":"Team Fortress","app_id":440,"player_count":0,"max_players":24,"Bots":0,"server_type":"Dedicated","server_os":"Linux","password":true,"vac":true,"version":"7932396","steam_id":85568392924515191,"keywords":["cp","nocrits","nodmgspread","uncletopia"],"game_id":440,"stv_port":27036,"stv_name":"Uncletopia | Chicago | 3 | All Maps | STV","players":null},{"server_id":403,"name":"Uncletopia | Chicago | 4 | All Maps","name_short":"chi-4","host":"chi-1.us.uncletopia.com","port":27045,"enabled":true,"region":"us-central","cc":"us","latitude":41.881832,"longitude":-87.62318,"reserved":0,"last_update":"0001-01-01T00:00:00Z","name_a2s":"Uncletopia | Chicago | 4 | All Maps","protocol":17,"map":"pl_borneo","folder":"tf","game":"Team Fortress","app_id":440,"player_count":24,"max_players":24,"Bots":0,"server_type":"Dedicated","server_os":"Linux","password":true,"vac":true,"version":"7932396","steam_id":85568392924515193,"keywords":["nocrits","nodmgspread","payload","uncletopia"],"game_id":440,"stv_port":27046,"stv_name":"Uncletopia | Chicago | 4 | All Maps | STV","players":[{"user_id":133,"name":"hum","steam_id":76561198085457599,"connected_time":2202000000000,"state":"active","ping":71},{"user_id":150,"name":"Cedric","steam_id":76561198072090580,"connected_time":1150000000000,"state":"active","ping":91},{"user_id":171,"name":"Grand Piano Tuna","steam_id":76561198135137213,"connected_time":17000000000,"state":"spawning","ping":59},{"user_id":145,"name":"i like trains","steam_id":76561198090531755,"connected_time":1451000000000,"state":"active","ping":76},{"user_id":165,"name":"Agnos","steam_id":76561198241498776,"connected_time":150000000000,"state":"active","ping":59},{"user_id":141,"name":"gale","steam_id":76561198250068972,"connected_time":1733000000000,"state":"active","ping":97},{"user_id":130,"name":"fo2032473475616534","steam_id":76561198392484218,"connected_time":2324000000000,"state":"active","ping":90},{"user_id":168,"name":"SuppressedBarrel","steam_id":76561198032336504,"connected_time":95000000000,"state":"active","ping":60},{"user_id":157,"name":"duane (stinks good)","steam_id":76561198149565822,"connected_time":942000000000,"state":"active","ping":104},{"user_id":164,"name":"TheSecretNewbie","steam_id":76561198194671218,"connected_time":453000000000,"state":"active","ping":50},{"user_id":134,"name":"Brick","steam_id":76561198451278576,"connected_time":2168000000000,"state":"active","ping":83},{"user_id":151,"name":"IronPotato","steam_id":76561198871330025,"connected_time":1147000000000,"state":"active","ping":77},{"user_id":172,"name":"catfish from toontown","steam_id":76561198060070002,"connected_time":15000000000,"state":"spawning","ping":65},{"user_id":104,"name":"5mech","steam_id":76561198979167520,"connected_time":3971000000000,"state":"active","ping":46},{"user_id":152,"name":"thepokebe","steam_id":76561199370272407,"connected_time":1144000000000,"state":"active","ping":85},{"user_id":169,"name":"MonkeyMan","steam_id":76561199075175675,"connected_time":35000000000,"state":"active","ping":57},{"user_id":173,"name":"Jbomb","steam_id":76561199197866625,"connected_time":0,"state":"spawning","ping":33},{"user_id":147,"name":"minty","steam_id":76561198096347625,"connected_time":1423000000000,"state":"active","ping":75},{"user_id":90,"name":"Brown_Dream","steam_id":76561198975766145,"connected_time":5113000000000,"state":"active","ping":85},{"user_id":154,"name":"Farseer Ulwithy","steam_id":76561197965179245,"connected_time":1137000000000,"state":"active","ping":83},{"user_id":158,"name":"Medic Boyfriend","steam_id":76561198104086771,"connected_time":940000000000,"state":"active","ping":105},{"user_id":166,"name":"Ejaculation Zach","steam_id":76561198203765200,"connected_time":134000000000,"state":"active","ping":58},{"user_id":163,"name":"[chef] iron","steam_id":76561197970888616,"connected_time":572000000000,"state":"active","ping":39},{"user_id":95,"name":"K. O. E.","steam_id":76561198025188490,"connected_time":4678000000000,"state":"active","ping":82}]},{"server_id":36,"name":"Uncletopia | Chicago | 5 | All Maps","name_short":"chi-5","host":"chi-2.us.uncletopia.com","port":27015,"enabled":true,"region":"us-central","cc":"us","latitude":41.881832,"longitude":-87.62318,"reserved":0,"last_update":"0001-01-01T00:00:00Z","name_a2s":"Uncletopia | Chicago | 5 | All Maps","protocol":17,"map":"pl_frontier_final","folder":"tf","game":"Team Fortress","app_id":440,"player_count":24,"max_players":24,"Bots":0,"server_type":"Dedicated","server_os":"Linux","password":true,"vac":true,"version":"7932396","steam_id":85568392924866362,"keywords":["nocrits","nodmgspread","payload","uncletopia"],"game_id":440,"stv_port":27016,"stv_name":"Uncletopia | Chicago | 5 | All Maps | STV","players":[{"user_id":460,"name":"Space Lizard","steam_id":76561198056798193,"connected_time":2805000000000,"state":"active","ping":76},{"user_id":487,"name":"incredirocks","steam_id":76561198061079993,"connected_time":1592000000000,"state":"active","ping":46},{"user_id":486,"name":"D","steam_id":76561198292908619,"connected_time":1594000000000,"state":"active","ping":64},{"user_id":501,"name":"LerN","steam_id":76561198083463877,"connected_time":924000000000,"state":"active","ping":48},{"user_id":497,"name":"R√∂ntgen","steam_id":76561197993492325,"connected_time":1170000000000,"state":"active","ping":104},{"user_id":483,"name":"anonpain","steam_id":76561198081317092,"connected_time":1726000000000,"state":"active","ping":54},{"user_id":484,"name":"Punished Shitster","steam_id":76561198150452857,"connected_time":1702000000000,"state":"active","ping":72},{"user_id":482,"name":"Rappitor","steam_id":76561198105613110,"connected_time":1774000000000,"state":"active","ping":61},{"user_id":424,"name":"HaveADay","steam_id":76561198001086219,"connected_time":5446000000000,"state":"active","ping":78},{"user_id":441,"name":"Chezaus","steam_id":76561198317397837,"connected_time":4326000000000,"state":"active","ping":79},{"user_id":510,"name":"Mephistopheles","steam_id":76561198253731826,"connected_time":87000000000,"state":"active","ping":75},{"user_id":509,"name":"pogo","steam_id":76561198148913461,"connected_time":248000000000,"state":"active","ping":67},{"user_id":502,"name":"Roberto Del Fuego","steam_id":76561198043458554,"connected_time":904000000000,"state":"active","ping":52},{"user_id":453,"name":"Tanuki with a gun.","steam_id":76561198027487285,"connected_time":3080000000000,"state":"active","ping":100},{"user_id":404,"name":"Solstrom","steam_id":76561198313364985,"connected_time":7098000000000,"state":"active","ping":74},{"user_id":495,"name":"poggers152022","steam_id":76561199303655695,"connected_time":1231000000000,"state":"active","ping":116},{"user_id":508,"name":"pablo","steam_id":76561198395577807,"connected_time":326000000000,"state":"active","ping":60},{"user_id":499,"name":"PadrePockets","steam_id":76561197993251606,"connected_time":1084000000000,"state":"active","ping":70},{"user_id":489,"name":"drevott74","steam_id":76561199262592779,"connected_time":1505000000000,"state":"active","ping":115},{"user_id":503,"name":"yomo","steam_id":76561198063175935,"connected_time":892000000000,"state":"active","ping":76},{"user_id":507,"name":"lynt","steam_id":76561198988333976,"connected_time":727000000000,"state":"active","ping":67},{"user_id":481,"name":"minecraft","steam_id":76561198104345201,"connected_time":1889000000000,"state":"active","ping":72},{"user_id":498,"name":"Mr. Sandman","steam_id":76561198065870487,"connected_time":1152000000000,"state":"active","ping":57},{"user_id":418,"name":"we're so back","steam_id":76561198058485742,"connected_time":6195000000000,"state":"active","ping":81}]},{"server_id":37,"name":"Uncletopia | Chicago | 6 | All Maps","name_short":"chi-6","host":"chi-2.us.uncletopia.com","port":27025,"enabled":true,"region":"us-central","cc":"us","latitude":41.881832,"longitude":-87.62318,"reserved":0,"last_update":"0001-01-01T00:00:00Z","name_a2s":"Uncletopia | Chicago | 6 | All Maps","protocol":17,"map":"koth_viaduct","folder":"tf","game":"Team Fortress","app_id":440,"player_count":0,"max_players":24,"Bots":0,"server_type":"Dedicated","server_os":"Linux","password":true,"vac":true,"version":"7932396","steam_id":85568392924866363,"keywords":["cp","nocrits","nodmgspread","uncletopia"],"game_id":440,"stv_port":27026,"stv_name":"Uncletopia | Chicago | 6 | All Maps | STV","players":null},{"server_id":38,"name":"Uncletopia | Chicago | 7 | Stopwatch Beta","name_short":"chi-7","host":"chi-2.us.uncletopia.com","port":27035,"enabled":true,"region":"us-central","cc":"us","latitude":41.881832,"longitude":-87.62318,"reserved":0,"last_update":"0001-01-01T00:00:00Z","name_a2s":"Uncletopia | Chicago | 7 | Stopwatch Beta","protocol":17,"map":"pl_borneo","folder":"tf","game":"Team Fortress","app_id":440,"player_count":0,"max_players":24,"Bots":0,"server_type":"Dedicated","server_os":"Linux","password":true,"vac":true,"version":"7932396","steam_id":85568392924866364,"keywords":["nocrits","nodmgspread","payload","uncletopia"],"game_id":440,"stv_port":27036,"stv_name":"Uncletopia | Chicago | 7 | Stopwatch Beta | STV","players":null},{"server_id":39,"name":"Uncletopia | Chicago | 8 | Community","name_short":"chi-8","host":"chi-2.us.uncletopia.com","port":27045,"enabled":true,"region":"us-central","cc":"us","latitude":41.881832,"longitude":-87.62318,"reserved":0,"last_update":"0001-01-01T00:00:00Z","name_a2s":"Uncletopia | Chicago | 8 | Community","protocol":17,"map":"workshop/cp_glassworks_rc6a.ugc454118349","folder":"tf","game":"Team Fortress","app_id":440,"player_count":6,"max_players":24,"Bots":0,"server_type":"Dedicated","server_os":"Linux","password":true,"vac":true,"version":"7932396","steam_id":85568392924866365,"keywords":["cp","nocrits","nodmgspread","uncletopia"],"game_id":440,"stv_port":27046,"stv_name":"Uncletopia | Chicago | 8 | Community | STV","players":[{"user_id":26,"name":"SlitherDoodle","steam_id":76561198000275473,"connected_time":1457000000000,"state":"active","ping":74},{"user_id":10,"name":"Niakit","steam_id":76561198380816970,"connected_time":4401000000000,"state":"active","ping":79},{"user_id":30,"name":"canofspaghettios","steam_id":76561198124204246,"connected_time":383000000000,"state":"active","ping":47},{"user_id":31,"name":"lawrencepatrick543","steam_id":76561199401507101,"connected_time":206000000000,"state":"active","ping":78},{"user_id":32,"name":"sexual_furfags.cocaine.fin","steam_id":76561199153376034,"connected_time":131000000000,"state":"active","ping":73},{"user_id":33,"name":"girldick senator","steam_id":76561199207285498,"connected_time":99000000000,"state":"active","ping":120}]},{"server_id":8,"name":"Uncletopia | Dallas | 1 | All Maps","name_short":"dal-1","host":"dal-1.us.uncletopia.com","port":27015,"enabled":true,"region":"us-central","cc":"us","latitude":32.779167,"longitude":-96.80889,"reserved":0,"last_update":"0001-01-01T00:00:00Z","name_a2s":"Uncletopia | Dallas | 1 | All Maps","protocol":17,"map":"pl_rumford_event","folder":"tf","game":"Team Fortress","app_id":440,"player_count":24,"max_players":24,"Bots":0,"server_type":"Dedicated","server_os":"Linux","password":true,"vac":true,"version":"7932396","steam_id":85568392924469986,"keywords":["nocrits","nodmgspread","payload","uncletopia"],"game_id":440,"stv_port":27016,"stv_name":"Uncletopia | Dallas | 1 | All Maps | STV","players":[{"user_id":537,"name":"errant","steam_id":76561197961758410,"connected_time":916000000000,"state":"active","ping":37},{"user_id":541,"name":"Chad the Sex Haver","steam_id":76561198058236528,"connected_time":601000000000,"state":"active","ping":60},{"user_id":555,"name":"Yummy Kabobz","steam_id":76561198067661705,"connected_time":2000000000,"state":"spawning","ping":70},{"user_id":529,"name":"‚ô° thedittofemboy ‚ô°","steam_id":76561199013129784,"connected_time":1696000000000,"state":"active","ping":54},{"user_id":511,"name":"Moonflower ‚ú¶","steam_id":76561198191782483,"connected_time":4250000000000,"state":"active","ping":51},{"user_id":542,"name":"FanaticSalt","steam_id":76561199380123059,"connected_time":586000000000,"state":"active","ping":61},{"user_id":531,"name":"Nobody","steam_id":76561198310849999,"connected_time":1316000000000,"state":"active","ping":91},{"user_id":539,"name":"Her Excellency","steam_id":76561198127039453,"connected_time":681000000000,"state":"active","ping":81},{"user_id":543,"name":"Yoshimelon","steam_id":76561198253054325,"connected_time":579000000000,"state":"active","ping":46},{"user_id":519,"name":"BigBattleToaster","steam_id":76561199087551431,"connected_time":2627000000000,"state":"active","ping":66},{"user_id":538,"name":"flames","steam_id":76561199406261605,"connected_time":824000000000,"state":"active","ping":51},{"user_id":544,"name":"fdsarewqqqqq","steam_id":76561199216983585,"connected_time":534000000000,"state":"active","ping":82},{"user_id":521,"name":"Icarus the legend","steam_id":76561199013250091,"connected_time":2547000000000,"state":"active","ping":49},{"user_id":532,"name":"CapnKris22","steam_id":76561198049010994,"connected_time":1256000000000,"state":"active","ping":88},{"user_id":545,"name":"DistantJragon","steam_id":76561198117563641,"connected_time":456000000000,"state":"active","ping":73},{"user_id":547,"name":"Clark","steam_id":76561198012675381,"connected_time":403000000000,"state":"active","ping":75},{"user_id":540,"name":"YugiJaco","steam_id":76561199475704120,"connected_time":672000000000,"state":"active","ping":148},{"user_id":526,"name":"Skinny pete","steam_id":76561198801608576,"connected_time":2128000000000,"state":"active","ping":55},{"user_id":553,"name":"Mikael_01","steam_id":76561199080253129,"connected_time":109000000000,"state":"active","ping":187},{"user_id":528,"name":"Box_","steam_id":76561198120909017,"connected_time":1963000000000,"state":"active","ping":84},{"user_id":456,"name":"pawggers","steam_id":76561198971285292,"connected_time":7681000000000,"state":"active","ping":65},{"user_id":549,"name":"totally not a pile of beans","steam_id":76561198119851931,"connected_time":379000000000,"state":"active","ping":99},{"user_id":550,"name":"sammyboi","steam_id":76561198187133779,"connected_time":377000000000,"state":"active","ping":90},{"user_id":525,"name":"DiGiorno's Pizza","steam_id":76561198142244035,"connected_time":2462000000000,"state":"active","ping":80}]},{"server_id":108,"name":"Uncletopia | Dallas | 2 | All Maps","name_short":"dal-2","host":"dal-1.us.uncletopia.com","port":27025,"enabled":true,"region":"us-central","cc":"us","latitude":32.779167,"longitude":-96.80889,"reserved":0,"last_update":"0001-01-01T00:00:00Z","name_a2s":"Uncletopia | Dallas | 2 | All Maps","protocol":17,"map":"pl_snowycoast","folder":"tf","game":"Team Fortress","app_id":440,"player_count":24,"max_players":24,"Bots":0,"server_type":"Dedicated","server_os":"Linux","password":true,"vac":true,"version":"7932396","steam_id":85568392924469988,"keywords":["nocrits","nodmgspread","payload","uncletopia"],"game_id":440,"stv_port":27026,"stv_name":"Uncletopia | Dallas | 2 | All Maps | STV","players":[{"user_id":108,"name":"kjorbjort","steam_id":76561198855201444,"connected_time":3061000000000,"state":"active","ping":123},{"user_id":126,"name":"[UDG] kichi","steam_id":76561199227119514,"connected_time":1825000000000,"state":"active","ping":74},{"user_id":107,"name":"Bamboo","steam_id":76561198043139553,"connected_time":3106000000000,"state":"active","ping":87},{"user_id":117,"name":"Swamp Bogman","steam_id":76561198053481519,"connected_time":2727000000000,"state":"active","ping":96},{"user_id":139,"name":"Chara","steam_id":76561198070136073,"connected_time":1569000000000,"state":"active","ping":91},{"user_id":150,"name":"aiming with drawing tablet","steam_id":76561198397662124,"connected_time":617000000000,"state":"active","ping":64},{"user_id":151,"name":"Icaruss","steam_id":76561199087157705,"connected_time":497000000000,"state":"active","ping":103},{"user_id":155,"name":"Team Fortress 2 Gaming","steam_id":76561198056866024,"connected_time":148000000000,"state":"active","ping":114},{"user_id":152,"name":"Globglogabgalab","steam_id":76561199072597789,"connected_time":343000000000,"state":"active","ping":62},{"user_id":84,"name":"You Don't Nomi.","steam_id":76561197969137836,"connected_time":4219000000000,"state":"active","ping":88},{"user_id":149,"name":"jandajanda","steam_id":76561198235722476,"connected_time":643000000000,"state":"active","ping":69},{"user_id":147,"name":"Doomagedden","steam_id":76561198272589475,"connected_time":717000000000,"state":"active","ping":60},{"user_id":154,"name":"$limek‚úîngEM0.an1me.B0Y_33309","steam_id":76561198283687382,"connected_time":167000000000,"state":"active","ping":72},{"user_id":135,"name":"Cipherlock | YT","steam_id":76561198075994493,"connected_time":1653000000000,"state":"active","ping":93},{"user_id":129,"name":"Cheese","steam_id":76561199435683727,"connected_time":1718000000000,"state":"active","ping":147},{"user_id":144,"name":"soltuno","steam_id":76561198074430565,"connected_time":790000000000,"state":"active","ping":91},{"user_id":124,"name":"Draconzis Piertii","steam_id":76561198047699284,"connected_time":1977000000000,"state":"active","ping":69},{"user_id":115,"name":"artichoke","steam_id":76561198980994364,"connected_time":2866000000000,"state":"active","ping":98},{"user_id":145,"name":"Sugahu17S","steam_id":76561198799403828,"connected_time":790000000000,"state":"active","ping":75},{"user_id":156,"name":"The Pope","steam_id":76561198313560302,"connected_time":126000000000,"state":"active","ping":60},{"user_id":137,"name":"Rafl","steam_id":76561198055222756,"connected_time":1611000000000,"state":"active","ping":47},{"user_id":142,"name":"Soul Garg Plushy","steam_id":76561198044480181,"connected_time":1411000000000,"state":"active","ping":76},{"user_id":74,"name":"Owixan","steam_id":76561198074990070,"connected_time":5690000000000,"state":"active","ping":61},{"user_id":123,"name":"Fred","steam_id":76561198114281255,"connected_time":2029000000000,"state":"active","ping":98}]},{"server_id":5,"name":"Uncletopia | Frankfurt | 1 | All Maps","name_short":"frk-1","host":"frk-1.de.uncletopia.com","port":27015,"enabled":true,"region":"eu","cc":"de","latitude":50.110924,"longitude":8.682127,"reserved":0,"last_update":"0001-01-01T00:00:00Z","name_a2s":"Uncletopia | Frankfurt | 1 | All Maps","protocol":17,"map":"pl_pier","folder":"tf","game":"Team Fortress","app_id":440,"player_count":24,"max_players":24,"Bots":0,"server_type":"Dedicated","server_os":"Linux","password":true,"vac":true,"version":"7932396","steam_id":85568392924469989,"keywords":["nocrits","nodmgspread","payload","uncletopia"],"game_id":440,"stv_port":27016,"stv_name":"Uncletopia | Frankfurt | 1 | All Maps | STV","players":[{"user_id":481,"name":"polnac","steam_id":76561198071890911,"connected_time":2484000000000,"state":"active","ping":93},{"user_id":475,"name":"pos","steam_id":76561198026132442,"connected_time":2692000000000,"state":"active","ping":82},{"user_id":492,"name":"Vytuzas","steam_id":76561198012868436,"connected_time":877000000000,"state":"active","ping":67},{"user_id":485,"name":"AftiksPL","steam_id":76561198875182686,"connected_time":2430000000000,"state":"active","ping":89},{"user_id":453,"name":"enter","steam_id":76561198048374516,"connected_time":4463000000000,"state":"active","ping":125},{"user_id":476,"name":"beurgeur","steam_id":76561198872426314,"connected_time":2690000000000,"state":"active","ping":45},{"user_id":507,"name":"G.R.E","steam_id":76561197979806514,"connected_time":359000000000,"state":"active","ping":49},{"user_id":469,"name":"peso enjoyer","steam_id":76561198798177799,"connected_time":3108000000000,"state":"active","ping":73},{"user_id":508,"name":"leminsc8","steam_id":76561198825084995,"connected_time":350000000000,"state":"active","ping":39},{"user_id":477,"name":"pond","steam_id":76561198214849363,"connected_time":2631000000000,"state":"active","ping":78},{"user_id":494,"name":"Popop","steam_id":76561198004793795,"connected_time":799000000000,"state":"active","ping":58},{"user_id":503,"name":"huhnkieleo","steam_id":76561198031325797,"connected_time":514000000000,"state":"active","ping":60},{"user_id":493,"name":"RidiculousGuppy","steam_id":76561198156843608,"connected_time":826000000000,"state":"active","ping":58},{"user_id":479,"name":"r4s1","steam_id":76561198024034917,"connected_time":2569000000000,"state":"active","ping":70},{"user_id":459,"name":"LooLeZ","steam_id":76561198068812096,"connected_time":4244000000000,"state":"active","ping":51},{"user_id":500,"name":"Abhorrent","steam_id":76561198056338288,"connected_time":614000000000,"state":"active","ping":60},{"user_id":497,"name":"activated juriy","steam_id":76561198129089861,"connected_time":722000000000,"state":"active","ping":78},{"user_id":394,"name":"BELADIT","steam_id":76561198011911501,"connected_time":8498000000000,"state":"active","ping":68},{"user_id":501,"name":"RDZ","steam_id":76561198203921628,"connected_time":603000000000,"state":"active","ping":60},{"user_id":483,"name":"MEGOS","steam_id":76561198172740637,"connected_time":2476000000000,"state":"active","ping":56},{"user_id":504,"name":"Cosmetic brain","steam_id":76561198055936410,"connected_time":488000000000,"state":"active","ping":90},{"user_id":499,"name":"Utvar","steam_id":76561198131838460,"connected_time":670000000000,"state":"active","ping":57},{"user_id":509,"name":"Karl Marxman","steam_id":76561197988226117,"connected_time":325000000000,"state":"active","ping":82},{"user_id":506,"name":"stew","steam_id":76561198220665819,"connected_time":399000000000,"state":"active","ping":102}]},{"server_id":110,"name":"Uncletopia | Frankfurt | 2 | All Maps","name_short":"frk-2","host":"frk-1.de.uncletopia.com","port":27025,"enabled":true,"region":"eu","cc":"de","latitude":50.110924,"longitude":8.682127,"reserved":0,"last_update":"0001-01-01T00:00:00Z","name_a2s":"Uncletopia | Frankfurt | 2 | All Maps","protocol":17,"map":"cp_dustbowl","folder":"tf","game":"Team Fortress","app_id":440,"player_count":2,"max_players":24,"Bots":0,"server_type":"Dedicated","server_os":"Linux","password":true,"vac":true,"version":"7932396","steam_id":85568392924469990,"keywords":["cp","nocrits","nodmgspread","uncletopia"],"game_id":440,"stv_port":27026,"stv_name":"Uncletopia | Frankfurt | 2 | All Maps | STV","players":[{"user_id":398,"name":"Zaratti","steam_id":76561198124224005,"connected_time":812000000000,"state":"active","ping":103},{"user_id":396,"name":"Ivy","steam_id":76561198075568484,"connected_time":813000000000,"state":"active","ping":65}]},{"server_id":308,"name":"Uncletopia | Frankfurt | 3 | All Maps","name_short":"frk-3","host":"frk-1.de.uncletopia.com","port":27035,"enabled":true,"region":"eu","cc":"de","latitude":50.110924,"longitude":8.682127,"reserved":0,"last_update":"0001-01-01T00:00:00Z","name_a2s":"Uncletopia | Frankfurt | 3 | All Maps","protocol":17,"map":"pl_frontier_final","folder":"tf","game":"Team Fortress","app_id":440,"player_count":0,"max_players":24,"Bots":0,"server_type":"Dedicated","server_os":"Linux","password":true,"vac":true,"version":"7932396","steam_id":85568392924504274,"keywords":["nocrits","nodmgspread","payload","uncletopia"],"game_id":440,"stv_port":27036,"stv_name":"Uncletopia | Frankfurt | 3 | All Maps | STV","players":null},{"server_id":309,"name":"Uncletopia | Frankfurt | 4 | All Maps","name_short":"frk-4","host":"frk-1.de.uncletopia.com","port":27045,"enabled":true,"region":"eu","cc":"de","latitude":50.110924,"longitude":8.682127,"reserved":0,"last_update":"0001-01-01T00:00:00Z","name_a2s":"Uncletopia | Frankfurt | 4 | All Maps","protocol":17,"map":"pl_goldrush","folder":"tf","game":"Team Fortress","app_id":440,"player_count":23,"max_players":24,"Bots":0,"server_type":"Dedicated","server_os":"Linux","password":true,"vac":true,"version":"7932396","steam_id":85568392924504275,"keywords":["nocrits","nodmgspread","payload","uncletopia"],"game_id":440,"stv_port":27046,"stv_name":"Uncletopia | Frankfurt | 4 | All Maps | STV","players":[{"user_id":716,"name":"that fat croc from donkey kong","steam_id":76561198159172495,"connected_time":43000000000,"state":"active","ping":77},{"user_id":714,"name":"Djuro","steam_id":76561198043860349,"connected_time":187000000000,"state":"active","ping":81},{"user_id":712,"name":"Tomfool","steam_id":76561197993256481,"connected_time":540000000000,"state":"active","ping":73},{"user_id":696,"name":"–¢—Ä—É–ø –í–æ–ª–æ–¥—è","steam_id":76561198035718457,"connected_time":2424000000000,"state":"active","ping":89},{"user_id":704,"name":"Teathling","steam_id":76561198061580505,"connected_time":1669000000000,"state":"active","ping":60},{"user_id":695,"name":"Psycho–ü–ê–¢","steam_id":76561198074777220,"connected_time":2471000000000,"state":"active","ping":80},{"user_id":683,"name":"8 Ball","steam_id":76561197960988736,"connected_time":3421000000000,"state":"active","ping":66},{"user_id":637,"name":"eeeeee","steam_id":76561198017786875,"connected_time":7053000000000,"state":"active","ping":60},{"user_id":687,"name":"randompixel","steam_id":76561198003941207,"connected_time":3282000000000,"state":"active","ping":70},{"user_id":713,"name":"travis","steam_id":76561198138119811,"connected_time":347000000000,"state":"active","ping":60},{"user_id":701,"name":"Aspartus","steam_id":76561198101385763,"connected_time":1875000000000,"state":"active","ping":46},{"user_id":708,"name":"peace of sheet","steam_id":76561197997323419,"connected_time":1275000000000,"state":"active","ping":85},{"user_id":652,"name":"KiT","steam_id":76561198043770371,"connected_time":6298000000000,"state":"active","ping":70},{"user_id":642,"name":"Carrotcracker","steam_id":76561198034862396,"connected_time":6971000000000,"state":"active","ping":69},{"user_id":599,"name":"lyra","steam_id":76561198043601838,"connected_time":8820000000000,"state":"active","ping":59},{"user_id":706,"name":"Gravy","steam_id":76561198029548074,"connected_time":1614000000000,"state":"active","ping":63},{"user_id":705,"name":"NOM","steam_id":76561198062033234,"connected_time":1667000000000,"state":"active","ping":56},{"user_id":595,"name":"Healix","steam_id":76561198130270161,"connected_time":9311000000000,"state":"active","ping":53},{"user_id":646,"name":"poika^_^","steam_id":76561199057953617,"connected_time":6797000000000,"state":"active","ping":60},{"user_id":709,"name":"Varsk","steam_id":76561198061398890,"connected_time":1272000000000,"state":"active","ping":57},{"user_id":715,"name":"C++yberbug 2077","steam_id":76561199068102571,"connected_time":184000000000,"state":"active","ping":82},{"user_id":707,"name":"killer of noob, winner of game","steam_id":76561198190583242,"connected_time":1585000000000,"state":"active","ping":73}]},{"server_id":310,"name":"Uncletopia | Frankfurt | 5 | All Maps","name_short":"frk-5","host":"frk-1.de.uncletopia.com","port":27055,"enabled":true,"region":"eu","cc":"de","latitude":50.110924,"longitude":8.682127,"reserved":0,"last_update":"0001-01-01T00:00:00Z","name_a2s":"Uncletopia | Frankfurt | 5 | All Maps","protocol":17,"map":"pl_barnblitz","folder":"tf","game":"Team Fortress","app_id":440,"player_count":24,"max_players":24,"Bots":0,"server_type":"Dedicated","server_os":"Linux","password":true,"vac":true,"version":"7932396","steam_id":85568392924504277,"keywords":["nocrits","nodmgspread","payload","uncletopia"],"game_id":440,"stv_port":27056,"stv_name":"Uncletopia | Frankfurt | 5 | All Maps | STV","players":[{"user_id":457,"name":"lore","steam_id":76561198120984188,"connected_time":508000000000,"state":"active","ping":68},{"user_id":449,"name":"cuddle","steam_id":76561198805181599,"connected_time":1449000000000,"state":"active","ping":69},{"user_id":433,"name":"siarczan (VI) miedzi (II)","steam_id":76561198327848460,"connected_time":2966000000000,"state":"active","ping":68},{"user_id":458,"name":"mlody johnny","steam_id":76561199024816404,"connected_time":481000000000,"state":"active","ping":60},{"user_id":459,"name":"stephanie10am","steam_id":76561198258487465,"connected_time":455000000000,"state":"active","ping":90},{"user_id":425,"name":"GuSkand","steam_id":76561198043775605,"connected_time":3073000000000,"state":"active","ping":86},{"user_id":435,"name":"pHJ","steam_id":76561198022289525,"connected_time":2682000000000,"state":"active","ping":58},{"user_id":447,"name":"Cirox","steam_id":76561198383142404,"connected_time":1472000000000,"state":"active","ping":112},{"user_id":441,"name":"uma","steam_id":76561198147976939,"connected_time":2396000000000,"state":"active","ping":48},{"user_id":451,"name":"Qdarks","steam_id":76561198013391340,"connected_time":1405000000000,"state":"active","ping":143},{"user_id":452,"name":"fregaropa","steam_id":76561198150806166,"connected_time":1395000000000,"state":"active","ping":85},{"user_id":346,"name":"sunshine","steam_id":76561198084597975,"connected_time":9023000000000,"state":"active","ping":69},{"user_id":420,"name":"IceDreamer","steam_id":76561197997569989,"connected_time":3616000000000,"state":"active","ping":59},{"user_id":429,"name":"R@DIO","steam_id":76561197995533046,"connected_time":3019000000000,"state":"active","ping":79},{"user_id":422,"name":"r06u3","steam_id":76561198254099253,"connected_time":3475000000000,"state":"active","ping":166},{"user_id":416,"name":"LiptonIceTea","steam_id":76561198042418582,"connected_time":3777000000000,"state":"active","ping":86},{"user_id":386,"name":"PLUTO","steam_id":76561198312436128,"connected_time":5876000000000,"state":"active","ping":129},{"user_id":453,"name":"froglids","steam_id":76561198045466919,"connected_time":1103000000000,"state":"active","ping":64},{"user_id":445,"name":"MarciDiMarcMarc","steam_id":76561199001920688,"connected_time":1545000000000,"state":"active","ping":69},{"user_id":446,"name":"Dein F√ºhrer","steam_id":76561198206500585,"connected_time":1484000000000,"state":"active","ping":78},{"user_id":438,"name":"Qwerty","steam_id":76561198023525894,"connected_time":2644000000000,"state":"active","ping":93},{"user_id":448,"name":"Kn√∂sta","steam_id":76561198143422139,"connected_time":1471000000000,"state":"active","ping":98},{"user_id":454,"name":"tobs","steam_id":76561197987616937,"connected_time":999000000000,"state":"active","ping":60},{"user_id":456,"name":"woop","steam_id":76561198985105074,"connected_time":916000000000,"state":"active","ping":81}]},{"server_id":311,"name":"Uncletopia | Frankfurt | 6 | All Maps","name_short":"frk-6","host":"frk-1.de.uncletopia.com","port":27065,"enabled":true,"region":"eu","cc":"de","latitude":50.110924,"longitude":8.682127,"reserved":0,"last_update":"0001-01-01T00:00:00Z","name_a2s":"Uncletopia | Frankfurt | 6 | All Maps","protocol":17,"map":"koth_viaduct","folder":"tf","game":"Team Fortress","app_id":440,"player_count":0,"max_players":24,"Bots":0,"server_type":"Dedicated","server_os":"Linux","password":true,"vac":true,"version":"7932396","steam_id":85568392924504278,"keywords":["cp","nocrits","nodmgspread","uncletopia"],"game_id":440,"stv_port":27066,"stv_name":"Uncletopia | Frankfurt | 6 | All Maps | STV","players":null},{"server_id":23,"name":"Uncletopia | Frankfurt | 7 | Stopwatch Beta","name_short":"frk-7","host":"frk-1.de.uncletopia.com","port":27075,"enabled":true,"region":"eu","cc":"de","latitude":50.110924,"longitude":8.682127,"reserved":0,"last_update":"0001-01-01T00:00:00Z","name_a2s":"Uncletopia | Frankfurt | 7 | Stopwatch Beta","protocol":17,"map":"pl_snowycoast","folder":"tf","game":"Team Fortress","app_id":440,"player_count":0,"max_players":24,"Bots":0,"server_type":"Dedicated","server_os":"Linux","password":true,"vac":true,"version":"7932396","steam_id":85568392924742827,"keywords":["nocrits","nodmgspread","payload","uncletopia"],"game_id":440,"stv_port":27076,"stv_name":"Uncletopia | Frankfurt | 7 | Stopwatch Beta | STV","players":null},{"server_id":24,"name":"Uncletopia | Frankfurt | 8 | Community","name_short":"frk-8","host":"frk-1.de.uncletopia.com","port":27085,"enabled":true,"region":"eu","cc":"de","latitude":50.110924,"longitude":8.682127,"reserved":0,"last_update":"0001-01-01T00:00:00Z","name_a2s":"Uncletopia | Frankfurt | 8 | Community","protocol":17,"map":"workshop/cp_alloy_rc3.ugc592805587","folder":"tf","game":"Team Fortress","app_id":440,"player_count":0,"max_players":24,"Bots":0,"server_type":"Dedicated","server_os":"Linux","password":true,"vac":true,"version":"7932396","steam_id":85568392924742828,"keywords":["cp","nocrits","nodmgspread","uncletopia"],"game_id":440,"stv_port":27086,"stv_name":"Uncletopia | Frankfurt | 8 | Community | STV","players":null},{"server_id":202,"name":"Uncletopia | Hong Kong | 1 | All Maps","name_short":"hgk-1","host":"hgk-1.hk.uncletopia.com","port":27015,"enabled":true,"region":"asia","cc":"hk","latitude":22.302711,"longitude":114.177216,"reserved":0,"last_update":"0001-01-01T00:00:00Z","name_a2s":"Uncletopia | Hong Kong | 1 | All Maps","protocol":17,"map":"koth_harvest_final","folder":"tf","game":"Team Fortress","app_id":440,"player_count":0,"max_players":24,"Bots":0,"server_type":"Dedicated","server_os":"Linux","password":true,"vac":true,"version":"7932396","steam_id":85568392924494504,"keywords":["cp","nocrits","nodmgspread","uncletopia"],"game_id":440,"stv_port":27016,"stv_name":"Uncletopia | Hong Kong | 1 | All Maps | STV","players":null},{"server_id":1,"name":"Uncletopia | Los Angeles | 1 | All Maps","name_short":"lax-1","host":"lax-1.us.uncletopia.com","port":27015,"enabled":true,"region":"us-west","cc":"us","latitude":33.94279,"longitude":-118.41004,"reserved":0,"last_update":"0001-01-01T00:00:00Z","name_a2s":"Uncletopia | Los Angeles | 1 | All Maps","protocol":17,"map":"pl_swiftwater_final1","folder":"tf","game":"Team Fortress","app_id":440,"player_count":21,"max_players":24,"Bots":0,"server_type":"Dedicated","server_os":"Linux","password":true,"vac":true,"version":"7932396","steam_id":85568392924469991,"keywords":["nocrits","nodmgspread","payload","uncletopia"],"game_id":440,"stv_port":27016,"stv_name":"Uncletopia | Los Angeles | 1 | All Maps | STV","players":[{"user_id":129,"name":"aintnowaiyboi","steam_id":76561198301372369,"connected_time":899000000000,"state":"active","ping":60},{"user_id":132,"name":"cockroach massive","steam_id":76561198011675372,"connected_time":350000000000,"state":"active","ping":85},{"user_id":108,"name":"Puskinti","steam_id":76561198032120688,"connected_time":2709000000000,"state":"active","ping":85},{"user_id":131,"name":"Orothsis","steam_id":76561198047754269,"connected_time":391000000000,"state":"active","ping":102},{"user_id":124,"name":"ceres","steam_id":76561198291976960,"connected_time":1373000000000,"state":"active","ping":89},{"user_id":140,"name":"üíÄKing DiamondüíÄ","steam_id":76561198012101598,"connected_time":107000000000,"state":"active","ping":45},{"user_id":137,"name":"CirkeyMoncus","steam_id":76561198170699967,"connected_time":202000000000,"state":"active","ping":89},{"user_id":133,"name":"The Elder Hobo","steam_id":76561198039357659,"connected_time":348000000000,"state":"active","ping":103},{"user_id":122,"name":"Edwon","steam_id":76561198319902846,"connected_time":1406000000000,"state":"active","ping":56},{"user_id":139,"name":"phon","steam_id":76561198140659236,"connected_time":121000000000,"state":"active","ping":40},{"user_id":142,"name":"npc energy","steam_id":76561198035342207,"connected_time":72000000000,"state":"active","ping":80},{"user_id":143,"name":"Toxic Medic Main (he/they)","steam_id":76561198009314845,"connected_time":36000000000,"state":"active","ping":69},{"user_id":126,"name":"Willem Dafoe","steam_id":76561198037453253,"connected_time":1231000000000,"state":"active","ping":116},{"user_id":112,"name":"The Super Mario Bros. Movie","steam_id":76561198871692156,"connected_time":2250000000000,"state":"active","ping":83},{"user_id":135,"name":"M","steam_id":76561198286792807,"connected_time":275000000000,"state":"active","ping":101},{"user_id":136,"name":"Vincent Van Bro","steam_id":76561197966919802,"connected_time":247000000000,"state":"active","ping":85},{"user_id":107,"name":"Jokezonyu","steam_id":76561198213167893,"connected_time":2811000000000,"state":"active","ping":59},{"user_id":119,"name":"Pines","steam_id":76561199024146278,"connected_time":1440000000000,"state":"active","ping":54},{"user_id":130,"name":"Fribbo","steam_id":76561198373295660,"connected_time":678000000000,"state":"active","ping":125},{"user_id":109,"name":"Keamy","steam_id":76561199471434875,"connected_time":2679000000000,"state":"active","ping":65},{"user_id":82,"name":"surrender to the void","steam_id":76561198055494039,"connected_time":4184000000000,"state":"active","ping":119}]},{"server_id":112,"name":"Uncletopia | Los Angeles | 2 | All Maps","name_short":"lax-2","host":"lax-1.us.uncletopia.com","port":27025,"enabled":true,"region":"us-west","cc":"us","latitude":33.94279,"longitude":-118.41004,"reserved":0,"last_update":"0001-01-01T00:00:00Z","name_a2s":"Uncletopia | Los Angeles | 2 | All Maps","protocol":17,"map":"koth_viaduct","folder":"tf","game":"Team Fortress","app_id":440,"player_count":24,"max_players":24,"Bots":0,"server_type":"Dedicated","server_os":"Linux","password":true,"vac":true,"version":"7932396","steam_id":85568392924469992,"keywords":["cp","nocrits","nodmgspread","uncletopia"],"game_id":440,"stv_port":27026,"stv_name":"Uncletopia | Los Angeles | 2 | All Maps | STV","players":[{"user_id":259,"name":"Tito McMann","steam_id":76561198068901630,"connected_time":1321000000000,"state":"active","ping":61},{"user_id":239,"name":"elephant thumb","steam_id":76561198118859752,"connected_time":2603000000000,"state":"active","ping":44},{"user_id":254,"name":"emilio","steam_id":76561198370431307,"connected_time":2013000000000,"state":"active","ping":38},{"user_id":273,"name":"Redcat79","steam_id":76561199109688591,"connected_time":492000000000,"state":"active","ping":71},{"user_id":275,"name":"Trips","steam_id":76561198054581597,"connected_time":273000000000,"state":"active","ping":52},{"user_id":252,"name":"Meet The Kazoo","steam_id":76561199229748300,"connected_time":2177000000000,"state":"active","ping":56},{"user_id":179,"name":"riSygneD","steam_id":76561198331618687,"connected_time":7153000000000,"state":"active","ping":35},{"user_id":258,"name":"usedhalfcart","steam_id":76561198072621852,"connected_time":1344000000000,"state":"active","ping":79},{"user_id":266,"name":"klover","steam_id":76561198072254781,"connected_time":929000000000,"state":"active","ping":55},{"user_id":260,"name":"Wackydavo","steam_id":76561197990094209,"connected_time":1249000000000,"state":"active","ping":110},{"user_id":261,"name":"HooDoo","steam_id":76561198088994018,"connected_time":1240000000000,"state":"active","ping":76},{"user_id":262,"name":"Dullahan","steam_id":76561198119668908,"connected_time":1186000000000,"state":"active","ping":57},{"user_id":235,"name":"mega","steam_id":76561198089520959,"connected_time":2978000000000,"state":"active","ping":119},{"user_id":272,"name":"Mormon Discoball","steam_id":76561198028006216,"connected_time":496000000000,"state":"active","ping":89},{"user_id":255,"name":"Flying Emu","steam_id":76561198121632924,"connected_time":1977000000000,"state":"active","ping":84},{"user_id":119,"name":"Altruisticailuridae","steam_id":76561198335295596,"connected_time":11344000000000,"state":"active","ping":48},{"user_id":263,"name":"GreenApples","steam_id":76561198120559543,"connected_time":1179000000000,"state":"active","ping":60},{"user_id":277,"name":"White_Wizard_Named_Corona","steam_id":76561198055652735,"connected_time":115000000000,"state":"active","ping":101},{"user_id":271,"name":"Poobastank","steam_id":76561198298649714,"connected_time":751000000000,"state":"active","ping":49},{"user_id":270,"name":"Lonely Friendless Gamer","steam_id":76561198046728155,"connected_time":762000000000,"state":"active","ping":94},{"user_id":276,"name":"Fascination_","steam_id":76561198823659629,"connected_time":269000000000,"state":"active","ping":93},{"user_id":274,"name":"Day","steam_id":76561198071356262,"connected_time":473000000000,"state":"active","ping":115},{"user_id":257,"name":"bobtheninjaman","steam_id":76561198066424544,"connected_time":1753000000000,"state":"active","ping":79},{"user_id":265,"name":"Risky","steam_id":76561198231029328,"connected_time":953000000000,"state":"active","ping":51}]},{"server_id":324,"name":"Uncletopia | Los Angeles | 3 | All Maps","name_short":"lax-3","host":"lax-1.us.uncletopia.com","port":27035,"enabled":true,"region":"us-west","cc":"us","latitude":33.94279,"longitude":-118.41004,"reserved":0,"last_update":"0001-01-01T00:00:00Z","name_a2s":"Uncletopia | Los Angeles | 3 | All Maps","protocol":17,"map":"pl_borneo","folder":"tf","game":"Team Fortress","app_id":440,"player_count":2,"max_players":24,"Bots":0,"server_type":"Dedicated","server_os":"Linux","password":true,"vac":true,"version":"7932396","steam_id":85568392924510198,"keywords":["nocrits","nodmgspread","payload","uncletopia"],"game_id":440,"stv_port":27036,"stv_name":"Uncletopia | Los Angeles | 3 | All Maps | STV","players":[{"user_id":7,"name":"BluZeroTwo","steam_id":76561198093243655,"connected_time":1445000000000,"state":"active","ping":95},{"user_id":9,"name":"30 fps gaming","steam_id":76561199216756079,"connected_time":909000000000,"state":"active","ping":128}]},{"server_id":25,"name":"Uncletopia | Los Angeles | 4 | Stopwatch Beta","name_short":"lax-4","host":"lax-1.us.uncletopia.com","port":27045,"enabled":true,"region":"us-west","cc":"us","latitude":33.94279,"longitude":-118.41004,"reserved":0,"last_update":"0001-01-01T00:00:00Z","name_a2s":"Uncletopia | Los Angeles | 4 | Stopwatch Beta","protocol":17,"map":"workshop/koth_clearcut_b15.ugc2107050255","folder":"tf","game":"Team Fortress","app_id":440,"player_count":0,"max_players":24,"Bots":0,"server_type":"Dedicated","server_os":"Linux","password":true,"vac":true,"version":"7932396","steam_id":85568392924510199,"keywords":["cp","nocrits","nodmgspread","uncletopia"],"game_id":440,"stv_port":27046,"stv_name":"Uncletopia | Los Angeles | 4 | Stopwatch Beta | STV","players":null},{"server_id":11,"name":"Uncletopia | London | 1 | All Maps","name_short":"lon-1","host":"lon-1.uk.uncletopia.com","port":27015,"enabled":true,"region":"eu","cc":"gb","latitude":51.509865,"longitude":-0.118092,"reserved":0,"last_update":"0001-01-01T00:00:00Z","name_a2s":"Uncletopia | London | 1 | All Maps","protocol":17,"map":"pl_borneo","folder":"tf","game":"Team Fortress","app_id":440,"player_count":24,"max_players":24,"Bots":0,"server_type":"Dedicated","server_os":"Linux","password":true,"vac":true,"version":"7932396","steam_id":85568392924367362,"keywords":["nocrits","nodmgspread","payload","uncletopia"],"game_id":440,"stv_port":27016,"stv_name":"Uncletopia | London | 1 | All Maps | STV","players":[{"user_id":673,"name":"My Wife Beats Me","steam_id":76561198070137469,"connected_time":669000000000,"state":"active","ping":78},{"user_id":639,"name":"–∏–≥–ª–∞","steam_id":76561198120760515,"connected_time":4154000000000,"state":"active","ping":89},{"user_id":624,"name":"walking plane","steam_id":76561198146779559,"connected_time":5418000000000,"state":"active","ping":89},{"user_id":584,"name":"dec","steam_id":76561198009660168,"connected_time":9509000000000,"state":"active","ping":59},{"user_id":633,"name":"cazador","steam_id":76561198123096922,"connected_time":5126000000000,"state":"active","ping":103},{"user_id":659,"name":"Theenie - good game everyone! \ufffd","steam_id":76561198029025500,"connected_time":1855000000000,"state":"active","ping":61},{"user_id":637,"name":"Waffle","steam_id":76561198397024973,"connected_time":4503000000000,"state":"active","ping":30},{"user_id":678,"name":"Skinny101","steam_id":76561197985599360,"connected_time":258000000000,"state":"active","ping":58},{"user_id":657,"name":"‚ô•aura‚ô•","steam_id":76561198066258544,"connected_time":2620000000000,"state":"active","ping":62},{"user_id":605,"name":"Bounter","steam_id":76561198072614188,"connected_time":7327000000000,"state":"active","ping":80},{"user_id":647,"name":"flappi","steam_id":76561198072892783,"connected_time":3552000000000,"state":"active","ping":61},{"user_id":662,"name":"t.tv/anguishjumps","steam_id":76561198086442571,"connected_time":1314000000000,"state":"active","ping":48},{"user_id":681,"name":"tone","steam_id":76561197975301462,"connected_time":101000000000,"state":"active","ping":77},{"user_id":663,"name":"mohemmedmokhter2005","steam_id":76561199197650506,"connected_time":1310000000000,"state":"active","ping":112},{"user_id":655,"name":"Sandshee","steam_id":76561198088574666,"connected_time":2681000000000,"state":"active","ping":38},{"user_id":676,"name":"UltimateAura","steam_id":76561198338361324,"connected_time":335000000000,"state":"active","ping":45},{"user_id":645,"name":"Piteras","steam_id":76561198858532207,"connected_time":3586000000000,"state":"active","ping":88},{"user_id":649,"name":"Slifer The Sky Dragon","steam_id":76561198062255803,"connected_time":3541000000000,"state":"active","ping":89},{"user_id":672,"name":"Maveth","steam_id":76561198315021197,"connected_time":907000000000,"state":"active","ping":137},{"user_id":658,"name":"BreadBubbles","steam_id":76561198174332826,"connected_time":2379000000000,"state":"active","ping":60},{"user_id":670,"name":"fshfkr","steam_id":76561198095979282,"connected_time":1233000000000,"state":"active","ping":42},{"user_id":632,"name":"Croy","steam_id":76561197972552579,"connected_time":5166000000000,"state":"active","ping":45},{"user_id":677,"name":"Alfred","steam_id":76561198200062254,"connected_time":294000000000,"state":"active","ping":141},{"user_id":680,"name":"Teacup","steam_id":76561198190654091,"connected_time":231000000000,"state":"active","ping":57}]},{"server_id":114,"name":"Uncletopia | London | 2 | All Maps","name_short":"lon-2","host":"lon-1.uk.uncletopia.com","port":27025,"enabled":true,"region":"eu","cc":"gb","latitude":51.509865,"longitude":-0.118092,"reserved":0,"last_update":"0001-01-01T00:00:00Z","name_a2s":"Uncletopia | London | 2 | All Maps","protocol":17,"map":"cp_mountainlab","folder":"tf","game":"Team Fortress","app_id":440,"player_count":23,"max_players":24,"Bots":0,"server_type":"Dedicated","server_os":"Linux","password":true,"vac":true,"version":"7932396","steam_id":85568392924470941,"keywords":["cp","nocrits","nodmgspread","uncletopia"],"game_id":440,"stv_port":27026,"stv_name":"Uncletopia | London | 2 | All Maps | STV","players":[{"user_id":566,"name":"Kyeel_Smeel","steam_id":76561199164471622,"connected_time":2349000000000,"state":"active","ping":67},{"user_id":567,"name":"W","steam_id":76561198273623211,"connected_time":2038000000000,"state":"active","ping":86},{"user_id":601,"name":"A.D.H.|Artem","steam_id":76561198041801369,"connected_time":362000000000,"state":"active","ping":72},{"user_id":571,"name":"Soaya","steam_id":76561199101510855,"connected_time":1441000000000,"state":"active","ping":45},{"user_id":569,"name":"Random city potato","steam_id":76561199010542992,"connected_time":1517000000000,"state":"active","ping":61},{"user_id":602,"name":"Fallen_Scholar","steam_id":76561198055468709,"connected_time":281000000000,"state":"active","ping":58},{"user_id":615,"name":"Rook","steam_id":76561197995204779,"connected_time":30000000000,"state":"active","ping":40},{"user_id":574,"name":"lit","steam_id":76561198164806677,"connected_time":1292000000000,"state":"active","ping":96},{"user_id":612,"name":"rummy","steam_id":76561197997573379,"connected_time":99000000000,"state":"active","ping":43},{"user_id":603,"name":"LainBizkit","steam_id":76561199200708626,"connected_time":245000000000,"state":"active","ping":102},{"user_id":594,"name":"Zoompee","steam_id":76561198021382249,"connected_time":784000000000,"state":"active","ping":109},{"user_id":578,"name":"AAAAAAAAAAAAAAAAAAAAAAAAAAAAAAA","steam_id":76561198336492287,"connected_time":1248000000000,"state":"active","ping":63},{"user_id":582,"name":"poopoocum","steam_id":76561198180641206,"connected_time":1046000000000,"state":"active","ping":56},{"user_id":583,"name":"Pumm","steam_id":76561198110871772,"connected_time":1029000000000,"state":"active","ping":48},{"user_id":605,"name":"Garoiop","steam_id":76561198082326459,"connected_time":205000000000,"state":"active","ping":34},{"user_id":585,"name":"Asat","steam_id":76561198862727465,"connected_time":1015000000000,"state":"active","ping":53},{"user_id":613,"name":"Flare Fella","steam_id":76561198181291454,"connected_time":70000000000,"state":"spawning","ping":59},{"user_id":607,"name":"–∫–æ–º–∏—Å—Å–∞—Ä","steam_id":76561199036432051,"connected_time":175000000000,"state":"active","ping":77},{"user_id":611,"name":"34 Petabyte QR Code ZIP Bomb","steam_id":76561198083017384,"connected_time":156000000000,"state":"active","ping":42},{"user_id":609,"name":"nedilya","steam_id":76561198039692077,"connected_time":169000000000,"state":"active","ping":65},{"user_id":591,"name":"Lempii","steam_id":76561198433507634,"connected_time":851000000000,"state":"active","ping":95},{"user_id":614,"name":"snowycaost","steam_id":76561198346638308,"connected_time":66000000000,"state":"active","ping":60},{"user_id":610,"name":"griejes","steam_id":76561198053184757,"connected_time":166000000000,"state":"active","ping":32}]},{"server_id":320,"name":"Uncletopia | London | 3 | All Maps","name_short":"lon-3","host":"lon-1.uk.uncletopia.com","port":27035,"enabled":true,"region":"eu","cc":"gb","latitude":51.509865,"longitude":-0.118092,"reserved":0,"last_update":"0001-01-01T00:00:00Z","name_a2s":"Uncletopia | London | 3 | All Maps","protocol":17,"map":"cp_sunshine","folder":"tf","game":"Team Fortress","app_id":440,"player_count":7,"max_players":24,"Bots":0,"server_type":"Dedicated","server_os":"Linux","password":true,"vac":true,"version":"7932396","steam_id":85568392924510192,"keywords":["cp","nocrits","nodmgspread","uncletopia"],"game_id":440,"stv_port":27036,"stv_name":"Uncletopia | London | 3 | All Maps | STV","players":[{"user_id":332,"name":"Nyrgon","steam_id":76561198269206916,"connected_time":149000000000,"state":"active","ping":69},{"user_id":330,"name":"SwiftKarma","steam_id":76561199005694153,"connected_time":257000000000,"state":"active","ping":57},{"user_id":252,"name":"Aroo","steam_id":76561198132601368,"connected_time":6204000000000,"state":"active","ping":74},{"user_id":272,"name":"Raymus","steam_id":76561198021330407,"connected_time":5160000000000,"state":"active","ping":51},{"user_id":279,"name":"Dr-je-kill","steam_id":76561198890817226,"connected_time":4602000000000,"state":"active","ping":69},{"user_id":268,"name":"Mafew","steam_id":76561198119993886,"connected_time":5439000000000,"state":"active","ping":58},{"user_id":292,"name":"Woman (Real)","steam_id":76561199151823932,"connected_time":3880000000000,"state":"active","ping":84}]},{"server_id":321,"name":"Uncletopia | London | 4 | All Maps","name_short":"lon-4","host":"lon-1.uk.uncletopia.com","port":27045,"enabled":true,"region":"eu","cc":"gb","latitude":51.509865,"longitude":-0.118092,"reserved":0,"last_update":"0001-01-01T00:00:00Z","name_a2s":"Uncletopia | London | 4 | All Maps","protocol":17,"map":"koth_highpass","folder":"tf","game":"Team Fortress","app_id":440,"player_count":6,"max_players":24,"Bots":0,"server_type":"Dedicated","server_os":"Linux","password":true,"vac":true,"version":"7932396","steam_id":85568392924510193,"keywords":["cp","nocrits","nodmgspread","uncletopia"],"game_id":440,"stv_port":27046,"stv_name":"Uncletopia | London | 4 | All Maps | STV","players":[{"user_id":283,"name":"Etherhel","steam_id":76561198838449544,"connected_time":173000000000,"state":"active","ping":90},{"user_id":192,"name":"Grand Admiral Thrawn","steam_id":76561198302019412,"connected_time":5692000000000,"state":"active","ping":56},{"user_id":247,"name":"L4gman","steam_id":76561198048227040,"connected_time":2387000000000,"state":"active","ping":70},{"user_id":206,"name":"Jiipeeze","steam_id":76561198316154333,"connected_time":4876000000000,"state":"active","ping":85},{"user_id":266,"name":"stuntz","steam_id":76561197974814348,"connected_time":1318000000000,"state":"active","ping":70},{"user_id":180,"name":"DelaNo","steam_id":76561199125086655,"connected_time":6881000000000,"state":"active","ping":65}]},{"server_id":21,"name":"Uncletopia | London | 5 | All Maps","name_short":"lon-5","host":"lon-1.uk.uncletopia.com","port":27055,"enabled":true,"region":"eu","cc":"gb","latitude":51.509865,"longitude":-0.118092,"reserved":0,"last_update":"0001-01-01T00:00:00Z","name_a2s":"Uncletopia | London | 5 | All Maps","protocol":17,"map":"cp_snakewater_final1","folder":"tf","game":"Team Fortress","app_id":440,"player_count":19,"max_players":24,"Bots":0,"server_type":"Dedicated","server_os":"Linux","password":true,"vac":true,"version":"7932396","steam_id":85568392924742829,"keywords":["cp","nocrits","nodmgspread","uncletopia"],"game_id":440,"stv_port":27056,"stv_name":"Uncletopia | London | 5 | All Maps | STV","players":[{"user_id":305,"name":"ashdu0j","steam_id":76561198410955546,"connected_time":152000000000,"state":"active","ping":83},{"user_id":107,"name":"shh... tiny carrots r sleeping","steam_id":76561198069649097,"connected_time":10996000000000,"state":"active","ping":49},{"user_id":275,"name":"tf2 enjoyer","steam_id":76561198083615367,"connected_time":2272000000000,"state":"active","ping":40},{"user_id":307,"name":"kilo","steam_id":76561198015641339,"connected_time":127000000000,"state":"active","ping":75},{"user_id":299,"name":"Seri","steam_id":76561198017135441,"connected_time":593000000000,"state":"active","ping":49},{"user_id":281,"name":"Purps","steam_id":76561198053886680,"connected_time":1737000000000,"state":"active","ping":43},{"user_id":265,"name":"„É†ngel‚òØ","steam_id":76561198009888169,"connected_time":2774000000000,"state":"active","ping":71},{"user_id":266,"name":"REN","steam_id":76561198000596385,"connected_time":2757000000000,"state":"active","ping":80},{"user_id":308,"name":"tiia","steam_id":76561198046196005,"connected_time":114000000000,"state":"active","ping":45},{"user_id":163,"name":"aww yeah","steam_id":76561197992978878,"connected_time":9384000000000,"state":"active","ping":75},{"user_id":267,"name":"Lessoz","steam_id":76561199211572036,"connected_time":2679000000000,"state":"active","ping":90},{"user_id":304,"name":"H2n9","steam_id":76561198055811259,"connected_time":350000000000,"state":"active","ping":45},{"user_id":291,"name":"Kekeke","steam_id":76561198063672270,"connected_time":1283000000000,"state":"active","ping":110},{"user_id":298,"name":"random_player691","steam_id":76561199209946306,"connected_time":1156000000000,"state":"active","ping":64},{"user_id":279,"name":"KittyKate ‚ù§","steam_id":76561198116340817,"connected_time":2127000000000,"state":"active","ping":60},{"user_id":296,"name":"live funny joke reaction cam","steam_id":76561198346324423,"connected_time":1213000000000,"state":"active","ping":122},{"user_id":280,"name":"BuzzBees ‚ù§","steam_id":76561198101502273,"connected_time":1921000000000,"state":"active","ping":50},{"user_id":297,"name":"robu","steam_id":76561198113874116,"connected_time":1207000000000,"state":"active","ping":85},{"user_id":287,"name":"Puss in Boots","steam_id":76561198211599767,"connected_time":1536000000000,"state":"active","ping":56}]},{"server_id":22,"name":"Uncletopia | London | 6 | All Maps","name_short":"lon-6","host":"lon-1.uk.uncletopia.com","port":27065,"enabled":true,"region":"eu","cc":"gb","latitude":51.509865,"longitude":-0.118092,"reserved":0,"last_update":"0001-01-01T00:00:00Z","name_a2s":"Uncletopia | London | 6 | All Maps","protocol":17,"map":"ctf_2fort","folder":"tf","game":"Team Fortress","app_id":440,"player_count":23,"max_players":24,"Bots":0,"server_type":"Dedicated","server_os":"Linux","password":true,"vac":true,"version":"7932396","steam_id":85568392924742830,"keywords":["ctf","nocrits","nodmgspread","uncletopia"],"game_id":440,"stv_port":27066,"stv_name":"Uncletopia | London | 6 | All Maps | STV","players":[{"user_id":177,"name":"Cadian Bacon","steam_id":76561198391751454,"connected_time":1237000000000,"state":"active","ping":161},{"user_id":185,"name":"Male_07","steam_id":76561198079411460,"connected_time":566000000000,"state":"active","ping":54},{"user_id":170,"name":"Labia in Fishnets","steam_id":76561198061382104,"connected_time":1415000000000,"state":"active","ping":57},{"user_id":178,"name":"Sanity Issues","steam_id":76561198041535987,"connected_time":1220000000000,"state":"active","ping":93},{"user_id":171,"name":"The Blue Moon","steam_id":76561198368140755,"connected_time":1402000000000,"state":"active","ping":31},{"user_id":193,"name":"James","steam_id":76561198168882012,"connected_time":97000000000,"state":"active","ping":44},{"user_id":172,"name":"harryhux","steam_id":76561198228052940,"connected_time":1373000000000,"state":"active","ping":43},{"user_id":187,"name":"Nyhde","steam_id":76561198012771416,"connected_time":413000000000,"state":"active","ping":101},{"user_id":194,"name":"skai","steam_id":76561198184881255,"connected_time":84000000000,"state":"active","ping":70},{"user_id":189,"name":"Aeglos","steam_id":76561198248698294,"connected_time":321000000000,"state":"active","ping":71},{"user_id":182,"name":"Everything personal mate","steam_id":76561198959653084,"connected_time":923000000000,"state":"active","ping":103},{"user_id":190,"name":"‚àÜ¬∂‚Ç¨¬£¬¢¬©¬©¬•üò≥¬Æ‚Ñ¢","steam_id":76561198208474001,"connected_time":297000000000,"state":"active","ping":77},{"user_id":191,"name":"KorieOne ‚ù£","steam_id":76561197982998663,"connected_time":257000000000,"state":"active","ping":54},{"user_id":192,"name":"Soloman","steam_id":76561199212054667,"connected_time":163000000000,"state":"active","ping":44},{"user_id":135,"name":"PP_master69420","steam_id":76561199019913910,"connected_time":3356000000000,"state":"active","ping":80},{"user_id":195,"name":"Tantamount","steam_id":76561198083627768,"connected_time":81000000000,"state":"active","ping":71},{"user_id":146,"name":"Yaire","steam_id":76561198017343510,"connected_time":2842000000000,"state":"active","ping":57},{"user_id":196,"name":"Mr. Sandman","steam_id":76561198281209867,"connected_time":79000000000,"state":"active","ping":60},{"user_id":197,"name":"Inigo","steam_id":76561198107314768,"connected_time":57000000000,"state":"active","ping":71},{"user_id":199,"name":"he/him whimper","steam_id":76561198097175164,"connected_time":29000000000,"state":"active","ping":135},{"user_id":200,"name":"stink","steam_id":76561198099318923,"connected_time":14000000000,"state":"spawning","ping":140},{"user_id":128,"name":"tirr0j","steam_id":76561198061949211,"connected_time":4089000000000,"state":"active","ping":59},{"user_id":143,"name":"yeah","steam_id":76561198188642265,"connected_time":2920000000000,"state":"active","ping":64}]},{"server_id":40,"name":"Uncletopia | London | 7 | No Payload","name_short":"lon-7","host":"lon-1.uk.uncletopia.com","port":27075,"enabled":true,"region":"eu","cc":"gb","latitude":51.509865,"longitude":-0.118092,"reserved":0,"last_update":"0001-01-01T00:00:00Z","name_a2s":"Uncletopia | London | 7 | No Payload","protocol":17,"map":"koth_nucleus","folder":"tf","game":"Team Fortress","app_id":440,"player_count":0,"max_players":24,"Bots":0,"server_type":"Dedicated","server_os":"Linux","password":true,"vac":true,"version":"7932396","steam_id":85568392924964314,"keywords":["cp","nocrits","nodmgspread","uncletopia"],"game_id":440,"stv_port":27076,"stv_name":"Uncletopia | London | 7 | No Payload | STV","players":null},{"server_id":41,"name":"Uncletopia | London | 8 | Community","name_short":"lon-8","host":"lon-1.uk.uncletopia.com","port":27085,"enabled":true,"region":"eu","cc":"gb","latitude":51.509865,"longitude":-0.118092,"reserved":0,"last_update":"0001-01-01T00:00:00Z","name_a2s":"Uncletopia | London | 8 | Community","protocol":17,"map":"workshop/cp_glassworks_rc6a.ugc454118349","folder":"tf","game":"Team Fortress","app_id":440,"player_count":0,"max_players":24,"Bots":0,"server_type":"Dedicated","server_os":"Linux","password":true,"vac":true,"version":"7932396","steam_id":85568392924964315,"keywords":["cp","nocrits","nodmgspread","uncletopia"],"game_id":440,"stv_port":27086,"stv_name":"Uncletopia | London | 8 | Community | STV","players":null},{"server_id":300,"name":"Uncletopia | Montr√©al | 1 | All Maps","name_short":"mtl-1","host":"mtl-1.ca.uncletopia.com","port":27015,"enabled":true,"region":"us-east","cc":"ca","latitude":45.50889,"longitude":-73.56167,"reserved":0,"last_update":"0001-01-01T00:00:00Z","name_a2s":"Uncletopia | Montr√©al | 1 | All Maps","protocol":17,"map":"cp_altitude","folder":"tf","game":"Team Fortress","app_id":440,"player_count":0,"max_players":24,"Bots":0,"server_type":"Dedicated","server_os":"Linux","password":true,"vac":true,"version":"7932396","steam_id":85568392924500087,"keywords":["cp","nocrits","nodmgspread","uncletopia"],"game_id":440,"stv_port":27016,"stv_name":"Uncletopia | Montr√©al | 1 | All Maps | STV","players":null},{"server_id":301,"name":"Uncletopia | Montr√©al | 2 | All Maps","name_short":"mtl-2","host":"mtl-1.ca.uncletopia.com","port":27025,"enabled":true,"region":"us-east","cc":"ca","latitude":45.50889,"longitude":-73.56167,"reserved":0,"last_update":"0001-01-01T00:00:00Z","name_a2s":"Uncletopia | Montr√©al | 2 | All Maps","protocol":17,"map":"koth_lakeside_final","folder":"tf","game":"Team Fortress","app_id":440,"player_count":0,"max_players":24,"Bots":0,"server_type":"Dedicated","server_os":"Linux","password":true,"vac":true,"version":"7932396","steam_id":85568392924500088,"keywords":["cp","nocrits","nodmgspread","uncletopia"],"game_id":440,"stv_port":27026,"stv_name":"Uncletopia | Montr√©al | 2 | All Maps | STV","players":null},{"server_id":302,"name":"Uncletopia | Montr√©al | 3 | All Maps","name_short":"mtl-3","host":"mtl-1.ca.uncletopia.com","port":27035,"enabled":true,"region":"us-east","cc":"ca","latitude":45.50889,"longitude":-73.56167,"reserved":0,"last_update":"0001-01-01T00:00:00Z","name_a2s":"Uncletopia | Montr√©al | 3 | All Maps","protocol":17,"map":"pl_upward","folder":"tf","game":"Team Fortress","app_id":440,"player_count":0,"max_players":24,"Bots":0,"server_type":"Dedicated","server_os":"Linux","password":true,"vac":true,"version":"7932396","steam_id":85568392924500089,"keywords":["nocrits","nodmgspread","payload","uncletopia"],"game_id":440,"stv_port":27036,"stv_name":"Uncletopia | Montr√©al | 3 | All Maps | STV","players":null},{"server_id":303,"name":"Uncletopia | Montr√©al | 4 | No Payload","name_short":"mtl-4","host":"mtl-1.ca.uncletopia.com","port":27045,"enabled":true,"region":"us-east","cc":"ca","latitude":45.50889,"longitude":-73.56167,"reserved":0,"last_update":"0001-01-01T00:00:00Z","name_a2s":"Uncletopia | Montr√©al | 4 | No Payload","protocol":17,"map":"cp_snakewater_final1","folder":"tf","game":"Team Fortress","app_id":440,"player_count":0,"max_players":24,"Bots":0,"server_type":"Dedicated","server_os":"Linux","password":true,"vac":true,"version":"7932396","steam_id":85568392924500090,"keywords":["cp","nocrits","nodmgspread","uncletopia"],"game_id":440,"stv_port":27046,"stv_name":"Uncletopia | Montr√©al | 4 | No Payload | STV","players":null},{"server_id":13,"name":"Uncletopia | New York City | 1 | All Maps","name_short":"nyc-1","host":"nyc-1.us.uncletopia.com","port":27015,"enabled":true,"region":"us-east","cc":"us","latitude":40.73061,"longitude":-73.93524,"reserved":0,"last_update":"0001-01-01T00:00:00Z","name_a2s":"Uncletopia | New York City | 1 | All Maps","protocol":17,"map":"pl_badwater","folder":"tf","game":"Team Fortress","app_id":440,"player_count":24,"max_players":24,"Bots":0,"server_type":"Dedicated","server_os":"Linux","password":true,"vac":true,"version":"7932396","steam_id":85568392924469993,"keywords":["nocrits","nodmgspread","payload","uncletopia"],"game_id":440,"stv_port":27016,"stv_name":"Uncletopia | New York City | 1 | All Maps | STV","players":[{"user_id":271,"name":"Diesel","steam_id":76561198448815852,"connected_time":2250000000000,"state":"active","ping":114},{"user_id":304,"name":"[DEEP] Roz257","steam_id":76561198842844532,"connected_time":112000000000,"state":"active","ping":72},{"user_id":238,"name":"eish","steam_id":76561198089463603,"connected_time":5045000000000,"state":"active","ping":134},{"user_id":280,"name":"(‚òû Õ°¬∞ Õú ñ Õ°¬∞)‚òû","steam_id":76561199130128575,"connected_time":1816000000000,"state":"active","ping":96},{"user_id":282,"name":"BNTF","steam_id":76561198062740087,"connected_time":1707000000000,"state":"active","ping":70},{"user_id":283,"name":"Keymaster","steam_id":76561198881514228,"connected_time":1703000000000,"state":"active","ping":59},{"user_id":303,"name":"Decrepit Bones","steam_id":76561198053046161,"connected_time":194000000000,"state":"active","ping":46},{"user_id":293,"name":"sharkbyt3","steam_id":76561197985793803,"connected_time":714000000000,"state":"active","ping":58},{"user_id":279,"name":"smokecloud","steam_id":76561198136296903,"connected_time":1851000000000,"state":"active","ping":65},{"user_id":270,"name":"Fiendish Frog","steam_id":76561198029478821,"connected_time":2282000000000,"state":"active","ping":56},{"user_id":290,"name":"theghazinator","steam_id":76561198188027695,"connected_time":736000000000,"state":"active","ping":63},{"user_id":295,"name":"Gentoo Linux Gaming","steam_id":76561197999657118,"connected_time":676000000000,"state":"active","ping":67},{"user_id":299,"name":"bear","steam_id":76561198165299077,"connected_time":520000000000,"state":"active","ping":55},{"user_id":300,"name":"gIBBY","steam_id":76561198080099598,"connected_time":505000000000,"state":"active","ping":58},{"user_id":207,"name":"ATL1 | cola","steam_id":76561198374390458,"connected_time":7132000000000,"state":"active","ping":61},{"user_id":287,"name":"BaseballFan2004","steam_id":76561198273228651,"connected_time":1169000000000,"state":"active","ping":61},{"user_id":245,"name":"Rambly Dambly","steam_id":76561198844496567,"connected_time":4830000000000,"state":"active","ping":37},{"user_id":291,"name":"sansa musa","steam_id":76561198163723555,"connected_time":734000000000,"state":"active","ping":54},{"user_id":301,"name":"Huntpk","steam_id":76561198340591674,"connected_time":357000000000,"state":"active","ping":71},{"user_id":277,"name":"TwoBit","steam_id":76561198062437559,"connected_time":1915000000000,"state":"active","ping":60},{"user_id":302,"name":"extra purple","steam_id":76561198044344111,"connected_time":238000000000,"state":"active","ping":47},{"user_id":244,"name":"-W3E- grim10465","steam_id":76561198045698581,"connected_time":4860000000000,"state":"active","ping":34},{"user_id":246,"name":"beans","steam_id":76561198074275991,"connected_time":4807000000000,"state":"active","ping":73},{"user_id":278,"name":"Virtual Zorua","steam_id":76561198196180302,"connected_time":1907000000000,"state":"active","ping":64}]},{"server_id":14,"name":"Uncletopia | New York City | 2 | All Maps","name_short":"nyc-2","host":"nyc-1.us.uncletopia.com","port":27025,"enabled":true,"region":"us-east","cc":"us","latitude":40.73061,"longitude":-73.93524,"reserved":0,"last_update":"0001-01-01T00:00:00Z","name_a2s":"Uncletopia | New York City | 2 | All Maps","protocol":17,"map":"pl_borneo","folder":"tf","game":"Team Fortress","app_id":440,"player_count":24,"max_players":24,"Bots":0,"server_type":"Dedicated","server_os":"Linux","password":true,"vac":true,"version":"7932396","steam_id":85568392924469994,"keywords":["nocrits","nodmgspread","payload","uncletopia"],"game_id":440,"stv_port":27026,"stv_name":"Uncletopia | New York City | 2 | All Maps | STV","players":[{"user_id":108,"name":"Ian","steam_id":76561199078852180,"connected_time":727000000000,"state":"active","ping":54},{"user_id":109,"name":"Green‚Ñ¢","steam_id":76561198136522734,"connected_time":713000000000,"state":"active","ping":41},{"user_id":105,"name":"Gnum","steam_id":76561197963046358,"connected_time":749000000000,"state":"active","ping":42},{"user_id":106,"name":"queefasaurus rex","steam_id":76561198143230388,"connected_time":748000000000,"state":"active","ping":44},{"user_id":119,"name":"jim bob","steam_id":76561198815547064,"connected_time":563000000000,"state":"active","ping":60},{"user_id":129,"name":"Lesser Edgelord","steam_id":76561198800339067,"connected_time":153000000000,"state":"active","ping":129},{"user_id":120,"name":"[BBC] Justario","steam_id":76561198016095410,"connected_time":506000000000,"state":"active","ping":46},{"user_id":121,"name":"gideon nav my beloved","steam_id":76561198259092181,"connected_time":500000000000,"state":"active","ping":70},{"user_id":114,"name":"terrathulu","steam_id":76561198930881753,"connected_time":628000000000,"state":"active","ping":65},{"user_id":117,"name":"‚ô• kiss me! ‚ô•","steam_id":76561198014557455,"connected_time":593000000000,"state":"active","ping":85},{"user_id":115,"name":"(Œª)Fungus","steam_id":76561198272694781,"connected_time":623000000000,"state":"active","ping":134},{"user_id":101,"name":"JPSS","steam_id":76561199239530493,"connected_time":1509000000000,"state":"active","ping":72},{"user_id":116,"name":"RyInc","steam_id":76561198874261643,"connected_time":621000000000,"state":"active","ping":59},{"user_id":118,"name":"mastercoms","steam_id":76561198046110893,"connected_time":583000000000,"state":"active","ping":53},{"user_id":98,"name":"cyberas","steam_id":76561198257092290,"connected_time":1797000000000,"state":"active","ping":130},{"user_id":122,"name":"Pluto","steam_id":76561198338593690,"connected_time":460000000000,"state":"active","ping":75},{"user_id":123,"name":"OrionCurtis5","steam_id":76561198105386748,"connected_time":456000000000,"state":"active","ping":94},{"user_id":69,"name":"KBoneski ‚ô°","steam_id":76561198307409065,"connected_time":3442000000000,"state":"active","ping":87},{"user_id":70,"name":"Femboy Gaming","steam_id":76561198174108515,"connected_time":3434000000000,"state":"active","ping":119},{"user_id":128,"name":"ChaoticAngel","steam_id":76561198293528217,"connected_time":243000000000,"state":"active","ping":47},{"user_id":125,"name":"faythwalkerjr","steam_id":76561199230023978,"connected_time":426000000000,"state":"active","ping":61},{"user_id":127,"name":"Sabotage.mov","steam_id":76561199083602237,"connected_time":342000000000,"state":"active","ping":110},{"user_id":126,"name":"Osrio","steam_id":76561198083428069,"connected_time":420000000000,"state":"active","ping":91},{"user_id":103,"name":"Hollow knight","steam_id":76561199122259637,"connected_time":1345000000000,"state":"active","ping":96}]},{"server_id":15,"name":"Uncletopia | New York City | 3 | Stopwatch Beta","name_short":"nyc-3","host":"nyc-1.us.uncletopia.com","port":27035,"enabled":true,"region":"us-east","cc":"us","latitude":40.73061,"longitude":-73.93524,"reserved":0,"last_update":"0001-01-01T00:00:00Z","name_a2s":"Uncletopia | New York City | 3 | Stopwatch Beta","protocol":17,"map":"koth_lakeside_final","folder":"tf","game":"Team Fortress","app_id":440,"player_count":0,"max_players":24,"Bots":0,"server_type":"Dedicated","server_os":"Linux","password":true,"vac":true,"version":"7932396","steam_id":85568392924742820,"keywords":["cp","nocrits","nodmgspread","uncletopia"],"game_id":440,"stv_port":27036,"stv_name":"Uncletopia | New York City | 3 | Stopwatch Beta | STV","players":null},{"server_id":16,"name":"Uncletopia | New York City | 4 | Community","name_short":"nyc-4","host":"nyc-1.us.uncletopia.com","port":27045,"enabled":true,"region":"us-east","cc":"us","latitude":40.73061,"longitude":-73.93524,"reserved":0,"last_update":"0001-01-01T00:00:00Z","name_a2s":"Uncletopia | New York City | 4 | Community","protocol":17,"map":"workshop/koth_ramjam_rc1.ugc459778887","folder":"tf","game":"Team Fortress","app_id":440,"player_count":22,"max_players":24,"Bots":0,"server_type":"Dedicated","server_os":"Linux","password":true,"vac":true,"version":"7932396","steam_id":85568392924742821,"keywords":["cp","nocrits","nodmgspread","uncletopia"],"game_id":440,"stv_port":27046,"stv_name":"Uncletopia | New York City | 4 | Community | STV","players":[{"user_id":288,"name":"Shino","steam_id":76561198272401589,"connected_time":9599000000000,"state":"active","ping":81},{"user_id":387,"name":"Lost CS2 player","steam_id":76561198892387723,"connected_time":249000000000,"state":"active","ping":56},{"user_id":332,"name":"A Puppy","steam_id":76561198828184456,"connected_time":6195000000000,"state":"active","ping":49},{"user_id":344,"name":"GGass","steam_id":76561198173172369,"connected_time":4903000000000,"state":"active","ping":153},{"user_id":375,"name":"how do i girl???","steam_id":76561198050290565,"connected_time":1734000000000,"state":"active","ping":91},{"user_id":388,"name":"Janeator","steam_id":76561198054760955,"connected_time":225000000000,"state":"active","ping":137},{"user_id":386,"name":"Blue9Fairy","steam_id":76561198039942928,"connected_time":264000000000,"state":"active","ping":172},{"user_id":351,"name":"Epifiny","steam_id":76561198027958086,"connected_time":4559000000000,"state":"active","ping":76},{"user_id":379,"name":"FlawlessPooby1","steam_id":76561198336395761,"connected_time":1234000000000,"state":"active","ping":54},{"user_id":394,"name":"Paladin","steam_id":76561198047617528,"connected_time":39000000000,"state":"spawning","ping":175},{"user_id":384,"name":"illious","steam_id":76561198169925494,"connected_time":608000000000,"state":"active","ping":75},{"user_id":390,"name":"Sanic_Bum","steam_id":76561198094179822,"connected_time":123000000000,"state":"active","ping":60},{"user_id":391,"name":"oberon","steam_id":76561198305824514,"connected_time":121000000000,"state":"active","ping":101},{"user_id":365,"name":"Yato","steam_id":76561198084100335,"connected_time":2618000000000,"state":"active","ping":77},{"user_id":392,"name":"ReGaBe","steam_id":76561198126005470,"connected_time":65000000000,"state":"active","ping":73},{"user_id":369,"name":"motherofdragons96","steam_id":76561198864779097,"connected_time":2541000000000,"state":"active","ping":134},{"user_id":393,"name":"Aka","steam_id":76561198083086202,"connected_time":54000000000,"state":"active","ping":92},{"user_id":385,"name":"Adreeh","steam_id":76561198158492390,"connected_time":342000000000,"state":"active","ping":93},{"user_id":395,"name":"Astrocircuit","steam_id":76561198014437544,"connected_time":32000000000,"state":"active","ping":50},{"user_id":383,"name":"dnaak","steam_id":76561197960489193,"connected_time":1064000000000,"state":"active","ping":61},{"user_id":376,"name":"Joey","steam_id":76561198094551677,"connected_time":1689000000000,"state":"active","ping":59},{"user_id":371,"name":"Devoid","steam_id":76561198254039012,"connected_time":2455000000000,"state":"active","ping":30}]},{"server_id":142,"name":"Uncletopia | S√£o Paulo | 1 | All Maps","name_short":"sao-1","host":"sao-1.br.uncletopia.com","port":27015,"enabled":true,"region":"sa","cc":"br","latitude":-23.533773,"longitude":-46.62529,"reserved":0,"last_update":"0001-01-01T00:00:00Z","name_a2s":"Uncletopia | S√£o Paulo | 1 | All Maps","protocol":17,"map":"cp_dustbowl","folder":"tf","game":"Team Fortress","app_id":440,"player_count":0,"max_players":24,"Bots":0,"server_type":"Dedicated","server_os":"Linux","password":true,"vac":true,"version":"7932396","steam_id":85568392924469996,"keywords":["cp","nocrits","nodmgspread","uncletopia"],"game_id":440,"stv_port":27016,"stv_name":"Uncletopia | S√£o Paulo | 1 | All Maps | STV","players":null},{"server_id":143,"name":"Uncletopia | S√£o Paulo | 2 | All Maps","name_short":"sao-2","host":"sao-2.br.uncletopia.com","port":27015,"enabled":true,"region":"sa","cc":"br","latitude":-23.533773,"longitude":-46.62529,"reserved":0,"last_update":"0001-01-01T00:00:00Z","name_a2s":"Uncletopia | S√£o Paulo | 2 | All Maps","protocol":17,"map":"koth_cascade","folder":"tf","game":"Team Fortress","app_id":440,"player_count":0,"max_players":24,"Bots":0,"server_type":"Dedicated","server_os":"Linux","password":true,"vac":true,"version":"7932396","steam_id":85568392924485349,"keywords":["cp","nocrits","nodmgspread","uncletopia"],"game_id":440,"stv_port":27016,"stv_name":"Uncletopia | S√£o Paulo | 2 | All Maps | STV","players":null},{"server_id":7,"name":"Uncletopia | Seattle | 1 | All Maps","name_short":"sea-1","host":"sea-1.us.uncletopia.com","port":27015,"enabled":true,"region":"us-west","cc":"us","latitude":47.608013,"longitude":-122.33517,"reserved":0,"last_update":"0001-01-01T00:00:00Z","name_a2s":"Uncletopia | Seattle | 1 | All Maps","protocol":17,"map":"pl_enclosure_final","folder":"tf","game":"Team Fortress","app_id":440,"player_count":18,"max_players":24,"Bots":0,"server_type":"Dedicated","server_os":"Linux","password":true,"vac":true,"version":"7932396","steam_id":85568392924469997,"keywords":["nocrits","nodmgspread","payload","uncletopia"],"game_id":440,"stv_port":27016,"stv_name":"Uncletopia | Seattle | 1 | All Maps | STV","players":[{"user_id":192,"name":"SnoDot","steam_id":76561198062209970,"connected_time":1602000000000,"state":"active","ping":34},{"user_id":201,"name":"..flop","steam_id":76561197989058876,"connected_time":129000000000,"state":"active","ping":109},{"user_id":202,"name":"Skoad","steam_id":76561198104650528,"connected_time":44000000000,"state":"active","ping":64},{"user_id":185,"name":"Pablo.Gonzalez.2007","steam_id":76561199083115222,"connected_time":1989000000000,"state":"active","ping":86},{"user_id":183,"name":"yaldabaoth","steam_id":76561198084606869,"connected_time":2178000000000,"state":"active","ping":84},{"user_id":176,"name":"Master John Thursday","steam_id":76561197987593154,"connected_time":2556000000000,"state":"active","ping":90},{"user_id":149,"name":"The ermster","steam_id":76561198870649125,"connected_time":4004000000000,"state":"active","ping":84},{"user_id":152,"name":"bubblefier","steam_id":76561198872316133,"connected_time":3791000000000,"state":"active","ping":61},{"user_id":187,"name":"SYMBOL_YT","steam_id":76561198848655517,"connected_time":1978000000000,"state":"active","ping":60},{"user_id":194,"name":"yateyay","steam_id":76561198311004039,"connected_time":1581000000000,"state":"active","ping":135},{"user_id":189,"name":"blank","steam_id":76561198105529673,"connected_time":1928000000000,"state":"active","ping":68},{"user_id":199,"name":"team foolery 2","steam_id":76561199118049168,"connected_time":284000000000,"state":"active","ping":78},{"user_id":190,"name":"None of that $9.99 bullshit","steam_id":76561198116169903,"connected_time":1890000000000,"state":"active","ping":103},{"user_id":174,"name":"‚Ä∫‚Ä∫ SpyMaster","steam_id":76561198218719943,"connected_time":2648000000000,"state":"active","ping":64},{"user_id":191,"name":"Gaiduk","steam_id":76561198112323877,"connected_time":1866000000000,"state":"active","ping":122},{"user_id":195,"name":"Puppygirl GF","steam_id":76561198085813708,"connected_time":1557000000000,"state":"active","ping":116},{"user_id":198,"name":"lil boogie","steam_id":76561198064059721,"connected_time":287000000000,"state":"active","ping":45},{"user_id":200,"name":"Oaky Loafs","steam_id":76561198317179010,"connected_time":283000000000,"state":"active","ping":58}]},{"server_id":119,"name":"Uncletopia | Seattle | 2 | All Maps","name_short":"sea-2","host":"sea-1.us.uncletopia.com","port":27025,"enabled":true,"region":"us-west","cc":"us","latitude":47.608013,"longitude":-122.33517,"reserved":0,"last_update":"0001-01-01T00:00:00Z","name_a2s":"Uncletopia | Seattle | 2 | All Maps","protocol":17,"map":"cp_sunshine","folder":"tf","game":"Team Fortress","app_id":440,"player_count":24,"max_players":24,"Bots":0,"server_type":"Dedicated","server_os":"Linux","password":true,"vac":true,"version":"7932396","steam_id":85568392924469998,"keywords":["cp","nocrits","nodmgspread","uncletopia"],"game_id":440,"stv_port":27026,"stv_name":"Uncletopia | Seattle | 2 | All Maps | STV","players":[{"user_id":466,"name":"spiderland","steam_id":76561198335992132,"connected_time":932000000000,"state":"active","ping":40},{"user_id":467,"name":"Interrobang","steam_id":76561198385044529,"connected_time":931000000000,"state":"active","ping":121},{"user_id":479,"name":"BarrowBaron","steam_id":76561198013633236,"connected_time":722000000000,"state":"active","ping":98},{"user_id":477,"name":"Kaluka","steam_id":76561198036861445,"connected_time":780000000000,"state":"active","ping":117},{"user_id":462,"name":"Xiphor","steam_id":76561199236537212,"connected_time":1444000000000,"state":"active","ping":109},{"user_id":469,"name":"monkey (real)","steam_id":76561198248461754,"connected_time":885000000000,"state":"active","ping":69},{"user_id":450,"name":"_Ati","steam_id":76561198339777801,"connected_time":2413000000000,"state":"active","ping":100},{"user_id":470,"name":"Jazz Hands","steam_id":76561199225708271,"connected_time":883000000000,"state":"active","ping":68},{"user_id":482,"name":"Spy of 83","steam_id":76561199062242958,"connected_time":577000000000,"state":"active","ping":85},{"user_id":364,"name":"yeehaw","steam_id":76561198020475089,"connected_time":7879000000000,"state":"active","ping":38},{"user_id":465,"name":"Riley ‚ô•","steam_id":76561198128417958,"connected_time":949000000000,"state":"active","ping":118},{"user_id":419,"name":"WhiteRabbit","steam_id":76561198027579538,"connected_time":4534000000000,"state":"active","ping":112},{"user_id":483,"name":"Redkiller","steam_id":76561199453655288,"connected_time":571000000000,"state":"active","ping":124},{"user_id":448,"name":"reiidaya","steam_id":76561198325306660,"connected_time":2746000000000,"state":"active","ping":51},{"user_id":472,"name":"K2f","steam_id":76561198049600563,"connected_time":846000000000,"state":"active","ping":76},{"user_id":473,"name":"trobin120 from jersey","steam_id":76561199122420273,"connected_time":840000000000,"state":"active","ping":108},{"user_id":449,"name":"Furious George","steam_id":76561198405111646,"connected_time":2451000000000,"state":"active","ping":69},{"user_id":346,"name":"no vc no c","steam_id":76561197989503095,"connected_time":9394000000000,"state":"active","ping":153},{"user_id":463,"name":"antoniov00gaming","steam_id":76561198364632073,"connected_time":1330000000000,"state":"active","ping":130},{"user_id":480,"name":"mobe","steam_id":76561198121633820,"connected_time":638000000000,"state":"active","ping":72},{"user_id":478,"name":"Mocha Josie","steam_id":76561198066452726,"connected_time":756000000000,"state":"active","ping":86},{"user_id":475,"name":"Tyler\u0026Fingers","steam_id":76561198085154485,"connected_time":825000000000,"state":"active","ping":135},{"user_id":484,"name":"PissMaster^5","steam_id":76561198959576385,"connected_time":549000000000,"state":"active","ping":156},{"user_id":476,"name":"Vapor Man","steam_id":76561198210173112,"connected_time":809000000000,"state":"active","ping":167}]},{"server_id":406,"name":"Uncletopia | Seattle | 3 | Stopwatch Beta","name_short":"sea-3","host":"sea-1.us.uncletopia.com","port":27035,"enabled":true,"region":"us-west","cc":"us","latitude":47.608013,"longitude":-122.33517,"reserved":0,"last_update":"0001-01-01T00:00:00Z","name_a2s":"Uncletopia | Seattle | 3 | Stopwatch Beta","protocol":17,"map":"workshop/koth_clearcut_b15.ugc2107050255","folder":"tf","game":"Team Fortress","app_id":440,"player_count":0,"max_players":24,"Bots":0,"server_type":"Dedicated","server_os":"Linux","password":true,"vac":true,"version":"7932396","steam_id":85568392924515217,"keywords":["cp","nocrits","nodmgspread","uncletopia"],"game_id":440,"stv_port":27036,"stv_name":"Uncletopia | Seattle | 3 | Stopwatch Beta | STV","players":null},{"server_id":17,"name":"Uncletopia | San Francisco | 1 | All Maps","name_short":"sfo-1","host":"sfo-1.us.uncletopia.com","port":27015,"enabled":true,"region":"us-west","cc":"us","latitude":37.77397,"longitude":-122.4313,"reserved":0,"last_update":"0001-01-01T00:00:00Z","name_a2s":"Uncletopia | San Francisco | 1 | All Maps","protocol":17,"map":"koth_lakeside_final","folder":"tf","game":"Team Fortress","app_id":440,"player_count":0,"max_players":24,"Bots":0,"server_type":"Dedicated","server_os":"Linux","password":true,"vac":true,"version":"7932396","steam_id":85568392924469999,"keywords":["cp","nocrits","nodmgspread","uncletopia"],"game_id":440,"stv_port":27016,"stv_name":"Uncletopia | San Francisco | 1 | All Maps | STV","players":null},{"server_id":18,"name":"Uncletopia | San Francisco | 2 | All Maps","name_short":"sfo-2","host":"sfo-1.us.uncletopia.com","port":27025,"enabled":true,"region":"us-west","cc":"us","latitude":37.77397,"longitude":-122.4313,"reserved":0,"last_update":"0001-01-01T00:00:00Z","name_a2s":"Uncletopia | San Francisco | 2 | All Maps","protocol":17,"map":"koth_highpass","folder":"tf","game":"Team Fortress","app_id":440,"player_count":0,"max_players":24,"Bots":0,"server_type":"Dedicated","server_os":"Linux","password":true,"vac":true,"version":"7932396","steam_id":85568392924470000,"keywords":["cp","nocrits","nodmgspread","uncletopia"],"game_id":440,"stv_port":27026,"stv_name":"Uncletopia | San Francisco | 2 | All Maps | STV","players":null},{"server_id":19,"name":"Uncletopia | San Francisco | 3 | Stopwatch Beta","name_short":"sfo-3","host":"sfo-1.us.uncletopia.com","port":27035,"enabled":true,"region":"us-west","cc":"us","latitude":37.77397,"longitude":-122.4313,"reserved":0,"last_update":"0001-01-01T00:00:00Z","name_a2s":"Uncletopia | San Francisco | 3 | Stopwatch Beta","protocol":17,"map":"koth_lakeside_final","folder":"tf","game":"Team Fortress","app_id":440,"player_count":0,"max_players":24,"Bots":0,"server_type":"Dedicated","server_os":"Linux","password":true,"vac":true,"version":"7932396","steam_id":85568392924742824,"keywords":["cp","nocrits","nodmgspread","uncletopia"],"game_id":440,"stv_port":27036,"stv_name":"Uncletopia | San Francisco | 3 | Stopwatch Beta | STV","players":null},{"server_id":20,"name":"Uncletopia | San Francisco | 4 | Community","name_short":"sfo-4","host":"sfo-1.us.uncletopia.com","port":27045,"enabled":true,"region":"us-west","cc":"us","latitude":37.77397,"longitude":-122.4313,"reserved":0,"last_update":"0001-01-01T00:00:00Z","name_a2s":"Uncletopia | San Francisco | 4 | Community","protocol":17,"map":"pl_borneo","folder":"tf","game":"Team Fortress","app_id":440,"player_count":0,"max_players":24,"Bots":0,"server_type":"Dedicated","server_os":"Linux","password":true,"vac":true,"version":"7932396","steam_id":85568392924742826,"keywords":["nocrits","nodmgspread","payload","uncletopia"],"game_id":440,"stv_port":27046,"stv_name":"Uncletopia | San Francisco | 4 | Community | STV","players":null},{"server_id":141,"name":"Uncletopia | Sydney | 1 | All Maps","name_short":"syd-1","host":"syd-1.au.uncletopia.com","port":27015,"enabled":true,"region":"au","cc":"au","latitude":-33.865143,"longitude":151.2099,"reserved":0,"last_update":"0001-01-01T00:00:00Z","name_a2s":"Uncletopia | Sydney | 1 | All Maps","protocol":17,"map":"pl_pier","folder":"tf","game":"Team Fortress","app_id":440,"player_count":0,"max_players":24,"Bots":0,"server_type":"Dedicated","server_os":"Linux","password":true,"vac":true,"version":"7932396","steam_id":85568392924470001,"keywords":["nocrits","nodmgspread","payload","uncletopia"],"game_id":440,"stv_port":27016,"stv_name":"Uncletopia | Sydney | 1 | All Maps | STV","players":null},{"server_id":123,"name":"Uncletopia | Sydney | 2 | All Maps","name_short":"syd-2","host":"syd-1.au.uncletopia.com","port":27025,"enabled":true,"region":"au","cc":"au","latitude":-33.865143,"longitude":151.2099,"reserved":0,"last_update":"0001-01-01T00:00:00Z","name_a2s":"Uncletopia | Sydney | 2 | All Maps","protocol":17,"map":"koth_lakeside_final","folder":"tf","game":"Team Fortress","app_id":440,"player_count":0,"max_players":24,"Bots":0,"server_type":"Dedicated","server_os":"Linux","password":true,"vac":true,"version":"7932396","steam_id":85568392924470002,"keywords":["cp","nocrits","nodmgspread","uncletopia"],"game_id":440,"stv_port":27026,"stv_name":"Uncletopia | Sydney | 2 | All Maps | STV","players":null},{"server_id":395,"name":"Uncletopia | Sydney | 3 | All Maps","name_short":"syd-3","host":"syd-1.au.uncletopia.com","port":27035,"enabled":true,"region":"au","cc":"au","latitude":-33.865143,"longitude":151.2099,"reserved":0,"last_update":"0001-01-01T00:00:00Z","name_a2s":"Uncletopia | Sydney | 3 | All Maps","protocol":17,"map":"pl_barnblitz","folder":"tf","game":"Team Fortress","app_id":440,"player_count":0,"max_players":24,"Bots":0,"server_type":"Dedicated","server_os":"Linux","password":true,"vac":true,"version":"7932396","steam_id":85568392925194467,"keywords":["nocrits","nodmgspread","payload","uncletopia"],"game_id":440,"stv_port":27036,"stv_name":"Uncletopia | Sydney | 3 | All Maps | STV","players":null},{"server_id":396,"name":"Uncletopia | Sydney | 4 | All Maps","name_short":"syd-4","host":"syd-1.au.uncletopia.com","port":27045,"enabled":true,"region":"au","cc":"au","latitude":-33.865143,"longitude":151.2099,"reserved":0,"last_update":"0001-01-01T00:00:00Z","name_a2s":"Uncletopia | Sydney | 4 | All Maps","protocol":17,"map":"pl_pier","folder":"tf","game":"Team Fortress","app_id":440,"player_count":0,"max_players":24,"Bots":0,"server_type":"Dedicated","server_os":"Linux","password":true,"vac":true,"version":"7932396","steam_id":85568392925397958,"keywords":["nocrits","nodmgspread","payload","uncletopia"],"game_id":440,"stv_port":27046,"stv_name":"Uncletopia | Sydney | 4 | All Maps | STV","players":null},{"server_id":58,"name":"Uncletopia | Sydney | 5 | Stopwatch Beta","name_short":"syd-5","host":"syd-1.au.uncletopia.com","port":27055,"enabled":true,"region":"au","cc":"au","latitude":-33.865143,"longitude":151.2099,"reserved":0,"last_update":"0001-01-01T00:00:00Z","name_a2s":"Uncletopia | Sydney | 5 | Stopwatch Beta","protocol":17,"map":"pl_borneo","folder":"tf","game":"Team Fortress","app_id":440,"player_count":0,"max_players":24,"Bots":0,"server_type":"Dedicated","server_os":"Linux","password":true,"vac":true,"version":"7932396","steam_id":85568392925397959,"keywords":["nocrits","nodmgspread","payload","uncletopia"],"game_id":440,"stv_port":27056,"stv_name":"Uncletopia | Sydney | 5 | Stopwatch Beta | STV","players":null},{"server_id":59,"name":"Uncletopia | Sydney | 6 | Community","name_short":"syd-6","host":"syd-1.au.uncletopia.com","port":27065,"enabled":true,"region":"au","cc":"au","latitude":-33.865143,"longitude":151.2099,"reserved":0,"last_update":"0001-01-01T00:00:00Z","name_a2s":"Uncletopia | Sydney | 6 | Community","protocol":17,"map":"workshop/pl_highwood_b13.ugc1769496557","folder":"tf","game":"Team Fortress","app_id":440,"player_count":0,"max_players":24,"Bots":0,"server_type":"Dedicated","server_os":"Linux","password":true,"vac":true,"version":"7932396","steam_id":85568392925397960,"keywords":["nocrits","nodmgspread","payload","uncletopia"],"game_id":440,"stv_port":27066,"stv_name":"Uncletopia | Sydney | 6 | Community | STV","players":null},{"server_id":49,"name":"Uncletopia | Warsaw | 1 | All Maps","name_short":"waw-1","host":"waw-1.pl.uncletopia.com","port":27015,"enabled":true,"region":"eu","cc":"pl","latitude":52.2297,"longitude":21.017532,"reserved":0,"last_update":"0001-01-01T00:00:00Z","name_a2s":"","protocol":0,"map":"","folder":"","game":"","app_id":0,"player_count":0,"max_players":0,"Bots":0,"server_type":"","server_os":"","password":false,"vac":false,"version":"","steam_id":0,"keywords":null,"game_id":0,"stv_port":0,"stv_name":"","players":null},{"server_id":50,"name":"Uncletopia | Warsaw | 2 | All Maps","name_short":"waw-2","host":"waw-1.pl.uncletopia.com","port":27025,"enabled":true,"region":"eu","cc":"pl","latitude":52.2297,"longitude":21.017532,"reserved":0,"last_update":"0001-01-01T00:00:00Z","name_a2s":"Uncletopia | Warsaw | 2 | All Maps","protocol":17,"map":"cp_dustbowl","folder":"tf","game":"Team Fortress","app_id":440,"player_count":0,"max_players":24,"Bots":0,"server_type":"Dedicated","server_os":"Linux","password":true,"vac":true,"version":"7932396","steam_id":85568392925397851,"keywords":["cp","nocrits","nodmgspread","uncletopia"],"game_id":440,"stv_port":27026,"stv_name":"Uncletopia | Warsaw | 2 | All Maps | STV","players":null},{"server_id":51,"name":"Uncletopia | Warsaw | 3 | All Maps","name_short":"waw-3","host":"waw-1.pl.uncletopia.com","port":27035,"enabled":true,"region":"eu","cc":"pl","latitude":52.2297,"longitude":21.017532,"reserved":0,"last_update":"0001-01-01T00:00:00Z","name_a2s":"Uncletopia | Warsaw | 3 | All Maps","protocol":17,"map":"koth_cascade","folder":"tf","game":"Team Fortress","app_id":440,"player_count":0,"max_players":24,"Bots":0,"server_type":"Dedicated","server_os":"Linux","password":true,"vac":true,"version":"7932396","steam_id":85568392925397852,"keywords":["cp","nocrits","nodmgspread","uncletopia"],"game_id":440,"stv_port":27036,"stv_name":"Uncletopia | Warsaw | 3 | All Maps | STV","players":null},{"server_id":52,"name":"Uncletopia | Warsaw | 4 | All Maps","name_short":"waw-4","host":"waw-1.pl.uncletopia.com","port":27045,"enabled":true,"region":"eu","cc":"pl","latitude":52.2297,"longitude":21.017532,"reserved":0,"last_update":"0001-01-01T00:00:00Z","name_a2s":"Uncletopia | Warsaw | 4 | All Maps","protocol":17,"map":"pl_barnblitz","folder":"tf","game":"Team Fortress","app_id":440,"player_count":0,"max_players":24,"Bots":0,"server_type":"Dedicated","server_os":"Linux","password":true,"vac":true,"version":"7932396","steam_id":85568392925397853,"keywords":["nocrits","nodmgspread","payload","uncletopia"],"game_id":440,"stv_port":27046,"stv_name":"Uncletopia | Warsaw | 4 | All Maps | STV","players":null},{"server_id":53,"name":"Uncletopia | Warsaw | 5 | Stopwatch Beta","name_short":"waw-5","host":"waw-1.pl.uncletopia.com","port":27055,"enabled":true,"region":"eu","cc":"pl","latitude":52.2297,"longitude":21.017532,"reserved":0,"last_update":"0001-01-01T00:00:00Z","name_a2s":"Uncletopia | Warsaw | 5 | Stopwatch Beta","protocol":17,"map":"workshop/pl_vigil_rc9.ugc1266210012","folder":"tf","game":"Team Fortress","app_id":440,"player_count":0,"max_players":24,"Bots":0,"server_type":"Dedicated","server_os":"Linux","password":true,"vac":true,"version":"7932396","steam_id":85568392925397854,"keywords":["nocrits","nodmgspread","payload","uncletopia"],"game_id":440,"stv_port":27056,"stv_name":"Uncletopia | Warsaw | 5 | Stopwatch Beta | STV","players":null},{"server_id":54,"name":"Uncletopia | Warsaw | 6 | Community","name_short":"waw-6","host":"waw-1.pl.uncletopia.com","port":27065,"enabled":true,"region":"eu","cc":"pl","latitude":52.2297,"longitude":21.017532,"reserved":0,"last_update":"0001-01-01T00:00:00Z","name_a2s":"Uncletopia | Warsaw | 6 | Community","protocol":17,"map":"workshop/pl_badwater_pro_v12.ugc2142942074","folder":"tf","game":"Team Fortress","app_id":440,"player_count":7,"max_players":24,"Bots":0,"server_type":"Dedicated","server_os":"Linux","password":true,"vac":true,"version":"7932396","steam_id":85568392925397856,"keywords":["nocrits","nodmgspread","payload","uncletopia"],"game_id":440,"stv_port":27066,"stv_name":"Uncletopia | Warsaw | 6 | Community | STV","players":[{"user_id":15,"name":"TSx* Osa__PL","steam_id":76561198027016799,"connected_time":6230000000000,"state":"active","ping":45},{"user_id":9,"name":"TSx* Naxer","steam_id":76561198011986779,"connected_time":8320000000000,"state":"active","ping":45},{"user_id":19,"name":"TSx* Ciastek","steam_id":76561198035745785,"connected_time":2569000000000,"state":"active","ping":57},{"user_id":11,"name":"TSx* EmperoT","steam_id":76561198018656942,"connected_time":8196000000000,"state":"active","ping":52},{"user_id":12,"name":"Cynamoniak","steam_id":76561199005580029,"connected_time":7822000000000,"state":"active","ping":51},{"user_id":16,"name":"TSx* Bargal","steam_id":76561198040266872,"connected_time":6099000000000,"state":"active","ping":54},{"user_id":23,"name":"hankafiranka","steam_id":76561198879298795,"connected_time":209000000000,"state":"active","ping":60}]}]}