{"status":true,"message":"","result":[{"server_id":9,"name":"Uncletopia | Atlanta | 1 | All Maps","name_short":"atl-1","host":"atl-1.us.uncletopia.com","port":27015,"enabled":true,"region":"us-east","cc":"us","latitude":33.753746,"longitude":-84.38633,"reserved":0,"last_update":"0001-01-01T00:00:00Z","name_a2s":"Uncletopia | Atlanta | 1 | All Maps","protocol":17,"map":"cp_snakewater_final1","folder":"tf","game":"Team Fortress","app_id":440,"player_count":0,"max_players":24,"Bots":0,"server_type":"Dedicated","server_os":"Linux","password":false,"vac":true,"version":"7961495","steam_id":85568392924469982,"keywords":["cp","nocrits","nodmgspread","uncletopia"],"game_id":440,"stv_port":27016,"stv_name":"Uncletopia | Atlanta | 1 | All Maps | STV","players":null},{"server_id":104,"name":"Uncletopia | Atlanta | 2 | All Maps","name_short":"atl-2","host":"atl-1.us.uncletopia.com","port":27025,"enabled":true,"region":"us-east","cc":"us","latitude":33.753746,"longitude":-84.38633,"reserved":0,"last_update":"0001-01-01T00:00:00Z","name_a2s":"Uncletopia | Atlanta | 2 | All Maps","protocol":17,"map":"cp_mountainlab","folder":"tf","game":"Team Fortress","app_id":440,"player_count":0,"max_players":24,"Bots":0,"server_type":"Dedicated","server_os":"Linux","password":false,"vac":true,"version":"7961495","steam_id":85568392924469983,"keywords":["cp","nocrits","nodmgspread","uncletopia"],"game_id":440,"stv_port":27026,"stv_name":"Uncletopia | Atlanta | 2 | All Maps | STV","players":null},{"server_id":400,"name":"Uncletopia | Atlanta | 3 | All Maps","name_short":"atl-3","host":"atl-1.us.uncletopia.com","port":27035,"enabled":true,"region":"us-east","cc":"us","latitude":33.753746,"longitude":-84.38633,"reserved":0,"last_update":"0001-01-01T00:00:00Z","name_a2s":"Uncletopia | Atlanta | 3 | All Maps","protocol":17,"map":"cp_process_final","folder":"tf","game":"Team Fortress","app_id":440,"player_count":0,"max_players":24,"Bots":0,"server_type":"Dedicated","server_os":"Linux","password":false,"vac":true,"version":"7961495","steam_id":85568392924515187,"keywords":["cp","nocrits","nodmgspread","uncletopia"],"game_id":440,"stv_port":27036,"stv_name":"Uncletopia | Atlanta | 3 | All Maps | STV","players":null},{"server_id":401,"name":"Uncletopia | Atlanta | 4 | Community","name_short":"atl-4","host":"atl-1.us.uncletopia.com","port":27045,"enabled":true,"region":"us-east","cc":"us","latitude":33.753746,"longitude":-84.38633,"reserved":0,"last_update":"0001-01-01T00:00:00Z","name_a2s":"Uncletopia | Atlanta | 4 | Community","protocol":17,"map":"koth_lakeside_final","folder":"tf","game":"Team Fortress","app_id":440,"player_count":0,"max_players":24,"Bots":0,"server_type":"Dedicated","server_os":"Linux","password":false,"vac":true,"version":"7961495","steam_id":85568392924515188,"keywords":["cp","nocrits","nodmgspread","uncletopia"],"game_id":440,"stv_port":27046,"stv_name":"Uncletopia | Atlanta | 4 | Community | STV","players":null},{"server_id":2,"name":"Uncletopia | Chicago | 1 | All Maps","name_short":"chi-1","host":"chi-1.us.uncletopia.com","port":27015,"enabled":true,"region":"us-central","cc":"us","latitude":41.881832,"longitude":-87.62318,"reserved":0,"last_update":"0001-01-01T00:00:00Z","name_a2s":"Uncletopia | Chicago | 1 | All Maps","protocol":17,"map":"pl_barnblitz","folder":"tf","game":"Team Fortress","app_id":440,"player_count":24,"max_players":24,"Bots":0,"server_type":"Dedicated","server_os":"Linux","password":true,"vac":true,"version":"7961495","steam_id":85568392924469984,"keywords":["nocrits","nodmgspread","payload","uncletopia"],"game_id":440,"stv_port":27016,"stv_name":"Uncletopia | Chicago | 1 | All Maps | STV","players":[{"user_id":539,"name":"YeshieSirYesSir","steam_id":76561198080214214,"connected_time":1734000000000,"state":"active","ping":41},{"user_id":514,"name":"dunk","steam_id":76561198132476501,"connected_time":2477000000000,"state":"active","ping":62},{"user_id":525,"name":"PageBoiSkull","steam_id":76561198237353578,"connected_time":2296000000000,"state":"active","ping":130},{"user_id":544,"name":"Mehman","steam_id":76561199020244051,"connected_time":1446000000000,"state":"active","ping":97},{"user_id":509,"name":"Hotel Mario Next-Gen Remaster","steam_id":76561198217955315,"connected_time":2857000000000,"state":"active","ping":74},{"user_id":526,"name":"Doctor Emerald(real)","steam_id":76561199123003872,"connected_time":2237000000000,"state":"active","ping":94},{"user_id":552,"name":"Tray","steam_id":76561198076638151,"connected_time":692000000000,"state":"active","ping":84},{"user_id":534,"name":"Fantastic","steam_id":76561198079088978,"connected_time":1945000000000,"state":"active","ping":41},{"user_id":554,"name":"loser","steam_id":76561198259380127,"connected_time":140000000000,"state":"active","ping":83},{"user_id":498,"name":"PKBEAST_7","steam_id":76561198177136537,"connected_time":4608000000000,"state":"active","ping":104},{"user_id":521,"name":"Gump","steam_id":76561197995129241,"connected_time":2386000000000,"state":"active","ping":79},{"user_id":522,"name":"DonoC","steam_id":76561198274473338,"connected_time":2352000000000,"state":"active","ping":74},{"user_id":549,"name":"ZeN","steam_id":76561199098746585,"connected_time":943000000000,"state":"active","ping":50},{"user_id":524,"name":"Belloq","steam_id":76561198060279052,"connected_time":2318000000000,"state":"active","ping":57},{"user_id":540,"name":"That Darned Imperialist","steam_id":76561198854501307,"connected_time":1663000000000,"state":"active","ping":55},{"user_id":512,"name":"Raccoon Wizard","steam_id":76561198072562591,"connected_time":2601000000000,"state":"active","ping":89},{"user_id":536,"name":"Super Splint","steam_id":76561199465781208,"connected_time":1921000000000,"state":"active","ping":72},{"user_id":535,"name":"Chicken Burger","steam_id":76561198358529311,"connected_time":1941000000000,"state":"active","ping":109},{"user_id":555,"name":"Soladach","steam_id":76561198091616441,"connected_time":135000000000,"state":"active","ping":77},{"user_id":547,"name":"Lucky","steam_id":76561198418262145,"connected_time":1190000000000,"state":"active","ping":135},{"user_id":533,"name":"gary","steam_id":76561198140226890,"connected_time":1959000000000,"state":"active","ping":84},{"user_id":541,"name":"Dwaggy","steam_id":76561198027369555,"connected_time":1612000000000,"state":"active","ping":67},{"user_id":548,"name":"cow","steam_id":76561198117331762,"connected_time":968000000000,"state":"active","ping":47},{"user_id":488,"name":"Aniz","steam_id":76561199226665024,"connected_time":5478000000000,"state":"active","ping":144}]},{"server_id":106,"name":"Uncletopia | Chicago | 2 | All Maps","name_short":"chi-2","host":"chi-1.us.uncletopia.com","port":27025,"enabled":true,"region":"us-central","cc":"us","latitude":41.881832,"longitude":-87.62318,"reserved":0,"last_update":"0001-01-01T00:00:00Z","name_a2s":"Uncletopia | Chicago | 2 | All Maps","protocol":17,"map":"pl_upward","folder":"tf","game":"Team Fortress","app_id":440,"player_count":24,"max_players":24,"Bots":0,"server_type":"Dedicated","server_os":"Linux","password":true,"vac":true,"version":"7961495","steam_id":85568392924469985,"keywords":["nocrits","nodmgspread","payload","uncletopia"],"game_id":440,"stv_port":27026,"stv_name":"Uncletopia | Chicago | 2 | All Maps | STV","players":[{"user_id":873,"name":"Lemon","steam_id":76561198119362095,"connected_time":511000000000,"state":"active","ping":59},{"user_id":885,"name":"Faye (she/her)","steam_id":76561198112184924,"connected_time":27000000000,"state":"spawning","ping":72},{"user_id":862,"name":"Jamie","steam_id":76561198917309036,"connected_time":1444000000000,"state":"active","ping":65},{"user_id":874,"name":"task","steam_id":76561198284992433,"connected_time":511000000000,"state":"active","ping":47},{"user_id":785,"name":"Jack","steam_id":76561198254716942,"connected_time":5930000000000,"state":"active","ping":76},{"user_id":784,"name":"Cyaniday","steam_id":76561198302051082,"connected_time":5977000000000,"state":"active","ping":104},{"user_id":859,"name":"MrDuck","steam_id":76561199194675734,"connected_time":1764000000000,"state":"active","ping":71},{"user_id":870,"name":"toastman","steam_id":76561198207073088,"connected_time":579000000000,"state":"active","ping":67},{"user_id":847,"name":"BurnN8or101","steam_id":76561198132668224,"connected_time":2052000000000,"state":"active","ping":79},{"user_id":878,"name":"LimeCoco","steam_id":76561198802111482,"connected_time":428000000000,"state":"active","ping":68},{"user_id":879,"name":"lytewerk","steam_id":76561198002819791,"connected_time":410000000000,"state":"active","ping":72},{"user_id":865,"name":"City City The City City","steam_id":76561198046942778,"connected_time":1198000000000,"state":"active","ping":85},{"user_id":849,"name":"eis","steam_id":76561198830293087,"connected_time":2044000000000,"state":"active","ping":42},{"user_id":875,"name":"Trundle","steam_id":76561198005548044,"connected_time":499000000000,"state":"active","ping":65},{"user_id":872,"name":"WhiteRabbit","steam_id":76561198027579538,"connected_time":539000000000,"state":"active","ping":99},{"user_id":876,"name":"Rudy","steam_id":76561198013456828,"connected_time":497000000000,"state":"active","ping":73},{"user_id":880,"name":"Bunt","steam_id":76561198124477567,"connected_time":406000000000,"state":"active","ping":65},{"user_id":863,"name":"IanFishooks","steam_id":76561199403427527,"connected_time":1444000000000,"state":"active","ping":72},{"user_id":884,"name":"BankshotC","steam_id":76561198151290242,"connected_time":106000000000,"state":"active","ping":88},{"user_id":881,"name":"superx","steam_id":76561198044976613,"connected_time":393000000000,"state":"active","ping":70},{"user_id":882,"name":"Lumpy the Illegally Blind","steam_id":76561198053125768,"connected_time":393000000000,"state":"active","ping":120},{"user_id":883,"name":"urine trouble","steam_id":76561199013266640,"connected_time":389000000000,"state":"active","ping":41},{"user_id":840,"name":"Talented","steam_id":76561198800259660,"connected_time":2219000000000,"state":"active","ping":69},{"user_id":827,"name":"Glue Gulper","steam_id":76561198158014525,"connected_time":2768000000000,"state":"active","ping":58}]},{"server_id":402,"name":"Uncletopia | Chicago | 3 | All Maps","name_short":"chi-3","host":"chi-1.us.uncletopia.com","port":27035,"enabled":true,"region":"us-central","cc":"us","latitude":41.881832,"longitude":-87.62318,"reserved":0,"last_update":"0001-01-01T00:00:00Z","name_a2s":"Uncletopia | Chicago | 3 | All Maps","protocol":17,"map":"pl_badwater","folder":"tf","game":"Team Fortress","app_id":440,"player_count":21,"max_players":24,"Bots":0,"server_type":"Dedicated","server_os":"Linux","password":true,"vac":true,"version":"7961495","steam_id":85568392924515191,"keywords":["nocrits","nodmgspread","payload","uncletopia"],"game_id":440,"stv_port":27036,"stv_name":"Uncletopia | Chicago | 3 | All Maps | STV","players":[{"user_id":522,"name":"NoobCesar","steam_id":76561198095250755,"connected_time":1907000000000,"state":"spawning","ping":254},{"user_id":494,"name":"PyroEagle","steam_id":76561198296434231,"connected_time":4233000000000,"state":"spawning","ping":294},{"user_id":534,"name":"Gibs Degrossi","steam_id":76561198066152609,"connected_time":1200000000000,"state":"spawning","ping":215},{"user_id":539,"name":"MegaMarioMan","steam_id":76561198275735475,"connected_time":215000000000,"state":"spawning","ping":278},{"user_id":520,"name":"love from kazakhstan","steam_id":76561199161322235,"connected_time":1973000000000,"state":"spawning","ping":322},{"user_id":535,"name":"JimmyJelqs1994","steam_id":76561198132068284,"connected_time":829000000000,"state":"spawning","ping":136},{"user_id":528,"name":"Intro Bonito","steam_id":76561198119478838,"connected_time":1782000000000,"state":"spawning","ping":298},{"user_id":523,"name":"speakers","steam_id":76561198138221795,"connected_time":1898000000000,"state":"spawning","ping":284},{"user_id":514,"name":"NFT(non functioning testicle)","steam_id":76561198092435966,"connected_time":2746000000000,"state":"spawning","ping":183},{"user_id":540,"name":"Fargo","steam_id":76561198044703931,"connected_time":0,"state":"connecting","ping":0},{"user_id":524,"name":"rivera","steam_id":76561198051058706,"connected_time":1867000000000,"state":"spawning","ping":210},{"user_id":536,"name":"aversa","steam_id":76561198840460101,"connected_time":795000000000,"state":"spawning","ping":294},{"user_id":529,"name":"corntent","steam_id":76561198824847948,"connected_time":1758000000000,"state":"spawning","ping":191},{"user_id":510,"name":"Brad Goodman","steam_id":76561198138465052,"connected_time":3232000000000,"state":"spawning","ping":189},{"user_id":508,"name":"crispy","steam_id":76561198971106376,"connected_time":3275000000000,"state":"spawning","ping":174},{"user_id":505,"name":"c00kie","steam_id":76561198418178297,"connected_time":3460000000000,"state":"spawning","ping":186},{"user_id":538,"name":"Discourse","steam_id":76561198984286678,"connected_time":322000000000,"state":"spawning","ping":127},{"user_id":527,"name":"for the king","steam_id":76561197973488858,"connected_time":1832000000000,"state":"spawning","ping":183},{"user_id":479,"name":"Shady Businessman","steam_id":76561198143855968,"connected_time":6213000000000,"state":"spawning","ping":170},{"user_id":499,"name":"Pattar","steam_id":76561198146276146,"connected_time":4144000000000,"state":"spawning","ping":132},{"user_id":500,"name":"Ninetees","steam_id":76561198119483989,"connected_time":4126000000000,"state":"spawning","ping":287}]},{"server_id":403,"name":"Uncletopia | Chicago | 4 | All Maps","name_short":"chi-4","host":"chi-1.us.uncletopia.com","port":27045,"enabled":true,"region":"us-central","cc":"us","latitude":41.881832,"longitude":-87.62318,"reserved":0,"last_update":"0001-01-01T00:00:00Z","name_a2s":"Uncletopia | Chicago | 4 | All Maps","protocol":17,"map":"pl_barnblitz","folder":"tf","game":"Team Fortress","app_id":440,"player_count":24,"max_players":24,"Bots":0,"server_type":"Dedicated","server_os":"Linux","password":true,"vac":true,"version":"7961495","steam_id":85568392924515193,"keywords":["nocrits","nodmgspread","payload","uncletopia"],"game_id":440,"stv_port":27046,"stv_name":"Uncletopia | Chicago | 4 | All Maps | STV","players":[{"user_id":829,"name":"ultralisk52","steam_id":76561198051666604,"connected_time":1426000000000,"state":"active","ping":61},{"user_id":831,"name":"TonOfAshMan","steam_id":76561198083991114,"connected_time":1346000000000,"state":"active","ping":95},{"user_id":868,"name":"DoubleX2000","steam_id":76561198164134387,"connected_time":90000000000,"state":"active","ping":130},{"user_id":789,"name":"he munch","steam_id":76561198339644583,"connected_time":3627000000000,"state":"active","ping":54},{"user_id":864,"name":"Fish Lambert","steam_id":76561198098279668,"connected_time":245000000000,"state":"active","ping":88},{"user_id":830,"name":"x","steam_id":76561198013735714,"connected_time":1399000000000,"state":"active","ping":72},{"user_id":832,"name":"Gliglamesh","steam_id":76561198058221449,"connected_time":1310000000000,"state":"active","ping":52},{"user_id":863,"name":"SpicyTacoMan","steam_id":76561198335699828,"connected_time":298000000000,"state":"active","ping":106},{"user_id":841,"name":"Keegs","steam_id":76561198346917831,"connected_time":1200000000000,"state":"active","ping":53},{"user_id":827,"name":"Shelleos","steam_id":76561199107109973,"connected_time":1783000000000,"state":"active","ping":47},{"user_id":835,"name":"Cooldog","steam_id":76561198080548713,"connected_time":1287000000000,"state":"active","ping":72},{"user_id":865,"name":"Moss","steam_id":76561199122200727,"connected_time":232000000000,"state":"active","ping":74},{"user_id":817,"name":"❤[S'more]❤","steam_id":76561198817361963,"connected_time":2325000000000,"state":"active","ping":133},{"user_id":798,"name":"Phillip Jeffries","steam_id":76561198064052174,"connected_time":3537000000000,"state":"active","ping":60},{"user_id":838,"name":"nut butter","steam_id":76561198130425399,"connected_time":1258000000000,"state":"active","ping":92},{"user_id":866,"name":"Stapler","steam_id":76561198099295077,"connected_time":215000000000,"state":"active","ping":120},{"user_id":867,"name":"slowdance","steam_id":76561198097427947,"connected_time":192000000000,"state":"active","ping":222},{"user_id":846,"name":"pathways","steam_id":76561198054832333,"connected_time":1124000000000,"state":"active","ping":94},{"user_id":848,"name":"Satan-2","steam_id":76561199231742764,"connected_time":865000000000,"state":"active","ping":74},{"user_id":844,"name":"yipee","steam_id":76561198882697993,"connected_time":1153000000000,"state":"active","ping":143},{"user_id":845,"name":"Chad","steam_id":76561198222313772,"connected_time":1144000000000,"state":"active","ping":107},{"user_id":820,"name":"The Man with a Pan","steam_id":76561198983461039,"connected_time":2268000000000,"state":"active","ping":50},{"user_id":784,"name":"alolan duntski","steam_id":76561198038826744,"connected_time":4090000000000,"state":"active","ping":59},{"user_id":852,"name":"Lore","steam_id":76561198098407538,"connected_time":693000000000,"state":"active","ping":55}]},{"server_id":36,"name":"Uncletopia | Chicago | 5 | All Maps","name_short":"chi-5","host":"chi-2.us.uncletopia.com","port":27015,"enabled":true,"region":"us-central","cc":"us","latitude":41.881832,"longitude":-87.62318,"reserved":0,"last_update":"0001-01-01T00:00:00Z","name_a2s":"Uncletopia | Chicago | 5 | All Maps","protocol":17,"map":"cp_yukon_final","folder":"tf","game":"Team Fortress","app_id":440,"player_count":0,"max_players":24,"Bots":0,"server_type":"Dedicated","server_os":"Linux","password":true,"vac":true,"version":"7961495","steam_id":85568392924866362,"keywords":["cp","nocrits","nodmgspread","uncletopia"],"game_id":440,"stv_port":27016,"stv_name":"Uncletopia | Chicago | 5 | All Maps | STV","players":null},{"server_id":37,"name":"Uncletopia | Chicago | 6 | All Maps","name_short":"chi-6","host":"chi-2.us.uncletopia.com","port":27025,"enabled":true,"region":"us-central","cc":"us","latitude":41.881832,"longitude":-87.62318,"reserved":0,"last_update":"0001-01-01T00:00:00Z","name_a2s":"Uncletopia | Chicago | 6 | All Maps","protocol":17,"map":"cp_dustbowl","folder":"tf","game":"Team Fortress","app_id":440,"player_count":22,"max_players":24,"Bots":0,"server_type":"Dedicated","server_os":"Linux","password":true,"vac":true,"version":"7961495","steam_id":85568392924866363,"keywords":["cp","nocrits","nodmgspread","uncletopia"],"game_id":440,"stv_port":27026,"stv_name":"Uncletopia | Chicago | 6 | All Maps | STV","players":[{"user_id":405,"name":"Dusty Ashes","steam_id":76561199089236336,"connected_time":4884000000000,"state":"active","ping":101},{"user_id":464,"name":"Farpie","steam_id":76561198084922268,"connected_time":1383000000000,"state":"active","ping":73},{"user_id":443,"name":"kup","steam_id":76561198046816932,"connected_time":2344000000000,"state":"active","ping":60},{"user_id":470,"name":"ThePlagueDucktor","steam_id":76561198155884968,"connected_time":230000000000,"state":"active","ping":81},{"user_id":471,"name":"Bing Soy","steam_id":76561198058312481,"connected_time":215000000000,"state":"active","ping":63},{"user_id":450,"name":"Jonny Juul-Rip","steam_id":76561198048895861,"connected_time":1589000000000,"state":"active","ping":73},{"user_id":467,"name":"HIDEN","steam_id":76561199024853268,"connected_time":967000000000,"state":"active","ping":85},{"user_id":435,"name":"In-N-Out Double Double","steam_id":76561198104086771,"connected_time":3780000000000,"state":"active","ping":93},{"user_id":452,"name":"Lenny Gaggins","steam_id":76561198119768140,"connected_time":1554000000000,"state":"active","ping":67},{"user_id":474,"name":"CivilWarMike","steam_id":76561198141188839,"connected_time":96000000000,"state":"active","ping":77},{"user_id":475,"name":"Bip","steam_id":76561199022962204,"connected_time":75000000000,"state":"active","ping":73},{"user_id":454,"name":"jonahscott2005","steam_id":76561199191090704,"connected_time":1539000000000,"state":"active","ping":84},{"user_id":459,"name":"gerg","steam_id":76561197997127387,"connected_time":1440000000000,"state":"active","ping":116},{"user_id":456,"name":"Coolgoat2005","steam_id":76561198284935250,"connected_time":1509000000000,"state":"active","ping":84},{"user_id":460,"name":"Chiaki Nanami","steam_id":76561198164782653,"connected_time":1437000000000,"state":"active","ping":65},{"user_id":466,"name":"Kenny Riots","steam_id":76561198060800850,"connected_time":1269000000000,"state":"active","ping":100},{"user_id":462,"name":"social distance warrior","steam_id":76561198128992994,"connected_time":1427000000000,"state":"active","ping":103},{"user_id":473,"name":"babydactyl","steam_id":76561198057798809,"connected_time":206000000000,"state":"active","ping":75},{"user_id":414,"name":"Disco Fever","steam_id":76561198069532215,"connected_time":4638000000000,"state":"active","ping":77},{"user_id":465,"name":"Tue","steam_id":76561198181668501,"connected_time":1287000000000,"state":"active","ping":91},{"user_id":463,"name":"Jaguar -ringme","steam_id":76561197971152439,"connected_time":1425000000000,"state":"active","ping":60},{"user_id":469,"name":"Aztea","steam_id":76561198982089893,"connected_time":836000000000,"state":"active","ping":89}]},{"server_id":38,"name":"Uncletopia | Chicago | 7 | Stopwatch Beta","name_short":"chi-7","host":"chi-2.us.uncletopia.com","port":27035,"enabled":true,"region":"us-central","cc":"us","latitude":41.881832,"longitude":-87.62318,"reserved":0,"last_update":"0001-01-01T00:00:00Z","name_a2s":"Uncletopia | Chicago | 7 | Stopwatch Beta","protocol":17,"map":"cp_metalworks","folder":"tf","game":"Team Fortress","app_id":440,"player_count":0,"max_players":24,"Bots":0,"server_type":"Dedicated","server_os":"Linux","password":true,"vac":true,"version":"7961495","steam_id":85568392924866364,"keywords":["cp","nocrits","nodmgspread","uncletopia"],"game_id":440,"stv_port":27036,"stv_name":"Uncletopia | Chicago | 7 | Stopwatch Beta | STV","players":null},{"server_id":39,"name":"Uncletopia | Chicago | 8 | Community","name_short":"chi-8","host":"chi-2.us.uncletopia.com","port":27045,"enabled":true,"region":"us-central","cc":"us","latitude":41.881832,"longitude":-87.62318,"reserved":0,"last_update":"0001-01-01T00:00:00Z","name_a2s":"Uncletopia | Chicago | 8 | Community","protocol":17,"map":"workshop/pl_fifthcurve_rc1.ugc648227046","folder":"tf","game":"Team Fortress","app_id":440,"player_count":24,"max_players":24,"Bots":0,"server_type":"Dedicated","server_os":"Linux","password":true,"vac":true,"version":"7961495","steam_id":85568392924866365,"keywords":["nocrits","nodmgspread","payload","uncletopia"],"game_id":440,"stv_port":27046,"stv_name":"Uncletopia | Chicago | 8 | Community | STV","players":[{"user_id":488,"name":"Snow_Drake","steam_id":76561198845816078,"connected_time":520000000000,"state":"active","ping":143},{"user_id":481,"name":"MemeLord69","steam_id":76561198444197673,"connected_time":1509000000000,"state":"active","ping":89},{"user_id":483,"name":"zapphique","steam_id":76561198083575802,"connected_time":1098000000000,"state":"active","ping":75},{"user_id":489,"name":"scooterre","steam_id":76561198055068182,"connected_time":516000000000,"state":"active","ping":62},{"user_id":445,"name":"The Lizard Wizard","steam_id":76561199231507055,"connected_time":2976000000000,"state":"active","ping":79},{"user_id":446,"name":"ThiccBoiMcgee","steam_id":76561199059523317,"connected_time":2954000000000,"state":"active","ping":84},{"user_id":477,"name":"Mono Romero","steam_id":76561198140840508,"connected_time":1642000000000,"state":"active","ping":134},{"user_id":474,"name":"SomeFuckingGuy","steam_id":76561199239165015,"connected_time":1682000000000,"state":"active","ping":89},{"user_id":484,"name":"wunkem","steam_id":76561198055948497,"connected_time":1014000000000,"state":"active","ping":99},{"user_id":485,"name":"JustaDude013","steam_id":76561199151914748,"connected_time":942000000000,"state":"active","ping":92},{"user_id":491,"name":"EliminateSingleFamilyZoning","steam_id":76561198276653985,"connected_time":448000000000,"state":"active","ping":67},{"user_id":456,"name":"Batman","steam_id":76561199085516726,"connected_time":2736000000000,"state":"active","ping":130},{"user_id":467,"name":"Elias","steam_id":76561198106431732,"connected_time":2134000000000,"state":"active","ping":40},{"user_id":479,"name":"ShellShotty","steam_id":76561198023113266,"connected_time":1637000000000,"state":"active","ping":70},{"user_id":464,"name":"evegioyidechadab","steam_id":76561198075991626,"connected_time":2476000000000,"state":"active","ping":174},{"user_id":494,"name":"Gamer1243","steam_id":76561199073760355,"connected_time":127000000000,"state":"active","ping":101},{"user_id":495,"name":"Ghey-Ming Dynasty","steam_id":76561199020344789,"connected_time":98000000000,"state":"active","ping":79},{"user_id":480,"name":"ShmixyTheBishop","steam_id":76561199281919953,"connected_time":1637000000000,"state":"active","ping":106},{"user_id":496,"name":"SouperBad","steam_id":76561198116690686,"connected_time":70000000000,"state":"active","ping":54},{"user_id":497,"name":"Benjamin Franklin","steam_id":76561198863803062,"connected_time":56000000000,"state":"active","ping":87},{"user_id":487,"name":"OneTrueCorvid","steam_id":76561199012953221,"connected_time":812000000000,"state":"active","ping":80},{"user_id":482,"name":"The Bite of '87","steam_id":76561198264731309,"connected_time":1466000000000,"state":"active","ping":78},{"user_id":472,"name":"anipe10","steam_id":76561199084698417,"connected_time":1759000000000,"state":"active","ping":93}]},{"server_id":8,"name":"Uncletopia | Dallas | 1 | All Maps","name_short":"dal-1","host":"dal-1.us.uncletopia.com","port":27015,"enabled":true,"region":"us-central","cc":"us","latitude":32.779167,"longitude":-96.80889,"reserved":0,"last_update":"0001-01-01T00:00:00Z","name_a2s":"Uncletopia | Dallas | 1 | All Maps","protocol":17,"map":"plr_hightower","folder":"tf","game":"Team Fortress","app_id":440,"player_count":20,"max_players":24,"Bots":0,"server_type":"Dedicated","server_os":"Linux","password":true,"vac":true,"version":"7961495","steam_id":85568392924469986,"keywords":["nocrits","nodmgspread","payload","uncletopia"],"game_id":440,"stv_port":27016,"stv_name":"Uncletopia | Dallas | 1 | All Maps | STV","players":[{"user_id":514,"name":"HeadOfB.O.XNews","steam_id":76561198823322405,"connected_time":2627000000000,"state":"active","ping":48},{"user_id":513,"name":"tewz(s)","steam_id":76561198163264838,"connected_time":2812000000000,"state":"active","ping":59},{"user_id":536,"name":"i couldn't think of a cool alia","steam_id":76561198113083770,"connected_time":1168000000000,"state":"active","ping":80},{"user_id":537,"name":"a bucket of chicken","steam_id":76561198023710042,"connected_time":1163000000000,"state":"active","ping":49},{"user_id":532,"name":"FrostNova","steam_id":76561198348354629,"connected_time":1719000000000,"state":"active","ping":75},{"user_id":517,"name":"Mellou","steam_id":76561198212048740,"connected_time":2423000000000,"state":"active","ping":48},{"user_id":540,"name":"1337H4xx0r","steam_id":76561198071400841,"connected_time":728000000000,"state":"active","ping":94},{"user_id":519,"name":"goliath birdeater","steam_id":76561198089852954,"connected_time":2384000000000,"state":"active","ping":76},{"user_id":437,"name":"crookedspinalcord","steam_id":76561198833269144,"connected_time":9458000000000,"state":"active","ping":77},{"user_id":442,"name":"Black Bear.","steam_id":76561198806203328,"connected_time":9088000000000,"state":"active","ping":89},{"user_id":547,"name":"|KPF|r0cks","steam_id":76561198023597573,"connected_time":136000000000,"state":"active","ping":101},{"user_id":530,"name":"dunk","steam_id":76561198066114874,"connected_time":1940000000000,"state":"active","ping":104},{"user_id":487,"name":"erm what the scallop???","steam_id":76561198338610196,"connected_time":4814000000000,"state":"active","ping":105},{"user_id":482,"name":"Greg Boberton 2012","steam_id":76561198983566026,"connected_time":4928000000000,"state":"active","ping":82},{"user_id":546,"name":"Pyro","steam_id":76561198366834319,"connected_time":345000000000,"state":"active","ping":107},{"user_id":529,"name":"Scottish_Pansexual","steam_id":76561198183369559,"connected_time":2079000000000,"state":"active","ping":73},{"user_id":544,"name":"ninety9dragonfly","steam_id":76561198363406983,"connected_time":427000000000,"state":"active","ping":102},{"user_id":523,"name":"Sixrow","steam_id":76561198269289716,"connected_time":2348000000000,"state":"active","ping":32},{"user_id":534,"name":"ven the foreskin haver","steam_id":76561198880428283,"connected_time":1438000000000,"state":"active","ping":90},{"user_id":372,"name":"flippercurve","steam_id":76561199238295034,"connected_time":16865000000000,"state":"active","ping":75}]},{"server_id":108,"name":"Uncletopia | Dallas | 2 | All Maps","name_short":"dal-2","host":"dal-1.us.uncletopia.com","port":27025,"enabled":true,"region":"us-central","cc":"us","latitude":32.779167,"longitude":-96.80889,"reserved":0,"last_update":"0001-01-01T00:00:00Z","name_a2s":"Uncletopia | Dallas | 2 | All Maps","protocol":17,"map":"pl_frontier_final","folder":"tf","game":"Team Fortress","app_id":440,"player_count":24,"max_players":24,"Bots":0,"server_type":"Dedicated","server_os":"Linux","password":true,"vac":true,"version":"7961495","steam_id":85568392924469988,"keywords":["nocrits","nodmgspread","payload","uncletopia"],"game_id":440,"stv_port":27026,"stv_name":"Uncletopia | Dallas | 2 | All Maps | STV","players":[{"user_id":395,"name":"JUCE","steam_id":76561198057835518,"connected_time":6206000000000,"state":"active","ping":57},{"user_id":449,"name":"Rafl","steam_id":76561198055222756,"connected_time":402000000000,"state":"active","ping":44},{"user_id":450,"name":"moe","steam_id":76561198929586245,"connected_time":401000000000,"state":"active","ping":87},{"user_id":439,"name":"cycoone","steam_id":76561198059745285,"connected_time":1781000000000,"state":"active","ping":83},{"user_id":443,"name":"chongo","steam_id":76561198017604393,"connected_time":976000000000,"state":"active","ping":77},{"user_id":448,"name":"Cobalt","steam_id":76561198063223347,"connected_time":666000000000,"state":"active","ping":68},{"user_id":451,"name":"A Fruit","steam_id":76561198951830050,"connected_time":388000000000,"state":"active","ping":44},{"user_id":433,"name":"duckypotato","steam_id":76561198047703790,"connected_time":2258000000000,"state":"active","ping":119},{"user_id":432,"name":"room temp IQ","steam_id":76561198018724712,"connected_time":2277000000000,"state":"active","ping":45},{"user_id":423,"name":"girl swag","steam_id":76561198821440690,"connected_time":3549000000000,"state":"active","ping":105},{"user_id":444,"name":"Chicken Joe","steam_id":76561198125993888,"connected_time":945000000000,"state":"active","ping":62},{"user_id":359,"name":"Levi","steam_id":76561198089832776,"connected_time":11085000000000,"state":"active","ping":55},{"user_id":452,"name":"SpaceCowboy John","steam_id":76561198151635557,"connected_time":277000000000,"state":"active","ping":60},{"user_id":441,"name":"bocaJ","steam_id":76561198374535092,"connected_time":1569000000000,"state":"active","ping":60},{"user_id":453,"name":"sentry food","steam_id":76561198042926224,"connected_time":197000000000,"state":"active","ping":77},{"user_id":435,"name":"Short-Hoppe","steam_id":76561198046030282,"connected_time":2177000000000,"state":"active","ping":132},{"user_id":445,"name":"GameBreaker","steam_id":76561198836171572,"connected_time":885000000000,"state":"active","ping":99},{"user_id":454,"name":"AnimeHjonker989","steam_id":76561199122139727,"connected_time":161000000000,"state":"active","ping":77},{"user_id":455,"name":"nic.","steam_id":76561198030654668,"connected_time":145000000000,"state":"active","ping":89},{"user_id":456,"name":"MayKaye","steam_id":76561199016092265,"connected_time":81000000000,"state":"active","ping":82},{"user_id":457,"name":"BootisWithExtraBoot","steam_id":76561198212457351,"connected_time":44000000000,"state":"spawning","ping":280},{"user_id":458,"name":"KRUSHER","steam_id":76561198072157019,"connected_time":15000000000,"state":"spawning","ping":58},{"user_id":446,"name":"rAnch","steam_id":76561198024562587,"connected_time":834000000000,"state":"active","ping":36},{"user_id":418,"name":"thighmeat","steam_id":76561198971285292,"connected_time":3970000000000,"state":"active","ping":62}]},{"server_id":404,"name":"Uncletopia | Dallas | 3 | All Maps","name_short":"dal-3","host":"dal-1.us.uncletopia.com","port":27035,"enabled":true,"region":"us-central","cc":"us","latitude":32.779167,"longitude":-96.80889,"reserved":0,"last_update":"0001-01-01T00:00:00Z","name_a2s":"Uncletopia | Dallas | 3 | All Maps","protocol":17,"map":"pl_pier","folder":"tf","game":"Team Fortress","app_id":440,"player_count":15,"max_players":24,"Bots":0,"server_type":"Dedicated","server_os":"Linux","password":true,"vac":true,"version":"7961495","steam_id":85568392924515219,"keywords":["nocrits","nodmgspread","payload","uncletopia"],"game_id":440,"stv_port":27036,"stv_name":"Uncletopia | Dallas | 3 | All Maps | STV","players":[{"user_id":370,"name":"Pizza","steam_id":76561198118748364,"connected_time":3699000000000,"state":"active","ping":74},{"user_id":385,"name":"Soup","steam_id":76561198055850406,"connected_time":2714000000000,"state":"active","ping":73},{"user_id":414,"name":"imustapologize","steam_id":76561198277979851,"connected_time":301000000000,"state":"active","ping":83},{"user_id":415,"name":"MasterGeek.MX","steam_id":76561198063355220,"connected_time":297000000000,"state":"active","ping":89},{"user_id":392,"name":"lobotomized","steam_id":76561198934532139,"connected_time":1812000000000,"state":"active","ping":85},{"user_id":322,"name":"Misserette","steam_id":76561198357652902,"connected_time":7692000000000,"state":"active","ping":119},{"user_id":401,"name":"Ba-Zing-Ga","steam_id":76561198323260286,"connected_time":1374000000000,"state":"active","ping":89},{"user_id":375,"name":"Syntesa","steam_id":76561198068955620,"connected_time":3314000000000,"state":"active","ping":74},{"user_id":408,"name":"Fernando","steam_id":76561198443038047,"connected_time":644000000000,"state":"active","ping":61},{"user_id":406,"name":"No Chance of Pearly Gates","steam_id":76561198042570322,"connected_time":678000000000,"state":"active","ping":103},{"user_id":398,"name":"1000 Ping","steam_id":76561198098330939,"connected_time":1553000000000,"state":"active","ping":97},{"user_id":409,"name":"firulais","steam_id":76561198860460013,"connected_time":620000000000,"state":"active","ping":82},{"user_id":407,"name":"Bain","steam_id":76561198982406411,"connected_time":667000000000,"state":"active","ping":83},{"user_id":396,"name":"tsz","steam_id":76561199246231090,"connected_time":1657000000000,"state":"active","ping":93},{"user_id":369,"name":"Nebe0","steam_id":76561199133770186,"connected_time":4160000000000,"state":"active","ping":87}]},{"server_id":405,"name":"Uncletopia | Dallas | 4 | Community","name_short":"dal-4","host":"dal-1.us.uncletopia.com","port":27045,"enabled":true,"region":"us-central","cc":"us","latitude":32.779167,"longitude":-96.80889,"reserved":0,"last_update":"0001-01-01T00:00:00Z","name_a2s":"Uncletopia | Dallas | 4 | Community","protocol":17,"map":"workshop/pl_boundary_final1.ugc456799153","folder":"tf","game":"Team Fortress","app_id":440,"player_count":21,"max_players":24,"Bots":0,"server_type":"Dedicated","server_os":"Linux","password":true,"vac":true,"version":"7961495","steam_id":85568392924515220,"keywords":["nocrits","nodmgspread","payload","uncletopia"],"game_id":440,"stv_port":27046,"stv_name":"Uncletopia | Dallas | 4 | Community | STV","players":[{"user_id":302,"name":"zubi.","steam_id":76561198320839216,"connected_time":985000000000,"state":"active","ping":64},{"user_id":303,"name":"BurR","steam_id":76561198055431367,"connected_time":931000000000,"state":"active","ping":73},{"user_id":300,"name":"JaM724","steam_id":76561199077582671,"connected_time":1133000000000,"state":"active","ping":88},{"user_id":310,"name":"orangesuit1","steam_id":76561199020443017,"connected_time":689000000000,"state":"active","ping":99},{"user_id":309,"name":"Zambeast","steam_id":76561198137856177,"connected_time":755000000000,"state":"active","ping":56},{"user_id":258,"name":"Diamondbirdy01","steam_id":76561198162383553,"connected_time":4408000000000,"state":"active","ping":57},{"user_id":305,"name":"Tauntos","steam_id":76561198106156373,"connected_time":899000000000,"state":"active","ping":83},{"user_id":297,"name":"Broomfrog","steam_id":76561198197932090,"connected_time":1618000000000,"state":"active","ping":56},{"user_id":261,"name":"Jimothy","steam_id":76561198361536109,"connected_time":4375000000000,"state":"active","ping":76},{"user_id":304,"name":"Dwake","steam_id":76561198121943676,"connected_time":927000000000,"state":"active","ping":94},{"user_id":307,"name":"BaconBeanSprout","steam_id":76561199052436273,"connected_time":799000000000,"state":"active","ping":86},{"user_id":308,"name":"Aldinach","steam_id":76561198079912615,"connected_time":778000000000,"state":"active","ping":75},{"user_id":265,"name":"Cadimus","steam_id":76561198096438110,"connected_time":4241000000000,"state":"active","ping":55},{"user_id":311,"name":"dweamy","steam_id":76561198119181880,"connected_time":655000000000,"state":"active","ping":105},{"user_id":283,"name":"Prez Pineapple","steam_id":76561198253755258,"connected_time":3386000000000,"state":"active","ping":100},{"user_id":277,"name":"Tetris Speedrunner","steam_id":76561198984917566,"connected_time":3682000000000,"state":"active","ping":69},{"user_id":312,"name":"ButterNutz","steam_id":76561198122404516,"connected_time":373000000000,"state":"active","ping":112},{"user_id":313,"name":"Cheddar","steam_id":76561199123994392,"connected_time":336000000000,"state":"active","ping":137},{"user_id":247,"name":"GoGo","steam_id":76561198023080645,"connected_time":6193000000000,"state":"active","ping":90},{"user_id":314,"name":"Maokai","steam_id":76561198067176829,"connected_time":314000000000,"state":"active","ping":85},{"user_id":315,"name":"shield","steam_id":76561198976876859,"connected_time":228000000000,"state":"active","ping":87}]},{"server_id":5,"name":"Uncletopia | Frankfurt | 1 | All Maps","name_short":"frk-1","host":"frk-1.de.uncletopia.com","port":27015,"enabled":true,"region":"eu","cc":"de","latitude":50.110924,"longitude":8.682127,"reserved":0,"last_update":"0001-01-01T00:00:00Z","name_a2s":"Uncletopia | Frankfurt | 1 | All Maps","protocol":17,"map":"pl_badwater","folder":"tf","game":"Team Fortress","app_id":440,"player_count":0,"max_players":24,"Bots":0,"server_type":"Dedicated","server_os":"Linux","password":true,"vac":true,"version":"7961495","steam_id":85568392924469989,"keywords":["nocrits","nodmgspread","payload","uncletopia"],"game_id":440,"stv_port":27016,"stv_name":"Uncletopia | Frankfurt | 1 | All Maps | STV","players":null},{"server_id":110,"name":"Uncletopia | Frankfurt | 2 | All Maps","name_short":"frk-2","host":"frk-1.de.uncletopia.com","port":27025,"enabled":true,"region":"eu","cc":"de","latitude":50.110924,"longitude":8.682127,"reserved":0,"last_update":"0001-01-01T00:00:00Z","name_a2s":"Uncletopia | Frankfurt | 2 | All Maps","protocol":17,"map":"koth_lakeside_final","folder":"tf","game":"Team Fortress","app_id":440,"player_count":0,"max_players":24,"Bots":0,"server_type":"Dedicated","server_os":"Linux","password":true,"vac":true,"version":"7961495","steam_id":85568392924469990,"keywords":["cp","nocrits","nodmgspread","uncletopia"],"game_id":440,"stv_port":27026,"stv_name":"Uncletopia | Frankfurt | 2 | All Maps | STV","players":null},{"server_id":308,"name":"Uncletopia | Frankfurt | 3 | All Maps","name_short":"frk-3","host":"frk-1.de.uncletopia.com","port":27035,"enabled":true,"region":"eu","cc":"de","latitude":50.110924,"longitude":8.682127,"reserved":0,"last_update":"0001-01-01T00:00:00Z","name_a2s":"Uncletopia | Frankfurt | 3 | All Maps","protocol":17,"map":"cp_sunshine","folder":"tf","game":"Team Fortress","app_id":440,"player_count":0,"max_players":24,"Bots":0,"server_type":"Dedicated","server_os":"Linux","password":true,"vac":true,"version":"7961495","steam_id":85568392924504274,"keywords":["cp","nocrits","nodmgspread","uncletopia"],"game_id":440,"stv_port":27036,"stv_name":"Uncletopia | Frankfurt | 3 | All Maps | STV","players":null},{"server_id":309,"name":"Uncletopia | Frankfurt | 4 | All Maps","name_short":"frk-4","host":"frk-1.de.uncletopia.com","port":27045,"enabled":true,"region":"eu","cc":"de","latitude":50.110924,"longitude":8.682127,"reserved":0,"last_update":"0001-01-01T00:00:00Z","name_a2s":"Uncletopia | Frankfurt | 4 | All Maps","protocol":17,"map":"cp_altitude","folder":"tf","game":"Team Fortress","app_id":440,"player_count":0,"max_players":24,"Bots":0,"server_type":"Dedicated","server_os":"Linux","password":true,"vac":true,"version":"7961495","steam_id":85568392924504275,"keywords":["cp","nocrits","nodmgspread","uncletopia"],"game_id":440,"stv_port":27046,"stv_name":"Uncletopia | Frankfurt | 4 | All Maps | STV","players":null},{"server_id":310,"name":"Uncletopia | Frankfurt | 5 | All Maps","name_short":"frk-5","host":"frk-1.de.uncletopia.com","port":27055,"enabled":true,"region":"eu","cc":"de","latitude":50.110924,"longitude":8.682127,"reserved":0,"last_update":"0001-01-01T00:00:00Z","name_a2s":"Uncletopia | Frankfurt | 5 | All Maps","protocol":17,"map":"cp_process_final","folder":"tf","game":"Team Fortress","app_id":440,"player_count":0,"max_players":24,"Bots":0,"server_type":"Dedicated","server_os":"Linux","password":true,"vac":true,"version":"7961495","steam_id":85568392924504277,"keywords":["cp","nocrits","nodmgspread","uncletopia"],"game_id":440,"stv_port":27056,"stv_name":"Uncletopia | Frankfurt | 5 | All Maps | STV","players":null},{"server_id":311,"name":"Uncletopia | Frankfurt | 6 | All Maps","name_short":"frk-6","host":"frk-1.de.uncletopia.com","port":27065,"enabled":true,"region":"eu","cc":"de","latitude":50.110924,"longitude":8.682127,"reserved":0,"last_update":"0001-01-01T00:00:00Z","name_a2s":"Uncletopia | Frankfurt | 6 | All Maps","protocol":17,"map":"pl_barnblitz","folder":"tf","game":"Team Fortress","app_id":440,"player_count":0,"max_players":24,"Bots":0,"server_type":"Dedicated","server_os":"Linux","password":true,"vac":true,"version":"7961495","steam_id":85568392924504278,"keywords":["nocrits","nodmgspread","payload","uncletopia"],"game_id":440,"stv_port":27066,"stv_name":"Uncletopia | Frankfurt | 6 | All Maps | STV","players":null},{"server_id":23,"name":"Uncletopia | Frankfurt | 7 | Stopwatch Beta","name_short":"frk-7","host":"frk-1.de.uncletopia.com","port":27075,"enabled":true,"region":"eu","cc":"de","latitude":50.110924,"longitude":8.682127,"reserved":0,"last_update":"0001-01-01T00:00:00Z","name_a2s":"Uncletopia | Frankfurt | 7 | Stopwatch Beta","protocol":17,"map":"koth_cascade","folder":"tf","game":"Team Fortress","app_id":440,"player_count":0,"max_players":24,"Bots":0,"server_type":"Dedicated","server_os":"Linux","password":true,"vac":true,"version":"7961495","steam_id":85568392924742827,"keywords":["cp","nocrits","nodmgspread","uncletopia"],"game_id":440,"stv_port":27076,"stv_name":"Uncletopia | Frankfurt | 7 | Stopwatch Beta | STV","players":null},{"server_id":24,"name":"Uncletopia | Frankfurt | 8 | Community","name_short":"frk-8","host":"frk-1.de.uncletopia.com","port":27085,"enabled":true,"region":"eu","cc":"de","latitude":50.110924,"longitude":8.682127,"reserved":0,"last_update":"0001-01-01T00:00:00Z","name_a2s":"Uncletopia | Frankfurt | 8 | Community","protocol":17,"map":"cp_dustbowl","folder":"tf","game":"Team Fortress","app_id":440,"player_count":0,"max_players":24,"Bots":0,"server_type":"Dedicated","server_os":"Linux","password":true,"vac":true,"version":"7961495","steam_id":85568392924742828,"keywords":["cp","nocrits","nodmgspread","uncletopia"],"game_id":440,"stv_port":27086,"stv_name":"Uncletopia | Frankfurt | 8 | Community | STV","players":null},{"server_id":202,"name":"Uncletopia | Hong Kong | 1 | All Maps","name_short":"hgk-1","host":"hgk-1.hk.uncletopia.com","port":27015,"enabled":true,"region":"asia","cc":"hk","latitude":22.302711,"longitude":114.177216,"reserved":0,"last_update":"0001-01-01T00:00:00Z","name_a2s":"Uncletopia | Hong Kong | 1 | All Maps","protocol":17,"map":"cp_dustbowl","folder":"tf","game":"Team Fortress","app_id":440,"player_count":23,"max_players":24,"Bots":0,"server_type":"Dedicated","server_os":"Linux","password":true,"vac":true,"version":"7961495","steam_id":85568392924494504,"keywords":["cp","nocrits","nodmgspread","uncletopia"],"game_id":440,"stv_port":27016,"stv_name":"Uncletopia | Hong Kong | 1 | All Maps | STV","players":[{"user_id":11,"name":"Hay","steam_id":76561199438952901,"connected_time":3426000000000,"state":"active","ping":50},{"user_id":39,"name":"Wx","steam_id":76561199217780897,"connected_time":475000000000,"state":"active","ping":120},{"user_id":34,"name":"DaWayOfRockets","steam_id":76561199228437541,"connected_time":739000000000,"state":"active","ping":118},{"user_id":17,"name":"timmy.1366","steam_id":76561199065433547,"connected_time":2151000000000,"state":"active","ping":78},{"user_id":18,"name":"forvb","steam_id":76561199246398123,"connected_time":2102000000000,"state":"active","ping":67},{"user_id":21,"name":"hotgamerth","steam_id":76561199026418153,"connected_time":1613000000000,"state":"active","ping":104},{"user_id":22,"name":"Ink Sans","steam_id":76561198412072687,"connected_time":1445000000000,"state":"active","ping":50},{"user_id":23,"name":"redmond","steam_id":76561198056390902,"connected_time":1405000000000,"state":"active","ping":70},{"user_id":26,"name":"aron","steam_id":76561198160062999,"connected_time":1245000000000,"state":"active","ping":59},{"user_id":25,"name":"33GA itsmejc_97 (f2p)","steam_id":76561199217594855,"connected_time":1309000000000,"state":"active","ping":213},{"user_id":27,"name":"Mari (Femboy therapy)","steam_id":76561199034546642,"connected_time":1107000000000,"state":"active","ping":115},{"user_id":28,"name":"eekynetwo(F2P Piss Sniper)","steam_id":76561198990017441,"connected_time":1076000000000,"state":"active","ping":87},{"user_id":33,"name":"Crazywayne","steam_id":76561198056504010,"connected_time":790000000000,"state":"active","ping":75},{"user_id":30,"name":"screaming sniper","steam_id":76561199085568674,"connected_time":1025000000000,"state":"active","ping":68},{"user_id":32,"name":"jole","steam_id":76561198037292232,"connected_time":933000000000,"state":"active","ping":104},{"user_id":35,"name":"マコ • Mako","steam_id":76561198288454382,"connected_time":663000000000,"state":"active","ping":80},{"user_id":36,"name":"IEatSoap","steam_id":76561198861586000,"connected_time":597000000000,"state":"active","ping":62},{"user_id":37,"name":"David Keithson","steam_id":76561199279393636,"connected_time":596000000000,"state":"active","ping":78},{"user_id":40,"name":"Hexaq","steam_id":76561199367765042,"connected_time":459000000000,"state":"active","ping":62},{"user_id":41,"name":"gay banana","steam_id":76561199091155095,"connected_time":448000000000,"state":"active","ping":82},{"user_id":42,"name":"Dits","steam_id":76561198283833960,"connected_time":413000000000,"state":"active","ping":55},{"user_id":43,"name":"protons","steam_id":76561198008307645,"connected_time":358000000000,"state":"active","ping":124},{"user_id":44,"name":"master 2go delivery driver","steam_id":76561198069402937,"connected_time":121000000000,"state":"active","ping":121}]},{"server_id":1,"name":"Uncletopia | Los Angeles | 1 | All Maps","name_short":"lax-1","host":"lax-1.us.uncletopia.com","port":27015,"enabled":true,"region":"us-west","cc":"us","latitude":33.94279,"longitude":-118.41004,"reserved":0,"last_update":"0001-01-01T00:00:00Z","name_a2s":"Uncletopia | Los Angeles | 1 | All Maps","protocol":17,"map":"pl_pier","folder":"tf","game":"Team Fortress","app_id":440,"player_count":24,"max_players":24,"Bots":0,"server_type":"Dedicated","server_os":"Linux","password":true,"vac":true,"version":"7961495","steam_id":85568392924469991,"keywords":["nocrits","nodmgspread","payload","uncletopia"],"game_id":440,"stv_port":27016,"stv_name":"Uncletopia | Los Angeles | 1 | All Maps | STV","players":[{"user_id":759,"name":"Swag6","steam_id":76561198064110837,"connected_time":5581000000000,"state":"active","ping":56},{"user_id":851,"name":"Xenoleith","steam_id":76561198993250002,"connected_time":884000000000,"state":"active","ping":69},{"user_id":744,"name":"lker","steam_id":76561197976975075,"connected_time":6033000000000,"state":"active","ping":88},{"user_id":817,"name":"Korn Dawg","steam_id":76561198026941076,"connected_time":2485000000000,"state":"active","ping":53},{"user_id":844,"name":"Happytoe","steam_id":76561198001295503,"connected_time":1256000000000,"state":"active","ping":70},{"user_id":842,"name":"dirty30","steam_id":76561198021226566,"connected_time":1689000000000,"state":"active","ping":70},{"user_id":819,"name":"Dogg wader","steam_id":76561199090314340,"connected_time":2453000000000,"state":"active","ping":87},{"user_id":852,"name":"xbox record that","steam_id":76561198150117455,"connected_time":109000000000,"state":"active","ping":60},{"user_id":784,"name":"Optimore","steam_id":76561198047662990,"connected_time":4444000000000,"state":"active","ping":45},{"user_id":754,"name":"Swag5","steam_id":76561198065311356,"connected_time":5734000000000,"state":"active","ping":48},{"user_id":831,"name":"Spaceman","steam_id":76561198349305249,"connected_time":2297000000000,"state":"active","ping":86},{"user_id":853,"name":"vee the fenn","steam_id":76561198049510832,"connected_time":105000000000,"state":"active","ping":58},{"user_id":845,"name":"pieoflife7","steam_id":76561198049517264,"connected_time":1249000000000,"state":"active","ping":73},{"user_id":835,"name":"Rusty","steam_id":76561198055585129,"connected_time":2133000000000,"state":"active","ping":78},{"user_id":846,"name":"meat","steam_id":76561198209153291,"connected_time":1194000000000,"state":"active","ping":53},{"user_id":838,"name":"Joseph Stalin","steam_id":76561198382398935,"connected_time":2004000000000,"state":"active","ping":92},{"user_id":824,"name":"boof^","steam_id":76561198087074444,"connected_time":2409000000000,"state":"active","ping":44},{"user_id":854,"name":"Verult (doesn't)Trade","steam_id":76561199018000017,"connected_time":102000000000,"state":"active","ping":52},{"user_id":778,"name":"WarBorg","steam_id":76561198929639228,"connected_time":4924000000000,"state":"active","ping":51},{"user_id":841,"name":"FriskyDemon","steam_id":76561198043684646,"connected_time":1794000000000,"state":"active","ping":73},{"user_id":843,"name":"elephant thumb","steam_id":76561198118859752,"connected_time":1296000000000,"state":"active","ping":47},{"user_id":847,"name":"mrthugpug1732","steam_id":76561198881200768,"connected_time":1183000000000,"state":"active","ping":62},{"user_id":848,"name":"a curved basket","steam_id":76561199192135759,"connected_time":1180000000000,"state":"active","ping":90},{"user_id":828,"name":"Maxmind24","steam_id":76561198859888778,"connected_time":2374000000000,"state":"active","ping":93}]},{"server_id":112,"name":"Uncletopia | Los Angeles | 2 | All Maps","name_short":"lax-2","host":"lax-1.us.uncletopia.com","port":27025,"enabled":true,"region":"us-west","cc":"us","latitude":33.94279,"longitude":-118.41004,"reserved":0,"last_update":"0001-01-01T00:00:00Z","name_a2s":"Uncletopia | Los Angeles | 2 | All Maps","protocol":17,"map":"cp_process_final","folder":"tf","game":"Team Fortress","app_id":440,"player_count":24,"max_players":24,"Bots":0,"server_type":"Dedicated","server_os":"Linux","password":true,"vac":true,"version":"7961495","steam_id":85568392924469992,"keywords":["cp","nocrits","nodmgspread","uncletopia"],"game_id":440,"stv_port":27026,"stv_name":"Uncletopia | Los Angeles | 2 | All Maps | STV","players":[{"user_id":210,"name":"Gyr0sphere","steam_id":76561198183900735,"connected_time":12589000000000,"state":"active","ping":59},{"user_id":333,"name":"CaiGaming","steam_id":76561198313023508,"connected_time":1406000000000,"state":"active","ping":62},{"user_id":330,"name":"Manchurian Bandit","steam_id":76561198072410042,"connected_time":1794000000000,"state":"active","ping":53},{"user_id":339,"name":"Clornk (Destroyer of Happiness)","steam_id":76561198360396485,"connected_time":941000000000,"state":"active","ping":70},{"user_id":326,"name":"HeroOfTime","steam_id":76561199096218001,"connected_time":2119000000000,"state":"active","ping":53},{"user_id":332,"name":"shreklover69","steam_id":76561198054070811,"connected_time":1423000000000,"state":"active","ping":49},{"user_id":287,"name":"MxDucken","steam_id":76561198272992055,"connected_time":6087000000000,"state":"active","ping":71},{"user_id":347,"name":"Dcoyotzi","steam_id":76561199124707627,"connected_time":58000000000,"state":"active","ping":73},{"user_id":349,"name":"An00bis","steam_id":76561198044084508,"connected_time":49000000000,"state":"active","ping":45},{"user_id":336,"name":"ydanay","steam_id":76561198088375486,"connected_time":1302000000000,"state":"active","ping":45},{"user_id":280,"name":"Sahalanthro","steam_id":76561199073298722,"connected_time":6726000000000,"state":"active","ping":41},{"user_id":352,"name":"Farseer Ulwithy","steam_id":76561197965179245,"connected_time":2000000000,"state":"spawning","ping":67},{"user_id":331,"name":"Skarp129","steam_id":76561198108679057,"connected_time":1679000000000,"state":"active","ping":45},{"user_id":346,"name":"Ralph Kramden (Slim Charles)","steam_id":76561197981687895,"connected_time":72000000000,"state":"active","ping":57},{"user_id":314,"name":"pajama mama mia","steam_id":76561198286627157,"connected_time":3809000000000,"state":"active","ping":47},{"user_id":291,"name":"Boba T","steam_id":76561198012278650,"connected_time":5748000000000,"state":"active","ping":85},{"user_id":309,"name":"zzz","steam_id":76561198962606396,"connected_time":4166000000000,"state":"active","ping":64},{"user_id":335,"name":"Sad Potate","steam_id":76561198445104375,"connected_time":1369000000000,"state":"active","ping":83},{"user_id":341,"name":"Squatter1","steam_id":76561198078987734,"connected_time":935000000000,"state":"active","ping":70},{"user_id":342,"name":"fasion dmeon","steam_id":76561198357132470,"connected_time":866000000000,"state":"active","ping":59},{"user_id":343,"name":"can karson","steam_id":76561199102391736,"connected_time":863000000000,"state":"active","ping":45},{"user_id":338,"name":"Lily Thorn","steam_id":76561198305488625,"connected_time":982000000000,"state":"active","ping":90},{"user_id":310,"name":"Sandman","steam_id":76561198298895280,"connected_time":4158000000000,"state":"active","ping":58},{"user_id":327,"name":"flo rida","steam_id":76561198226169704,"connected_time":2083000000000,"state":"active","ping":64}]},{"server_id":324,"name":"Uncletopia | Los Angeles | 3 | All Maps","name_short":"lax-3","host":"lax-1.us.uncletopia.com","port":27035,"enabled":true,"region":"us-west","cc":"us","latitude":33.94279,"longitude":-118.41004,"reserved":0,"last_update":"0001-01-01T00:00:00Z","name_a2s":"Uncletopia | Los Angeles | 3 | All Maps","protocol":17,"map":"cp_dustbowl","folder":"tf","game":"Team Fortress","app_id":440,"player_count":24,"max_players":24,"Bots":0,"server_type":"Dedicated","server_os":"Linux","password":true,"vac":true,"version":"7961495","steam_id":85568392924510198,"keywords":["cp","nocrits","nodmgspread","uncletopia"],"game_id":440,"stv_port":27036,"stv_name":"Uncletopia | Los Angeles | 3 | All Maps | STV","players":[{"user_id":290,"name":"plattar","steam_id":76561197992766173,"connected_time":2716000000000,"state":"active","ping":114},{"user_id":298,"name":"stir fried noodles","steam_id":76561198319442494,"connected_time":2238000000000,"state":"active","ping":55},{"user_id":332,"name":"KlassicLoL","steam_id":76561198081815303,"connected_time":270000000000,"state":"active","ping":49},{"user_id":328,"name":"white muslim dane cook","steam_id":76561198000979872,"connected_time":649000000000,"state":"active","ping":45},{"user_id":333,"name":"Chris","steam_id":76561197974464484,"connected_time":242000000000,"state":"active","ping":78},{"user_id":337,"name":"Anal Chief","steam_id":76561198057607580,"connected_time":75000000000,"state":"active","ping":57},{"user_id":287,"name":"Soulja Boy","steam_id":76561198066091050,"connected_time":3030000000000,"state":"active","ping":76},{"user_id":335,"name":"Star_Mann_Jr.","steam_id":76561198071148924,"connected_time":118000000000,"state":"active","ping":68},{"user_id":132,"name":"riSygneD","steam_id":76561198331618687,"connected_time":11636000000000,"state":"active","ping":36},{"user_id":331,"name":"happer","steam_id":76561198018252253,"connected_time":393000000000,"state":"active","ping":56},{"user_id":321,"name":"SneekiCheekiQbone","steam_id":76561198045077980,"connected_time":1062000000000,"state":"active","ping":42},{"user_id":317,"name":"Hobbes","steam_id":76561198018240326,"connected_time":1161000000000,"state":"active","ping":59},{"user_id":264,"name":"bernardo.kid2","steam_id":76561199104285830,"connected_time":4024000000000,"state":"active","ping":64},{"user_id":330,"name":"Bot Fortress 2","steam_id":76561197984325644,"connected_time":529000000000,"state":"active","ping":120},{"user_id":307,"name":"ve$ta","steam_id":76561198001532376,"connected_time":1387000000000,"state":"active","ping":66},{"user_id":312,"name":"[S]Mr. X [No Monitor]","steam_id":76561197963746035,"connected_time":1309000000000,"state":"active","ping":126},{"user_id":318,"name":"Kerplunk","steam_id":76561198202424300,"connected_time":1159000000000,"state":"active","ping":129},{"user_id":324,"name":"John JoJolands","steam_id":76561198256553006,"connected_time":857000000000,"state":"active","ping":73},{"user_id":286,"name":"lol","steam_id":76561198026491738,"connected_time":3070000000000,"state":"active","ping":56},{"user_id":279,"name":"poptart","steam_id":76561198173324597,"connected_time":3458000000000,"state":"active","ping":62},{"user_id":300,"name":"Bunger","steam_id":76561198951348154,"connected_time":2136000000000,"state":"active","ping":59},{"user_id":308,"name":"Tokey","steam_id":76561198825943127,"connected_time":1384000000000,"state":"active","ping":101},{"user_id":288,"name":"Rango","steam_id":76561198067275912,"connected_time":2866000000000,"state":"active","ping":67},{"user_id":315,"name":"WHITEDAWN","steam_id":76561199210002358,"connected_time":1261000000000,"state":"active","ping":126}]},{"server_id":25,"name":"Uncletopia | Los Angeles | 4 | Stopwatch Beta","name_short":"lax-4","host":"lax-1.us.uncletopia.com","port":27045,"enabled":true,"region":"us-west","cc":"us","latitude":33.94279,"longitude":-118.41004,"reserved":0,"last_update":"0001-01-01T00:00:00Z","name_a2s":"Uncletopia | Los Angeles | 4 | Stopwatch Beta","protocol":17,"map":"pl_borneo","folder":"tf","game":"Team Fortress","app_id":440,"player_count":0,"max_players":24,"Bots":0,"server_type":"Dedicated","server_os":"Linux","password":true,"vac":true,"version":"7961495","steam_id":85568392924510199,"keywords":["nocrits","nodmgspread","payload","uncletopia"],"game_id":440,"stv_port":27046,"stv_name":"Uncletopia | Los Angeles | 4 | Stopwatch Beta | STV","players":null},{"server_id":11,"name":"Uncletopia | London | 1 | All Maps","name_short":"lon-1","host":"lon-1.uk.uncletopia.com","port":27015,"enabled":true,"region":"eu","cc":"gb","latitude":51.509865,"longitude":-0.118092,"reserved":0,"last_update":"0001-01-01T00:00:00Z","name_a2s":"Uncletopia | London | 1 | All Maps","protocol":17,"map":"ctf_doublecross","folder":"tf","game":"Team Fortress","app_id":440,"player_count":22,"max_players":24,"Bots":0,"server_type":"Dedicated","server_os":"Linux","password":true,"vac":true,"version":"7961495","steam_id":85568392924367362,"keywords":["ctf","nocrits","nodmgspread","uncletopia"],"game_id":440,"stv_port":27016,"stv_name":"Uncletopia | London | 1 | All Maps | STV","players":[{"user_id":43,"name":"Avocado1262","steam_id":76561199077413016,"connected_time":91000000000,"state":"active","ping":69},{"user_id":4,"name":"ебучий случай","steam_id":76561199087920612,"connected_time":1795000000000,"state":"active","ping":132},{"user_id":6,"name":":3","steam_id":76561198169471853,"connected_time":1790000000000,"state":"active","ping":38},{"user_id":7,"name":"Gooby","steam_id":76561198383937031,"connected_time":1789000000000,"state":"active","ping":51},{"user_id":8,"name":"bird ideas","steam_id":76561199480942903,"connected_time":1785000000000,"state":"active","ping":74},{"user_id":25,"name":"Cosmetic brain","steam_id":76561198055936410,"connected_time":954000000000,"state":"active","ping":80},{"user_id":10,"name":";3","steam_id":76561198808699024,"connected_time":1779000000000,"state":"active","ping":71},{"user_id":23,"name":"Lyncurion","steam_id":76561199260022725,"connected_time":1345000000000,"state":"active","ping":84},{"user_id":12,"name":"Peter Kowalski","steam_id":76561198068241204,"connected_time":1770000000000,"state":"active","ping":61},{"user_id":21,"name":"lemon pene","steam_id":76561198206954985,"connected_time":1630000000000,"state":"active","ping":115},{"user_id":34,"name":"kyuta","steam_id":76561198382281653,"connected_time":612000000000,"state":"active","ping":76},{"user_id":15,"name":"Grekofun","steam_id":76561198758029808,"connected_time":1763000000000,"state":"active","ping":85},{"user_id":16,"name":"jonbob","steam_id":76561197963506620,"connected_time":1761000000000,"state":"active","ping":49},{"user_id":20,"name":"randem_","steam_id":76561198338793755,"connected_time":1722000000000,"state":"active","ping":37},{"user_id":18,"name":"АшДваЭсОЧетыре","steam_id":76561198846349729,"connected_time":1754000000000,"state":"active","ping":126},{"user_id":19,"name":"lojj","steam_id":76561198354457920,"connected_time":1748000000000,"state":"active","ping":46},{"user_id":27,"name":"costco-pilled individual","steam_id":76561198818037965,"connected_time":944000000000,"state":"active","ping":95},{"user_id":29,"name":"SmolJak","steam_id":76561199057045168,"connected_time":786000000000,"state":"active","ping":88},{"user_id":44,"name":"Lavender","steam_id":76561198151092311,"connected_time":62000000000,"state":"active","ping":55},{"user_id":38,"name":"zych1k","steam_id":76561198979227561,"connected_time":433000000000,"state":"active","ping":76},{"user_id":37,"name":"Qdarks","steam_id":76561198013391340,"connected_time":508000000000,"state":"active","ping":135},{"user_id":42,"name":"Faustino","steam_id":76561198061771785,"connected_time":209000000000,"state":"active","ping":78}]},{"server_id":114,"name":"Uncletopia | London | 2 | All Maps","name_short":"lon-2","host":"lon-1.uk.uncletopia.com","port":27025,"enabled":true,"region":"eu","cc":"gb","latitude":51.509865,"longitude":-0.118092,"reserved":0,"last_update":"0001-01-01T00:00:00Z","name_a2s":"Uncletopia | London | 2 | All Maps","protocol":17,"map":"cp_snakewater_final1","folder":"tf","game":"Team Fortress","app_id":440,"player_count":0,"max_players":24,"Bots":0,"server_type":"Dedicated","server_os":"Linux","password":true,"vac":true,"version":"7961495","steam_id":85568392924470941,"keywords":["cp","nocrits","nodmgspread","uncletopia"],"game_id":440,"stv_port":27026,"stv_name":"Uncletopia | London | 2 | All Maps | STV","players":null},{"server_id":320,"name":"Uncletopia | London | 3 | All Maps","name_short":"lon-3","host":"lon-1.uk.uncletopia.com","port":27035,"enabled":true,"region":"eu","cc":"gb","latitude":51.509865,"longitude":-0.118092,"reserved":0,"last_update":"0001-01-01T00:00:00Z","name_a2s":"Uncletopia | London | 3 | All Maps","protocol":17,"map":"pl_pier","folder":"tf","game":"Team Fortress","app_id":440,"player_count":0,"max_players":24,"Bots":0,"server_type":"Dedicated","server_os":"Linux","password":true,"vac":true,"version":"7961495","steam_id":85568392924510192,"keywords":["nocrits","nodmgspread","payload","uncletopia"],"game_id":440,"stv_port":27036,"stv_name":"Uncletopia | London | 3 | All Maps | STV","players":null},{"server_id":321,"name":"Uncletopia | London | 4 | All Maps","name_short":"lon-4","host":"lon-1.uk.uncletopia.com","port":27045,"enabled":true,"region":"eu","cc":"gb","latitude":51.509865,"longitude":-0.118092,"reserved":0,"last_update":"0001-01-01T00:00:00Z","name_a2s":"Uncletopia | London | 4 | All Maps","protocol":17,"map":"koth_viaduct","folder":"tf","game":"Team Fortress","app_id":440,"player_count":3,"max_players":24,"Bots":0,"server_type":"Dedicated","server_os":"Linux","password":true,"vac":true,"version":"7961495","steam_id":85568392924510193,"keywords":["cp","nocrits","nodmgspread","uncletopia"],"game_id":440,"stv_port":27046,"stv_name":"Uncletopia | London | 4 | All Maps | STV","players":[{"user_id":7,"name":"yuno appreciator","steam_id":76561198083286511,"connected_time":865000000000,"state":"active","ping":30},{"user_id":6,"name":"Paraxon","steam_id":76561198170656058,"connected_time":1248000000000,"state":"active","ping":56},{"user_id":8,"name":"Truegr","steam_id":76561198811912339,"connected_time":817000000000,"state":"active","ping":74}]},{"server_id":21,"name":"Uncletopia | London | 5 | All Maps","name_short":"lon-5","host":"lon-1.uk.uncletopia.com","port":27055,"enabled":true,"region":"eu","cc":"gb","latitude":51.509865,"longitude":-0.118092,"reserved":0,"last_update":"0001-01-01T00:00:00Z","name_a2s":"Uncletopia | London | 5 | All Maps","protocol":17,"map":"pl_barnblitz","folder":"tf","game":"Team Fortress","app_id":440,"player_count":0,"max_players":24,"Bots":0,"server_type":"Dedicated","server_os":"Linux","password":true,"vac":true,"version":"7961495","steam_id":85568392924742829,"keywords":["nocrits","nodmgspread","payload","uncletopia"],"game_id":440,"stv_port":27056,"stv_name":"Uncletopia | London | 5 | All Maps | STV","players":null},{"server_id":22,"name":"Uncletopia | London | 6 | All Maps","name_short":"lon-6","host":"lon-1.uk.uncletopia.com","port":27065,"enabled":true,"region":"eu","cc":"gb","latitude":51.509865,"longitude":-0.118092,"reserved":0,"last_update":"0001-01-01T00:00:00Z","name_a2s":"Uncletopia | London | 6 | All Maps","protocol":17,"map":"pl_borneo","folder":"tf","game":"Team Fortress","app_id":440,"player_count":0,"max_players":24,"Bots":0,"server_type":"Dedicated","server_os":"Linux","password":true,"vac":true,"version":"7961495","steam_id":85568392924742830,"keywords":["nocrits","nodmgspread","payload","uncletopia"],"game_id":440,"stv_port":27066,"stv_name":"Uncletopia | London | 6 | All Maps | STV","players":null},{"server_id":40,"name":"Uncletopia | London | 7 | No Payload","name_short":"lon-7","host":"lon-1.uk.uncletopia.com","port":27075,"enabled":true,"region":"eu","cc":"gb","latitude":51.509865,"longitude":-0.118092,"reserved":0,"last_update":"0001-01-01T00:00:00Z","name_a2s":"Uncletopia | London | 7 | No Payload","protocol":17,"map":"pl_pier","folder":"tf","game":"Team Fortress","app_id":440,"player_count":0,"max_players":24,"Bots":0,"server_type":"Dedicated","server_os":"Linux","password":true,"vac":true,"version":"7961495","steam_id":85568392924964314,"keywords":["nocrits","nodmgspread","payload","uncletopia"],"game_id":440,"stv_port":27076,"stv_name":"Uncletopia | London | 7 | No Payload | STV","players":null},{"server_id":41,"name":"Uncletopia | London | 8 | Community","name_short":"lon-8","host":"lon-1.uk.uncletopia.com","port":27085,"enabled":true,"region":"eu","cc":"gb","latitude":51.509865,"longitude":-0.118092,"reserved":0,"last_update":"0001-01-01T00:00:00Z","name_a2s":"Uncletopia | London | 8 | Community","protocol":17,"map":"pl_borneo","folder":"tf","game":"Team Fortress","app_id":440,"player_count":0,"max_players":24,"Bots":0,"server_type":"Dedicated","server_os":"Linux","password":true,"vac":true,"version":"7961495","steam_id":85568392924964315,"keywords":["nocrits","nodmgspread","payload","uncletopia"],"game_id":440,"stv_port":27086,"stv_name":"Uncletopia | London | 8 | Community | STV","players":null},{"server_id":300,"name":"Uncletopia | Montréal | 1 | All Maps","name_short":"mtl-1","host":"mtl-1.ca.uncletopia.com","port":27015,"enabled":true,"region":"us-east","cc":"ca","latitude":45.50889,"longitude":-73.56167,"reserved":0,"last_update":"0001-01-01T00:00:00Z","name_a2s":"","protocol":0,"map":"","folder":"","game":"","app_id":0,"player_count":0,"max_players":0,"Bots":0,"server_type":"","server_os":"","password":false,"vac":false,"version":"","steam_id":0,"keywords":null,"game_id":0,"stv_port":0,"stv_name":"","players":null},{"server_id":301,"name":"Uncletopia | Montréal | 2 | All Maps","name_short":"mtl-2","host":"mtl-1.ca.uncletopia.com","port":27025,"enabled":true,"region":"us-east","cc":"ca","latitude":45.50889,"longitude":-73.56167,"reserved":0,"last_update":"0001-01-01T00:00:00Z","name_a2s":"","protocol":0,"map":"","folder":"","game":"","app_id":0,"player_count":0,"max_players":0,"Bots":0,"server_type":"","server_os":"","password":false,"vac":false,"version":"","steam_id":0,"keywords":null,"game_id":0,"stv_port":0,"stv_name":"","players":null},{"server_id":302,"name":"Uncletopia | Montréal | 3 | All Maps","name_short":"mtl-3","host":"mtl-1.ca.uncletopia.com","port":27035,"enabled":true,"region":"us-east","cc":"ca","latitude":45.50889,"longitude":-73.56167,"reserved":0,"last_update":"0001-01-01T00:00:00Z","name_a2s":"","protocol":0,"map":"","folder":"","game":"","app_id":0,"player_count":0,"max_players":0,"Bots":0,"server_type":"","server_os":"","password":false,"vac":false,"version":"","steam_id":0,"keywords":null,"game_id":0,"stv_port":0,"stv_name":"","players":null},{"server_id":303,"name":"Uncletopia | Montréal | 4 | No Payload","name_short":"mtl-4","host":"mtl-1.ca.uncletopia.com","port":27045,"enabled":true,"region":"us-east","cc":"ca","latitude":45.50889,"longitude":-73.56167,"reserved":0,"last_update":"0001-01-01T00:00:00Z","name_a2s":"","protocol":0,"map":"","folder":"","game":"","app_id":0,"player_count":0,"max_players":0,"Bots":0,"server_type":"","server_os":"","password":false,"vac":false,"version":"","steam_id":0,"keywords":null,"game_id":0,"stv_port":0,"stv_name":"","players":null},{"server_id":13,"name":"Uncletopia | New York City | 1 | All Maps","name_short":"nyc-1","host":"nyc-1.us.uncletopia.com","port":27015,"enabled":true,"region":"us-east","cc":"us","latitude":40.73061,"longitude":-73.93524,"reserved":0,"last_update":"0001-01-01T00:00:00Z","name_a2s":"Uncletopia | New York City | 1 | All Maps","protocol":17,"map":"pl_upward","folder":"tf","game":"Team Fortress","app_id":440,"player_count":24,"max_players":24,"Bots":0,"server_type":"Dedicated","server_os":"Linux","password":true,"vac":true,"version":"7961495","steam_id":85568392924469993,"keywords":["nocrits","nodmgspread","payload","uncletopia"],"game_id":440,"stv_port":27016,"stv_name":"Uncletopia | New York City | 1 | All Maps | STV","players":[{"user_id":676,"name":"Sickmind33","steam_id":76561198036248611,"connected_time":321000000000,"state":"active","ping":66},{"user_id":662,"name":"Vanity™","steam_id":76561198141858576,"connected_time":961000000000,"state":"active","ping":92},{"user_id":649,"name":"ExoTheFlyingFish","steam_id":76561198034388243,"connected_time":2290000000000,"state":"active","ping":45},{"user_id":664,"name":"Virtual Zorua","steam_id":76561198196180302,"connected_time":856000000000,"state":"active","ping":88},{"user_id":634,"name":"freyja","steam_id":76561198012480197,"connected_time":3152000000000,"state":"active","ping":124},{"user_id":675,"name":"pouchie pundit","steam_id":76561198010639538,"connected_time":428000000000,"state":"active","ping":57},{"user_id":666,"name":"Purchase","steam_id":76561198821991700,"connected_time":798000000000,"state":"active","ping":84},{"user_id":635,"name":"Willowl","steam_id":76561198074612980,"connected_time":3117000000000,"state":"active","ping":95},{"user_id":632,"name":"Skipikip","steam_id":76561198125019458,"connected_time":3735000000000,"state":"active","ping":45},{"user_id":636,"name":"Axo to the Maxo","steam_id":76561198045206604,"connected_time":3064000000000,"state":"active","ping":130},{"user_id":637,"name":"Ahten Xevious","steam_id":76561198075469828,"connected_time":3054000000000,"state":"active","ping":56},{"user_id":628,"name":"Pink Balloon Yoshi from NSMBU","steam_id":76561198258126130,"connected_time":4326000000000,"state":"active","ping":62},{"user_id":670,"name":"Tidwell","steam_id":76561198037414410,"connected_time":672000000000,"state":"active","ping":61},{"user_id":655,"name":"v8o1","steam_id":76561198127599257,"connected_time":1657000000000,"state":"active","ping":87},{"user_id":667,"name":"Rambly Dambly","steam_id":76561198844496567,"connected_time":745000000000,"state":"active","ping":44},{"user_id":668,"name":"Gram Tokers Count Doinkula","steam_id":76561198112811565,"connected_time":686000000000,"state":"active","ping":59},{"user_id":654,"name":"Nobody","steam_id":76561198085808754,"connected_time":1907000000000,"state":"active","ping":97},{"user_id":653,"name":"Tea Enthusiast","steam_id":76561198185583925,"connected_time":2041000000000,"state":"active","ping":39},{"user_id":671,"name":"DEQUAVIS","steam_id":76561198843060075,"connected_time":653000000000,"state":"active","ping":114},{"user_id":613,"name":"PackingPeanutt :]","steam_id":76561199053229413,"connected_time":5190000000000,"state":"active","ping":86},{"user_id":672,"name":"JACK BRUNO","steam_id":76561198027957690,"connected_time":625000000000,"state":"active","ping":141},{"user_id":674,"name":"Quillz","steam_id":76561197996567754,"connected_time":607000000000,"state":"active","ping":46},{"user_id":631,"name":"Dylanxp300","steam_id":76561198271974937,"connected_time":3758000000000,"state":"active","ping":65},{"user_id":661,"name":"Tony hawks pro skater 2 dlc","steam_id":76561198243387974,"connected_time":1112000000000,"state":"active","ping":59}]},{"server_id":14,"name":"Uncletopia | New York City | 2 | All Maps","name_short":"nyc-2","host":"nyc-1.us.uncletopia.com","port":27025,"enabled":true,"region":"us-east","cc":"us","latitude":40.73061,"longitude":-73.93524,"reserved":0,"last_update":"0001-01-01T00:00:00Z","name_a2s":"Uncletopia | New York City | 2 | All Maps","protocol":17,"map":"pl_barnblitz","folder":"tf","game":"Team Fortress","app_id":440,"player_count":24,"max_players":24,"Bots":0,"server_type":"Dedicated","server_os":"Linux","password":true,"vac":true,"version":"7961495","steam_id":85568392924469994,"keywords":["nocrits","nodmgspread","payload","uncletopia"],"game_id":440,"stv_port":27026,"stv_name":"Uncletopia | New York City | 2 | All Maps | STV","players":[{"user_id":828,"name":"SpunkNugget","steam_id":76561198046401833,"connected_time":2461000000000,"state":"active","ping":131},{"user_id":864,"name":"Feces","steam_id":76561198380219187,"connected_time":265000000000,"state":"active","ping":68},{"user_id":856,"name":"bikerkid207","steam_id":76561198390782783,"connected_time":1033000000000,"state":"active","ping":56},{"user_id":839,"name":"mytoyo2k2","steam_id":76561199486326945,"connected_time":1687000000000,"state":"active","ping":75},{"user_id":863,"name":"We Go Crazy","steam_id":76561198209641359,"connected_time":283000000000,"state":"active","ping":76},{"user_id":832,"name":"CF-TF2","steam_id":76561198145893044,"connected_time":2049000000000,"state":"active","ping":61},{"user_id":865,"name":"VenANON","steam_id":76561198055676240,"connected_time":252000000000,"state":"active","ping":71},{"user_id":866,"name":"MR. BEEEEEEEEEEEEEAAAAAAAAAAST","steam_id":76561198205346760,"connected_time":227000000000,"state":"active","ping":59},{"user_id":854,"name":"Speedy","steam_id":76561198080761661,"connected_time":1075000000000,"state":"active","ping":60},{"user_id":825,"name":"Ludcmorais","steam_id":76561198359217809,"connected_time":2613000000000,"state":"active","ping":176},{"user_id":867,"name":"flamingcookies","steam_id":76561198280864779,"connected_time":197000000000,"state":"active","ping":87},{"user_id":868,"name":"steady","steam_id":76561198210433363,"connected_time":195000000000,"state":"active","ping":70},{"user_id":862,"name":"JoeyX","steam_id":76561198022449835,"connected_time":313000000000,"state":"active","ping":83},{"user_id":835,"name":"Need Big Titty Cow Furry GF","steam_id":76561198072580699,"connected_time":1998000000000,"state":"active","ping":58},{"user_id":869,"name":"Triple Lizard","steam_id":76561198188459654,"connected_time":188000000000,"state":"active","ping":69},{"user_id":836,"name":"honch","steam_id":76561198832647822,"connected_time":1951000000000,"state":"active","ping":60},{"user_id":870,"name":"DropBear","steam_id":76561197964435496,"connected_time":117000000000,"state":"active","ping":103},{"user_id":773,"name":"Mitchell","steam_id":76561198072641336,"connected_time":5272000000000,"state":"active","ping":60},{"user_id":826,"name":"mollusk_obliteration","steam_id":76561198085388962,"connected_time":2493000000000,"state":"active","ping":60},{"user_id":806,"name":"Neophyte","steam_id":76561198027183394,"connected_time":3785000000000,"state":"active","ping":121},{"user_id":857,"name":"concrete_car","steam_id":76561198388207363,"connected_time":1025000000000,"state":"active","ping":69},{"user_id":871,"name":"bop","steam_id":76561198394080554,"connected_time":48000000000,"state":"active","ping":135},{"user_id":850,"name":"stinker","steam_id":76561198838807174,"connected_time":1230000000000,"state":"active","ping":69},{"user_id":860,"name":"WitheringLeo","steam_id":76561198046722918,"connected_time":830000000000,"state":"active","ping":70}]},{"server_id":15,"name":"Uncletopia | New York City | 3 | Stopwatch Beta","name_short":"nyc-3","host":"nyc-1.us.uncletopia.com","port":27035,"enabled":true,"region":"us-east","cc":"us","latitude":40.73061,"longitude":-73.93524,"reserved":0,"last_update":"0001-01-01T00:00:00Z","name_a2s":"Uncletopia | New York City | 3 | Stopwatch Beta","protocol":17,"map":"workshop/koth_ramjam_rc1.ugc459778887","folder":"tf","game":"Team Fortress","app_id":440,"player_count":0,"max_players":24,"Bots":0,"server_type":"Dedicated","server_os":"Linux","password":true,"vac":true,"version":"7961495","steam_id":85568392924742820,"keywords":["cp","nocrits","nodmgspread","uncletopia"],"game_id":440,"stv_port":27036,"stv_name":"Uncletopia | New York City | 3 | Stopwatch Beta | STV","players":null},{"server_id":16,"name":"Uncletopia | New York City | 4 | Community","name_short":"nyc-4","host":"nyc-1.us.uncletopia.com","port":27045,"enabled":true,"region":"us-east","cc":"us","latitude":40.73061,"longitude":-73.93524,"reserved":0,"last_update":"0001-01-01T00:00:00Z","name_a2s":"Uncletopia | New York City | 4 | Community","protocol":17,"map":"workshop/koth_ashville_final.ugc2130459942","folder":"tf","game":"Team Fortress","app_id":440,"player_count":5,"max_players":24,"Bots":0,"server_type":"Dedicated","server_os":"Linux","password":true,"vac":true,"version":"7961495","steam_id":85568392924742821,"keywords":["cp","nocrits","nodmgspread","uncletopia"],"game_id":440,"stv_port":27046,"stv_name":"Uncletopia | New York City | 4 | Community | STV","players":[{"user_id":855,"name":"teeny #Rs","steam_id":76561198103598619,"connected_time":613000000000,"state":"active","ping":32},{"user_id":787,"name":"🟠","steam_id":76561198018213050,"connected_time":4974000000000,"state":"active","ping":46},{"user_id":835,"name":"Chicken Joe","steam_id":76561198278185182,"connected_time":2008000000000,"state":"active","ping":43},{"user_id":833,"name":"potato pat","steam_id":76561198025489194,"connected_time":2143000000000,"state":"active","ping":89},{"user_id":837,"name":"corpse","steam_id":76561198108938632,"connected_time":1907000000000,"state":"active","ping":47}]},{"server_id":142,"name":"Uncletopia | São Paulo | 1 | All Maps","name_short":"sao-1","host":"sao-1.br.uncletopia.com","port":27015,"enabled":true,"region":"sa","cc":"br","latitude":-23.533773,"longitude":-46.62529,"reserved":0,"last_update":"0001-01-01T00:00:00Z","name_a2s":"Uncletopia | São Paulo | 1 | All Maps","protocol":17,"map":"koth_viaduct","folder":"tf","game":"Team Fortress","app_id":440,"player_count":3,"max_players":24,"Bots":0,"server_type":"Dedicated","server_os":"Linux","password":true,"vac":true,"version":"7961495","steam_id":85568392924469996,"keywords":["cp","nocrits","nodmgspread","uncletopia"],"game_id":440,"stv_port":27016,"stv_name":"Uncletopia | São Paulo | 1 | All Maps | STV","players":[{"user_id":29,"name":"Joel Miller","steam_id":76561199115552134,"connected_time":2628000000000,"state":"active","ping":87},{"user_id":30,"name":"Sniker","steam_id":76561198418115944,"connected_time":2599000000000,"state":"active","ping":80},{"user_id":31,"name":"RUFUS \u003c3","steam_id":76561199067362389,"connected_time":2533000000000,"state":"active","ping":76}]},{"server_id":143,"name":"Uncletopia | São Paulo | 2 | Community","name_short":"sao-2","host":"sao-2.br.uncletopia.com","port":27015,"enabled":true,"region":"sa","cc":"br","latitude":-23.533773,"longitude":-46.62529,"reserved":0,"last_update":"0001-01-01T00:00:00Z","name_a2s":"Uncletopia | São Paulo | 2 | Community","protocol":17,"map":"workshop/rd_asteroid_redux_b1.ugc2154902912","folder":"tf","game":"Team Fortress","app_id":440,"player_count":0,"max_players":24,"Bots":0,"server_type":"Dedicated","server_os":"Linux","password":true,"vac":true,"version":"7961495","steam_id":85568392924485349,"keywords":["beta","nocrits","nodmgspread","rd","uncletopia"],"game_id":440,"stv_port":27016,"stv_name":"Uncletopia | São Paulo | 2 | Community | STV","players":null},{"server_id":7,"name":"Uncletopia | Seattle | 1 | All Maps","name_short":"sea-1","host":"sea-1.us.uncletopia.com","port":27015,"enabled":true,"region":"us-west","cc":"us","latitude":47.608013,"longitude":-122.33517,"reserved":0,"last_update":"0001-01-01T00:00:00Z","name_a2s":"Uncletopia | Seattle | 1 | All Maps","protocol":17,"map":"koth_harvest_final","folder":"tf","game":"Team Fortress","app_id":440,"player_count":24,"max_players":24,"Bots":0,"server_type":"Dedicated","server_os":"Linux","password":true,"vac":true,"version":"7961495","steam_id":85568392924469997,"keywords":["cp","nocrits","nodmgspread","uncletopia"],"game_id":440,"stv_port":27016,"stv_name":"Uncletopia | Seattle | 1 | All Maps | STV","players":[{"user_id":638,"name":"Frostwind","steam_id":76561198152611087,"connected_time":996000000000,"state":"active","ping":89},{"user_id":628,"name":"toes","steam_id":76561198221151676,"connected_time":1831000000000,"state":"active","ping":58},{"user_id":619,"name":"Sniff","steam_id":76561198010270922,"connected_time":3168000000000,"state":"active","ping":51},{"user_id":534,"name":"blozet","steam_id":76561199120161035,"connected_time":11188000000000,"state":"active","ping":80},{"user_id":645,"name":"Meso","steam_id":76561199088153190,"connected_time":548000000000,"state":"active","ping":56},{"user_id":646,"name":"trackpad gaming | f2p","steam_id":76561198840414371,"connected_time":227000000000,"state":"active","ping":50},{"user_id":577,"name":"[COS]SonneyDonkeh","steam_id":76561198091284496,"connected_time":7324000000000,"state":"active","ping":92},{"user_id":639,"name":"Finkly","steam_id":76561198049828110,"connected_time":977000000000,"state":"active","ping":43},{"user_id":632,"name":"mub","steam_id":76561197961943948,"connected_time":1793000000000,"state":"active","ping":45},{"user_id":641,"name":"nile","steam_id":76561197980035714,"connected_time":945000000000,"state":"active","ping":60},{"user_id":581,"name":"pepe warlord","steam_id":76561198080819197,"connected_time":7220000000000,"state":"active","ping":83},{"user_id":635,"name":"THAT CAT","steam_id":76561198010828625,"connected_time":1387000000000,"state":"active","ping":45},{"user_id":618,"name":"spenca","steam_id":76561198025371154,"connected_time":3289000000000,"state":"active","ping":69},{"user_id":631,"name":"Josep","steam_id":76561198345759958,"connected_time":1800000000000,"state":"active","ping":69},{"user_id":610,"name":"ms. anthrope","steam_id":76561198063533082,"connected_time":4190000000000,"state":"active","ping":44},{"user_id":626,"name":"Apollo","steam_id":76561198162364702,"connected_time":2117000000000,"state":"active","ping":46},{"user_id":644,"name":"Turts","steam_id":76561197998448097,"connected_time":572000000000,"state":"active","ping":65},{"user_id":477,"name":"Doofenshmirtz Evil Inc.","steam_id":76561198439793697,"connected_time":14720000000000,"state":"active","ping":149},{"user_id":642,"name":"Arsonist Goose","steam_id":76561198147441830,"connected_time":878000000000,"state":"active","ping":73},{"user_id":636,"name":"S Q U I S H E  T H A T  C A T","steam_id":76561198293865429,"connected_time":1381000000000,"state":"active","ping":45},{"user_id":630,"name":"slushy :))","steam_id":76561198135281802,"connected_time":1811000000000,"state":"active","ping":61},{"user_id":601,"name":"Gnarly Bones Real","steam_id":76561198175628151,"connected_time":5292000000000,"state":"active","ping":63},{"user_id":625,"name":"HotHead","steam_id":76561198138468982,"connected_time":2538000000000,"state":"active","ping":52},{"user_id":623,"name":"William P. Ennis","steam_id":76561198073464877,"connected_time":2825000000000,"state":"active","ping":112}]},{"server_id":119,"name":"Uncletopia | Seattle | 2 | All Maps","name_short":"sea-2","host":"sea-1.us.uncletopia.com","port":27025,"enabled":true,"region":"us-west","cc":"us","latitude":47.608013,"longitude":-122.33517,"reserved":0,"last_update":"0001-01-01T00:00:00Z","name_a2s":"Uncletopia | Seattle | 2 | All Maps","protocol":17,"map":"pl_badwater","folder":"tf","game":"Team Fortress","app_id":440,"player_count":19,"max_players":24,"Bots":0,"server_type":"Dedicated","server_os":"Linux","password":true,"vac":true,"version":"7961495","steam_id":85568392924469998,"keywords":["nocrits","nodmgspread","payload","uncletopia"],"game_id":440,"stv_port":27026,"stv_name":"Uncletopia | Seattle | 2 | All Maps | STV","players":[{"user_id":541,"name":"top Golf","steam_id":76561198241265568,"connected_time":175000000000,"state":"active","ping":38},{"user_id":542,"name":"Contraband","steam_id":76561198089204658,"connected_time":175000000000,"state":"active","ping":83},{"user_id":521,"name":"BLØRG","steam_id":76561198036126673,"connected_time":1564000000000,"state":"active","ping":79},{"user_id":544,"name":"Got It Figured Out","steam_id":76561198041329791,"connected_time":124000000000,"state":"active","ping":75},{"user_id":530,"name":"Minecraft Furnace","steam_id":76561199071151136,"connected_time":1290000000000,"state":"active","ping":70},{"user_id":546,"name":"grassyboulder","steam_id":76561199083593292,"connected_time":39000000000,"state":"active","ping":74},{"user_id":545,"name":"Limp Pumpo Discography Fan Club","steam_id":76561198145748479,"connected_time":56000000000,"state":"active","ping":57},{"user_id":547,"name":"MOM","steam_id":76561198057884377,"connected_time":32000000000,"state":"spawning","ping":92},{"user_id":519,"name":"CreamFreaker","steam_id":76561198320293423,"connected_time":1602000000000,"state":"active","ping":54},{"user_id":522,"name":"UnReLinked","steam_id":76561199366044663,"connected_time":1552000000000,"state":"active","ping":53},{"user_id":543,"name":"Brian","steam_id":76561198144650969,"connected_time":169000000000,"state":"active","ping":88},{"user_id":538,"name":"Bocchi The Rock Johnson","steam_id":76561198216017952,"connected_time":419000000000,"state":"active","ping":88},{"user_id":491,"name":"big and greedy","steam_id":76561198036753164,"connected_time":3622000000000,"state":"active","ping":123},{"user_id":531,"name":"Gibby","steam_id":76561198359568579,"connected_time":1147000000000,"state":"active","ping":58},{"user_id":540,"name":"Rorver","steam_id":76561198114030795,"connected_time":341000000000,"state":"active","ping":54},{"user_id":526,"name":"juan.png","steam_id":76561199276894516,"connected_time":1448000000000,"state":"active","ping":57},{"user_id":511,"name":"bobbymcbobington","steam_id":76561199089411172,"connected_time":2551000000000,"state":"active","ping":177},{"user_id":489,"name":"theOMEGAchickengirl89","steam_id":76561198070136627,"connected_time":3732000000000,"state":"active","ping":76},{"user_id":533,"name":"fartstreaks enraged","steam_id":76561198046073848,"connected_time":788000000000,"state":"active","ping":52}]},{"server_id":406,"name":"Uncletopia | Seattle | 3 | Stopwatch Beta","name_short":"sea-3","host":"sea-1.us.uncletopia.com","port":27035,"enabled":true,"region":"us-west","cc":"us","latitude":47.608013,"longitude":-122.33517,"reserved":0,"last_update":"0001-01-01T00:00:00Z","name_a2s":"Uncletopia | Seattle | 3 | Stopwatch Beta","protocol":17,"map":"workshop/koth_bagel_rc6.ugc2514036946","folder":"tf","game":"Team Fortress","app_id":440,"player_count":1,"max_players":24,"Bots":0,"server_type":"Dedicated","server_os":"Linux","password":true,"vac":true,"version":"7961495","steam_id":85568392924515217,"keywords":["cp","nocrits","nodmgspread","uncletopia"],"game_id":440,"stv_port":27036,"stv_name":"Uncletopia | Seattle | 3 | Stopwatch Beta | STV","players":[{"user_id":22,"name":"D0VE","steam_id":76561198151618566,"connected_time":84000000000,"state":"active","ping":58}]},{"server_id":17,"name":"Uncletopia | San Francisco | 1 | All Maps","name_short":"sfo-1","host":"sfo-1.us.uncletopia.com","port":27015,"enabled":true,"region":"us-west","cc":"us","latitude":37.77397,"longitude":-122.4313,"reserved":0,"last_update":"0001-01-01T00:00:00Z","name_a2s":"Uncletopia | San Francisco | 1 | All Maps","protocol":17,"map":"koth_suijin","folder":"tf","game":"Team Fortress","app_id":440,"player_count":0,"max_players":24,"Bots":0,"server_type":"Dedicated","server_os":"Linux","password":true,"vac":true,"version":"7961495","steam_id":85568392924469999,"keywords":["cp","nocrits","nodmgspread","uncletopia"],"game_id":440,"stv_port":27016,"stv_name":"Uncletopia | San Francisco | 1 | All Maps | STV","players":null},{"server_id":18,"name":"Uncletopia | San Francisco | 2 | All Maps","name_short":"sfo-2","host":"sfo-1.us.uncletopia.com","port":27025,"enabled":true,"region":"us-west","cc":"us","latitude":37.77397,"longitude":-122.4313,"reserved":0,"last_update":"0001-01-01T00:00:00Z","name_a2s":"Uncletopia | San Francisco | 2 | All Maps","protocol":17,"map":"koth_viaduct","folder":"tf","game":"Team Fortress","app_id":440,"player_count":24,"max_players":24,"Bots":0,"server_type":"Dedicated","server_os":"Linux","password":true,"vac":true,"version":"7961495","steam_id":85568392924470000,"keywords":["cp","nocrits","nodmgspread","uncletopia"],"game_id":440,"stv_port":27026,"stv_name":"Uncletopia | San Francisco | 2 | All Maps | STV","players":[{"user_id":294,"name":"Silvermace","steam_id":76561198090696843,"connected_time":576000000000,"state":"active","ping":54},{"user_id":249,"name":"Sterling Nano","steam_id":76561198048580088,"connected_time":5495000000000,"state":"active","ping":59},{"user_id":277,"name":"PS2","steam_id":76561198108799902,"connected_time":2347000000000,"state":"active","ping":98},{"user_id":297,"name":"Munkers","steam_id":76561198286585058,"connected_time":323000000000,"state":"active","ping":81},{"user_id":295,"name":"delight","steam_id":76561197980280272,"connected_time":399000000000,"state":"active","ping":64},{"user_id":296,"name":"DesertFroggo","steam_id":76561198015607829,"connected_time":398000000000,"state":"active","ping":228},{"user_id":305,"name":"Pop-Tart Eater","steam_id":76561198080822164,"connected_time":66000000000,"state":"active","ping":72},{"user_id":298,"name":"Genius Meme","steam_id":76561198162911254,"connected_time":296000000000,"state":"active","ping":84},{"user_id":285,"name":"mega","steam_id":76561198089520959,"connected_time":2116000000000,"state":"active","ping":109},{"user_id":299,"name":"wedwind","steam_id":76561199089931270,"connected_time":290000000000,"state":"active","ping":75},{"user_id":306,"name":"Kaiga","steam_id":76561198044052046,"connected_time":52000000000,"state":"active","ping":105},{"user_id":258,"name":"azureglxy","steam_id":76561198861388315,"connected_time":4267000000000,"state":"active","ping":47},{"user_id":304,"name":"Truffle","steam_id":76561198074327454,"connected_time":79000000000,"state":"active","ping":52},{"user_id":217,"name":"Florist","steam_id":76561198009121060,"connected_time":7135000000000,"state":"active","ping":72},{"user_id":269,"name":"McDonald","steam_id":76561199028533497,"connected_time":3425000000000,"state":"active","ping":60},{"user_id":234,"name":"NEBULA","steam_id":76561198086878595,"connected_time":6041000000000,"state":"active","ping":55},{"user_id":240,"name":"fungi","steam_id":76561198169755734,"connected_time":5781000000000,"state":"active","ping":45},{"user_id":275,"name":"Cheezbeargur","steam_id":76561198164702899,"connected_time":2447000000000,"state":"active","ping":48},{"user_id":301,"name":"RiceLover","steam_id":76561198064631164,"connected_time":227000000000,"state":"active","ping":61},{"user_id":293,"name":"gamer_cruncher","steam_id":76561198973306314,"connected_time":1101000000000,"state":"active","ping":55},{"user_id":290,"name":"Stranger The Bukkake Ranger","steam_id":76561198043314392,"connected_time":2058000000000,"state":"active","ping":60},{"user_id":291,"name":"homewurk","steam_id":76561199080327081,"connected_time":2040000000000,"state":"active","ping":91},{"user_id":303,"name":"Future Tusk","steam_id":76561198199635217,"connected_time":213000000000,"state":"active","ping":78},{"user_id":272,"name":"rory :3","steam_id":76561198065825165,"connected_time":2825000000000,"state":"active","ping":111}]},{"server_id":19,"name":"Uncletopia | San Francisco | 3 | Stopwatch Beta","name_short":"sfo-3","host":"sfo-1.us.uncletopia.com","port":27035,"enabled":true,"region":"us-west","cc":"us","latitude":37.77397,"longitude":-122.4313,"reserved":0,"last_update":"0001-01-01T00:00:00Z","name_a2s":"Uncletopia | San Francisco | 3 | Stopwatch Beta","protocol":17,"map":"koth_lakeside_final","folder":"tf","game":"Team Fortress","app_id":440,"player_count":0,"max_players":24,"Bots":0,"server_type":"Dedicated","server_os":"Linux","password":true,"vac":true,"version":"7961495","steam_id":85568392924742824,"keywords":["cp","nocrits","nodmgspread","uncletopia"],"game_id":440,"stv_port":27036,"stv_name":"Uncletopia | San Francisco | 3 | Stopwatch Beta | STV","players":null},{"server_id":20,"name":"Uncletopia | San Francisco | 4 | Community","name_short":"sfo-4","host":"sfo-1.us.uncletopia.com","port":27045,"enabled":true,"region":"us-west","cc":"us","latitude":37.77397,"longitude":-122.4313,"reserved":0,"last_update":"0001-01-01T00:00:00Z","name_a2s":"Uncletopia | San Francisco | 4 | Community","protocol":17,"map":"koth_viaduct","folder":"tf","game":"Team Fortress","app_id":440,"player_count":0,"max_players":24,"Bots":0,"server_type":"Dedicated","server_os":"Linux","password":true,"vac":true,"version":"7961495","steam_id":85568392924742826,"keywords":["cp","nocrits","nodmgspread","uncletopia"],"game_id":440,"stv_port":27046,"stv_name":"Uncletopia | San Francisco | 4 | Community | STV","players":null},{"server_id":141,"name":"Uncletopia | Sydney | 1 | All Maps","name_short":"syd-1","host":"syd-1.au.uncletopia.com","port":27015,"enabled":true,"region":"au","cc":"au","latitude":-33.865143,"longitude":151.2099,"reserved":0,"last_update":"0001-01-01T00:00:00Z","name_a2s":"Uncletopia | Sydney | 1 | All Maps","protocol":17,"map":"koth_lakeside_final","folder":"tf","game":"Team Fortress","app_id":440,"player_count":24,"max_players":24,"Bots":0,"server_type":"Dedicated","server_os":"Linux","password":true,"vac":true,"version":"7961495","steam_id":85568392924470001,"keywords":["cp","nocrits","nodmgspread","uncletopia"],"game_id":440,"stv_port":27016,"stv_name":"Uncletopia | Sydney | 1 | All Maps | STV","players":[{"user_id":234,"name":"Team Fartress Poo","steam_id":76561198139598106,"connected_time":2383000000000,"state":"active","ping":50},{"user_id":271,"name":"KHATSK","steam_id":76561198830995906,"connected_time":370000000000,"state":"active","ping":71},{"user_id":264,"name":"Meerkat","steam_id":76561198298662979,"connected_time":633000000000,"state":"active","ping":27},{"user_id":229,"name":"minealotdude","steam_id":76561198997249192,"connected_time":2718000000000,"state":"active","ping":72},{"user_id":246,"name":"stroob","steam_id":76561198045320644,"connected_time":1707000000000,"state":"active","ping":51},{"user_id":252,"name":"Goose","steam_id":76561198371868232,"connected_time":1532000000000,"state":"active","ping":91},{"user_id":218,"name":"sf/k","steam_id":76561198047758776,"connected_time":3058000000000,"state":"active","ping":40},{"user_id":266,"name":"ToadFungus","steam_id":76561199219667039,"connected_time":434000000000,"state":"active","ping":102},{"user_id":222,"name":"BobTheHuminoid","steam_id":76561199241312725,"connected_time":2935000000000,"state":"active","ping":60},{"user_id":219,"name":"Slimy and Very Puntable Femboi","steam_id":76561198212958225,"connected_time":3045000000000,"state":"active","ping":45},{"user_id":247,"name":"DJ hogsucker","steam_id":76561198125023443,"connected_time":1648000000000,"state":"active","ping":52},{"user_id":272,"name":"ibus","steam_id":76561199026701614,"connected_time":118000000000,"state":"active","ping":63},{"user_id":256,"name":"the ape","steam_id":76561198354289272,"connected_time":1042000000000,"state":"active","ping":57},{"user_id":258,"name":"porplonkies","steam_id":76561199071833524,"connected_time":980000000000,"state":"active","ping":50},{"user_id":245,"name":"Axrobrat","steam_id":76561199262089427,"connected_time":1711000000000,"state":"active","ping":59},{"user_id":270,"name":"RatKunt","steam_id":76561198004901938,"connected_time":382000000000,"state":"active","ping":55},{"user_id":265,"name":"Garry's Mod Rod","steam_id":76561197977993958,"connected_time":552000000000,"state":"active","ping":54},{"user_id":267,"name":"kiddy piss drinker","steam_id":76561198171302857,"connected_time":424000000000,"state":"active","ping":46},{"user_id":251,"name":"xbox2070","steam_id":76561198452767008,"connected_time":1561000000000,"state":"active","ping":49},{"user_id":227,"name":"Tiblyat","steam_id":76561198093077688,"connected_time":2752000000000,"state":"active","ping":74},{"user_id":269,"name":"Griffin","steam_id":76561198024926514,"connected_time":413000000000,"state":"active","ping":86},{"user_id":268,"name":"Slyrak","steam_id":76561198037259674,"connected_time":423000000000,"state":"active","ping":82},{"user_id":262,"name":"Muffin","steam_id":76561198075391119,"connected_time":793000000000,"state":"active","ping":56},{"user_id":231,"name":"CoolJosh3k .com","steam_id":76561197997407342,"connected_time":2664000000000,"state":"active","ping":47}]},{"server_id":123,"name":"Uncletopia | Sydney | 2 | All Maps","name_short":"syd-2","host":"syd-1.au.uncletopia.com","port":27025,"enabled":true,"region":"au","cc":"au","latitude":-33.865143,"longitude":151.2099,"reserved":0,"last_update":"0001-01-01T00:00:00Z","name_a2s":"Uncletopia | Sydney | 2 | All Maps","protocol":17,"map":"pl_upward","folder":"tf","game":"Team Fortress","app_id":440,"player_count":21,"max_players":24,"Bots":0,"server_type":"Dedicated","server_os":"Linux","password":true,"vac":true,"version":"7961495","steam_id":85568392924470002,"keywords":["nocrits","nodmgspread","payload","uncletopia"],"game_id":440,"stv_port":27026,"stv_name":"Uncletopia | Sydney | 2 | All Maps | STV","players":[{"user_id":168,"name":"Cozza","steam_id":76561198090069548,"connected_time":799000000000,"state":"active","ping":70},{"user_id":113,"name":"benadryl shadow man","steam_id":76561198079345240,"connected_time":5695000000000,"state":"active","ping":60},{"user_id":172,"name":"Hippity_Hoppity","steam_id":76561198861050395,"connected_time":328000000000,"state":"active","ping":66},{"user_id":180,"name":"Blondie","steam_id":76561198046977058,"connected_time":124000000000,"state":"active","ping":64},{"user_id":182,"name":"Pod","steam_id":76561199004403322,"connected_time":37000000000,"state":"active","ping":59},{"user_id":143,"name":"homes inc","steam_id":76561198170188198,"connected_time":3535000000000,"state":"active","ping":53},{"user_id":169,"name":"Owlenstein™","steam_id":76561198093983826,"connected_time":444000000000,"state":"active","ping":116},{"user_id":158,"name":"Ganome Chilled","steam_id":76561198064898965,"connected_time":2010000000000,"state":"active","ping":78},{"user_id":183,"name":"ladys man","steam_id":76561198048143510,"connected_time":19000000000,"state":"spawning","ping":146},{"user_id":139,"name":"lofty","steam_id":76561198380588357,"connected_time":3762000000000,"state":"active","ping":61},{"user_id":165,"name":"Dusty","steam_id":76561197961747465,"connected_time":1021000000000,"state":"active","ping":119},{"user_id":171,"name":"Halla875","steam_id":76561198371206561,"connected_time":388000000000,"state":"active","ping":69},{"user_id":173,"name":"2200","steam_id":76561198048634605,"connected_time":319000000000,"state":"active","ping":46},{"user_id":154,"name":"d_b","steam_id":76561198078299597,"connected_time":2892000000000,"state":"active","ping":65},{"user_id":141,"name":"WikkyD","steam_id":76561198043452962,"connected_time":3602000000000,"state":"active","ping":60},{"user_id":178,"name":"WAGR L class (real)","steam_id":76561199249059042,"connected_time":175000000000,"state":"active","ping":117},{"user_id":170,"name":"Maestro[FmJ]","steam_id":76561197996842734,"connected_time":399000000000,"state":"active","ping":62},{"user_id":184,"name":"hry","steam_id":76561198217576436,"connected_time":5000000000,"state":"spawning","ping":152},{"user_id":160,"name":"SamK #AnnexTF2","steam_id":76561198149051619,"connected_time":1758000000000,"state":"active","ping":65},{"user_id":114,"name":"Curie","steam_id":76561198132928417,"connected_time":5636000000000,"state":"active","ping":59},{"user_id":117,"name":"fourjaf","steam_id":76561198163147051,"connected_time":5394000000000,"state":"active","ping":50}]},{"server_id":395,"name":"Uncletopia | Sydney | 3 | All Maps","name_short":"syd-3","host":"syd-1.au.uncletopia.com","port":27035,"enabled":true,"region":"au","cc":"au","latitude":-33.865143,"longitude":151.2099,"reserved":0,"last_update":"0001-01-01T00:00:00Z","name_a2s":"Uncletopia | Sydney | 3 | All Maps","protocol":17,"map":"pl_frontier_final","folder":"tf","game":"Team Fortress","app_id":440,"player_count":0,"max_players":24,"Bots":0,"server_type":"Dedicated","server_os":"Linux","password":true,"vac":true,"version":"7961495","steam_id":85568392925194467,"keywords":["nocrits","nodmgspread","payload","uncletopia"],"game_id":440,"stv_port":27036,"stv_name":"Uncletopia | Sydney | 3 | All Maps | STV","players":null},{"server_id":396,"name":"Uncletopia | Sydney | 4 | All Maps","name_short":"syd-4","host":"syd-1.au.uncletopia.com","port":27045,"enabled":true,"region":"au","cc":"au","latitude":-33.865143,"longitude":151.2099,"reserved":0,"last_update":"0001-01-01T00:00:00Z","name_a2s":"Uncletopia | Sydney | 4 | All Maps","protocol":17,"map":"koth_cascade","folder":"tf","game":"Team Fortress","app_id":440,"player_count":0,"max_players":24,"Bots":0,"server_type":"Dedicated","server_os":"Linux","password":true,"vac":true,"version":"7961495","steam_id":85568392925397958,"keywords":["cp","nocrits","nodmgspread","uncletopia"],"game_id":440,"stv_port":27046,"stv_name":"Uncletopia | Sydney | 4 | All Maps | STV","players":null},{"server_id":58,"name":"Uncletopia | Sydney | 5 | Stopwatch Beta","name_short":"syd-5","host":"syd-1.au.uncletopia.com","port":27055,"enabled":true,"region":"au","cc":"au","latitude":-33.865143,"longitude":151.2099,"reserved":0,"last_update":"0001-01-01T00:00:00Z","name_a2s":"Uncletopia | Sydney | 5 | Stopwatch Beta","protocol":17,"map":"workshop/pl_vigil_rc9.ugc1266210012","folder":"tf","game":"Team Fortress","app_id":440,"player_count":0,"max_players":24,"Bots":0,"server_type":"Dedicated","server_os":"Linux","password":true,"vac":true,"version":"7961495","steam_id":85568392925397959,"keywords":["nocrits","nodmgspread","payload","uncletopia"],"game_id":440,"stv_port":27056,"stv_name":"Uncletopia | Sydney | 5 | Stopwatch Beta | STV","players":null},{"server_id":59,"name":"Uncletopia | Sydney | 6 | Community","name_short":"syd-6","host":"syd-1.au.uncletopia.com","port":27065,"enabled":true,"region":"au","cc":"au","latitude":-33.865143,"longitude":151.2099,"reserved":0,"last_update":"0001-01-01T00:00:00Z","name_a2s":"Uncletopia | Sydney | 6 | Community","protocol":17,"map":"workshop/koth_product_final.ugc454272353","folder":"tf","game":"Team Fortress","app_id":440,"player_count":0,"max_players":24,"Bots":0,"server_type":"Dedicated","server_os":"Linux","password":true,"vac":true,"version":"7961495","steam_id":85568392925397960,"keywords":["cp","nocrits","nodmgspread","uncletopia"],"game_id":440,"stv_port":27066,"stv_name":"Uncletopia | Sydney | 6 | Community | STV","players":null},{"server_id":49,"name":"Uncletopia | Warsaw | 1 | All Maps","name_short":"waw-1","host":"waw-1.pl.uncletopia.com","port":27015,"enabled":true,"region":"eu","cc":"pl","latitude":52.2297,"longitude":21.017532,"reserved":0,"last_update":"0001-01-01T00:00:00Z","name_a2s":"Uncletopia | Warsaw | 1 | All Maps","protocol":17,"map":"pl_swiftwater_final1","folder":"tf","game":"Team Fortress","app_id":440,"player_count":0,"max_players":24,"Bots":0,"server_type":"Dedicated","server_os":"Linux","password":true,"vac":true,"version":"7961495","steam_id":85568392925397850,"keywords":["nocrits","nodmgspread","payload","uncletopia"],"game_id":440,"stv_port":27016,"stv_name":"Uncletopia | Warsaw | 1 | All Maps | STV","players":null},{"server_id":50,"name":"Uncletopia | Warsaw | 2 | All Maps","name_short":"waw-2","host":"waw-1.pl.uncletopia.com","port":27025,"enabled":true,"region":"eu","cc":"pl","latitude":52.2297,"longitude":21.017532,"reserved":0,"last_update":"0001-01-01T00:00:00Z","name_a2s":"Uncletopia | Warsaw | 2 | All Maps","protocol":17,"map":"cp_dustbowl","folder":"tf","game":"Team Fortress","app_id":440,"player_count":0,"max_players":24,"Bots":0,"server_type":"Dedicated","server_os":"Linux","password":true,"vac":true,"version":"7961495","steam_id":85568392925397851,"keywords":["cp","nocrits","nodmgspread","uncletopia"],"game_id":440,"stv_port":27026,"stv_name":"Uncletopia | Warsaw | 2 | All Maps | STV","players":null},{"server_id":51,"name":"Uncletopia | Warsaw | 3 | All Maps","name_short":"waw-3","host":"waw-1.pl.uncletopia.com","port":27035,"enabled":true,"region":"eu","cc":"pl","latitude":52.2297,"longitude":21.017532,"reserved":0,"last_update":"0001-01-01T00:00:00Z","name_a2s":"Uncletopia | Warsaw | 3 | All Maps","protocol":17,"map":"pl_upward","folder":"tf","game":"Team Fortress","app_id":440,"player_count":0,"max_players":24,"Bots":0,"server_type":"Dedicated","server_os":"Linux","password":true,"vac":true,"version":"7961495","steam_id":85568392925397852,"keywords":["nocrits","nodmgspread","payload","uncletopia"],"game_id":440,"stv_port":27036,"stv_name":"Uncletopia | Warsaw | 3 | All Maps | STV","players":null},{"server_id":52,"name":"Uncletopia | Warsaw | 4 | All Maps","name_short":"waw-4","host":"waw-1.pl.uncletopia.com","port":27045,"enabled":true,"region":"eu","cc":"pl","latitude":52.2297,"longitude":21.017532,"reserved":0,"last_update":"0001-01-01T00:00:00Z","name_a2s":"Uncletopia | Warsaw | 4 | All Maps","protocol":17,"map":"koth_viaduct","folder":"tf","game":"Team Fortress","app_id":440,"player_count":0,"max_players":24,"Bots":0,"server_type":"Dedicated","server_os":"Linux","password":true,"vac":true,"version":"7961495","steam_id":85568392925397853,"keywords":["cp","nocrits","nodmgspread","uncletopia"],"game_id":440,"stv_port":27046,"stv_name":"Uncletopia | Warsaw | 4 | All Maps | STV","players":null},{"server_id":53,"name":"Uncletopia | Warsaw | 5 | Stopwatch Beta","name_short":"waw-5","host":"waw-1.pl.uncletopia.com","port":27055,"enabled":true,"region":"eu","cc":"pl","latitude":52.2297,"longitude":21.017532,"reserved":0,"last_update":"0001-01-01T00:00:00Z","name_a2s":"Uncletopia | Warsaw | 5 | Stopwatch Beta","protocol":17,"map":"cp_snakewater_final1","folder":"tf","game":"Team Fortress","app_id":440,"player_count":0,"max_players":24,"Bots":0,"server_type":"Dedicated","server_os":"Linux","password":true,"vac":true,"version":"7961495","steam_id":85568392925397854,"keywords":["cp","nocrits","nodmgspread","uncletopia"],"game_id":440,"stv_port":27056,"stv_name":"Uncletopia | Warsaw | 5 | Stopwatch Beta | STV","players":null},{"server_id":54,"name":"Uncletopia | Warsaw | 6 | Community","name_short":"waw-6","host":"waw-1.pl.uncletopia.com","port":27065,"enabled":true,"region":"eu","cc":"pl","latitude":52.2297,"longitude":21.017532,"reserved":0,"last_update":"0001-01-01T00:00:00Z","name_a2s":"Uncletopia | Warsaw | 6 | Community","protocol":17,"map":"cp_mountainlab","folder":"tf","game":"Team Fortress","app_id":440,"player_count":0,"max_players":24,"Bots":0,"server_type":"Dedicated","server_os":"Linux","password":true,"vac":true,"version":"7961495","steam_id":85568392925397856,"keywords":["cp","nocrits","nodmgspread","uncletopia"],"game_id":440,"stv_port":27066,"stv_name":"Uncletopia | Warsaw | 6 | Community | STV","players":null}]}