{"status":true,"message":"","result":[{"server_id":9,"name":"Uncletopia | Atlanta | 1 | All Maps","name_short":"atl-1","host":"atl-1.us.uncletopia.com","port":27015,"enabled":true,"region":"us-east","cc":"us","latitude":33.753746,"longitude":-84.38633,"reserved":0,"last_update":"0001-01-01T00:00:00Z","name_a2s":"Uncletopia | Atlanta | 1 | All Maps","protocol":17,"map":"pl_upward","folder":"tf","game":"Team Fortress","app_id":440,"player_count":24,"max_players":24,"Bots":0,"server_type":"Dedicated","server_os":"Linux","password":true,"vac":true,"version":"7961495","steam_id":85568392924469982,"keywords":["nocrits","nodmgspread","payload","uncletopia"],"game_id":440,"stv_port":27016,"stv_name":"Uncletopia | Atlanta | 1 | All Maps | STV","players":[{"user_id":471,"name":"Drapph","steam_id":76561199384213314,"connected_time":583000000000,"state":"active","ping":89},{"user_id":481,"name":"TheSpanishInfluenza","steam_id":76561198358803887,"connected_time":265000000000,"state":"active","ping":78},{"user_id":477,"name":"TransSatanic, Artist Arc","steam_id":76561198080212467,"connected_time":389000000000,"state":"active","ping":96},{"user_id":455,"name":"hatchetax","steam_id":76561199013337543,"connected_time":1588000000000,"state":"active","ping":45},{"user_id":479,"name":"Robo Boss","steam_id":76561199067098696,"connected_time":308000000000,"state":"active","ping":69},{"user_id":367,"name":"Mickey","steam_id":76561197976868960,"connected_time":5567000000000,"state":"active","ping":167},{"user_id":480,"name":"Tarr Boy","steam_id":76561198025775376,"connected_time":294000000000,"state":"active","ping":75},{"user_id":470,"name":"superx","steam_id":76561198044976613,"connected_time":708000000000,"state":"active","ping":68},{"user_id":491,"name":"EchoicK","steam_id":76561198001003249,"connected_time":54000000000,"state":"active","ping":90},{"user_id":483,"name":"duke8714","steam_id":76561199229982201,"connected_time":252000000000,"state":"active","ping":75},{"user_id":484,"name":"Kuwait Grips","steam_id":76561198292689973,"connected_time":221000000000,"state":"active","ping":62},{"user_id":460,"name":"Legit_Jaxer","steam_id":76561198172234053,"connected_time":1461000000000,"state":"active","ping":105},{"user_id":485,"name":"Alex","steam_id":76561198116937513,"connected_time":196000000000,"state":"active","ping":82},{"user_id":486,"name":"Sean","steam_id":76561198892489967,"connected_time":188000000000,"state":"active","ping":86},{"user_id":465,"name":"Melaza Madera","steam_id":76561199031977210,"connected_time":912000000000,"state":"active","ping":88},{"user_id":487,"name":"Forced2Wipe","steam_id":76561198170390298,"connected_time":182000000000,"state":"active","ping":70},{"user_id":488,"name":"immeasurable dps loss","steam_id":76561198408747483,"connected_time":181000000000,"state":"active","ping":74},{"user_id":444,"name":"Okpar","steam_id":76561199221067945,"connected_time":1965000000000,"state":"active","ping":73},{"user_id":489,"name":"Jesus","steam_id":76561198018890911,"connected_time":149000000000,"state":"active","ping":56},{"user_id":490,"name":"The Business Man","steam_id":76561198059907124,"connected_time":143000000000,"state":"active","ping":143},{"user_id":469,"name":"INFINITE","steam_id":76561197971285557,"connected_time":844000000000,"state":"active","ping":71},{"user_id":492,"name":"Vanilla Gorilla","steam_id":76561198191252966,"connected_time":47000000000,"state":"active","ping":79},{"user_id":453,"name":"tokenoid","steam_id":76561198319595959,"connected_time":1613000000000,"state":"active","ping":61},{"user_id":463,"name":"chexo4","steam_id":76561198150532531,"connected_time":1093000000000,"state":"active","ping":51}]},{"server_id":104,"name":"Uncletopia | Atlanta | 2 | All Maps","name_short":"atl-2","host":"atl-1.us.uncletopia.com","port":27025,"enabled":true,"region":"us-east","cc":"us","latitude":33.753746,"longitude":-84.38633,"reserved":0,"last_update":"0001-01-01T00:00:00Z","name_a2s":"Uncletopia | Atlanta | 2 | All Maps","protocol":17,"map":"koth_nucleus","folder":"tf","game":"Team Fortress","app_id":440,"player_count":12,"max_players":24,"Bots":0,"server_type":"Dedicated","server_os":"Linux","password":true,"vac":true,"version":"7961495","steam_id":85568392924469983,"keywords":["cp","nocrits","nodmgspread","uncletopia"],"game_id":440,"stv_port":27026,"stv_name":"Uncletopia | Atlanta | 2 | All Maps | STV","players":[{"user_id":266,"name":"Lilbolo","steam_id":76561198169883647,"connected_time":2491000000000,"state":"active","ping":74},{"user_id":294,"name":"big boy bobert","steam_id":76561198801207748,"connected_time":109000000000,"state":"active","ping":37},{"user_id":259,"name":"sleepy.haste","steam_id":76561199283485895,"connected_time":3557000000000,"state":"active","ping":116},{"user_id":271,"name":"Filthy Hobo","steam_id":76561198174373015,"connected_time":1992000000000,"state":"active","ping":114},{"user_id":295,"name":"Sushi Chef Gaming","steam_id":76561199038566105,"connected_time":32000000000,"state":"active","ping":69},{"user_id":274,"name":"abolish the federal reserve","steam_id":76561198047796437,"connected_time":1950000000000,"state":"active","ping":94},{"user_id":275,"name":"Supa Dupt","steam_id":76561198166666289,"connected_time":1940000000000,"state":"active","ping":84},{"user_id":140,"name":"Tang","steam_id":76561198121340574,"connected_time":10255000000000,"state":"active","ping":113},{"user_id":283,"name":"battle heavy","steam_id":76561198340865425,"connected_time":1554000000000,"state":"active","ping":51},{"user_id":261,"name":"tac","steam_id":76561198408477421,"connected_time":3459000000000,"state":"active","ping":89},{"user_id":285,"name":"VP of Gucci","steam_id":76561198281968441,"connected_time":1525000000000,"state":"active","ping":113},{"user_id":225,"name":"Agent Escoteiro","steam_id":76561198050994994,"connected_time":5881000000000,"state":"active","ping":112}]},{"server_id":400,"name":"Uncletopia | Atlanta | 3 | Stopwatch","name_short":"atl-3","host":"atl-1.us.uncletopia.com","port":27035,"enabled":true,"region":"us-east","cc":"us","latitude":33.753746,"longitude":-84.38633,"reserved":0,"last_update":"0001-01-01T00:00:00Z","name_a2s":"Uncletopia | Atlanta | 3 | Stopwatch","protocol":17,"map":"workshop/pl_badwater_pro_v12.ugc2142942074","folder":"tf","game":"Team Fortress","app_id":440,"player_count":4,"max_players":24,"Bots":0,"server_type":"Dedicated","server_os":"Linux","password":true,"vac":true,"version":"7961495","steam_id":85568392924515187,"keywords":["nocrits","nodmgspread","payload","uncletopia"],"game_id":440,"stv_port":27036,"stv_name":"Uncletopia | Atlanta | 3 | Stopwatch | STV","players":[{"user_id":23,"name":"Jackotron20","steam_id":76561198297113817,"connected_time":506000000000,"state":"active","ping":66},{"user_id":24,"name":"Alucard","steam_id":76561198311057872,"connected_time":494000000000,"state":"active","ping":61},{"user_id":26,"name":"iTz_Shade","steam_id":76561199067358435,"connected_time":442000000000,"state":"active","ping":61},{"user_id":28,"name":"kdhbuilder","steam_id":76561199058095193,"connected_time":203000000000,"state":"active","ping":74}]},{"server_id":401,"name":"Uncletopia | Atlanta | 4 | Community","name_short":"atl-4","host":"atl-1.us.uncletopia.com","port":27045,"enabled":true,"region":"us-east","cc":"us","latitude":33.753746,"longitude":-84.38633,"reserved":0,"last_update":"0001-01-01T00:00:00Z","name_a2s":"Uncletopia | Atlanta | 4 | Community","protocol":17,"map":"workshop/pl_highwood_b13.ugc1769496557","folder":"tf","game":"Team Fortress","app_id":440,"player_count":0,"max_players":24,"Bots":0,"server_type":"Dedicated","server_os":"Linux","password":true,"vac":true,"version":"7961495","steam_id":85568392924515188,"keywords":["nocrits","nodmgspread","payload","uncletopia"],"game_id":440,"stv_port":27046,"stv_name":"Uncletopia | Atlanta | 4 | Community | STV","players":null},{"server_id":2,"name":"Uncletopia | Chicago | 1 | All Maps","name_short":"chi-1","host":"chi-1.us.uncletopia.com","port":27015,"enabled":true,"region":"us-central","cc":"us","latitude":41.881832,"longitude":-87.62318,"reserved":0,"last_update":"0001-01-01T00:00:00Z","name_a2s":"Uncletopia | Chicago | 1 | All Maps","protocol":17,"map":"pl_pier","folder":"tf","game":"Team Fortress","app_id":440,"player_count":24,"max_players":24,"Bots":0,"server_type":"Dedicated","server_os":"Linux","password":true,"vac":true,"version":"7961495","steam_id":85568392924469984,"keywords":["nocrits","nodmgspread","payload","uncletopia"],"game_id":440,"stv_port":27016,"stv_name":"Uncletopia | Chicago | 1 | All Maps | STV","players":[{"user_id":494,"name":"‡∏∏","steam_id":76561198170624701,"connected_time":1201000000000,"state":"active","ping":75},{"user_id":497,"name":"TallBit","steam_id":76561199059748976,"connected_time":584000000000,"state":"active","ping":52},{"user_id":501,"name":"I Eat Money","steam_id":76561199226007666,"connected_time":538000000000,"state":"active","ping":75},{"user_id":510,"name":"turbulence junior","steam_id":76561198357603665,"connected_time":139000000000,"state":"active","ping":47},{"user_id":509,"name":"Mburesh","steam_id":76561198137460717,"connected_time":258000000000,"state":"active","ping":52},{"user_id":443,"name":"V. G. Sunderland","steam_id":76561198161839980,"connected_time":4600000000000,"state":"active","ping":61},{"user_id":476,"name":"Dr. Maybe","steam_id":76561198268304564,"connected_time":2086000000000,"state":"active","ping":89},{"user_id":413,"name":"Astoriae!","steam_id":76561199090168858,"connected_time":7052000000000,"state":"active","ping":68},{"user_id":495,"name":"ViserOfOrder","steam_id":76561198137222506,"connected_time":1098000000000,"state":"active","ping":49},{"user_id":485,"name":"chunk","steam_id":76561198134775401,"connected_time":1887000000000,"state":"active","ping":58},{"user_id":487,"name":"Celestial Bodies","steam_id":76561198212572955,"connected_time":1622000000000,"state":"active","ping":78},{"user_id":506,"name":"Orange Triangle","steam_id":76561198320498182,"connected_time":341000000000,"state":"active","ping":60},{"user_id":473,"name":"THE ULTIMATE JOHN","steam_id":76561199082758073,"connected_time":2198000000000,"state":"active","ping":50},{"user_id":474,"name":"Green eggs and ham","steam_id":76561198043507340,"connected_time":2185000000000,"state":"active","ping":98},{"user_id":511,"name":"garf","steam_id":76561198451939128,"connected_time":63000000000,"state":"active","ping":96},{"user_id":464,"name":"scrundlebundle","steam_id":76561199209883822,"connected_time":3285000000000,"state":"active","ping":97},{"user_id":502,"name":"TheGreythreat","steam_id":76561198021995538,"connected_time":533000000000,"state":"active","ping":65},{"user_id":512,"name":"shalankawanak","steam_id":76561198987719376,"connected_time":62000000000,"state":"active","ping":60},{"user_id":480,"name":"y0","steam_id":76561198143894333,"connected_time":2013000000000,"state":"active","ping":51},{"user_id":513,"name":"Keattt","steam_id":76561198037514022,"connected_time":61000000000,"state":"active","ping":73},{"user_id":508,"name":"Fairlife Cow","steam_id":76561198242227952,"connected_time":300000000000,"state":"active","ping":76},{"user_id":514,"name":"Venk","steam_id":76561198251131422,"connected_time":39000000000,"state":"active","ping":62},{"user_id":455,"name":"Zeora","steam_id":76561198799145251,"connected_time":4418000000000,"state":"active","ping":78},{"user_id":493,"name":"Spy Gaming","steam_id":76561198453295613,"connected_time":1317000000000,"state":"active","ping":112}]},{"server_id":106,"name":"Uncletopia | Chicago | 2 | All Maps","name_short":"chi-2","host":"chi-1.us.uncletopia.com","port":27025,"enabled":true,"region":"us-central","cc":"us","latitude":41.881832,"longitude":-87.62318,"reserved":0,"last_update":"0001-01-01T00:00:00Z","name_a2s":"Uncletopia | Chicago | 2 | All Maps","protocol":17,"map":"koth_highpass","folder":"tf","game":"Team Fortress","app_id":440,"player_count":23,"max_players":24,"Bots":0,"server_type":"Dedicated","server_os":"Linux","password":true,"vac":true,"version":"7961495","steam_id":85568392924469985,"keywords":["cp","nocrits","nodmgspread","uncletopia"],"game_id":440,"stv_port":27026,"stv_name":"Uncletopia | Chicago | 2 | All Maps | STV","players":[{"user_id":414,"name":"CupFruit","steam_id":76561198983993193,"connected_time":1349000000000,"state":"active","ping":72},{"user_id":390,"name":"c64guy","steam_id":76561198023022744,"connected_time":2980000000000,"state":"active","ping":59},{"user_id":426,"name":"beats!","steam_id":76561199245717718,"connected_time":495000000000,"state":"active","ping":56},{"user_id":423,"name":"baedeker","steam_id":76561199081837220,"connected_time":727000000000,"state":"active","ping":68},{"user_id":416,"name":"NIKOLAbree123","steam_id":76561198247037348,"connected_time":1302000000000,"state":"active","ping":179},{"user_id":308,"name":"Beebo, Son of Beebo","steam_id":76561198055948497,"connected_time":7800000000000,"state":"active","ping":55},{"user_id":425,"name":"LukeLeal","steam_id":76561198049822995,"connected_time":639000000000,"state":"active","ping":163},{"user_id":415,"name":"e doctor","steam_id":76561198081851446,"connected_time":1334000000000,"state":"active","ping":45},{"user_id":384,"name":"gorf?","steam_id":76561198142286417,"connected_time":3912000000000,"state":"active","ping":55},{"user_id":411,"name":"ninety9dragonfly","steam_id":76561198363406983,"connected_time":1437000000000,"state":"active","ping":103},{"user_id":430,"name":"leeroy","steam_id":76561198226418600,"connected_time":252000000000,"state":"active","ping":80},{"user_id":412,"name":"ka mimako","steam_id":76561198947714769,"connected_time":1430000000000,"state":"active","ping":52},{"user_id":391,"name":"msay","steam_id":76561198170888029,"connected_time":2955000000000,"state":"active","ping":96},{"user_id":386,"name":"CyborgHexapus4","steam_id":76561198160335724,"connected_time":3571000000000,"state":"active","ping":96},{"user_id":429,"name":"Nerf Clean Hit","steam_id":76561198257691881,"connected_time":366000000000,"state":"active","ping":89},{"user_id":421,"name":"boneboy88","steam_id":76561199231079499,"connected_time":1162000000000,"state":"active","ping":75},{"user_id":419,"name":"otwtomarsoffdabars(spacecore)","steam_id":76561199085974120,"connected_time":1273000000000,"state":"active","ping":76},{"user_id":406,"name":"Wolfman","steam_id":76561198095264646,"connected_time":1815000000000,"state":"active","ping":89},{"user_id":420,"name":"AMU","steam_id":76561198092346231,"connected_time":1254000000000,"state":"active","ping":64},{"user_id":407,"name":"yELLow","steam_id":76561198178488195,"connected_time":1556000000000,"state":"active","ping":73},{"user_id":427,"name":"Skeeter Squash","steam_id":76561198129162464,"connected_time":463000000000,"state":"active","ping":76},{"user_id":381,"name":"J The Jounin","steam_id":76561198034583622,"connected_time":4124000000000,"state":"active","ping":75},{"user_id":431,"name":"johs","steam_id":76561198827312411,"connected_time":150000000000,"state":"active","ping":60}]},{"server_id":402,"name":"Uncletopia | Chicago | 3 | All Maps","name_short":"chi-3","host":"chi-1.us.uncletopia.com","port":27035,"enabled":true,"region":"us-central","cc":"us","latitude":41.881832,"longitude":-87.62318,"reserved":0,"last_update":"0001-01-01T00:00:00Z","name_a2s":"Uncletopia | Chicago | 3 | All Maps","protocol":17,"map":"pl_pier","folder":"tf","game":"Team Fortress","app_id":440,"player_count":23,"max_players":24,"Bots":0,"server_type":"Dedicated","server_os":"Linux","password":true,"vac":true,"version":"7961495","steam_id":85568392924515191,"keywords":["nocrits","nodmgspread","payload","uncletopia"],"game_id":440,"stv_port":27036,"stv_name":"Uncletopia | Chicago | 3 | All Maps | STV","players":[{"user_id":372,"name":"Pepsiman","steam_id":76561198436946165,"connected_time":320000000000,"state":"active","ping":82},{"user_id":352,"name":"Erebus","steam_id":76561199061956673,"connected_time":1662000000000,"state":"active","ping":84},{"user_id":364,"name":"MOUSE4LOCK","steam_id":76561198930221211,"connected_time":1182000000000,"state":"active","ping":124},{"user_id":378,"name":"Hobo Shanker","steam_id":76561198001785187,"connected_time":259000000000,"state":"active","ping":87},{"user_id":199,"name":"Andrew Weber","steam_id":76561199359977174,"connected_time":10707000000000,"state":"active","ping":96},{"user_id":306,"name":"StompArtist","steam_id":76561198056247405,"connected_time":5034000000000,"state":"active","ping":77},{"user_id":359,"name":"gamerfan539","steam_id":76561198803527852,"connected_time":1421000000000,"state":"active","ping":64},{"user_id":373,"name":"Caribou","steam_id":76561197997211265,"connected_time":320000000000,"state":"active","ping":60},{"user_id":340,"name":"Lv3 Kobold Shadow Sorcerer","steam_id":76561198042068995,"connected_time":2329000000000,"state":"active","ping":93},{"user_id":355,"name":"water","steam_id":76561199160233256,"connected_time":1642000000000,"state":"active","ping":82},{"user_id":331,"name":"NvAka","steam_id":76561199044781490,"connected_time":3150000000000,"state":"active","ping":68},{"user_id":363,"name":"julaa","steam_id":76561198060288611,"connected_time":1195000000000,"state":"active","ping":60},{"user_id":375,"name":"David Hasseloof","steam_id":76561198070864553,"connected_time":313000000000,"state":"active","ping":74},{"user_id":369,"name":"Coms","steam_id":76561198204995668,"connected_time":719000000000,"state":"active","ping":84},{"user_id":349,"name":"Jax","steam_id":76561198376152125,"connected_time":1680000000000,"state":"active","ping":95},{"user_id":376,"name":"La()VaJ()86","steam_id":76561198247547042,"connected_time":299000000000,"state":"active","ping":103},{"user_id":377,"name":"Lane","steam_id":76561197965828506,"connected_time":296000000000,"state":"active","ping":45},{"user_id":354,"name":"Penis Man Balls Funny","steam_id":76561198207718944,"connected_time":1653000000000,"state":"active","ping":58},{"user_id":365,"name":"thuck","steam_id":76561198858474714,"connected_time":1175000000000,"state":"active","ping":93},{"user_id":366,"name":"Tibalt Nyahuma","steam_id":76561198034779431,"connected_time":1165000000000,"state":"active","ping":75},{"user_id":282,"name":"igotmail","steam_id":76561198070631899,"connected_time":6393000000000,"state":"active","ping":71},{"user_id":367,"name":"ùìïùìÆùì∂ùì´ùì∏ùîÇùì©\ufffd\ufffd\ufffd","steam_id":76561198220055885,"connected_time":1143000000000,"state":"active","ping":60},{"user_id":370,"name":"two sentient corn cobs kissing","steam_id":76561198238842076,"connected_time":719000000000,"state":"active","ping":78}]},{"server_id":403,"name":"Uncletopia | Chicago | 4 | All Maps","name_short":"chi-4","host":"chi-1.us.uncletopia.com","port":27045,"enabled":true,"region":"us-central","cc":"us","latitude":41.881832,"longitude":-87.62318,"reserved":0,"last_update":"0001-01-01T00:00:00Z","name_a2s":"Uncletopia | Chicago | 4 | All Maps","protocol":17,"map":"pl_pier","folder":"tf","game":"Team Fortress","app_id":440,"player_count":23,"max_players":24,"Bots":0,"server_type":"Dedicated","server_os":"Linux","password":true,"vac":true,"version":"7961495","steam_id":85568392924515193,"keywords":["nocrits","nodmgspread","payload","uncletopia"],"game_id":440,"stv_port":27046,"stv_name":"Uncletopia | Chicago | 4 | All Maps | STV","players":[{"user_id":478,"name":"Sheep","steam_id":76561198122705864,"connected_time":288000000000,"state":"active","ping":82},{"user_id":457,"name":"w a o w","steam_id":76561198060769385,"connected_time":1997000000000,"state":"active","ping":114},{"user_id":444,"name":"ShawnLmao","steam_id":76561198350691501,"connected_time":2276000000000,"state":"active","ping":74},{"user_id":483,"name":"TacoMan4Life","steam_id":76561198832562728,"connected_time":115000000000,"state":"active","ping":114},{"user_id":467,"name":"‚òº money sittin tall yao ming","steam_id":76561198074180953,"connected_time":1189000000000,"state":"active","ping":62},{"user_id":465,"name":"zpalmtree","steam_id":76561198134307620,"connected_time":1215000000000,"state":"active","ping":55},{"user_id":485,"name":"v1nny","steam_id":76561198087585721,"connected_time":14000000000,"state":"active","ping":84},{"user_id":458,"name":"Karrot","steam_id":76561198058970903,"connected_time":1840000000000,"state":"active","ping":67},{"user_id":459,"name":"HansBanans","steam_id":76561198167894050,"connected_time":1824000000000,"state":"active","ping":71},{"user_id":468,"name":"Stealthguy724","steam_id":76561198195961430,"connected_time":1167000000000,"state":"active","ping":70},{"user_id":425,"name":"Tri-Dot","steam_id":76561199075186597,"connected_time":3918000000000,"state":"active","ping":73},{"user_id":479,"name":"Satanael","steam_id":76561198165252930,"connected_time":239000000000,"state":"active","ping":59},{"user_id":471,"name":"Sheev Palpatine","steam_id":76561198252332430,"connected_time":1136000000000,"state":"active","ping":68},{"user_id":366,"name":"Lord of Lizards","steam_id":76561198881852468,"connected_time":7985000000000,"state":"active","ping":71},{"user_id":484,"name":"Unlimited_Trees","steam_id":76561198299141443,"connected_time":70000000000,"state":"active","ping":109},{"user_id":481,"name":"JimmySquid","steam_id":76561198254242530,"connected_time":185000000000,"state":"active","ping":64},{"user_id":460,"name":"Œª T O M I C S P E E D FT","steam_id":76561198378581038,"connected_time":1793000000000,"state":"active","ping":70},{"user_id":464,"name":"303","steam_id":76561199052840531,"connected_time":1246000000000,"state":"active","ping":60},{"user_id":451,"name":"lonely fortnite gamer girl","steam_id":76561198272948471,"connected_time":2155000000000,"state":"active","ping":60},{"user_id":486,"name":"Big Black Dawg","steam_id":76561198050136796,"connected_time":13000000000,"state":"active","ping":75},{"user_id":476,"name":"Henry Ota-Clay","steam_id":76561198053232470,"connected_time":591000000000,"state":"active","ping":59},{"user_id":397,"name":"lalman","steam_id":76561198196605887,"connected_time":5626000000000,"state":"active","ping":65},{"user_id":442,"name":"Sunflower","steam_id":76561198081223793,"connected_time":2999000000000,"state":"active","ping":54}]},{"server_id":36,"name":"Uncletopia | Chicago | 5 | All Maps","name_short":"chi-5","host":"chi-2.us.uncletopia.com","port":27015,"enabled":true,"region":"us-central","cc":"us","latitude":41.881832,"longitude":-87.62318,"reserved":0,"last_update":"0001-01-01T00:00:00Z","name_a2s":"Uncletopia | Chicago | 5 | All Maps","protocol":17,"map":"pl_swiftwater_final1","folder":"tf","game":"Team Fortress","app_id":440,"player_count":23,"max_players":24,"Bots":0,"server_type":"Dedicated","server_os":"Linux","password":true,"vac":true,"version":"7961495","steam_id":85568392924866362,"keywords":["nocrits","nodmgspread","payload","uncletopia"],"game_id":440,"stv_port":27016,"stv_name":"Uncletopia | Chicago | 5 | All Maps | STV","players":[{"user_id":329,"name":"goat gaming","steam_id":76561198068982017,"connected_time":205000000000,"state":"active","ping":47},{"user_id":309,"name":"Tito","steam_id":76561198041702529,"connected_time":3331000000000,"state":"active","ping":84},{"user_id":312,"name":"Phocae \u003c3","steam_id":76561199317584594,"connected_time":2862000000000,"state":"active","ping":62},{"user_id":337,"name":"JOOOOOOOOOOOOO!!!!!!","steam_id":76561199101638460,"connected_time":9000000000,"state":"active","ping":73},{"user_id":331,"name":"Lonely Bum","steam_id":76561198029466325,"connected_time":163000000000,"state":"active","ping":45},{"user_id":332,"name":"greg salad","steam_id":76561198453203619,"connected_time":120000000000,"state":"active","ping":108},{"user_id":314,"name":"qory","steam_id":76561198152064890,"connected_time":2297000000000,"state":"active","ping":54},{"user_id":292,"name":"swagaholic","steam_id":76561199014715203,"connected_time":4790000000000,"state":"active","ping":111},{"user_id":273,"name":".JIFF","steam_id":76561198045181760,"connected_time":5385000000000,"state":"active","ping":61},{"user_id":333,"name":"Crunchy","steam_id":76561198060342804,"connected_time":115000000000,"state":"active","ping":76},{"user_id":250,"name":"Bucket Hat Trick","steam_id":76561198381785132,"connected_time":7225000000000,"state":"active","ping":88},{"user_id":334,"name":"Pluto*","steam_id":76561198338593690,"connected_time":112000000000,"state":"active","ping":85},{"user_id":229,"name":"Lia_Rein TTV","steam_id":76561198151569597,"connected_time":9105000000000,"state":"active","ping":167},{"user_id":320,"name":"ecks","steam_id":76561197978114705,"connected_time":1317000000000,"state":"active","ping":60},{"user_id":310,"name":"/dev/null","steam_id":76561198042144148,"connected_time":3014000000000,"state":"active","ping":61},{"user_id":335,"name":"Mr. Mime","steam_id":76561199197676776,"connected_time":85000000000,"state":"active","ping":60},{"user_id":286,"name":"hj√∂nk","steam_id":76561197998953817,"connected_time":4975000000000,"state":"active","ping":49},{"user_id":336,"name":"Smashing93","steam_id":76561199058453316,"connected_time":77000000000,"state":"active","ping":63},{"user_id":318,"name":"Greaseball","steam_id":76561198240220178,"connected_time":1955000000000,"state":"active","ping":79},{"user_id":325,"name":"Dad","steam_id":76561198127972568,"connected_time":728000000000,"state":"active","ping":90},{"user_id":269,"name":"Darkmaen","steam_id":76561198060543390,"connected_time":5823000000000,"state":"active","ping":144},{"user_id":322,"name":"Killguy69","steam_id":76561198196017215,"connected_time":1037000000000,"state":"active","ping":57},{"user_id":328,"name":"rekt","steam_id":76561198072179483,"connected_time":218000000000,"state":"active","ping":93}]},{"server_id":37,"name":"Uncletopia | Chicago | 6 | All Maps","name_short":"chi-6","host":"chi-2.us.uncletopia.com","port":27025,"enabled":true,"region":"us-central","cc":"us","latitude":41.881832,"longitude":-87.62318,"reserved":0,"last_update":"0001-01-01T00:00:00Z","name_a2s":"Uncletopia | Chicago | 6 | All Maps","protocol":17,"map":"cp_sunshine","folder":"tf","game":"Team Fortress","app_id":440,"player_count":24,"max_players":24,"Bots":0,"server_type":"Dedicated","server_os":"Linux","password":true,"vac":true,"version":"7961495","steam_id":85568392924866363,"keywords":["cp","nocrits","nodmgspread","uncletopia"],"game_id":440,"stv_port":27026,"stv_name":"Uncletopia | Chicago | 6 | All Maps | STV","players":[{"user_id":173,"name":"TheFallenAngel","steam_id":76561198162437125,"connected_time":3348000000000,"state":"active","ping":61},{"user_id":207,"name":"Thequirka","steam_id":76561198968058652,"connected_time":1029000000000,"state":"active","ping":96},{"user_id":208,"name":"TheSausageSwiper","steam_id":76561198972869845,"connected_time":1010000000000,"state":"active","ping":114},{"user_id":203,"name":"A Sun","steam_id":76561198142545364,"connected_time":1284000000000,"state":"active","ping":69},{"user_id":144,"name":"SIN K4RMA","steam_id":76561198869287223,"connected_time":5332000000000,"state":"active","ping":77},{"user_id":209,"name":"King_Potato","steam_id":76561198985987291,"connected_time":1000000000000,"state":"active","ping":86},{"user_id":219,"name":"plsplsplslol","steam_id":76561198868084626,"connected_time":370000000000,"state":"active","ping":112},{"user_id":206,"name":"[dick retracted]","steam_id":76561198804113663,"connected_time":1053000000000,"state":"active","ping":58},{"user_id":205,"name":"mansteam905","steam_id":76561199488421021,"connected_time":1114000000000,"state":"active","ping":91},{"user_id":211,"name":"TripieWiFi","steam_id":76561198832365380,"connected_time":978000000000,"state":"active","ping":89},{"user_id":189,"name":"coopcumber","steam_id":76561198289728181,"connected_time":2663000000000,"state":"active","ping":74},{"user_id":162,"name":"chanoc","steam_id":76561198026734746,"connected_time":4649000000000,"state":"active","ping":90},{"user_id":193,"name":"on that zaza?","steam_id":76561198038713198,"connected_time":2519000000000,"state":"active","ping":70},{"user_id":216,"name":"Rex NITRO","steam_id":76561198165374439,"connected_time":716000000000,"state":"active","ping":69},{"user_id":213,"name":"Frog Finance Gutter Justice","steam_id":76561198067247951,"connected_time":919000000000,"state":"active","ping":61},{"user_id":222,"name":"killeroverscore123","steam_id":76561199168131321,"connected_time":173000000000,"state":"active","ping":90},{"user_id":217,"name":"1989 Mazda RX-7 FC3S","steam_id":76561198436383373,"connected_time":555000000000,"state":"active","ping":113},{"user_id":214,"name":"Amari","steam_id":76561198272446730,"connected_time":913000000000,"state":"active","ping":54},{"user_id":221,"name":"Prsm","steam_id":76561198053344995,"connected_time":349000000000,"state":"active","ping":59},{"user_id":200,"name":"Kay ‚ò≠","steam_id":76561198353432576,"connected_time":1774000000000,"state":"active","ping":66},{"user_id":201,"name":"The Fordster","steam_id":76561198266913403,"connected_time":1662000000000,"state":"active","ping":83},{"user_id":182,"name":"Kiss Master","steam_id":76561198289572271,"connected_time":3216000000000,"state":"active","ping":85},{"user_id":181,"name":"leonardo doujinshi","steam_id":76561198025810326,"connected_time":3276000000000,"state":"active","ping":76},{"user_id":192,"name":"Triforce/Tri","steam_id":76561199126323966,"connected_time":2627000000000,"state":"active","ping":58}]},{"server_id":38,"name":"Uncletopia | Chicago | 7 | Stopwatch","name_short":"chi-7","host":"chi-2.us.uncletopia.com","port":27035,"enabled":true,"region":"us-central","cc":"us","latitude":41.881832,"longitude":-87.62318,"reserved":0,"last_update":"0001-01-01T00:00:00Z","name_a2s":"Uncletopia | Chicago | 7 | Stopwatch","protocol":17,"map":"workshop/koth_ashville_final.ugc2130459942","folder":"tf","game":"Team Fortress","app_id":440,"player_count":2,"max_players":24,"Bots":0,"server_type":"Dedicated","server_os":"Linux","password":true,"vac":true,"version":"7961495","steam_id":85568392924866364,"keywords":["cp","nocrits","nodmgspread","uncletopia"],"game_id":440,"stv_port":27036,"stv_name":"Uncletopia | Chicago | 7 | Stopwatch | STV","players":[{"user_id":23,"name":"whirlybird","steam_id":76561198353887173,"connected_time":1513000000000,"state":"active","ping":45},{"user_id":27,"name":"Stomp","steam_id":76561198167765748,"connected_time":791000000000,"state":"active","ping":45}]},{"server_id":39,"name":"Uncletopia | Chicago | 8 | Community","name_short":"chi-8","host":"chi-2.us.uncletopia.com","port":27045,"enabled":true,"region":"us-central","cc":"us","latitude":41.881832,"longitude":-87.62318,"reserved":0,"last_update":"0001-01-01T00:00:00Z","name_a2s":"Uncletopia | Chicago | 8 | Community","protocol":17,"map":"pl_pier","folder":"tf","game":"Team Fortress","app_id":440,"player_count":0,"max_players":24,"Bots":0,"server_type":"Dedicated","server_os":"Linux","password":true,"vac":true,"version":"7961495","steam_id":85568392924866365,"keywords":["nocrits","nodmgspread","payload","uncletopia"],"game_id":440,"stv_port":27046,"stv_name":"Uncletopia | Chicago | 8 | Community | STV","players":null},{"server_id":8,"name":"Uncletopia | Dallas | 1 | All Maps","name_short":"dal-1","host":"dal-1.us.uncletopia.com","port":27015,"enabled":true,"region":"us-central","cc":"us","latitude":32.779167,"longitude":-96.80889,"reserved":0,"last_update":"0001-01-01T00:00:00Z","name_a2s":"Uncletopia | Dallas | 1 | All Maps","protocol":17,"map":"pl_pier","folder":"tf","game":"Team Fortress","app_id":440,"player_count":24,"max_players":24,"Bots":0,"server_type":"Dedicated","server_os":"Linux","password":true,"vac":true,"version":"7961495","steam_id":85568392924469986,"keywords":["nocrits","nodmgspread","payload","uncletopia"],"game_id":440,"stv_port":27016,"stv_name":"Uncletopia | Dallas | 1 | All Maps | STV","players":[{"user_id":421,"name":"‚ù§ Ashley ‚ù§","steam_id":76561198056428303,"connected_time":1284000000000,"state":"active","ping":75},{"user_id":440,"name":"Ono","steam_id":76561198024377986,"connected_time":237000000000,"state":"active","ping":87},{"user_id":392,"name":"RoxinaBox","steam_id":76561198307329984,"connected_time":2901000000000,"state":"active","ping":62},{"user_id":435,"name":"Captain Malarkey","steam_id":76561198869924281,"connected_time":409000000000,"state":"active","ping":47},{"user_id":433,"name":"kazoo2","steam_id":76561198260473504,"connected_time":440000000000,"state":"active","ping":65},{"user_id":401,"name":"Here Comes Beedog!","steam_id":76561198005369284,"connected_time":2535000000000,"state":"active","ping":80},{"user_id":426,"name":"Jingles the Box Elf","steam_id":76561198022302843,"connected_time":941000000000,"state":"active","ping":84},{"user_id":399,"name":"lil EGG","steam_id":76561198361321253,"connected_time":2698000000000,"state":"active","ping":99},{"user_id":404,"name":"Orange Mann Bad","steam_id":76561198021126964,"connected_time":2449000000000,"state":"active","ping":95},{"user_id":405,"name":"Phone","steam_id":76561198334357092,"connected_time":2448000000000,"state":"active","ping":91},{"user_id":363,"name":"SAGE(‡§∏‡§ó‡•á*)","steam_id":76561198811114074,"connected_time":4455000000000,"state":"active","ping":69},{"user_id":439,"name":"Insectoid","steam_id":76561198122677314,"connected_time":310000000000,"state":"active","ping":63},{"user_id":441,"name":"eh","steam_id":76561199132516320,"connected_time":80000000000,"state":"active","ping":113},{"user_id":324,"name":"tsz","steam_id":76561199246231090,"connected_time":6715000000000,"state":"active","ping":86},{"user_id":314,"name":"Horrowes","steam_id":76561198318446417,"connected_time":7142000000000,"state":"active","ping":99},{"user_id":425,"name":"self sufficient kitten","steam_id":76561197960592612,"connected_time":1000000000000,"state":"active","ping":101},{"user_id":434,"name":"FreshlyBrewed","steam_id":76561198181099881,"connected_time":438000000000,"state":"active","ping":91},{"user_id":408,"name":"milky","steam_id":76561198144639805,"connected_time":2424000000000,"state":"active","ping":70},{"user_id":410,"name":"Dqzz","steam_id":76561199440761155,"connected_time":2302000000000,"state":"active","ping":100},{"user_id":423,"name":"Xavibite","steam_id":76561198209380493,"connected_time":1231000000000,"state":"active","ping":80},{"user_id":418,"name":"TheOniEmpire","steam_id":76561198348258287,"connected_time":1431000000000,"state":"active","ping":99},{"user_id":352,"name":"Zetta","steam_id":76561198045710113,"connected_time":5263000000000,"state":"active","ping":87},{"user_id":411,"name":"Addicted2TheShindig","steam_id":76561198062459671,"connected_time":2224000000000,"state":"active","ping":87},{"user_id":429,"name":"Asanez3","steam_id":76561198037381436,"connected_time":631000000000,"state":"active","ping":101}]},{"server_id":108,"name":"Uncletopia | Dallas | 2 | All Maps","name_short":"dal-2","host":"dal-1.us.uncletopia.com","port":27025,"enabled":true,"region":"us-central","cc":"us","latitude":32.779167,"longitude":-96.80889,"reserved":0,"last_update":"0001-01-01T00:00:00Z","name_a2s":"Uncletopia | Dallas | 2 | All Maps","protocol":17,"map":"cp_process_final","folder":"tf","game":"Team Fortress","app_id":440,"player_count":24,"max_players":24,"Bots":0,"server_type":"Dedicated","server_os":"Linux","password":true,"vac":true,"version":"7961495","steam_id":85568392924469988,"keywords":["cp","nocrits","nodmgspread","uncletopia"],"game_id":440,"stv_port":27026,"stv_name":"Uncletopia | Dallas | 2 | All Maps | STV","players":[{"user_id":412,"name":"Dirtbike rider","steam_id":76561198030457066,"connected_time":211000000000,"state":"active","ping":61},{"user_id":369,"name":"YellowSQUID","steam_id":76561198123259414,"connected_time":1621000000000,"state":"active","ping":100},{"user_id":388,"name":"ƒê√Ø…ê»ê…π…¶…Üa","steam_id":76561198981411945,"connected_time":861000000000,"state":"active","ping":75},{"user_id":406,"name":"neet","steam_id":76561197968115168,"connected_time":328000000000,"state":"active","ping":72},{"user_id":414,"name":"smokr","steam_id":76561198066566813,"connected_time":58000000000,"state":"active","ping":106},{"user_id":415,"name":"femboy =Ôºæ‚óè ‚ãè ‚óèÔºæ=","steam_id":76561199052450127,"connected_time":54000000000,"state":"spawning","ping":65},{"user_id":413,"name":"jamassExD","steam_id":76561198454033607,"connected_time":171000000000,"state":"active","ping":72},{"user_id":387,"name":"Jovo","steam_id":76561197993265970,"connected_time":916000000000,"state":"active","ping":105},{"user_id":394,"name":"Dr. Ludwig","steam_id":76561198110246392,"connected_time":639000000000,"state":"active","ping":63},{"user_id":410,"name":"Kuyumiester","steam_id":76561198126835302,"connected_time":261000000000,"state":"active","ping":62},{"user_id":403,"name":"Deltaco","steam_id":76561198094572694,"connected_time":509000000000,"state":"active","ping":129},{"user_id":392,"name":"Moonadoo","steam_id":76561198133377546,"connected_time":768000000000,"state":"active","ping":84},{"user_id":357,"name":"moe","steam_id":76561198929586245,"connected_time":2252000000000,"state":"active","ping":68},{"user_id":352,"name":"intense radish","steam_id":76561199061038624,"connected_time":3151000000000,"state":"active","ping":62},{"user_id":411,"name":"HeavyPokelover","steam_id":76561198356253906,"connected_time":238000000000,"state":"spawning","ping":76},{"user_id":373,"name":"Certified Hood Classic","steam_id":76561199086159354,"connected_time":1399000000000,"state":"active","ping":56},{"user_id":399,"name":"Fyr","steam_id":76561198048507556,"connected_time":587000000000,"state":"active","ping":45},{"user_id":375,"name":"Serenue","steam_id":76561199040361250,"connected_time":1360000000000,"state":"active","ping":109},{"user_id":390,"name":"dogdotflac","steam_id":76561198201609928,"connected_time":823000000000,"state":"active","ping":98},{"user_id":391,"name":"tenderchickenwaffles","steam_id":76561198289005384,"connected_time":793000000000,"state":"active","ping":85},{"user_id":400,"name":"Surfing Garchomp","steam_id":76561199107236884,"connected_time":581000000000,"state":"active","ping":95},{"user_id":383,"name":"LG_Fridge_User","steam_id":76561198977815014,"connected_time":982000000000,"state":"active","ping":75},{"user_id":405,"name":"Laura Palmer Gaming","steam_id":76561198282965733,"connected_time":466000000000,"state":"active","ping":75},{"user_id":318,"name":"Lain","steam_id":76561198029303534,"connected_time":6113000000000,"state":"active","ping":61}]},{"server_id":404,"name":"Uncletopia | Dallas | 3 | All Maps","name_short":"dal-3","host":"dal-1.us.uncletopia.com","port":27035,"enabled":true,"region":"us-central","cc":"us","latitude":32.779167,"longitude":-96.80889,"reserved":0,"last_update":"0001-01-01T00:00:00Z","name_a2s":"Uncletopia | Dallas | 3 | All Maps","protocol":17,"map":"pl_swiftwater_final1","folder":"tf","game":"Team Fortress","app_id":440,"player_count":11,"max_players":24,"Bots":0,"server_type":"Dedicated","server_os":"Linux","password":true,"vac":true,"version":"7961495","steam_id":85568392924515219,"keywords":["nocrits","nodmgspread","payload","uncletopia"],"game_id":440,"stv_port":27036,"stv_name":"Uncletopia | Dallas | 3 | All Maps | STV","players":[{"user_id":221,"name":"Meet The Racist","steam_id":76561198253927199,"connected_time":181000000000,"state":"active","ping":159},{"user_id":222,"name":"Smoke","steam_id":76561199485943796,"connected_time":133000000000,"state":"active","ping":103},{"user_id":166,"name":"American freedom bird","steam_id":76561198366142388,"connected_time":5864000000000,"state":"active","ping":83},{"user_id":215,"name":"Smoothie","steam_id":76561197996096148,"connected_time":1025000000000,"state":"active","ping":109},{"user_id":206,"name":"Alchemist","steam_id":76561198094238189,"connected_time":2493000000000,"state":"active","ping":68},{"user_id":223,"name":"Fish","steam_id":76561199016308078,"connected_time":124000000000,"state":"active","ping":90},{"user_id":219,"name":"Aeront","steam_id":76561198072032723,"connected_time":362000000000,"state":"active","ping":89},{"user_id":214,"name":"Pwntato","steam_id":76561197983648544,"connected_time":1267000000000,"state":"active","ping":89},{"user_id":200,"name":"PxE","steam_id":76561198038034899,"connected_time":3124000000000,"state":"active","ping":158},{"user_id":202,"name":"Brandino!","steam_id":76561198000446932,"connected_time":2940000000000,"state":"active","ping":100},{"user_id":158,"name":"Rob","steam_id":76561199187786660,"connected_time":6569000000000,"state":"active","ping":55}]},{"server_id":405,"name":"Uncletopia | Dallas | 4 | Community","name_short":"dal-4","host":"dal-1.us.uncletopia.com","port":27045,"enabled":true,"region":"us-central","cc":"us","latitude":32.779167,"longitude":-96.80889,"reserved":0,"last_update":"0001-01-01T00:00:00Z","name_a2s":"Uncletopia | Dallas | 4 | Community","protocol":17,"map":"workshop/koth_slaughter_rc1.ugc1712845210","folder":"tf","game":"Team Fortress","app_id":440,"player_count":2,"max_players":24,"Bots":0,"server_type":"Dedicated","server_os":"Linux","password":true,"vac":true,"version":"7961495","steam_id":85568392924515220,"keywords":["cp","nocrits","nodmgspread","uncletopia"],"game_id":440,"stv_port":27046,"stv_name":"Uncletopia | Dallas | 4 | Community | STV","players":[{"user_id":12,"name":"Shotty Man","steam_id":76561198175255334,"connected_time":384000000000,"state":"active","ping":36},{"user_id":13,"name":"[FAZE] XxcodgodxX","steam_id":76561199474871203,"connected_time":362000000000,"state":"active","ping":79}]},{"server_id":5,"name":"Uncletopia | Frankfurt | 1 | All Maps","name_short":"frk-1","host":"frk-1.de.uncletopia.com","port":27015,"enabled":true,"region":"eu","cc":"de","latitude":50.110924,"longitude":8.682127,"reserved":0,"last_update":"0001-01-01T00:00:00Z","name_a2s":"Uncletopia | Frankfurt | 1 | All Maps","protocol":17,"map":"koth_viaduct","folder":"tf","game":"Team Fortress","app_id":440,"player_count":12,"max_players":24,"Bots":0,"server_type":"Dedicated","server_os":"Linux","password":true,"vac":true,"version":"7961495","steam_id":85568392924469989,"keywords":["cp","nocrits","nodmgspread","uncletopia"],"game_id":440,"stv_port":27016,"stv_name":"Uncletopia | Frankfurt | 1 | All Maps | STV","players":[{"user_id":772,"name":"pierogi","steam_id":76561198718760200,"connected_time":34000000000,"state":"active","ping":51},{"user_id":773,"name":"sinkuchan","steam_id":76561198054012474,"connected_time":13000000000,"state":"spawning","ping":57},{"user_id":729,"name":"Snowy","steam_id":76561198169992461,"connected_time":3393000000000,"state":"active","ping":52},{"user_id":742,"name":"weaj","steam_id":76561198053628243,"connected_time":2770000000000,"state":"active","ping":60},{"user_id":754,"name":"Suetolog","steam_id":76561199053090212,"connected_time":2227000000000,"state":"active","ping":47},{"user_id":770,"name":"‚ù§Speedbump‚ù§","steam_id":76561198388690313,"connected_time":548000000000,"state":"active","ping":59},{"user_id":746,"name":"I jazzed myself","steam_id":76561198203016603,"connected_time":2608000000000,"state":"active","ping":68},{"user_id":761,"name":"hamster/dead","steam_id":76561198181134706,"connected_time":1443000000000,"state":"active","ping":48},{"user_id":737,"name":"Sock","steam_id":76561198315420000,"connected_time":3001000000000,"state":"active","ping":147},{"user_id":755,"name":"CodaxTheVulture","steam_id":76561198079028652,"connected_time":2206000000000,"state":"active","ping":70},{"user_id":759,"name":"Boba t≈Çuszcz ‚áÜ","steam_id":76561198123457038,"connected_time":2072000000000,"state":"active","ping":61},{"user_id":760,"name":"Sheltopusik","steam_id":76561198302529889,"connected_time":1475000000000,"state":"active","ping":50}]},{"server_id":110,"name":"Uncletopia | Frankfurt | 2 | All Maps","name_short":"frk-2","host":"frk-1.de.uncletopia.com","port":27025,"enabled":true,"region":"eu","cc":"de","latitude":50.110924,"longitude":8.682127,"reserved":0,"last_update":"0001-01-01T00:00:00Z","name_a2s":"Uncletopia | Frankfurt | 2 | All Maps","protocol":17,"map":"cp_sunshine","folder":"tf","game":"Team Fortress","app_id":440,"player_count":24,"max_players":24,"Bots":0,"server_type":"Dedicated","server_os":"Linux","password":true,"vac":true,"version":"7961495","steam_id":85568392924469990,"keywords":["cp","nocrits","nodmgspread","uncletopia"],"game_id":440,"stv_port":27026,"stv_name":"Uncletopia | Frankfurt | 2 | All Maps | STV","players":[{"user_id":684,"name":"doomer","steam_id":76561198977420882,"connected_time":2193000000000,"state":"active","ping":48},{"user_id":696,"name":"Skyrider of Spaceways","steam_id":76561197991678236,"connected_time":1603000000000,"state":"active","ping":131},{"user_id":667,"name":"BL0NDIE","steam_id":76561198329846180,"connected_time":2827000000000,"state":"active","ping":69},{"user_id":668,"name":"Igorczuk","steam_id":76561198168421854,"connected_time":2824000000000,"state":"active","ping":51},{"user_id":707,"name":"Bobirulez","steam_id":76561198009125458,"connected_time":116000000000,"state":"active","ping":59},{"user_id":700,"name":"JoKeR","steam_id":76561197997538389,"connected_time":1440000000000,"state":"active","ping":88},{"user_id":678,"name":"SAS41","steam_id":76561197998649851,"connected_time":2442000000000,"state":"active","ping":59},{"user_id":676,"name":"fgdshbsbfjnhjsrgnnjsegjsgrjoisg","steam_id":76561198963378933,"connected_time":2493000000000,"state":"active","ping":48},{"user_id":695,"name":"Zerosiini","steam_id":76561198113771976,"connected_time":1611000000000,"state":"active","ping":60},{"user_id":633,"name":"xTheDarkLight","steam_id":76561198239128298,"connected_time":5031000000000,"state":"active","ping":46},{"user_id":704,"name":"Joe","steam_id":76561198145639903,"connected_time":1262000000000,"state":"active","ping":106},{"user_id":671,"name":"Dozer","steam_id":76561197998742338,"connected_time":2750000000000,"state":"active","ping":64},{"user_id":686,"name":"goblin","steam_id":76561198170334258,"connected_time":2182000000000,"state":"active","ping":69},{"user_id":697,"name":"IllusiveMax","steam_id":76561198879363985,"connected_time":1593000000000,"state":"active","ping":81},{"user_id":672,"name":"Tava","steam_id":76561198348993252,"connected_time":2663000000000,"state":"active","ping":111},{"user_id":706,"name":"Intruder","steam_id":76561198156128173,"connected_time":527000000000,"state":"active","ping":76},{"user_id":674,"name":"lawn","steam_id":76561198001243486,"connected_time":2609000000000,"state":"active","ping":59},{"user_id":691,"name":"one last midnight","steam_id":76561198259084417,"connected_time":1724000000000,"state":"active","ping":65},{"user_id":705,"name":"Lyncurion","steam_id":76561199260022725,"connected_time":793000000000,"state":"active","ping":77},{"user_id":647,"name":"DiscoTraveler","steam_id":76561199240168088,"connected_time":4714000000000,"state":"active","ping":127},{"user_id":688,"name":"dongy","steam_id":76561198050319619,"connected_time":2162000000000,"state":"active","ping":54},{"user_id":698,"name":"Jack","steam_id":76561198397105421,"connected_time":1552000000000,"state":"active","ping":54},{"user_id":702,"name":"Mr.Shpee","steam_id":76561198158701474,"connected_time":1301000000000,"state":"active","ping":76},{"user_id":662,"name":"ÂéªÂêÉËÉ°ËêùÂçúÁ¨®Ëõã","steam_id":76561198069649097,"connected_time":4081000000000,"state":"active","ping":72}]},{"server_id":308,"name":"Uncletopia | Frankfurt | 3 | All Maps","name_short":"frk-3","host":"frk-1.de.uncletopia.com","port":27035,"enabled":true,"region":"eu","cc":"de","latitude":50.110924,"longitude":8.682127,"reserved":0,"last_update":"0001-01-01T00:00:00Z","name_a2s":"Uncletopia | Frankfurt | 3 | All Maps","protocol":17,"map":"cp_dustbowl","folder":"tf","game":"Team Fortress","app_id":440,"player_count":0,"max_players":24,"Bots":0,"server_type":"Dedicated","server_os":"Linux","password":true,"vac":true,"version":"7961495","steam_id":85568392924504274,"keywords":["cp","nocrits","nodmgspread","uncletopia"],"game_id":440,"stv_port":27036,"stv_name":"Uncletopia | Frankfurt | 3 | All Maps | STV","players":null},{"server_id":309,"name":"Uncletopia | Frankfurt | 4 | All Maps","name_short":"frk-4","host":"frk-1.de.uncletopia.com","port":27045,"enabled":true,"region":"eu","cc":"de","latitude":50.110924,"longitude":8.682127,"reserved":0,"last_update":"0001-01-01T00:00:00Z","name_a2s":"Uncletopia | Frankfurt | 4 | All Maps","protocol":17,"map":"cp_altitude","folder":"tf","game":"Team Fortress","app_id":440,"player_count":0,"max_players":24,"Bots":0,"server_type":"Dedicated","server_os":"Linux","password":true,"vac":true,"version":"7961495","steam_id":85568392924504275,"keywords":["cp","nocrits","nodmgspread","uncletopia"],"game_id":440,"stv_port":27046,"stv_name":"Uncletopia | Frankfurt | 4 | All Maps | STV","players":null},{"server_id":310,"name":"Uncletopia | Frankfurt | 5 | All Maps","name_short":"frk-5","host":"frk-1.de.uncletopia.com","port":27055,"enabled":true,"region":"eu","cc":"de","latitude":50.110924,"longitude":8.682127,"reserved":0,"last_update":"0001-01-01T00:00:00Z","name_a2s":"Uncletopia | Frankfurt | 5 | All Maps","protocol":17,"map":"cp_altitude","folder":"tf","game":"Team Fortress","app_id":440,"player_count":2,"max_players":24,"Bots":0,"server_type":"Dedicated","server_os":"Linux","password":true,"vac":true,"version":"7961495","steam_id":85568392924504277,"keywords":["cp","nocrits","nodmgspread","uncletopia"],"game_id":440,"stv_port":27056,"stv_name":"Uncletopia | Frankfurt | 5 | All Maps | STV","players":[{"user_id":914,"name":"k√∫kalabbi","steam_id":76561198071217539,"connected_time":1455000000000,"state":"active","ping":89},{"user_id":778,"name":"Fat Scout","steam_id":76561199025316887,"connected_time":11646000000000,"state":"active","ping":81}]},{"server_id":311,"name":"Uncletopia | Frankfurt | 6 | All Maps","name_short":"frk-6","host":"frk-1.de.uncletopia.com","port":27065,"enabled":true,"region":"eu","cc":"de","latitude":50.110924,"longitude":8.682127,"reserved":0,"last_update":"0001-01-01T00:00:00Z","name_a2s":"Uncletopia | Frankfurt | 6 | All Maps","protocol":17,"map":"koth_cascade","folder":"tf","game":"Team Fortress","app_id":440,"player_count":0,"max_players":24,"Bots":0,"server_type":"Dedicated","server_os":"Linux","password":true,"vac":true,"version":"7961495","steam_id":85568392924504278,"keywords":["cp","nocrits","nodmgspread","uncletopia"],"game_id":440,"stv_port":27066,"stv_name":"Uncletopia | Frankfurt | 6 | All Maps | STV","players":null},{"server_id":23,"name":"Uncletopia | Frankfurt | 7 | Stopwatch","name_short":"frk-7","host":"frk-1.de.uncletopia.com","port":27075,"enabled":true,"region":"eu","cc":"de","latitude":50.110924,"longitude":8.682127,"reserved":0,"last_update":"0001-01-01T00:00:00Z","name_a2s":"Uncletopia | Frankfurt | 7 | Stopwatch","protocol":17,"map":"workshop/koth_bagel_rc6.ugc2514036946","folder":"tf","game":"Team Fortress","app_id":440,"player_count":3,"max_players":24,"Bots":0,"server_type":"Dedicated","server_os":"Linux","password":true,"vac":true,"version":"7961495","steam_id":85568392924742827,"keywords":["cp","nocrits","nodmgspread","uncletopia"],"game_id":440,"stv_port":27076,"stv_name":"Uncletopia | Frankfurt | 7 | Stopwatch | STV","players":[{"user_id":608,"name":"Qwerty","steam_id":76561198023525894,"connected_time":4882000000000,"state":"active","ping":74},{"user_id":509,"name":"vi","steam_id":76561198303147966,"connected_time":11539000000000,"state":"active","ping":59},{"user_id":606,"name":"Aspartus","steam_id":76561198101385763,"connected_time":5341000000000,"state":"active","ping":38}]},{"server_id":24,"name":"Uncletopia | Frankfurt | 8 | Community","name_short":"frk-8","host":"frk-1.de.uncletopia.com","port":27085,"enabled":true,"region":"eu","cc":"de","latitude":50.110924,"longitude":8.682127,"reserved":0,"last_update":"0001-01-01T00:00:00Z","name_a2s":"Uncletopia | Frankfurt | 8 | Community","protocol":17,"map":"workshop/cp_fulgur_rc2a.ugc2068252300","folder":"tf","game":"Team Fortress","app_id":440,"player_count":0,"max_players":24,"Bots":0,"server_type":"Dedicated","server_os":"Linux","password":true,"vac":true,"version":"7961495","steam_id":85568392924742828,"keywords":["cp","nocrits","nodmgspread","uncletopia"],"game_id":440,"stv_port":27086,"stv_name":"Uncletopia | Frankfurt | 8 | Community | STV","players":null},{"server_id":202,"name":"Uncletopia | Hong Kong | 1 | All Maps","name_short":"hgk-1","host":"hgk-1.hk.uncletopia.com","port":27015,"enabled":true,"region":"asia","cc":"hk","latitude":22.302711,"longitude":114.177216,"reserved":0,"last_update":"0001-01-01T00:00:00Z","name_a2s":"Uncletopia | Hong Kong | 1 | All Maps","protocol":17,"map":"pl_frontier_final","folder":"tf","game":"Team Fortress","app_id":440,"player_count":0,"max_players":24,"Bots":0,"server_type":"Dedicated","server_os":"Linux","password":true,"vac":true,"version":"7961495","steam_id":85568392924494504,"keywords":["nocrits","nodmgspread","payload","uncletopia"],"game_id":440,"stv_port":27016,"stv_name":"Uncletopia | Hong Kong | 1 | All Maps | STV","players":null},{"server_id":1,"name":"Uncletopia | Los Angeles | 1 | All Maps","name_short":"lax-1","host":"lax-1.us.uncletopia.com","port":27015,"enabled":true,"region":"us-west","cc":"us","latitude":33.94279,"longitude":-118.41004,"reserved":0,"last_update":"0001-01-01T00:00:00Z","name_a2s":"Uncletopia | Los Angeles | 1 | All Maps","protocol":17,"map":"koth_lakeside_final","folder":"tf","game":"Team Fortress","app_id":440,"player_count":0,"max_players":24,"Bots":0,"server_type":"Dedicated","server_os":"Linux","password":true,"vac":true,"version":"7961495","steam_id":85568392924469991,"keywords":["cp","nocrits","nodmgspread","uncletopia"],"game_id":440,"stv_port":27016,"stv_name":"Uncletopia | Los Angeles | 1 | All Maps | STV","players":null},{"server_id":112,"name":"Uncletopia | Los Angeles | 2 | All Maps","name_short":"lax-2","host":"lax-1.us.uncletopia.com","port":27025,"enabled":true,"region":"us-west","cc":"us","latitude":33.94279,"longitude":-118.41004,"reserved":0,"last_update":"0001-01-01T00:00:00Z","name_a2s":"Uncletopia | Los Angeles | 2 | All Maps","protocol":17,"map":"koth_highpass","folder":"tf","game":"Team Fortress","app_id":440,"player_count":0,"max_players":24,"Bots":0,"server_type":"Dedicated","server_os":"Linux","password":true,"vac":true,"version":"7961495","steam_id":85568392924469992,"keywords":["cp","nocrits","nodmgspread","uncletopia"],"game_id":440,"stv_port":27026,"stv_name":"Uncletopia | Los Angeles | 2 | All Maps | STV","players":null},{"server_id":324,"name":"Uncletopia | Los Angeles | 3 | All Maps","name_short":"lax-3","host":"lax-1.us.uncletopia.com","port":27035,"enabled":true,"region":"us-west","cc":"us","latitude":33.94279,"longitude":-118.41004,"reserved":0,"last_update":"0001-01-01T00:00:00Z","name_a2s":"Uncletopia | Los Angeles | 3 | All Maps","protocol":17,"map":"pl_frontier_final","folder":"tf","game":"Team Fortress","app_id":440,"player_count":24,"max_players":24,"Bots":0,"server_type":"Dedicated","server_os":"Linux","password":true,"vac":true,"version":"7961495","steam_id":85568392924510198,"keywords":["nocrits","nodmgspread","payload","uncletopia"],"game_id":440,"stv_port":27036,"stv_name":"Uncletopia | Los Angeles | 3 | All Maps | STV","players":[{"user_id":143,"name":"MistaRattle","steam_id":76561199144406643,"connected_time":552000000000,"state":"active","ping":61},{"user_id":146,"name":"JACK BRUNO","steam_id":76561198027957690,"connected_time":512000000000,"state":"active","ping":68},{"user_id":147,"name":"Que-sus-dilla","steam_id":76561198125712564,"connected_time":471000000000,"state":"active","ping":81},{"user_id":148,"name":"The Grim Heaper","steam_id":76561197987759101,"connected_time":469000000000,"state":"active","ping":92},{"user_id":144,"name":"exx","steam_id":76561198090552145,"connected_time":551000000000,"state":"active","ping":45},{"user_id":116,"name":"Silly Shark","steam_id":76561198130714378,"connected_time":2236000000000,"state":"active","ping":92},{"user_id":145,"name":"danEY","steam_id":76561198049857596,"connected_time":539000000000,"state":"active","ping":54},{"user_id":154,"name":"r u guys going trick or treatin","steam_id":76561199074585110,"connected_time":220000000000,"state":"active","ping":45},{"user_id":139,"name":"Rayquaza232","steam_id":76561198165597435,"connected_time":1123000000000,"state":"active","ping":59},{"user_id":129,"name":"cory in the house","steam_id":76561198296933059,"connected_time":1449000000000,"state":"active","ping":61},{"user_id":127,"name":"kit mambo","steam_id":76561198811561721,"connected_time":1912000000000,"state":"active","ping":59},{"user_id":124,"name":"BingBingAZ Tv","steam_id":76561198353065343,"connected_time":1965000000000,"state":"active","ping":60},{"user_id":27,"name":"hyaz, +rep.","steam_id":76561199100342013,"connected_time":7642000000000,"state":"active","ping":46},{"user_id":133,"name":"Chef Molbo","steam_id":76561198089045454,"connected_time":1294000000000,"state":"active","ping":141},{"user_id":150,"name":"Seriously Bruh","steam_id":76561198070408485,"connected_time":423000000000,"state":"active","ping":75},{"user_id":131,"name":"Max Headass","steam_id":76561198964210411,"connected_time":1365000000000,"state":"active","ping":159},{"user_id":91,"name":"(¬∞ Õú   ¬∞)","steam_id":76561198064273568,"connected_time":4140000000000,"state":"active","ping":43},{"user_id":152,"name":"SafetyInstructor","steam_id":76561199195205705,"connected_time":401000000000,"state":"active","ping":93},{"user_id":153,"name":"S√°bado Gigante","steam_id":76561197994685971,"connected_time":376000000000,"state":"active","ping":47},{"user_id":130,"name":"xbox record that","steam_id":76561198150117455,"connected_time":1374000000000,"state":"active","ping":52},{"user_id":135,"name":"soccer2010","steam_id":76561198404271005,"connected_time":1245000000000,"state":"active","ping":61},{"user_id":140,"name":"Jazz Hands","steam_id":76561199225708271,"connected_time":1063000000000,"state":"active","ping":131},{"user_id":142,"name":"aldwych","steam_id":76561198318126190,"connected_time":865000000000,"state":"active","ping":157}]},{"server_id":25,"name":"Uncletopia | Los Angeles | 4 | Stopwatch","name_short":"lax-4","host":"lax-1.us.uncletopia.com","port":27045,"enabled":true,"region":"us-west","cc":"us","latitude":33.94279,"longitude":-118.41004,"reserved":0,"last_update":"0001-01-01T00:00:00Z","name_a2s":"Uncletopia | Los Angeles | 4 | Stopwatch","protocol":17,"map":"pl_barnblitz","folder":"tf","game":"Team Fortress","app_id":440,"player_count":0,"max_players":24,"Bots":0,"server_type":"Dedicated","server_os":"Linux","password":true,"vac":true,"version":"7961495","steam_id":85568392924510199,"keywords":["nocrits","nodmgspread","payload","uncletopia"],"game_id":440,"stv_port":27046,"stv_name":"Uncletopia | Los Angeles | 4 | Stopwatch | STV","players":null},{"server_id":11,"name":"Uncletopia | London | 1 | All Maps","name_short":"lon-1","host":"lon-1.uk.uncletopia.com","port":27015,"enabled":true,"region":"eu","cc":"gb","latitude":51.509865,"longitude":-0.118092,"reserved":0,"last_update":"0001-01-01T00:00:00Z","name_a2s":"Uncletopia | London | 1 | All Maps","protocol":17,"map":"pl_borneo","folder":"tf","game":"Team Fortress","app_id":440,"player_count":24,"max_players":24,"Bots":0,"server_type":"Dedicated","server_os":"Linux","password":true,"vac":true,"version":"7961495","steam_id":85568392924367362,"keywords":["nocrits","nodmgspread","payload","uncletopia"],"game_id":440,"stv_port":27016,"stv_name":"Uncletopia | London | 1 | All Maps | STV","players":[{"user_id":510,"name":"Jonno","steam_id":76561198023443744,"connected_time":206000000000,"state":"active","ping":51},{"user_id":492,"name":"Tomboy Mold","steam_id":76561198106455841,"connected_time":3380000000000,"state":"active","ping":73},{"user_id":458,"name":"whimsy.","steam_id":76561198878171763,"connected_time":8800000000000,"state":"active","ping":53},{"user_id":504,"name":"gibb (official)","steam_id":76561198074097655,"connected_time":1048000000000,"state":"active","ping":64},{"user_id":513,"name":"AB1","steam_id":76561198208737565,"connected_time":105000000000,"state":"active","ping":47},{"user_id":509,"name":"BreadBubbles","steam_id":76561198174332826,"connected_time":297000000000,"state":"active","ping":56},{"user_id":505,"name":"Xineoph","steam_id":76561198011568457,"connected_time":881000000000,"state":"active","ping":61},{"user_id":408,"name":"Finkaksu Devourer of Sour Candy","steam_id":76561198201389163,"connected_time":14194000000000,"state":"active","ping":68},{"user_id":501,"name":"Purps","steam_id":76561198053886680,"connected_time":1587000000000,"state":"active","ping":39},{"user_id":377,"name":"god's eepiest girl","steam_id":76561198128327529,"connected_time":17009000000000,"state":"active","ping":54},{"user_id":514,"name":"Ozzie","steam_id":76561197992915315,"connected_time":72000000000,"state":"active","ping":63},{"user_id":500,"name":"‚ôõC4xSupreme‚ôõ","steam_id":76561199246030190,"connected_time":1862000000000,"state":"active","ping":70},{"user_id":479,"name":"shooer!","steam_id":76561198110531281,"connected_time":5126000000000,"state":"active","ping":76},{"user_id":455,"name":"Clown :o)","steam_id":76561198074657015,"connected_time":9112000000000,"state":"active","ping":57},{"user_id":511,"name":"stroyo","steam_id":76561198409592046,"connected_time":184000000000,"state":"active","ping":44},{"user_id":506,"name":"Queen","steam_id":76561198300679364,"connected_time":876000000000,"state":"active","ping":111},{"user_id":512,"name":"LastStar ‚ó£‚Ä∏‚ó¢","steam_id":76561198131741966,"connected_time":159000000000,"state":"active","ping":61},{"user_id":515,"name":"Duke Fishlord","steam_id":76561198079928327,"connected_time":63000000000,"state":"active","ping":73},{"user_id":508,"name":"nordstream bomber","steam_id":76561199401283123,"connected_time":343000000000,"state":"active","ping":52},{"user_id":499,"name":"teddy","steam_id":76561198007436837,"connected_time":2376000000000,"state":"active","ping":45},{"user_id":516,"name":"Nag","steam_id":76561197970488206,"connected_time":47000000000,"state":"active","ping":70},{"user_id":507,"name":"Cabbch","steam_id":76561198045955679,"connected_time":774000000000,"state":"active","ping":45},{"user_id":517,"name":"Taste","steam_id":76561197994506978,"connected_time":30000000000,"state":"active","ping":51},{"user_id":467,"name":"beebo","steam_id":76561199120277007,"connected_time":7620000000000,"state":"active","ping":44}]},{"server_id":114,"name":"Uncletopia | London | 2 | All Maps","name_short":"lon-2","host":"lon-1.uk.uncletopia.com","port":27025,"enabled":true,"region":"eu","cc":"gb","latitude":51.509865,"longitude":-0.118092,"reserved":0,"last_update":"0001-01-01T00:00:00Z","name_a2s":"Uncletopia | London | 2 | All Maps","protocol":17,"map":"pl_upward","folder":"tf","game":"Team Fortress","app_id":440,"player_count":1,"max_players":24,"Bots":0,"server_type":"Dedicated","server_os":"Linux","password":true,"vac":true,"version":"7961495","steam_id":85568392924470941,"keywords":["nocrits","nodmgspread","payload","uncletopia"],"game_id":440,"stv_port":27026,"stv_name":"Uncletopia | London | 2 | All Maps | STV","players":[{"user_id":799,"name":"ediheelo","steam_id":76561198363615045,"connected_time":413000000000,"state":"active","ping":46}]},{"server_id":320,"name":"Uncletopia | London | 3 | All Maps","name_short":"lon-3","host":"lon-1.uk.uncletopia.com","port":27035,"enabled":true,"region":"eu","cc":"gb","latitude":51.509865,"longitude":-0.118092,"reserved":0,"last_update":"0001-01-01T00:00:00Z","name_a2s":"Uncletopia | London | 3 | All Maps","protocol":17,"map":"cp_dustbowl","folder":"tf","game":"Team Fortress","app_id":440,"player_count":22,"max_players":24,"Bots":0,"server_type":"Dedicated","server_os":"Linux","password":true,"vac":true,"version":"7961495","steam_id":85568392924510192,"keywords":["cp","nocrits","nodmgspread","uncletopia"],"game_id":440,"stv_port":27036,"stv_name":"Uncletopia | London | 3 | All Maps | STV","players":[{"user_id":769,"name":"PROFILE NAME","steam_id":76561198180056982,"connected_time":691000000000,"state":"active","ping":51},{"user_id":746,"name":"Pathetic","steam_id":76561198081807049,"connected_time":1707000000000,"state":"active","ping":86},{"user_id":734,"name":"SparkyDoodles - Artist","steam_id":76561198060128235,"connected_time":3316000000000,"state":"active","ping":55},{"user_id":739,"name":"Cyan :)","steam_id":76561198147659260,"connected_time":2846000000000,"state":"active","ping":69},{"user_id":748,"name":"‚ò∫","steam_id":76561199084139989,"connected_time":1519000000000,"state":"active","ping":45},{"user_id":712,"name":"vivid","steam_id":76561198346546144,"connected_time":4689000000000,"state":"active","ping":55},{"user_id":759,"name":"kaelan","steam_id":76561198001425310,"connected_time":1064000000000,"state":"active","ping":75},{"user_id":772,"name":"Tornado","steam_id":76561198025684320,"connected_time":148000000000,"state":"active","ping":38},{"user_id":767,"name":"Tea Follet","steam_id":76561198852408734,"connected_time":869000000000,"state":"active","ping":64},{"user_id":763,"name":"Saken","steam_id":76561198049075295,"connected_time":1018000000000,"state":"active","ping":60},{"user_id":725,"name":"April","steam_id":76561198420511241,"connected_time":3997000000000,"state":"active","ping":56},{"user_id":768,"name":"Kimmukka","steam_id":76561198348781326,"connected_time":853000000000,"state":"active","ping":114},{"user_id":760,"name":"Spanns","steam_id":76561197998349793,"connected_time":1054000000000,"state":"active","ping":68},{"user_id":731,"name":"A-1O","steam_id":76561198823870477,"connected_time":3593000000000,"state":"active","ping":69},{"user_id":771,"name":"‚òÅ Lou1smeister ‚òÅ","steam_id":76561198004032968,"connected_time":401000000000,"state":"active","ping":55},{"user_id":773,"name":"Tyrant","steam_id":76561198271882589,"connected_time":18000000000,"state":"active","ping":60},{"user_id":774,"name":"JetPackM","steam_id":76561199496973010,"connected_time":9000000000,"state":"spawning","ping":133},{"user_id":761,"name":"biohazard.pt","steam_id":76561198088367808,"connected_time":1039000000000,"state":"active","ping":67},{"user_id":741,"name":"Nox Equites","steam_id":76561198115438449,"connected_time":2611000000000,"state":"active","ping":85},{"user_id":742,"name":"padillacampos","steam_id":76561198161923970,"connected_time":2579000000000,"state":"active","ping":71},{"user_id":765,"name":"Jussukka","steam_id":76561198122894683,"connected_time":982000000000,"state":"active","ping":86},{"user_id":766,"name":"yuno appreciator","steam_id":76561198083286511,"connected_time":934000000000,"state":"active","ping":38}]},{"server_id":321,"name":"Uncletopia | London | 4 | All Maps","name_short":"lon-4","host":"lon-1.uk.uncletopia.com","port":27045,"enabled":true,"region":"eu","cc":"gb","latitude":51.509865,"longitude":-0.118092,"reserved":0,"last_update":"0001-01-01T00:00:00Z","name_a2s":"Uncletopia | London | 4 | All Maps","protocol":17,"map":"cp_badlands","folder":"tf","game":"Team Fortress","app_id":440,"player_count":22,"max_players":24,"Bots":0,"server_type":"Dedicated","server_os":"Linux","password":true,"vac":true,"version":"7961495","steam_id":85568392924510193,"keywords":["cp","nocrits","nodmgspread","uncletopia"],"game_id":440,"stv_port":27046,"stv_name":"Uncletopia | London | 4 | All Maps | STV","players":[{"user_id":485,"name":"pepper","steam_id":76561198852650589,"connected_time":60000000000,"state":"active","ping":74},{"user_id":472,"name":"craig","steam_id":76561198907428350,"connected_time":946000000000,"state":"active","ping":52},{"user_id":440,"name":"Sholunan","steam_id":76561198062435739,"connected_time":2979000000000,"state":"active","ping":63},{"user_id":431,"name":"Gameing","steam_id":76561198199687607,"connected_time":3419000000000,"state":"active","ping":63},{"user_id":486,"name":"silversteellady","steam_id":76561198166953966,"connected_time":54000000000,"state":"active","ping":58},{"user_id":487,"name":"jello_hey","steam_id":76561199176327650,"connected_time":15000000000,"state":"active","ping":129},{"user_id":484,"name":"Vel0city","steam_id":76561198049687798,"connected_time":173000000000,"state":"active","ping":56},{"user_id":400,"name":"King Sans","steam_id":76561198294198517,"connected_time":7400000000000,"state":"active","ping":105},{"user_id":449,"name":"Hank J Wimbleton","steam_id":76561198408623293,"connected_time":2505000000000,"state":"active","ping":55},{"user_id":450,"name":"Goon Spoons","steam_id":76561198116391675,"connected_time":2480000000000,"state":"active","ping":67},{"user_id":436,"name":"Snowmotion","steam_id":76561198075022454,"connected_time":3181000000000,"state":"active","ping":68},{"user_id":471,"name":"Margarito_snake","steam_id":76561198132001394,"connected_time":962000000000,"state":"active","ping":150},{"user_id":481,"name":"Moskvin","steam_id":76561198089170010,"connected_time":355000000000,"state":"active","ping":74},{"user_id":478,"name":"Funni Gui","steam_id":76561198364599033,"connected_time":666000000000,"state":"active","ping":49},{"user_id":473,"name":"lan","steam_id":76561198198519262,"connected_time":942000000000,"state":"active","ping":43},{"user_id":480,"name":"etc","steam_id":76561197998394797,"connected_time":480000000000,"state":"active","ping":55},{"user_id":488,"name":"Tost","steam_id":76561198383815040,"connected_time":13000000000,"state":"spawning","ping":66},{"user_id":482,"name":"tiia (fool)","steam_id":76561198046196005,"connected_time":350000000000,"state":"active","ping":59},{"user_id":427,"name":"Jimmy Poppadopolos","steam_id":76561198044825612,"connected_time":3787000000000,"state":"active","ping":56},{"user_id":398,"name":"TPD16","steam_id":76561198354138834,"connected_time":7456000000000,"state":"active","ping":59},{"user_id":405,"name":"Lunaria","steam_id":76561198175428545,"connected_time":6823000000000,"state":"active","ping":74},{"user_id":467,"name":"crit hit!","steam_id":76561198112693639,"connected_time":1116000000000,"state":"active","ping":56}]},{"server_id":21,"name":"Uncletopia | London | 5 | All Maps","name_short":"lon-5","host":"lon-1.uk.uncletopia.com","port":27055,"enabled":true,"region":"eu","cc":"gb","latitude":51.509865,"longitude":-0.118092,"reserved":0,"last_update":"0001-01-01T00:00:00Z","name_a2s":"Uncletopia | London | 5 | All Maps","protocol":17,"map":"cp_process_final","folder":"tf","game":"Team Fortress","app_id":440,"player_count":24,"max_players":24,"Bots":0,"server_type":"Dedicated","server_os":"Linux","password":true,"vac":true,"version":"7961495","steam_id":85568392924742829,"keywords":["cp","nocrits","nodmgspread","uncletopia"],"game_id":440,"stv_port":27056,"stv_name":"Uncletopia | London | 5 | All Maps | STV","players":[{"user_id":263,"name":"–ø—Ä–æ—Ç—ã–≥–∞–∑","steam_id":76561198007822012,"connected_time":7737000000000,"state":"active","ping":76},{"user_id":306,"name":"happy gonk :D","steam_id":76561197996468677,"connected_time":4431000000000,"state":"active","ping":65},{"user_id":350,"name":"glorpis","steam_id":76561199225333422,"connected_time":1413000000000,"state":"active","ping":40},{"user_id":264,"name":"SpicyBoy","steam_id":76561198307856007,"connected_time":7701000000000,"state":"active","ping":101},{"user_id":361,"name":"LetsWinCarlos2012","steam_id":76561199084826822,"connected_time":624000000000,"state":"active","ping":132},{"user_id":358,"name":"HOI","steam_id":76561198061182117,"connected_time":830000000000,"state":"active","ping":45},{"user_id":353,"name":"Josuf","steam_id":76561198070367804,"connected_time":1188000000000,"state":"active","ping":60},{"user_id":362,"name":"motsatsstrejk.2013","steam_id":76561198986662515,"connected_time":534000000000,"state":"active","ping":62},{"user_id":345,"name":"finbar","steam_id":76561198056812396,"connected_time":1889000000000,"state":"active","ping":81},{"user_id":298,"name":"Tombobx","steam_id":76561198862443949,"connected_time":5219000000000,"state":"active","ping":65},{"user_id":367,"name":"SKY_","steam_id":76561198080980508,"connected_time":133000000000,"state":"active","ping":65},{"user_id":364,"name":"pakin157","steam_id":76561198035125667,"connected_time":426000000000,"state":"active","ping":88},{"user_id":254,"name":"jjbros68","steam_id":76561198193427089,"connected_time":8052000000000,"state":"active","ping":65},{"user_id":257,"name":"Bepis","steam_id":76561198139719533,"connected_time":7962000000000,"state":"active","ping":56},{"user_id":366,"name":"Janner","steam_id":76561198127045282,"connected_time":286000000000,"state":"active","ping":45},{"user_id":341,"name":"random_player691","steam_id":76561199209946306,"connected_time":2442000000000,"state":"active","ping":50},{"user_id":336,"name":"Sonnakai","steam_id":76561198051688749,"connected_time":2812000000000,"state":"active","ping":46},{"user_id":344,"name":"Buniferd","steam_id":76561198044323131,"connected_time":2244000000000,"state":"active","ping":45},{"user_id":334,"name":"Ash","steam_id":76561198148738525,"connected_time":3037000000000,"state":"active","ping":107},{"user_id":368,"name":"help","steam_id":76561199056338917,"connected_time":54000000000,"state":"active","ping":161},{"user_id":328,"name":"free back real estate","steam_id":76561197999437155,"connected_time":3399000000000,"state":"active","ping":51},{"user_id":365,"name":"lili's boy","steam_id":76561198162873354,"connected_time":424000000000,"state":"active","ping":92},{"user_id":335,"name":"root beer nooo root beer","steam_id":76561199062586342,"connected_time":2985000000000,"state":"active","ping":68},{"user_id":347,"name":"‚ù§ Sparx ‚ù§","steam_id":76561198095009261,"connected_time":1858000000000,"state":"active","ping":86}]},{"server_id":22,"name":"Uncletopia | London | 6 | All Maps","name_short":"lon-6","host":"lon-1.uk.uncletopia.com","port":27065,"enabled":true,"region":"eu","cc":"gb","latitude":51.509865,"longitude":-0.118092,"reserved":0,"last_update":"0001-01-01T00:00:00Z","name_a2s":"Uncletopia | London | 6 | All Maps","protocol":17,"map":"pl_badwater","folder":"tf","game":"Team Fortress","app_id":440,"player_count":6,"max_players":24,"Bots":0,"server_type":"Dedicated","server_os":"Linux","password":true,"vac":true,"version":"7961495","steam_id":85568392924742830,"keywords":["nocrits","nodmgspread","payload","uncletopia"],"game_id":440,"stv_port":27066,"stv_name":"Uncletopia | London | 6 | All Maps | STV","players":[{"user_id":552,"name":"nice :)","steam_id":76561198026037217,"connected_time":8000000000,"state":"spawning","ping":74},{"user_id":522,"name":"corro","steam_id":76561197982510441,"connected_time":2646000000000,"state":"active","ping":30},{"user_id":545,"name":"noot","steam_id":76561198148074472,"connected_time":703000000000,"state":"active","ping":44},{"user_id":543,"name":"Kernel Panic","steam_id":76561198215811047,"connected_time":1217000000000,"state":"active","ping":31},{"user_id":540,"name":"_Context_","steam_id":76561199163359312,"connected_time":1494000000000,"state":"active","ping":63},{"user_id":520,"name":"Ross from F.R.I.E.N.D.S.","steam_id":76561198008511665,"connected_time":3181000000000,"state":"active","ping":53}]},{"server_id":40,"name":"Uncletopia | London | 7 | Stopwatch","name_short":"lon-7","host":"lon-1.uk.uncletopia.com","port":27075,"enabled":true,"region":"eu","cc":"gb","latitude":51.509865,"longitude":-0.118092,"reserved":0,"last_update":"0001-01-01T00:00:00Z","name_a2s":"Uncletopia | London | 7 | Stopwatch","protocol":17,"map":"workshop/koth_ramjam_rc1.ugc459778887","folder":"tf","game":"Team Fortress","app_id":440,"player_count":0,"max_players":24,"Bots":0,"server_type":"Dedicated","server_os":"Linux","password":true,"vac":true,"version":"7961495","steam_id":85568392924964314,"keywords":["cp","nocrits","nodmgspread","uncletopia"],"game_id":440,"stv_port":27076,"stv_name":"Uncletopia | London | 7 | Stopwatch | STV","players":null},{"server_id":41,"name":"Uncletopia | London | 8 | Community","name_short":"lon-8","host":"lon-1.uk.uncletopia.com","port":27085,"enabled":true,"region":"eu","cc":"gb","latitude":51.509865,"longitude":-0.118092,"reserved":0,"last_update":"0001-01-01T00:00:00Z","name_a2s":"Uncletopia | London | 8 | Community","protocol":17,"map":"workshop/cp_reckoner_rc6.ugc674719999","folder":"tf","game":"Team Fortress","app_id":440,"player_count":0,"max_players":24,"Bots":0,"server_type":"Dedicated","server_os":"Linux","password":true,"vac":true,"version":"7961495","steam_id":85568392924964315,"keywords":["cp","nocrits","nodmgspread","uncletopia"],"game_id":440,"stv_port":27086,"stv_name":"Uncletopia | London | 8 | Community | STV","players":null},{"server_id":300,"name":"Uncletopia | Montr√©al | 1 | One Thousand Uncles","name_short":"mtl-1","host":"mtl-1.ca.uncletopia.com","port":27015,"enabled":true,"region":"us-east","cc":"ca","latitude":45.50889,"longitude":-73.56167,"reserved":0,"last_update":"0001-01-01T00:00:00Z","name_a2s":"","protocol":0,"map":"","folder":"","game":"","app_id":0,"player_count":12,"max_players":0,"Bots":0,"server_type":"","server_os":"","password":false,"vac":false,"version":"","steam_id":0,"keywords":null,"game_id":0,"stv_port":0,"stv_name":"","players":[{"user_id":275,"name":"DjFloppy","steam_id":76561198212014625,"connected_time":5866000000000,"state":"active","ping":104},{"user_id":301,"name":"BloodHoundYT (F2P) | trade.tf","steam_id":76561199180340440,"connected_time":3951000000000,"state":"active","ping":154},{"user_id":323,"name":"Ginger Jesus","steam_id":76561198052386458,"connected_time":1823000000000,"state":"active","ping":55},{"user_id":277,"name":"Strange Festive Femboy","steam_id":76561198050385093,"connected_time":5565000000000,"state":"active","ping":66},{"user_id":321,"name":"Boykisser","steam_id":76561199382783363,"connected_time":2452000000000,"state":"active","ping":143},{"user_id":352,"name":"asian","steam_id":76561198091441622,"connected_time":93000000000,"state":"active","ping":48},{"user_id":281,"name":"penis atomizer 9000 üè≥Ô∏è?","steam_id":76561198864841966,"connected_time":4693000000000,"state":"active","ping":109},{"user_id":283,"name":"Bobbn","steam_id":76561198876124683,"connected_time":4489000000000,"state":"active","ping":78},{"user_id":189,"name":"DrMisteryous2","steam_id":76561198336307012,"connected_time":11373000000000,"state":"active","ping":165},{"user_id":325,"name":"mr.stuffedpenguin","steam_id":76561199212807058,"connected_time":1512000000000,"state":"active","ping":54},{"user_id":328,"name":"con","steam_id":76561198850438326,"connected_time":1345000000000,"state":"active","ping":62},{"user_id":168,"name":"Opera","steam_id":76561198023557977,"connected_time":14285000000000,"state":"active","ping":85}]},{"server_id":301,"name":"Uncletopia | Montr√©al | 2 | One Thousand Uncles","name_short":"mtl-2","host":"mtl-1.ca.uncletopia.com","port":27025,"enabled":true,"region":"us-east","cc":"ca","latitude":45.50889,"longitude":-73.56167,"reserved":0,"last_update":"0001-01-01T00:00:00Z","name_a2s":"","protocol":0,"map":"","folder":"","game":"","app_id":0,"player_count":12,"max_players":0,"Bots":0,"server_type":"","server_os":"","password":false,"vac":false,"version":"","steam_id":0,"keywords":null,"game_id":0,"stv_port":0,"stv_name":"","players":[{"user_id":284,"name":"The Fragrance of Dark Coffee","steam_id":76561198013111370,"connected_time":258000000000,"state":"active","ping":57},{"user_id":277,"name":"BreadBread06","steam_id":76561198196914050,"connected_time":1309000000000,"state":"active","ping":113},{"user_id":220,"name":"Jimmy Pubetron","steam_id":76561198077634776,"connected_time":5319000000000,"state":"active","ping":194},{"user_id":221,"name":"bman1035","steam_id":76561199050001242,"connected_time":4250000000000,"state":"active","ping":85},{"user_id":285,"name":"Oxygen User","steam_id":76561199111975528,"connected_time":130000000000,"state":"active","ping":86},{"user_id":254,"name":"armaicho","steam_id":76561198113374338,"connected_time":2037000000000,"state":"active","ping":69},{"user_id":276,"name":"DeepDive","steam_id":76561198140542184,"connected_time":1404000000000,"state":"active","ping":54},{"user_id":258,"name":"Holiday Fartcruise","steam_id":76561198043851584,"connected_time":1652000000000,"state":"active","ping":127},{"user_id":282,"name":"Super3D","steam_id":76561199297779078,"connected_time":809000000000,"state":"active","ping":88},{"user_id":287,"name":"momazos diegos","steam_id":76561199220257695,"connected_time":13000000000,"state":"spawning","ping":142},{"user_id":279,"name":"general.b","steam_id":76561198162480519,"connected_time":1209000000000,"state":"active","ping":47},{"user_id":256,"name":"the real pp tickler","steam_id":76561198867405402,"connected_time":1927000000000,"state":"active","ping":112}]},{"server_id":302,"name":"Uncletopia | Montr√©al | 3 | One Thousand Uncles","name_short":"mtl-3","host":"mtl-1.ca.uncletopia.com","port":27035,"enabled":true,"region":"us-east","cc":"ca","latitude":45.50889,"longitude":-73.56167,"reserved":0,"last_update":"0001-01-01T00:00:00Z","name_a2s":"","protocol":0,"map":"","folder":"","game":"","app_id":0,"player_count":0,"max_players":0,"Bots":0,"server_type":"","server_os":"","password":false,"vac":false,"version":"","steam_id":0,"keywords":null,"game_id":0,"stv_port":0,"stv_name":"","players":null},{"server_id":13,"name":"Uncletopia | New York City | 1 | All Maps","name_short":"nyc-1","host":"nyc-1.us.uncletopia.com","port":27015,"enabled":true,"region":"us-east","cc":"us","latitude":40.73061,"longitude":-73.93524,"reserved":0,"last_update":"0001-01-01T00:00:00Z","name_a2s":"Uncletopia | New York City | 1 | All Maps","protocol":17,"map":"pl_pier","folder":"tf","game":"Team Fortress","app_id":440,"player_count":20,"max_players":24,"Bots":0,"server_type":"Dedicated","server_os":"Linux","password":true,"vac":true,"version":"7961495","steam_id":85568392924469993,"keywords":["nocrits","nodmgspread","payload","uncletopia"],"game_id":440,"stv_port":27016,"stv_name":"Uncletopia | New York City | 1 | All Maps | STV","players":[{"user_id":429,"name":"cycoone","steam_id":76561198059745285,"connected_time":3838000000000,"state":"active","ping":71},{"user_id":461,"name":"Goku","steam_id":76561199013167718,"connected_time":243000000000,"state":"active","ping":60},{"user_id":443,"name":"Kale","steam_id":76561198088293094,"connected_time":2055000000000,"state":"active","ping":30},{"user_id":463,"name":"Jean Deere","steam_id":76561198105101309,"connected_time":24000000000,"state":"spawning","ping":88},{"user_id":433,"name":"silvr :3","steam_id":76561198069368377,"connected_time":3547000000000,"state":"active","ping":51},{"user_id":451,"name":"BubbyBoy27","steam_id":76561199102009679,"connected_time":1028000000000,"state":"active","ping":78},{"user_id":462,"name":"pogies","steam_id":76561199013255048,"connected_time":237000000000,"state":"active","ping":59},{"user_id":464,"name":"Artificial Taco Intelligence","steam_id":76561199431280503,"connected_time":8000000000,"state":"spawning","ping":51},{"user_id":465,"name":"Barmy","steam_id":76561198111626352,"connected_time":4000000000,"state":"spawning","ping":91},{"user_id":427,"name":"Bewen","steam_id":76561198325334261,"connected_time":3880000000000,"state":"active","ping":36},{"user_id":404,"name":"oink","steam_id":76561198111477518,"connected_time":5980000000000,"state":"active","ping":135},{"user_id":452,"name":"Sully","steam_id":76561198310784589,"connected_time":971000000000,"state":"active","ping":51},{"user_id":419,"name":"spherewithahat","steam_id":76561199122192660,"connected_time":4463000000000,"state":"active","ping":52},{"user_id":458,"name":"golf","steam_id":76561198149345069,"connected_time":499000000000,"state":"active","ping":45},{"user_id":445,"name":"lego star wars on the psp","steam_id":76561198148014773,"connected_time":1969000000000,"state":"active","ping":58},{"user_id":407,"name":"Skrump","steam_id":76561198091934830,"connected_time":5282000000000,"state":"active","ping":75},{"user_id":460,"name":"Bob_Ross","steam_id":76561199012624931,"connected_time":292000000000,"state":"active","ping":90},{"user_id":456,"name":"pah","steam_id":76561198065040540,"connected_time":753000000000,"state":"active","ping":53},{"user_id":454,"name":"Xx_gam3rberg_xX","steam_id":76561199035781025,"connected_time":939000000000,"state":"active","ping":74},{"user_id":438,"name":"wool","steam_id":76561198869689933,"connected_time":2419000000000,"state":"active","ping":52}]},{"server_id":14,"name":"Uncletopia | New York City | 2 | All Maps","name_short":"nyc-2","host":"nyc-1.us.uncletopia.com","port":27025,"enabled":true,"region":"us-east","cc":"us","latitude":40.73061,"longitude":-73.93524,"reserved":0,"last_update":"0001-01-01T00:00:00Z","name_a2s":"Uncletopia | New York City | 2 | All Maps","protocol":17,"map":"pl_badwater","folder":"tf","game":"Team Fortress","app_id":440,"player_count":24,"max_players":24,"Bots":0,"server_type":"Dedicated","server_os":"Linux","password":true,"vac":true,"version":"7961495","steam_id":85568392924469994,"keywords":["nocrits","nodmgspread","payload","uncletopia"],"game_id":440,"stv_port":27026,"stv_name":"Uncletopia | New York City | 2 | All Maps | STV","players":[{"user_id":339,"name":"Thndr_","steam_id":76561198113242036,"connected_time":1363000000000,"state":"active","ping":138},{"user_id":330,"name":"Squope","steam_id":76561198983129293,"connected_time":2130000000000,"state":"active","ping":54},{"user_id":347,"name":"Bootes","steam_id":76561197968255551,"connected_time":727000000000,"state":"active","ping":51},{"user_id":354,"name":"kjc105","steam_id":76561198880364422,"connected_time":108000000000,"state":"active","ping":82},{"user_id":331,"name":"John Fortnite","steam_id":76561198076608253,"connected_time":2127000000000,"state":"active","ping":59},{"user_id":332,"name":"TARP","steam_id":76561198981788304,"connected_time":2102000000000,"state":"active","ping":39},{"user_id":335,"name":"CadenLCheese","steam_id":76561199105517435,"connected_time":1959000000000,"state":"active","ping":113},{"user_id":342,"name":"crisp","steam_id":76561198084230569,"connected_time":1098000000000,"state":"active","ping":64},{"user_id":327,"name":"Frontier Psychiatrist","steam_id":76561198038689088,"connected_time":2214000000000,"state":"active","ping":99},{"user_id":334,"name":"jorjor wells","steam_id":76561199073429082,"connected_time":2036000000000,"state":"active","ping":58},{"user_id":356,"name":"Jaydyn","steam_id":76561198140326797,"connected_time":17000000000,"state":"active","ping":72},{"user_id":301,"name":"backwoods","steam_id":76561198328109873,"connected_time":5328000000000,"state":"active","ping":115},{"user_id":311,"name":"D.T. Katze","steam_id":76561198002280813,"connected_time":3652000000000,"state":"active","ping":59},{"user_id":350,"name":"Mr. Milk","steam_id":76561198068902833,"connected_time":158000000000,"state":"active","ping":94},{"user_id":355,"name":"matthewp14556","steam_id":76561199487692335,"connected_time":107000000000,"state":"active","ping":62},{"user_id":353,"name":"Dragus","steam_id":76561198032967285,"connected_time":131000000000,"state":"active","ping":67},{"user_id":340,"name":"Anamm","steam_id":76561198328762510,"connected_time":1186000000000,"state":"active","ping":55},{"user_id":313,"name":"Vin","steam_id":76561198043601929,"connected_time":3554000000000,"state":"active","ping":128},{"user_id":320,"name":"feleven","steam_id":76561198853721046,"connected_time":2833000000000,"state":"active","ping":53},{"user_id":295,"name":"Avrram","steam_id":76561198280616781,"connected_time":5557000000000,"state":"active","ping":75},{"user_id":348,"name":"White Male (he/him)","steam_id":76561199501497157,"connected_time":722000000000,"state":"active","ping":70},{"user_id":351,"name":"Rat in the Kohl's Parking Lot","steam_id":76561198101307420,"connected_time":158000000000,"state":"active","ping":51},{"user_id":345,"name":"Ejaculation Zach","steam_id":76561198203765200,"connected_time":763000000000,"state":"active","ping":80},{"user_id":298,"name":"Useless","steam_id":76561198116079299,"connected_time":5535000000000,"state":"active","ping":107}]},{"server_id":15,"name":"Uncletopia | New York City | 3 | Stopwatch","name_short":"nyc-3","host":"nyc-1.us.uncletopia.com","port":27035,"enabled":true,"region":"us-east","cc":"us","latitude":40.73061,"longitude":-73.93524,"reserved":0,"last_update":"0001-01-01T00:00:00Z","name_a2s":"Uncletopia | New York City | 3 | Stopwatch","protocol":17,"map":"cp_sunshine","folder":"tf","game":"Team Fortress","app_id":440,"player_count":24,"max_players":24,"Bots":0,"server_type":"Dedicated","server_os":"Linux","password":true,"vac":true,"version":"7961495","steam_id":85568392924742820,"keywords":["cp","nocrits","nodmgspread","uncletopia"],"game_id":440,"stv_port":27036,"stv_name":"Uncletopia | New York City | 3 | Stopwatch | STV","players":[{"user_id":526,"name":"Hero Smasher","steam_id":76561198150681669,"connected_time":1597000000000,"state":"active","ping":113},{"user_id":551,"name":"Lyman","steam_id":76561198869578390,"connected_time":144000000000,"state":"active","ping":48},{"user_id":552,"name":"hamburger5739","steam_id":76561198106832098,"connected_time":62000000000,"state":"active","ping":51},{"user_id":487,"name":"Gary","steam_id":76561199466597572,"connected_time":4825000000000,"state":"active","ping":102},{"user_id":541,"name":"i couldnt make any sense of it","steam_id":76561198313557798,"connected_time":1039000000000,"state":"active","ping":59},{"user_id":515,"name":"Cyclops_672","steam_id":76561198080169497,"connected_time":2091000000000,"state":"active","ping":60},{"user_id":532,"name":"Propaniac Gaming ‚òë","steam_id":76561198133963270,"connected_time":1371000000000,"state":"active","ping":63},{"user_id":533,"name":"hornyBoy203","steam_id":76561198382281653,"connected_time":1364000000000,"state":"active","ping":166},{"user_id":494,"name":"ApleBottom7","steam_id":76561199189620400,"connected_time":3429000000000,"state":"active","ping":83},{"user_id":523,"name":"The_Epic_Conclusion","steam_id":76561198084250179,"connected_time":1701000000000,"state":"active","ping":66},{"user_id":534,"name":"booby","steam_id":76561198311060855,"connected_time":1353000000000,"state":"active","ping":129},{"user_id":538,"name":"BB Lorexav","steam_id":76561198207565988,"connected_time":1171000000000,"state":"active","ping":71},{"user_id":542,"name":"Stampeding Kodo","steam_id":76561198271643454,"connected_time":969000000000,"state":"active","ping":110},{"user_id":543,"name":"gob c","steam_id":76561198265534468,"connected_time":952000000000,"state":"active","ping":79},{"user_id":511,"name":"BlueSceptile","steam_id":76561198303151606,"connected_time":2370000000000,"state":"active","ping":94},{"user_id":516,"name":"jeff","steam_id":76561198174051530,"connected_time":2089000000000,"state":"active","ping":53},{"user_id":536,"name":"K3vuit","steam_id":76561198435734623,"connected_time":1327000000000,"state":"active","ping":129},{"user_id":550,"name":"dark souls boss","steam_id":76561198316610724,"connected_time":712000000000,"state":"active","ping":109},{"user_id":528,"name":"AstronautPug","steam_id":76561198162372709,"connected_time":1575000000000,"state":"active","ping":79},{"user_id":545,"name":"Buff.Chick.Zah.Dude","steam_id":76561198284739144,"connected_time":900000000000,"state":"active","ping":70},{"user_id":525,"name":"BiggFoot","steam_id":76561197998605599,"connected_time":1636000000000,"state":"active","ping":74},{"user_id":546,"name":"Rated_C","steam_id":76561199226478414,"connected_time":890000000000,"state":"active","ping":102},{"user_id":547,"name":"BatName","steam_id":76561199350890986,"connected_time":876000000000,"state":"active","ping":79},{"user_id":548,"name":"Fish_man_Jon","steam_id":76561198068158264,"connected_time":812000000000,"state":"active","ping":84}]},{"server_id":16,"name":"Uncletopia | New York City | 4 | Community","name_short":"nyc-4","host":"nyc-1.us.uncletopia.com","port":27045,"enabled":true,"region":"us-east","cc":"us","latitude":40.73061,"longitude":-73.93524,"reserved":0,"last_update":"0001-01-01T00:00:00Z","name_a2s":"Uncletopia | New York City | 4 | Community","protocol":17,"map":"workshop/koth_slaughter_rc1.ugc1712845210","folder":"tf","game":"Team Fortress","app_id":440,"player_count":0,"max_players":24,"Bots":0,"server_type":"Dedicated","server_os":"Linux","password":true,"vac":true,"version":"7961495","steam_id":85568392924742821,"keywords":["cp","nocrits","nodmgspread","uncletopia"],"game_id":440,"stv_port":27046,"stv_name":"Uncletopia | New York City | 4 | Community | STV","players":null},{"server_id":142,"name":"Uncletopia | S√£o Paulo | 1 | All Maps","name_short":"sao-1","host":"sao-1.br.uncletopia.com","port":27015,"enabled":true,"region":"sa","cc":"br","latitude":-23.533773,"longitude":-46.62529,"reserved":0,"last_update":"0001-01-01T00:00:00Z","name_a2s":"Uncletopia | S√£o Paulo | 1 | All Maps","protocol":17,"map":"cp_altitude","folder":"tf","game":"Team Fortress","app_id":440,"player_count":0,"max_players":24,"Bots":0,"server_type":"Dedicated","server_os":"Linux","password":true,"vac":true,"version":"7961495","steam_id":85568392924469996,"keywords":["cp","nocrits","nodmgspread","uncletopia"],"game_id":440,"stv_port":27016,"stv_name":"Uncletopia | S√£o Paulo | 1 | All Maps | STV","players":null},{"server_id":143,"name":"Uncletopia | S√£o Paulo | 2 | Community","name_short":"sao-2","host":"sao-2.br.uncletopia.com","port":27015,"enabled":true,"region":"sa","cc":"br","latitude":-23.533773,"longitude":-46.62529,"reserved":0,"last_update":"0001-01-01T00:00:00Z","name_a2s":"Uncletopia | S√£o Paulo | 2 | Community","protocol":17,"map":"workshop/cp_coilblaze_rc7.ugc1272700588","folder":"tf","game":"Team Fortress","app_id":440,"player_count":0,"max_players":24,"Bots":0,"server_type":"Dedicated","server_os":"Linux","password":true,"vac":true,"version":"7961495","steam_id":85568392924485349,"keywords":["cp","nocrits","nodmgspread","uncletopia"],"game_id":440,"stv_port":27016,"stv_name":"Uncletopia | S√£o Paulo | 2 | Community | STV","players":null},{"server_id":7,"name":"Uncletopia | Seattle | 1 | All Maps","name_short":"sea-1","host":"sea-1.us.uncletopia.com","port":27015,"enabled":true,"region":"us-west","cc":"us","latitude":47.608013,"longitude":-122.33517,"reserved":0,"last_update":"0001-01-01T00:00:00Z","name_a2s":"Uncletopia | Seattle | 1 | All Maps","protocol":17,"map":"koth_cascade","folder":"tf","game":"Team Fortress","app_id":440,"player_count":24,"max_players":24,"Bots":0,"server_type":"Dedicated","server_os":"Linux","password":true,"vac":true,"version":"7961495","steam_id":85568392924469997,"keywords":["cp","nocrits","nodmgspread","uncletopia"],"game_id":440,"stv_port":27016,"stv_name":"Uncletopia | Seattle | 1 | All Maps | STV","players":[{"user_id":363,"name":"BOZO","steam_id":76561199127423378,"connected_time":448000000000,"state":"active","ping":85},{"user_id":365,"name":"Âª£Êù±ËôéÈöä ÊàëÊÑõÊØõÊæ§Êù±","steam_id":76561198178049845,"connected_time":404000000000,"state":"active","ping":54},{"user_id":346,"name":"mia","steam_id":76561199382661194,"connected_time":3528000000000,"state":"active","ping":74},{"user_id":354,"name":"O","steam_id":76561198450073779,"connected_time":1998000000000,"state":"active","ping":46},{"user_id":303,"name":"evilOlive","steam_id":76561198106222025,"connected_time":10271000000000,"state":"active","ping":76},{"user_id":336,"name":"VerminKing","steam_id":76561198060887391,"connected_time":4731000000000,"state":"active","ping":71},{"user_id":293,"name":"Melly","steam_id":76561198045867175,"connected_time":10736000000000,"state":"active","ping":61},{"user_id":319,"name":"Cheezbeargur","steam_id":76561198164702899,"connected_time":7408000000000,"state":"active","ping":72},{"user_id":344,"name":"jayeskae","steam_id":76561198144220801,"connected_time":3721000000000,"state":"active","ping":49},{"user_id":362,"name":"MrYadaization","steam_id":76561198050770818,"connected_time":460000000000,"state":"active","ping":59},{"user_id":367,"name":"T√ºCold","steam_id":76561198111278197,"connected_time":151000000000,"state":"active","ping":45},{"user_id":310,"name":"DaddyGalaxy","steam_id":76561198139697796,"connected_time":9149000000000,"state":"active","ping":58},{"user_id":350,"name":"sadlaxx","steam_id":76561198061354919,"connected_time":2661000000000,"state":"active","ping":83},{"user_id":368,"name":"your alcoholic step father","steam_id":76561199386363103,"connected_time":31000000000,"state":"active","ping":57},{"user_id":331,"name":"rat gets the cheese","steam_id":76561198031234032,"connected_time":5211000000000,"state":"active","ping":98},{"user_id":366,"name":"Oktayey","steam_id":76561198143213426,"connected_time":225000000000,"state":"active","ping":65},{"user_id":361,"name":"Dimple","steam_id":76561198980324190,"connected_time":699000000000,"state":"active","ping":61},{"user_id":356,"name":"Toaster (Hamilton Beach)","steam_id":76561198039891934,"connected_time":1610000000000,"state":"active","ping":60},{"user_id":304,"name":"Spectre","steam_id":76561198037535169,"connected_time":9909000000000,"state":"active","ping":74},{"user_id":352,"name":"blinkerton city","steam_id":76561198054270410,"connected_time":2367000000000,"state":"active","ping":58},{"user_id":335,"name":"Nom Skirrett","steam_id":76561198014600788,"connected_time":4838000000000,"state":"active","ping":69},{"user_id":357,"name":"They/Them Rattussy","steam_id":76561198238186628,"connected_time":1137000000000,"state":"active","ping":88},{"user_id":355,"name":"DogChamp","steam_id":76561199123489684,"connected_time":1850000000000,"state":"active","ping":106},{"user_id":287,"name":"Gm_Sweet","steam_id":76561199445091548,"connected_time":11245000000000,"state":"active","ping":60}]},{"server_id":119,"name":"Uncletopia | Seattle | 2 | All Maps","name_short":"sea-2","host":"sea-1.us.uncletopia.com","port":27025,"enabled":true,"region":"us-west","cc":"us","latitude":47.608013,"longitude":-122.33517,"reserved":0,"last_update":"0001-01-01T00:00:00Z","name_a2s":"Uncletopia | Seattle | 2 | All Maps","protocol":17,"map":"pl_frontier_final","folder":"tf","game":"Team Fortress","app_id":440,"player_count":24,"max_players":24,"Bots":0,"server_type":"Dedicated","server_os":"Linux","password":true,"vac":true,"version":"7961495","steam_id":85568392924469998,"keywords":["nocrits","nodmgspread","payload","uncletopia"],"game_id":440,"stv_port":27026,"stv_name":"Uncletopia | Seattle | 2 | All Maps | STV","players":[{"user_id":206,"name":"BitPieStudios","steam_id":76561198059216393,"connected_time":1618000000000,"state":"active","ping":69},{"user_id":204,"name":"look at me hector","steam_id":76561198168492250,"connected_time":1628000000000,"state":"active","ping":63},{"user_id":232,"name":"Creeping Python","steam_id":76561198041636923,"connected_time":244000000000,"state":"active","ping":56},{"user_id":235,"name":"MrRojan","steam_id":76561197993760849,"connected_time":117000000000,"state":"active","ping":54},{"user_id":180,"name":"grape","steam_id":76561198976352881,"connected_time":4084000000000,"state":"active","ping":73},{"user_id":209,"name":"yumyum","steam_id":76561199055381090,"connected_time":1529000000000,"state":"active","ping":57},{"user_id":222,"name":"Smelly","steam_id":76561198380507370,"connected_time":731000000000,"state":"active","ping":113},{"user_id":223,"name":"young peter","steam_id":76561198150382695,"connected_time":720000000000,"state":"active","ping":74},{"user_id":228,"name":"Some Octopus Wizard","steam_id":76561198005470354,"connected_time":644000000000,"state":"active","ping":130},{"user_id":178,"name":"good lord my posture","steam_id":76561198065662025,"connected_time":4156000000000,"state":"active","ping":68},{"user_id":191,"name":"st0n3mast3r48","steam_id":76561199141431059,"connected_time":3115000000000,"state":"active","ping":110},{"user_id":224,"name":"MegaBitmap","steam_id":76561198086027059,"connected_time":706000000000,"state":"active","ping":73},{"user_id":231,"name":"Dim","steam_id":76561198061411324,"connected_time":385000000000,"state":"active","ping":130},{"user_id":125,"name":"wmjledger","steam_id":76561198443046861,"connected_time":7701000000000,"state":"active","ping":47},{"user_id":220,"name":"Tibetan Pop Star","steam_id":76561198844903984,"connected_time":955000000000,"state":"active","ping":76},{"user_id":226,"name":"Kungkuan Giljegiljaw","steam_id":76561198060553584,"connected_time":676000000000,"state":"active","ping":64},{"user_id":218,"name":"Trevor","steam_id":76561198111876561,"connected_time":1120000000000,"state":"active","ping":84},{"user_id":159,"name":"shellaa","steam_id":76561198044124102,"connected_time":5080000000000,"state":"active","ping":98},{"user_id":167,"name":"Banana Sword","steam_id":76561199076361445,"connected_time":4684000000000,"state":"active","ping":70},{"user_id":214,"name":"Misclick","steam_id":76561198050855911,"connected_time":1420000000000,"state":"active","ping":92},{"user_id":233,"name":"NightGhost1400","steam_id":76561198810730471,"connected_time":193000000000,"state":"active","ping":56},{"user_id":234,"name":"your friend doge","steam_id":76561199339916575,"connected_time":139000000000,"state":"active","ping":59},{"user_id":217,"name":"ùíØùíΩùíæùìáùìâùìé ùí©\ufffd\ufffd","steam_id":76561198111878431,"connected_time":1367000000000,"state":"active","ping":61},{"user_id":196,"name":"Artgrendadier","steam_id":76561198063305359,"connected_time":2792000000000,"state":"active","ping":110}]},{"server_id":406,"name":"Uncletopia | Seattle | 3 | Stopwatch","name_short":"sea-3","host":"sea-1.us.uncletopia.com","port":27035,"enabled":true,"region":"us-west","cc":"us","latitude":47.608013,"longitude":-122.33517,"reserved":0,"last_update":"0001-01-01T00:00:00Z","name_a2s":"Uncletopia | Seattle | 3 | Stopwatch","protocol":17,"map":"koth_highpass","folder":"tf","game":"Team Fortress","app_id":440,"player_count":0,"max_players":24,"Bots":0,"server_type":"Dedicated","server_os":"Linux","password":true,"vac":true,"version":"7961495","steam_id":85568392924515217,"keywords":["cp","nocrits","nodmgspread","uncletopia"],"game_id":440,"stv_port":27036,"stv_name":"Uncletopia | Seattle | 3 | Stopwatch | STV","players":null},{"server_id":17,"name":"Uncletopia | San Francisco | 1 | All Maps","name_short":"sfo-1","host":"sfo-1.us.uncletopia.com","port":27015,"enabled":true,"region":"us-west","cc":"us","latitude":37.77397,"longitude":-122.4313,"reserved":0,"last_update":"0001-01-01T00:00:00Z","name_a2s":"Uncletopia | San Francisco | 1 | All Maps","protocol":17,"map":"koth_cascade","folder":"tf","game":"Team Fortress","app_id":440,"player_count":0,"max_players":24,"Bots":0,"server_type":"Dedicated","server_os":"Linux","password":true,"vac":true,"version":"7961495","steam_id":85568392924469999,"keywords":["cp","nocrits","nodmgspread","uncletopia"],"game_id":440,"stv_port":27016,"stv_name":"Uncletopia | San Francisco | 1 | All Maps | STV","players":null},{"server_id":18,"name":"Uncletopia | San Francisco | 2 | All Maps","name_short":"sfo-2","host":"sfo-1.us.uncletopia.com","port":27025,"enabled":true,"region":"us-west","cc":"us","latitude":37.77397,"longitude":-122.4313,"reserved":0,"last_update":"0001-01-01T00:00:00Z","name_a2s":"Uncletopia | San Francisco | 2 | All Maps","protocol":17,"map":"cp_altitude","folder":"tf","game":"Team Fortress","app_id":440,"player_count":0,"max_players":24,"Bots":0,"server_type":"Dedicated","server_os":"Linux","password":true,"vac":true,"version":"7961495","steam_id":85568392924470000,"keywords":["cp","nocrits","nodmgspread","uncletopia"],"game_id":440,"stv_port":27026,"stv_name":"Uncletopia | San Francisco | 2 | All Maps | STV","players":null},{"server_id":19,"name":"Uncletopia | San Francisco | 3 | Stopwatch","name_short":"sfo-3","host":"sfo-1.us.uncletopia.com","port":27035,"enabled":true,"region":"us-west","cc":"us","latitude":37.77397,"longitude":-122.4313,"reserved":0,"last_update":"0001-01-01T00:00:00Z","name_a2s":"Uncletopia | San Francisco | 3 | Stopwatch","protocol":17,"map":"workshop/koth_ashville_final.ugc2130459942","folder":"tf","game":"Team Fortress","app_id":440,"player_count":3,"max_players":24,"Bots":0,"server_type":"Dedicated","server_os":"Linux","password":true,"vac":true,"version":"7961495","steam_id":85568392924742824,"keywords":["cp","nocrits","nodmgspread","uncletopia"],"game_id":440,"stv_port":27036,"stv_name":"Uncletopia | San Francisco | 3 | Stopwatch | STV","players":[{"user_id":20,"name":"Cheddar","steam_id":76561199123994392,"connected_time":146000000000,"state":"active","ping":72},{"user_id":7,"name":"cyper103104","steam_id":76561199465828627,"connected_time":3606000000000,"state":"active","ping":54},{"user_id":21,"name":"S O U N D W A V E","steam_id":76561198093417449,"connected_time":42000000000,"state":"active","ping":61}]},{"server_id":20,"name":"Uncletopia | San Francisco | 4 | Community","name_short":"sfo-4","host":"sfo-1.us.uncletopia.com","port":27045,"enabled":true,"region":"us-west","cc":"us","latitude":37.77397,"longitude":-122.4313,"reserved":0,"last_update":"0001-01-01T00:00:00Z","name_a2s":"Uncletopia | San Francisco | 4 | Community","protocol":17,"map":"pl_pier","folder":"tf","game":"Team Fortress","app_id":440,"player_count":0,"max_players":24,"Bots":0,"server_type":"Dedicated","server_os":"Linux","password":true,"vac":true,"version":"7961495","steam_id":85568392924742826,"keywords":["nocrits","nodmgspread","payload","uncletopia"],"game_id":440,"stv_port":27046,"stv_name":"Uncletopia | San Francisco | 4 | Community | STV","players":null},{"server_id":141,"name":"Uncletopia | Sydney | 1 | All Maps","name_short":"syd-1","host":"syd-1.au.uncletopia.com","port":27015,"enabled":true,"region":"au","cc":"au","latitude":-33.865143,"longitude":151.2099,"reserved":0,"last_update":"0001-01-01T00:00:00Z","name_a2s":"Uncletopia | Sydney | 1 | All Maps","protocol":17,"map":"koth_viaduct","folder":"tf","game":"Team Fortress","app_id":440,"player_count":0,"max_players":24,"Bots":0,"server_type":"Dedicated","server_os":"Linux","password":true,"vac":true,"version":"7961495","steam_id":85568392924470001,"keywords":["cp","nocrits","nodmgspread","uncletopia"],"game_id":440,"stv_port":27016,"stv_name":"Uncletopia | Sydney | 1 | All Maps | STV","players":null},{"server_id":123,"name":"Uncletopia | Sydney | 2 | All Maps","name_short":"syd-2","host":"syd-1.au.uncletopia.com","port":27025,"enabled":true,"region":"au","cc":"au","latitude":-33.865143,"longitude":151.2099,"reserved":0,"last_update":"0001-01-01T00:00:00Z","name_a2s":"Uncletopia | Sydney | 2 | All Maps","protocol":17,"map":"koth_lakeside_final","folder":"tf","game":"Team Fortress","app_id":440,"player_count":0,"max_players":24,"Bots":0,"server_type":"Dedicated","server_os":"Linux","password":true,"vac":true,"version":"7961495","steam_id":85568392924470002,"keywords":["cp","nocrits","nodmgspread","uncletopia"],"game_id":440,"stv_port":27026,"stv_name":"Uncletopia | Sydney | 2 | All Maps | STV","players":null},{"server_id":395,"name":"Uncletopia | Sydney | 3 | All Maps","name_short":"syd-3","host":"syd-1.au.uncletopia.com","port":27035,"enabled":true,"region":"au","cc":"au","latitude":-33.865143,"longitude":151.2099,"reserved":0,"last_update":"0001-01-01T00:00:00Z","name_a2s":"Uncletopia | Sydney | 3 | All Maps","protocol":17,"map":"pl_frontier_final","folder":"tf","game":"Team Fortress","app_id":440,"player_count":0,"max_players":24,"Bots":0,"server_type":"Dedicated","server_os":"Linux","password":true,"vac":true,"version":"7961495","steam_id":85568392925194467,"keywords":["nocrits","nodmgspread","payload","uncletopia"],"game_id":440,"stv_port":27036,"stv_name":"Uncletopia | Sydney | 3 | All Maps | STV","players":null},{"server_id":396,"name":"Uncletopia | Sydney | 4 | All Maps","name_short":"syd-4","host":"syd-1.au.uncletopia.com","port":27045,"enabled":true,"region":"au","cc":"au","latitude":-33.865143,"longitude":151.2099,"reserved":0,"last_update":"0001-01-01T00:00:00Z","name_a2s":"Uncletopia | Sydney | 4 | All Maps","protocol":17,"map":"cp_process_final","folder":"tf","game":"Team Fortress","app_id":440,"player_count":0,"max_players":24,"Bots":0,"server_type":"Dedicated","server_os":"Linux","password":true,"vac":true,"version":"7961495","steam_id":85568392925397958,"keywords":["cp","nocrits","nodmgspread","uncletopia"],"game_id":440,"stv_port":27046,"stv_name":"Uncletopia | Sydney | 4 | All Maps | STV","players":null},{"server_id":58,"name":"Uncletopia | Sydney | 5 | Stopwatch","name_short":"syd-5","host":"syd-1.au.uncletopia.com","port":27055,"enabled":true,"region":"au","cc":"au","latitude":-33.865143,"longitude":151.2099,"reserved":0,"last_update":"0001-01-01T00:00:00Z","name_a2s":"Uncletopia | Sydney | 5 | Stopwatch","protocol":17,"map":"pl_frontier_final","folder":"tf","game":"Team Fortress","app_id":440,"player_count":0,"max_players":24,"Bots":0,"server_type":"Dedicated","server_os":"Linux","password":true,"vac":true,"version":"7961495","steam_id":85568392925397959,"keywords":["nocrits","nodmgspread","payload","uncletopia"],"game_id":440,"stv_port":27056,"stv_name":"Uncletopia | Sydney | 5 | Stopwatch | STV","players":null},{"server_id":59,"name":"Uncletopia | Sydney | 6 | Community","name_short":"syd-6","host":"syd-1.au.uncletopia.com","port":27065,"enabled":true,"region":"au","cc":"au","latitude":-33.865143,"longitude":151.2099,"reserved":0,"last_update":"0001-01-01T00:00:00Z","name_a2s":"Uncletopia | Sydney | 6 | Community","protocol":17,"map":"cp_sunshine","folder":"tf","game":"Team Fortress","app_id":440,"player_count":0,"max_players":24,"Bots":0,"server_type":"Dedicated","server_os":"Linux","password":true,"vac":true,"version":"7961495","steam_id":85568392925397960,"keywords":["cp","nocrits","nodmgspread","uncletopia"],"game_id":440,"stv_port":27066,"stv_name":"Uncletopia | Sydney | 6 | Community | STV","players":null},{"server_id":49,"name":"Uncletopia | Warsaw | 1 | One Thousand Uncles","name_short":"waw-1","host":"waw-1.pl.uncletopia.com","port":27015,"enabled":true,"region":"eu","cc":"pl","latitude":52.2297,"longitude":21.017532,"reserved":0,"last_update":"0001-01-01T00:00:00Z","name_a2s":"Uncletopia | Warsaw | 1 | One Thousand Uncles","protocol":17,"map":"pl_hoodoo_final","folder":"tf","game":"Team Fortress","app_id":440,"player_count":0,"max_players":32,"Bots":0,"server_type":"Dedicated","server_os":"Linux","password":true,"vac":true,"version":"7961495","steam_id":85568392925397850,"keywords":["alltalk","danepve","increased_maxplayers","nocrits","norespawntime","payload","uncletopia"],"game_id":440,"stv_port":0,"stv_name":"","players":null},{"server_id":50,"name":"Uncletopia | Warsaw | 2 | One Thousand Uncles","name_short":"waw-2","host":"waw-1.pl.uncletopia.com","port":27025,"enabled":true,"region":"eu","cc":"pl","latitude":52.2297,"longitude":21.017532,"reserved":0,"last_update":"0001-01-01T00:00:00Z","name_a2s":"Uncletopia | Warsaw | 2 | One Thousand Uncles","protocol":17,"map":"cp_dustbowl","folder":"tf","game":"Team Fortress","app_id":440,"player_count":20,"max_players":32,"Bots":16,"server_type":"Dedicated","server_os":"Linux","password":true,"vac":true,"version":"7961495","steam_id":85568392925397851,"keywords":["alltalk","bots","cp","danepve","increased_maxplayers","nocrits","norespawntime","uncletopia"],"game_id":440,"stv_port":0,"stv_name":"","players":[{"user_id":400,"name":"C.E.O. of stab industry","steam_id":76561198242840202,"connected_time":8550000000000,"state":"active","ping":71},{"user_id":427,"name":"Fujin Takama","steam_id":76561198103143049,"connected_time":1132000000000,"state":"active","ping":80},{"user_id":423,"name":"engineer gaming","steam_id":76561199482886946,"connected_time":3898000000000,"state":"active","ping":66},{"user_id":425,"name":"vo1dm","steam_id":76561198297045920,"connected_time":3577000000000,"state":"active","ping":200}]},{"server_id":51,"name":"Uncletopia | Warsaw | 3 | All Maps","name_short":"waw-3","host":"waw-1.pl.uncletopia.com","port":27035,"enabled":true,"region":"eu","cc":"pl","latitude":52.2297,"longitude":21.017532,"reserved":0,"last_update":"0001-01-01T00:00:00Z","name_a2s":"Uncletopia | Warsaw | 3 | All Maps","protocol":17,"map":"koth_highpass","folder":"tf","game":"Team Fortress","app_id":440,"player_count":0,"max_players":24,"Bots":0,"server_type":"Dedicated","server_os":"Linux","password":true,"vac":true,"version":"7961495","steam_id":85568392925397852,"keywords":["cp","nocrits","nodmgspread","uncletopia"],"game_id":440,"stv_port":27036,"stv_name":"Uncletopia | Warsaw | 3 | All Maps | STV","players":null},{"server_id":52,"name":"Uncletopia | Warsaw | 4 | All Maps","name_short":"waw-4","host":"waw-1.pl.uncletopia.com","port":27045,"enabled":true,"region":"eu","cc":"pl","latitude":52.2297,"longitude":21.017532,"reserved":0,"last_update":"0001-01-01T00:00:00Z","name_a2s":"Uncletopia | Warsaw | 4 | All Maps","protocol":17,"map":"koth_highpass","folder":"tf","game":"Team Fortress","app_id":440,"player_count":0,"max_players":24,"Bots":0,"server_type":"Dedicated","server_os":"Linux","password":true,"vac":true,"version":"7961495","steam_id":85568392925397853,"keywords":["cp","nocrits","nodmgspread","uncletopia"],"game_id":440,"stv_port":27046,"stv_name":"Uncletopia | Warsaw | 4 | All Maps | STV","players":null},{"server_id":53,"name":"Uncletopia | Warsaw | 5 | Stopwatch","name_short":"waw-5","host":"waw-1.pl.uncletopia.com","port":27055,"enabled":true,"region":"eu","cc":"pl","latitude":52.2297,"longitude":21.017532,"reserved":0,"last_update":"0001-01-01T00:00:00Z","name_a2s":"Uncletopia | Warsaw | 5 | Stopwatch","protocol":17,"map":"pl_upward","folder":"tf","game":"Team Fortress","app_id":440,"player_count":0,"max_players":24,"Bots":0,"server_type":"Dedicated","server_os":"Linux","password":true,"vac":true,"version":"7961495","steam_id":85568392925397854,"keywords":["nocrits","nodmgspread","payload","uncletopia"],"game_id":440,"stv_port":27056,"stv_name":"Uncletopia | Warsaw | 5 | Stopwatch | STV","players":null},{"server_id":54,"name":"Uncletopia | Warsaw | 6 | Community","name_short":"waw-6","host":"waw-1.pl.uncletopia.com","port":27065,"enabled":true,"region":"eu","cc":"pl","latitude":52.2297,"longitude":21.017532,"reserved":0,"last_update":"0001-01-01T00:00:00Z","name_a2s":"Uncletopia | Warsaw | 6 | Community","protocol":17,"map":"workshop/cp_hazyfort_rc6.ugc1365963729","folder":"tf","game":"Team Fortress","app_id":440,"player_count":0,"max_players":24,"Bots":0,"server_type":"Dedicated","server_os":"Linux","password":true,"vac":true,"version":"7961495","steam_id":85568392925397856,"keywords":["cp","nocrits","nodmgspread","uncletopia"],"game_id":440,"stv_port":27066,"stv_name":"Uncletopia | Warsaw | 6 | Community | STV","players":null}]}