{"status":true,"message":"","result":[{"server_id":9,"name":"Uncletopia | Atlanta | 1 | All Maps","name_short":"atl-1","host":"atl-1.us.uncletopia.com","port":27015,"enabled":true,"region":"us-east","cc":"us","latitude":33.753746,"longitude":-84.38633,"reserved":0,"last_update":"0001-01-01T00:00:00Z","name_a2s":"Uncletopia | Atlanta | 1 | All Maps","protocol":17,"map":"cp_mountainlab","folder":"tf","game":"Team Fortress","app_id":440,"player_count":0,"max_players":24,"Bots":0,"server_type":"Dedicated","server_os":"Linux","password":true,"vac":true,"version":"7961495","steam_id":85568392924469982,"keywords":["cp","nocrits","nodmgspread","uncletopia"],"game_id":440,"stv_port":27016,"stv_name":"Uncletopia | Atlanta | 1 | All Maps | STV","players":null},{"server_id":104,"name":"Uncletopia | Atlanta | 2 | All Maps","name_short":"atl-2","host":"atl-1.us.uncletopia.com","port":27025,"enabled":true,"region":"us-east","cc":"us","latitude":33.753746,"longitude":-84.38633,"reserved":0,"last_update":"0001-01-01T00:00:00Z","name_a2s":"Uncletopia | Atlanta | 2 | All Maps","protocol":17,"map":"koth_nucleus","folder":"tf","game":"Team Fortress","app_id":440,"player_count":0,"max_players":24,"Bots":0,"server_type":"Dedicated","server_os":"Linux","password":true,"vac":true,"version":"7961495","steam_id":85568392924469983,"keywords":["cp","nocrits","nodmgspread","uncletopia"],"game_id":440,"stv_port":27026,"stv_name":"Uncletopia | Atlanta | 2 | All Maps | STV","players":null},{"server_id":400,"name":"Uncletopia | Atlanta | 3 | Stopwatch","name_short":"atl-3","host":"atl-1.us.uncletopia.com","port":27035,"enabled":true,"region":"us-east","cc":"us","latitude":33.753746,"longitude":-84.38633,"reserved":0,"last_update":"0001-01-01T00:00:00Z","name_a2s":"Uncletopia | Atlanta | 3 | Stopwatch","protocol":17,"map":"pl_upward","folder":"tf","game":"Team Fortress","app_id":440,"player_count":0,"max_players":24,"Bots":0,"server_type":"Dedicated","server_os":"Linux","password":true,"vac":true,"version":"7961495","steam_id":85568392924515187,"keywords":["nocrits","nodmgspread","payload","uncletopia"],"game_id":440,"stv_port":27036,"stv_name":"Uncletopia | Atlanta | 3 | Stopwatch | STV","players":null},{"server_id":401,"name":"Uncletopia | Atlanta | 4 | Community","name_short":"atl-4","host":"atl-1.us.uncletopia.com","port":27045,"enabled":true,"region":"us-east","cc":"us","latitude":33.753746,"longitude":-84.38633,"reserved":0,"last_update":"0001-01-01T00:00:00Z","name_a2s":"Uncletopia | Atlanta | 4 | Community","protocol":17,"map":"workshop/koth_product_final.ugc454272353","folder":"tf","game":"Team Fortress","app_id":440,"player_count":0,"max_players":24,"Bots":0,"server_type":"Dedicated","server_os":"Linux","password":true,"vac":true,"version":"7961495","steam_id":85568392924515188,"keywords":["cp","nocrits","nodmgspread","uncletopia"],"game_id":440,"stv_port":27046,"stv_name":"Uncletopia | Atlanta | 4 | Community | STV","players":null},{"server_id":2,"name":"Uncletopia | Chicago | 1 | All Maps","name_short":"chi-1","host":"chi-1.us.uncletopia.com","port":27015,"enabled":true,"region":"us-central","cc":"us","latitude":41.881832,"longitude":-87.62318,"reserved":0,"last_update":"0001-01-01T00:00:00Z","name_a2s":"Uncletopia | Chicago | 1 | All Maps","protocol":17,"map":"ctf_2fort","folder":"tf","game":"Team Fortress","app_id":440,"player_count":0,"max_players":24,"Bots":0,"server_type":"Dedicated","server_os":"Linux","password":true,"vac":true,"version":"7961495","steam_id":85568392924469984,"keywords":["ctf","nocrits","nodmgspread","uncletopia"],"game_id":440,"stv_port":27016,"stv_name":"Uncletopia | Chicago | 1 | All Maps | STV","players":null},{"server_id":106,"name":"Uncletopia | Chicago | 2 | All Maps","name_short":"chi-2","host":"chi-1.us.uncletopia.com","port":27025,"enabled":true,"region":"us-central","cc":"us","latitude":41.881832,"longitude":-87.62318,"reserved":0,"last_update":"0001-01-01T00:00:00Z","name_a2s":"Uncletopia | Chicago | 2 | All Maps","protocol":17,"map":"cp_freight_final1","folder":"tf","game":"Team Fortress","app_id":440,"player_count":23,"max_players":24,"Bots":0,"server_type":"Dedicated","server_os":"Linux","password":true,"vac":true,"version":"7961495","steam_id":85568392924469985,"keywords":["cp","nocrits","nodmgspread","uncletopia"],"game_id":440,"stv_port":27026,"stv_name":"Uncletopia | Chicago | 2 | All Maps | STV","players":[{"user_id":641,"name":"CACTUS","steam_id":76561198327863229,"connected_time":1000000000000,"state":"active","ping":84},{"user_id":529,"name":"Owls = Government Drones","steam_id":76561198439793697,"connected_time":7988000000000,"state":"active","ping":75},{"user_id":605,"name":"gyat","steam_id":76561198043684960,"connected_time":3308000000000,"state":"active","ping":63},{"user_id":599,"name":"HandsomeBoyCarlito","steam_id":76561199013892337,"connected_time":3609000000000,"state":"active","ping":54},{"user_id":651,"name":"Speedboat","steam_id":76561198094841559,"connected_time":109000000000,"state":"active","ping":52},{"user_id":630,"name":"Mank","steam_id":76561198189421005,"connected_time":1345000000000,"state":"active","ping":52},{"user_id":598,"name":"YeshieSirYesSir","steam_id":76561198080214214,"connected_time":3671000000000,"state":"active","ping":42},{"user_id":655,"name":"Fantastic","steam_id":76561198079088978,"connected_time":0,"state":"connecting","ping":0},{"user_id":645,"name":"Rare High Moments","steam_id":76561198053465042,"connected_time":685000000000,"state":"active","ping":75},{"user_id":647,"name":"Vulpes","steam_id":76561198038929334,"connected_time":589000000000,"state":"active","ping":53},{"user_id":646,"name":"♡ ironterrortrain ♡","steam_id":76561198046460418,"connected_time":646000000000,"state":"active","ping":109},{"user_id":648,"name":"Peopledbear52","steam_id":76561198126449338,"connected_time":564000000000,"state":"active","ping":100},{"user_id":639,"name":"HundchenTanque","steam_id":76561198122692754,"connected_time":1013000000000,"state":"active","ping":57},{"user_id":642,"name":"nugit74","steam_id":76561198325736178,"connected_time":989000000000,"state":"active","ping":59},{"user_id":650,"name":"Sail","steam_id":76561199489440704,"connected_time":144000000000,"state":"active","ping":74},{"user_id":653,"name":"Dahistorius Lamystorius","steam_id":76561198029146605,"connected_time":92000000000,"state":"active","ping":78},{"user_id":612,"name":"K","steam_id":76561198171446177,"connected_time":2841000000000,"state":"active","ping":96},{"user_id":629,"name":"Nestor","steam_id":76561198070782619,"connected_time":1394000000000,"state":"active","ping":65},{"user_id":654,"name":"trans they gender she/her/they/","steam_id":76561198212470305,"connected_time":54000000000,"state":"spawning","ping":277},{"user_id":649,"name":"Functional Progaming","steam_id":76561198032310210,"connected_time":553000000000,"state":"active","ping":70},{"user_id":589,"name":"Belloq","steam_id":76561198060279052,"connected_time":4552000000000,"state":"active","ping":56},{"user_id":632,"name":"yem yem","steam_id":76561198157664566,"connected_time":1262000000000,"state":"active","ping":70},{"user_id":634,"name":"NoireThings","steam_id":76561199041728231,"connected_time":1244000000000,"state":"active","ping":60}]},{"server_id":402,"name":"Uncletopia | Chicago | 3 | All Maps","name_short":"chi-3","host":"chi-1.us.uncletopia.com","port":27035,"enabled":true,"region":"us-central","cc":"us","latitude":41.881832,"longitude":-87.62318,"reserved":0,"last_update":"0001-01-01T00:00:00Z","name_a2s":"Uncletopia | Chicago | 3 | All Maps","protocol":17,"map":"cp_process_final","folder":"tf","game":"Team Fortress","app_id":440,"player_count":24,"max_players":24,"Bots":0,"server_type":"Dedicated","server_os":"Linux","password":true,"vac":true,"version":"7961495","steam_id":85568392924515191,"keywords":["cp","nocrits","nodmgspread","uncletopia"],"game_id":440,"stv_port":27036,"stv_name":"Uncletopia | Chicago | 3 | All Maps | STV","players":[{"user_id":599,"name":"Sgt. Screwball","steam_id":76561198307963570,"connected_time":818000000000,"state":"active","ping":158},{"user_id":591,"name":"rose","steam_id":76561198048882285,"connected_time":1449000000000,"state":"active","ping":60},{"user_id":620,"name":"Yummy Kabobz","steam_id":76561198067661705,"connected_time":52000000000,"state":"active","ping":81},{"user_id":600,"name":"HydriusYin","steam_id":76561198071591352,"connected_time":810000000000,"state":"active","ping":68},{"user_id":590,"name":"joe","steam_id":76561198045781320,"connected_time":1572000000000,"state":"active","ping":65},{"user_id":579,"name":"American Dad","steam_id":76561198059711448,"connected_time":2353000000000,"state":"active","ping":70},{"user_id":613,"name":"CommieKurtz","steam_id":76561198061687521,"connected_time":417000000000,"state":"active","ping":52},{"user_id":617,"name":"ultralisk52","steam_id":76561198051666604,"connected_time":154000000000,"state":"active","ping":62},{"user_id":603,"name":"Sqooky","steam_id":76561198838054669,"connected_time":755000000000,"state":"active","ping":67},{"user_id":594,"name":"Lore","steam_id":76561198098407538,"connected_time":1366000000000,"state":"active","ping":56},{"user_id":614,"name":"RaixaR","steam_id":76561198025289430,"connected_time":405000000000,"state":"active","ping":73},{"user_id":581,"name":"Voltaire!","steam_id":76561198047528141,"connected_time":2278000000000,"state":"active","ping":84},{"user_id":606,"name":"Dzhoshua","steam_id":76561198071915251,"connected_time":672000000000,"state":"active","ping":67},{"user_id":582,"name":"Gason Homoa","steam_id":76561199000180522,"connected_time":2273000000000,"state":"active","ping":86},{"user_id":550,"name":"Kantamoe","steam_id":76561198046661611,"connected_time":4629000000000,"state":"active","ping":90},{"user_id":610,"name":"Ghost \"With the Most\" Toastee","steam_id":76561198085410969,"connected_time":532000000000,"state":"active","ping":50},{"user_id":572,"name":"ExtremeFreak","steam_id":76561197995885544,"connected_time":2994000000000,"state":"active","ping":62},{"user_id":611,"name":"uwahhhh","steam_id":76561198154449875,"connected_time":527000000000,"state":"active","ping":103},{"user_id":553,"name":"jarrettconsult","steam_id":76561198249998262,"connected_time":4307000000000,"state":"active","ping":74},{"user_id":551,"name":"ajkitz","steam_id":76561198065701344,"connected_time":4618000000000,"state":"active","ping":55},{"user_id":607,"name":"CupFruit","steam_id":76561198983993193,"connected_time":661000000000,"state":"active","ping":69},{"user_id":612,"name":"THE SYSTEM!","steam_id":76561198138723795,"connected_time":523000000000,"state":"active","ping":61},{"user_id":618,"name":"Dwanor","steam_id":76561198039571887,"connected_time":124000000000,"state":"active","ping":74},{"user_id":621,"name":"Asanez3","steam_id":76561198037381436,"connected_time":23000000000,"state":"active","ping":75}]},{"server_id":403,"name":"Uncletopia | Chicago | 4 | All Maps","name_short":"chi-4","host":"chi-1.us.uncletopia.com","port":27045,"enabled":true,"region":"us-central","cc":"us","latitude":41.881832,"longitude":-87.62318,"reserved":0,"last_update":"0001-01-01T00:00:00Z","name_a2s":"Uncletopia | Chicago | 4 | All Maps","protocol":17,"map":"pl_pier","folder":"tf","game":"Team Fortress","app_id":440,"player_count":0,"max_players":24,"Bots":0,"server_type":"Dedicated","server_os":"Linux","password":true,"vac":true,"version":"7961495","steam_id":85568392924515193,"keywords":["nocrits","nodmgspread","payload","uncletopia"],"game_id":440,"stv_port":27046,"stv_name":"Uncletopia | Chicago | 4 | All Maps | STV","players":null},{"server_id":36,"name":"Uncletopia | Chicago | 5 | All Maps","name_short":"chi-5","host":"chi-2.us.uncletopia.com","port":27015,"enabled":true,"region":"us-central","cc":"us","latitude":41.881832,"longitude":-87.62318,"reserved":0,"last_update":"0001-01-01T00:00:00Z","name_a2s":"Uncletopia | Chicago | 5 | All Maps","protocol":17,"map":"pl_snowycoast","folder":"tf","game":"Team Fortress","app_id":440,"player_count":23,"max_players":24,"Bots":0,"server_type":"Dedicated","server_os":"Linux","password":true,"vac":true,"version":"7961495","steam_id":85568392924866362,"keywords":["nocrits","nodmgspread","payload","uncletopia"],"game_id":440,"stv_port":27016,"stv_name":"Uncletopia | Chicago | 5 | All Maps | STV","players":[{"user_id":544,"name":"Echo","steam_id":76561198103342230,"connected_time":1255000000000,"state":"active","ping":99},{"user_id":495,"name":"typical continental philosopher","steam_id":76561198007464245,"connected_time":5397000000000,"state":"active","ping":72},{"user_id":561,"name":"Papa Smoke","steam_id":76561198181348206,"connected_time":314000000000,"state":"active","ping":62},{"user_id":545,"name":"GasterDog","steam_id":76561198844423506,"connected_time":1176000000000,"state":"active","ping":92},{"user_id":558,"name":"FRANKY!!!","steam_id":76561199211305343,"connected_time":620000000000,"state":"active","ping":98},{"user_id":486,"name":"Birch","steam_id":76561198316231704,"connected_time":5814000000000,"state":"active","ping":49},{"user_id":475,"name":"Meskoozy","steam_id":76561198102394479,"connected_time":7191000000000,"state":"active","ping":74},{"user_id":518,"name":"playguy carter","steam_id":76561198080679337,"connected_time":3928000000000,"state":"active","ping":49},{"user_id":565,"name":"Absurdly Obese Cat","steam_id":76561198073202543,"connected_time":263000000000,"state":"active","ping":66},{"user_id":548,"name":"J3X","steam_id":76561198184753858,"connected_time":922000000000,"state":"active","ping":96},{"user_id":524,"name":"RAD ☆","steam_id":76561198321905478,"connected_time":3160000000000,"state":"active","ping":67},{"user_id":525,"name":"Outlander","steam_id":76561199032887232,"connected_time":3152000000000,"state":"active","ping":78},{"user_id":566,"name":"njk","steam_id":76561199061380038,"connected_time":209000000000,"state":"active","ping":65},{"user_id":540,"name":"Foxdevox","steam_id":76561198821180669,"connected_time":1337000000000,"state":"active","ping":71},{"user_id":450,"name":"The Professor","steam_id":76561198113760863,"connected_time":9407000000000,"state":"active","ping":63},{"user_id":541,"name":"DraconicHam","steam_id":76561198043167912,"connected_time":1309000000000,"state":"active","ping":121},{"user_id":536,"name":"RoyGuyManDude","steam_id":76561198297721977,"connected_time":1490000000000,"state":"active","ping":130},{"user_id":567,"name":"Larry T.G","steam_id":76561198140157079,"connected_time":204000000000,"state":"active","ping":67},{"user_id":527,"name":"bios","steam_id":76561198063737238,"connected_time":3128000000000,"state":"active","ping":63},{"user_id":568,"name":"Tommy Pickles (Very Cool)","steam_id":76561198391261463,"connected_time":203000000000,"state":"active","ping":66},{"user_id":557,"name":"KochieMonster","steam_id":76561198146890885,"connected_time":659000000000,"state":"active","ping":63},{"user_id":569,"name":"tgirl swag","steam_id":76561198128164970,"connected_time":195000000000,"state":"active","ping":106},{"user_id":574,"name":"Maurdakar","steam_id":76561197983420976,"connected_time":49000000000,"state":"active","ping":73}]},{"server_id":37,"name":"Uncletopia | Chicago | 6 | All Maps","name_short":"chi-6","host":"chi-2.us.uncletopia.com","port":27025,"enabled":true,"region":"us-central","cc":"us","latitude":41.881832,"longitude":-87.62318,"reserved":0,"last_update":"0001-01-01T00:00:00Z","name_a2s":"Uncletopia | Chicago | 6 | All Maps","protocol":17,"map":"koth_suijin","folder":"tf","game":"Team Fortress","app_id":440,"player_count":0,"max_players":24,"Bots":0,"server_type":"Dedicated","server_os":"Linux","password":true,"vac":true,"version":"7961495","steam_id":85568392924866363,"keywords":["cp","nocrits","nodmgspread","uncletopia"],"game_id":440,"stv_port":27026,"stv_name":"Uncletopia | Chicago | 6 | All Maps | STV","players":null},{"server_id":38,"name":"Uncletopia | Chicago | 7 | Stopwatch","name_short":"chi-7","host":"chi-2.us.uncletopia.com","port":27035,"enabled":true,"region":"us-central","cc":"us","latitude":41.881832,"longitude":-87.62318,"reserved":0,"last_update":"0001-01-01T00:00:00Z","name_a2s":"Uncletopia | Chicago | 7 | Stopwatch","protocol":17,"map":"pl_swiftwater_final1","folder":"tf","game":"Team Fortress","app_id":440,"player_count":0,"max_players":24,"Bots":0,"server_type":"Dedicated","server_os":"Linux","password":true,"vac":true,"version":"7961495","steam_id":85568392924866364,"keywords":["nocrits","nodmgspread","payload","uncletopia"],"game_id":440,"stv_port":27036,"stv_name":"Uncletopia | Chicago | 7 | Stopwatch | STV","players":null},{"server_id":39,"name":"Uncletopia | Chicago | 8 | Community","name_short":"chi-8","host":"chi-2.us.uncletopia.com","port":27045,"enabled":true,"region":"us-central","cc":"us","latitude":41.881832,"longitude":-87.62318,"reserved":0,"last_update":"0001-01-01T00:00:00Z","name_a2s":"Uncletopia | Chicago | 8 | Community","protocol":17,"map":"workshop/koth_ramjam_rc1.ugc459778887","folder":"tf","game":"Team Fortress","app_id":440,"player_count":0,"max_players":24,"Bots":0,"server_type":"Dedicated","server_os":"Linux","password":true,"vac":true,"version":"7961495","steam_id":85568392924866365,"keywords":["cp","nocrits","nodmgspread","uncletopia"],"game_id":440,"stv_port":27046,"stv_name":"Uncletopia | Chicago | 8 | Community | STV","players":null},{"server_id":8,"name":"Uncletopia | Dallas | 1 | All Maps","name_short":"dal-1","host":"dal-1.us.uncletopia.com","port":27015,"enabled":true,"region":"us-central","cc":"us","latitude":32.779167,"longitude":-96.80889,"reserved":0,"last_update":"0001-01-01T00:00:00Z","name_a2s":"Uncletopia | Dallas | 1 | All Maps","protocol":17,"map":"pl_badwater","folder":"tf","game":"Team Fortress","app_id":440,"player_count":24,"max_players":24,"Bots":0,"server_type":"Dedicated","server_os":"Linux","password":true,"vac":true,"version":"7961495","steam_id":85568392924469986,"keywords":["nocrits","nodmgspread","payload","uncletopia"],"game_id":440,"stv_port":27016,"stv_name":"Uncletopia | Dallas | 1 | All Maps | STV","players":[{"user_id":415,"name":"Lord_Dabbatron","steam_id":76561199058480985,"connected_time":2796000000000,"state":"active","ping":45},{"user_id":446,"name":"Fake21","steam_id":76561198282065071,"connected_time":1412000000000,"state":"active","ping":54},{"user_id":398,"name":"Koffy","steam_id":76561198184386039,"connected_time":3977000000000,"state":"active","ping":73},{"user_id":354,"name":"gooch_masta","steam_id":76561198151578423,"connected_time":7169000000000,"state":"active","ping":67},{"user_id":390,"name":"Voodo133","steam_id":76561198042670351,"connected_time":4935000000000,"state":"active","ping":102},{"user_id":448,"name":"Drapph","steam_id":76561199384213314,"connected_time":965000000000,"state":"active","ping":85},{"user_id":416,"name":"Batso","steam_id":76561198106589452,"connected_time":2785000000000,"state":"active","ping":81},{"user_id":417,"name":"yalu","steam_id":76561198224811504,"connected_time":2773000000000,"state":"active","ping":61},{"user_id":391,"name":"Giselle","steam_id":76561198162593640,"connected_time":4685000000000,"state":"active","ping":106},{"user_id":439,"name":"CeLeb144","steam_id":76561199089907740,"connected_time":2136000000000,"state":"active","ping":104},{"user_id":411,"name":"+","steam_id":76561198262422184,"connected_time":3532000000000,"state":"active","ping":49},{"user_id":401,"name":"1st place love live fan","steam_id":76561198037951506,"connected_time":3929000000000,"state":"active","ping":66},{"user_id":402,"name":"Titar Industries","steam_id":76561198143078476,"connected_time":3920000000000,"state":"active","ping":85},{"user_id":444,"name":"Juanelo","steam_id":76561199096390505,"connected_time":1761000000000,"state":"active","ping":57},{"user_id":404,"name":"whitr","steam_id":76561198043981478,"connected_time":3872000000000,"state":"active","ping":129},{"user_id":405,"name":"shoobs","steam_id":76561198042507255,"connected_time":3870000000000,"state":"active","ping":116},{"user_id":449,"name":"Breakaway","steam_id":76561198089308523,"connected_time":801000000000,"state":"active","ping":102},{"user_id":450,"name":"Skip Hop Doo Bop","steam_id":76561199161571849,"connected_time":632000000000,"state":"active","ping":88},{"user_id":451,"name":"killeroverscore123","steam_id":76561199168131321,"connected_time":619000000000,"state":"active","ping":73},{"user_id":452,"name":"BitPieStudios","steam_id":76561198059216393,"connected_time":599000000000,"state":"active","ping":90},{"user_id":442,"name":"HalfDead","steam_id":76561198049700226,"connected_time":2114000000000,"state":"active","ping":101},{"user_id":443,"name":"dzcreeper","steam_id":76561198072250723,"connected_time":2107000000000,"state":"active","ping":116},{"user_id":453,"name":"pim","steam_id":76561198095163441,"connected_time":595000000000,"state":"active","ping":49},{"user_id":454,"name":"29palms","steam_id":76561198095104925,"connected_time":586000000000,"state":"active","ping":105}]},{"server_id":108,"name":"Uncletopia | Dallas | 2 | All Maps","name_short":"dal-2","host":"dal-1.us.uncletopia.com","port":27025,"enabled":true,"region":"us-central","cc":"us","latitude":32.779167,"longitude":-96.80889,"reserved":0,"last_update":"0001-01-01T00:00:00Z","name_a2s":"Uncletopia | Dallas | 2 | All Maps","protocol":17,"map":"cp_standin_final","folder":"tf","game":"Team Fortress","app_id":440,"player_count":24,"max_players":24,"Bots":0,"server_type":"Dedicated","server_os":"Linux","password":true,"vac":true,"version":"7961495","steam_id":85568392924469988,"keywords":["cp","nocrits","nodmgspread","uncletopia"],"game_id":440,"stv_port":27026,"stv_name":"Uncletopia | Dallas | 2 | All Maps | STV","players":[{"user_id":772,"name":"menonamed","steam_id":76561198199564382,"connected_time":9454000000000,"state":"active","ping":84},{"user_id":868,"name":"GLG MUTT","steam_id":76561198147785541,"connected_time":471000000000,"state":"active","ping":55},{"user_id":864,"name":"allahsdroptop (Bag/Chaser)","steam_id":76561198133195238,"connected_time":661000000000,"state":"active","ping":113},{"user_id":872,"name":"Myra1090","steam_id":76561198060917191,"connected_time":287000000000,"state":"active","ping":86},{"user_id":821,"name":"Dragorf2010","steam_id":76561199238402270,"connected_time":4619000000000,"state":"active","ping":72},{"user_id":873,"name":"rexelfhcir","steam_id":76561199018207049,"connected_time":264000000000,"state":"active","ping":66},{"user_id":866,"name":"Ask Me For Facts","steam_id":76561198093888772,"connected_time":531000000000,"state":"active","ping":111},{"user_id":879,"name":"GG","steam_id":76561199121640650,"connected_time":17000000000,"state":"active","ping":115},{"user_id":880,"name":"Lard","steam_id":76561198290315229,"connected_time":11000000000,"state":"active","ping":163},{"user_id":851,"name":"GotYourGoat","steam_id":76561197995171850,"connected_time":2086000000000,"state":"active","ping":93},{"user_id":847,"name":"AppleTruffle","steam_id":76561198031299571,"connected_time":2188000000000,"state":"active","ping":24},{"user_id":859,"name":"SpaceCowboy John","steam_id":76561198151635557,"connected_time":1735000000000,"state":"active","ping":61},{"user_id":869,"name":"Mr.President","steam_id":76561198971144834,"connected_time":406000000000,"state":"active","ping":59},{"user_id":870,"name":"adam0o0","steam_id":76561198052250279,"connected_time":401000000000,"state":"active","ping":64},{"user_id":876,"name":"Shidol","steam_id":76561197964164783,"connected_time":149000000000,"state":"active","ping":70},{"user_id":830,"name":"the flying clutchman","steam_id":76561198000757362,"connected_time":4107000000000,"state":"active","ping":89},{"user_id":875,"name":"a nd","steam_id":76561198353456379,"connected_time":173000000000,"state":"active","ping":59},{"user_id":852,"name":"story","steam_id":76561199088496817,"connected_time":2056000000000,"state":"active","ping":60},{"user_id":877,"name":"Silvr","steam_id":76561198069368377,"connected_time":140000000000,"state":"active","ping":83},{"user_id":861,"name":"joyeuxnoelle","steam_id":76561198062423120,"connected_time":1023000000000,"state":"active","ping":81},{"user_id":855,"name":"Womanwer","steam_id":76561198194760222,"connected_time":1999000000000,"state":"active","ping":91},{"user_id":881,"name":"Who","steam_id":76561198013049671,"connected_time":10000000000,"state":"spawning","ping":75},{"user_id":832,"name":"Carpet enthusiast","steam_id":76561198024040142,"connected_time":4101000000000,"state":"active","ping":118},{"user_id":882,"name":"twinblock","steam_id":76561198157414556,"connected_time":10000000000,"state":"spawning","ping":63}]},{"server_id":404,"name":"Uncletopia | Dallas | 3 | All Maps","name_short":"dal-3","host":"dal-1.us.uncletopia.com","port":27035,"enabled":true,"region":"us-central","cc":"us","latitude":32.779167,"longitude":-96.80889,"reserved":0,"last_update":"0001-01-01T00:00:00Z","name_a2s":"Uncletopia | Dallas | 3 | All Maps","protocol":17,"map":"pl_frontier_final","folder":"tf","game":"Team Fortress","app_id":440,"player_count":0,"max_players":24,"Bots":0,"server_type":"Dedicated","server_os":"Linux","password":true,"vac":true,"version":"7961495","steam_id":85568392924515219,"keywords":["nocrits","nodmgspread","payload","uncletopia"],"game_id":440,"stv_port":27036,"stv_name":"Uncletopia | Dallas | 3 | All Maps | STV","players":null},{"server_id":405,"name":"Uncletopia | Dallas | 4 | Community","name_short":"dal-4","host":"dal-1.us.uncletopia.com","port":27045,"enabled":true,"region":"us-central","cc":"us","latitude":32.779167,"longitude":-96.80889,"reserved":0,"last_update":"0001-01-01T00:00:00Z","name_a2s":"Uncletopia | Dallas | 4 | Community","protocol":17,"map":"workshop/cp_hazyfort_rc6.ugc1365963729","folder":"tf","game":"Team Fortress","app_id":440,"player_count":0,"max_players":24,"Bots":0,"server_type":"Dedicated","server_os":"Linux","password":true,"vac":true,"version":"7961495","steam_id":85568392924515220,"keywords":["cp","nocrits","nodmgspread","uncletopia"],"game_id":440,"stv_port":27046,"stv_name":"Uncletopia | Dallas | 4 | Community | STV","players":null},{"server_id":5,"name":"Uncletopia | Frankfurt | 1 | All Maps","name_short":"frk-1","host":"frk-1.de.uncletopia.com","port":27015,"enabled":true,"region":"eu","cc":"de","latitude":50.110924,"longitude":8.682127,"reserved":0,"last_update":"0001-01-01T00:00:00Z","name_a2s":"Uncletopia | Frankfurt | 1 | All Maps","protocol":17,"map":"koth_highpass","folder":"tf","game":"Team Fortress","app_id":440,"player_count":4,"max_players":24,"Bots":0,"server_type":"Dedicated","server_os":"Linux","password":true,"vac":true,"version":"7961495","steam_id":85568392924469989,"keywords":["cp","nocrits","nodmgspread","uncletopia"],"game_id":440,"stv_port":27016,"stv_name":"Uncletopia | Frankfurt | 1 | All Maps | STV","players":[{"user_id":3,"name":"GüçlüAYraNsAĞ","steam_id":76561199184988396,"connected_time":928000000000,"state":"active","ping":107},{"user_id":4,"name":"king k rool","steam_id":76561199179040672,"connected_time":358000000000,"state":"active","ping":61},{"user_id":5,"name":"Chippo","steam_id":76561198343198306,"connected_time":63000000000,"state":"active","ping":60},{"user_id":6,"name":"Skatnaset","steam_id":76561198298457353,"connected_time":57000000000,"state":"active","ping":74}]},{"server_id":110,"name":"Uncletopia | Frankfurt | 2 | All Maps","name_short":"frk-2","host":"frk-1.de.uncletopia.com","port":27025,"enabled":true,"region":"eu","cc":"de","latitude":50.110924,"longitude":8.682127,"reserved":0,"last_update":"0001-01-01T00:00:00Z","name_a2s":"Uncletopia | Frankfurt | 2 | All Maps","protocol":17,"map":"cp_dustbowl","folder":"tf","game":"Team Fortress","app_id":440,"player_count":0,"max_players":24,"Bots":0,"server_type":"Dedicated","server_os":"Linux","password":true,"vac":true,"version":"7961495","steam_id":85568392924469990,"keywords":["cp","nocrits","nodmgspread","uncletopia"],"game_id":440,"stv_port":27026,"stv_name":"Uncletopia | Frankfurt | 2 | All Maps | STV","players":null},{"server_id":308,"name":"Uncletopia | Frankfurt | 3 | All Maps","name_short":"frk-3","host":"frk-1.de.uncletopia.com","port":27035,"enabled":true,"region":"eu","cc":"de","latitude":50.110924,"longitude":8.682127,"reserved":0,"last_update":"0001-01-01T00:00:00Z","name_a2s":"Uncletopia | Frankfurt | 3 | All Maps","protocol":17,"map":"pl_frontier_final","folder":"tf","game":"Team Fortress","app_id":440,"player_count":0,"max_players":24,"Bots":0,"server_type":"Dedicated","server_os":"Linux","password":true,"vac":true,"version":"7961495","steam_id":85568392924504274,"keywords":["nocrits","nodmgspread","payload","uncletopia"],"game_id":440,"stv_port":27036,"stv_name":"Uncletopia | Frankfurt | 3 | All Maps | STV","players":null},{"server_id":309,"name":"Uncletopia | Frankfurt | 4 | All Maps","name_short":"frk-4","host":"frk-1.de.uncletopia.com","port":27045,"enabled":true,"region":"eu","cc":"de","latitude":50.110924,"longitude":8.682127,"reserved":0,"last_update":"0001-01-01T00:00:00Z","name_a2s":"Uncletopia | Frankfurt | 4 | All Maps","protocol":17,"map":"koth_highpass","folder":"tf","game":"Team Fortress","app_id":440,"player_count":0,"max_players":24,"Bots":0,"server_type":"Dedicated","server_os":"Linux","password":true,"vac":true,"version":"7961495","steam_id":85568392924504275,"keywords":["cp","nocrits","nodmgspread","uncletopia"],"game_id":440,"stv_port":27046,"stv_name":"Uncletopia | Frankfurt | 4 | All Maps | STV","players":null},{"server_id":310,"name":"Uncletopia | Frankfurt | 5 | All Maps","name_short":"frk-5","host":"frk-1.de.uncletopia.com","port":27055,"enabled":true,"region":"eu","cc":"de","latitude":50.110924,"longitude":8.682127,"reserved":0,"last_update":"0001-01-01T00:00:00Z","name_a2s":"Uncletopia | Frankfurt | 5 | All Maps","protocol":17,"map":"pl_badwater","folder":"tf","game":"Team Fortress","app_id":440,"player_count":0,"max_players":24,"Bots":0,"server_type":"Dedicated","server_os":"Linux","password":true,"vac":true,"version":"7961495","steam_id":85568392924504277,"keywords":["nocrits","nodmgspread","payload","uncletopia"],"game_id":440,"stv_port":27056,"stv_name":"Uncletopia | Frankfurt | 5 | All Maps | STV","players":null},{"server_id":311,"name":"Uncletopia | Frankfurt | 6 | All Maps","name_short":"frk-6","host":"frk-1.de.uncletopia.com","port":27065,"enabled":true,"region":"eu","cc":"de","latitude":50.110924,"longitude":8.682127,"reserved":0,"last_update":"0001-01-01T00:00:00Z","name_a2s":"Uncletopia | Frankfurt | 6 | All Maps","protocol":17,"map":"cp_altitude","folder":"tf","game":"Team Fortress","app_id":440,"player_count":0,"max_players":24,"Bots":0,"server_type":"Dedicated","server_os":"Linux","password":true,"vac":true,"version":"7961495","steam_id":85568392924504278,"keywords":["cp","nocrits","nodmgspread","uncletopia"],"game_id":440,"stv_port":27066,"stv_name":"Uncletopia | Frankfurt | 6 | All Maps | STV","players":null},{"server_id":23,"name":"Uncletopia | Frankfurt | 7 | Stopwatch","name_short":"frk-7","host":"frk-1.de.uncletopia.com","port":27075,"enabled":true,"region":"eu","cc":"de","latitude":50.110924,"longitude":8.682127,"reserved":0,"last_update":"0001-01-01T00:00:00Z","name_a2s":"Uncletopia | Frankfurt | 7 | Stopwatch","protocol":17,"map":"pl_frontier_final","folder":"tf","game":"Team Fortress","app_id":440,"player_count":0,"max_players":24,"Bots":0,"server_type":"Dedicated","server_os":"Linux","password":true,"vac":true,"version":"7961495","steam_id":85568392924742827,"keywords":["nocrits","nodmgspread","payload","uncletopia"],"game_id":440,"stv_port":27076,"stv_name":"Uncletopia | Frankfurt | 7 | Stopwatch | STV","players":null},{"server_id":24,"name":"Uncletopia | Frankfurt | 8 | Community","name_short":"frk-8","host":"frk-1.de.uncletopia.com","port":27085,"enabled":true,"region":"eu","cc":"de","latitude":50.110924,"longitude":8.682127,"reserved":0,"last_update":"0001-01-01T00:00:00Z","name_a2s":"Uncletopia | Frankfurt | 8 | Community","protocol":17,"map":"cp_mountainlab","folder":"tf","game":"Team Fortress","app_id":440,"player_count":0,"max_players":24,"Bots":0,"server_type":"Dedicated","server_os":"Linux","password":true,"vac":true,"version":"7961495","steam_id":85568392924742828,"keywords":["cp","nocrits","nodmgspread","uncletopia"],"game_id":440,"stv_port":27086,"stv_name":"Uncletopia | Frankfurt | 8 | Community | STV","players":null},{"server_id":202,"name":"Uncletopia | Hong Kong | 1 | All Maps","name_short":"hgk-1","host":"hgk-1.hk.uncletopia.com","port":27015,"enabled":true,"region":"asia","cc":"hk","latitude":22.302711,"longitude":114.177216,"reserved":0,"last_update":"0001-01-01T00:00:00Z","name_a2s":"Uncletopia | Hong Kong | 1 | All Maps","protocol":17,"map":"pl_upward","folder":"tf","game":"Team Fortress","app_id":440,"player_count":3,"max_players":24,"Bots":0,"server_type":"Dedicated","server_os":"Linux","password":true,"vac":true,"version":"7961495","steam_id":85568392924494504,"keywords":["nocrits","nodmgspread","payload","uncletopia"],"game_id":440,"stv_port":27016,"stv_name":"Uncletopia | Hong Kong | 1 | All Maps | STV","players":[{"user_id":21,"name":"icryinbed","steam_id":76561198084027826,"connected_time":192000000000,"state":"active","ping":99},{"user_id":18,"name":"김광만","steam_id":76561198295279503,"connected_time":405000000000,"state":"active","ping":81},{"user_id":20,"name":"corpse_cadaver","steam_id":76561199225360457,"connected_time":234000000000,"state":"active","ping":70}]},{"server_id":1,"name":"Uncletopia | Los Angeles | 1 | All Maps","name_short":"lax-1","host":"lax-1.us.uncletopia.com","port":27015,"enabled":true,"region":"us-west","cc":"us","latitude":33.94279,"longitude":-118.41004,"reserved":0,"last_update":"0001-01-01T00:00:00Z","name_a2s":"Uncletopia | Los Angeles | 1 | All Maps","protocol":17,"map":"koth_lakeside_final","folder":"tf","game":"Team Fortress","app_id":440,"player_count":14,"max_players":24,"Bots":0,"server_type":"Dedicated","server_os":"Linux","password":true,"vac":true,"version":"7961495","steam_id":85568392924469991,"keywords":["cp","nocrits","nodmgspread","uncletopia"],"game_id":440,"stv_port":27016,"stv_name":"Uncletopia | Los Angeles | 1 | All Maps | STV","players":[{"user_id":264,"name":"cofferhead","steam_id":76561199191108449,"connected_time":2378000000000,"state":"active","ping":72},{"user_id":286,"name":"LarryOfAllTrades","steam_id":76561198325492137,"connected_time":472000000000,"state":"active","ping":58},{"user_id":262,"name":"NormalManPerson","steam_id":76561198007436312,"connected_time":3351000000000,"state":"active","ping":74},{"user_id":77,"name":"rat","steam_id":76561198130412963,"connected_time":15667000000000,"state":"active","ping":76},{"user_id":285,"name":"crouching tiger heavy","steam_id":76561198121767390,"connected_time":591000000000,"state":"active","ping":90},{"user_id":289,"name":"Thequirka","steam_id":76561198968058652,"connected_time":30000000000,"state":"active","ping":69},{"user_id":275,"name":"dcash602","steam_id":76561198227029620,"connected_time":1187000000000,"state":"active","ping":86},{"user_id":281,"name":"Shazzy","steam_id":76561198145460523,"connected_time":1062000000000,"state":"active","ping":74},{"user_id":283,"name":"Dova","steam_id":76561198079481047,"connected_time":913000000000,"state":"active","ping":44},{"user_id":274,"name":"Cracklesnip","steam_id":76561198029048413,"connected_time":1204000000000,"state":"active","ping":64},{"user_id":288,"name":"Toastered","steam_id":76561198178459042,"connected_time":397000000000,"state":"active","ping":68},{"user_id":277,"name":"Mr8bittripper","steam_id":76561198133894229,"connected_time":1133000000000,"state":"active","ping":72},{"user_id":278,"name":"Henry11799","steam_id":76561198121162774,"connected_time":1100000000000,"state":"active","ping":73},{"user_id":279,"name":"Hawksgamer","steam_id":76561198152405941,"connected_time":1084000000000,"state":"active","ping":80}]},{"server_id":112,"name":"Uncletopia | Los Angeles | 2 | All Maps","name_short":"lax-2","host":"lax-1.us.uncletopia.com","port":27025,"enabled":true,"region":"us-west","cc":"us","latitude":33.94279,"longitude":-118.41004,"reserved":0,"last_update":"0001-01-01T00:00:00Z","name_a2s":"Uncletopia | Los Angeles | 2 | All Maps","protocol":17,"map":"pl_upward","folder":"tf","game":"Team Fortress","app_id":440,"player_count":24,"max_players":24,"Bots":0,"server_type":"Dedicated","server_os":"Linux","password":true,"vac":true,"version":"7961495","steam_id":85568392924469992,"keywords":["nocrits","nodmgspread","payload","uncletopia"],"game_id":440,"stv_port":27026,"stv_name":"Uncletopia | Los Angeles | 2 | All Maps | STV","players":[{"user_id":680,"name":"A_Un1t_0","steam_id":76561197966223353,"connected_time":1605000000000,"state":"active","ping":40},{"user_id":684,"name":"ars110","steam_id":76561198030492435,"connected_time":1428000000000,"state":"active","ping":82},{"user_id":657,"name":"TeriyakiDynamite","steam_id":76561198050049346,"connected_time":3127000000000,"state":"active","ping":61},{"user_id":655,"name":"vvitch","steam_id":76561198279661941,"connected_time":3160000000000,"state":"active","ping":46},{"user_id":674,"name":"Vitae Kakon","steam_id":76561198307440313,"connected_time":1835000000000,"state":"active","ping":58},{"user_id":659,"name":"c.r.e.a.m. abdul-jabbar","steam_id":76561197975057321,"connected_time":3014000000000,"state":"active","ping":60},{"user_id":675,"name":"Kamin","steam_id":76561198255299559,"connected_time":1755000000000,"state":"active","ping":96},{"user_id":688,"name":"JayTheNoob247_","steam_id":76561199348803437,"connected_time":922000000000,"state":"active","ping":118},{"user_id":692,"name":"whiteout","steam_id":76561198049017271,"connected_time":713000000000,"state":"active","ping":52},{"user_id":678,"name":"bocaJ","steam_id":76561198374535092,"connected_time":1651000000000,"state":"active","ping":33},{"user_id":645,"name":"social distance warrior","steam_id":76561198128992994,"connected_time":4445000000000,"state":"active","ping":72},{"user_id":598,"name":"triph","steam_id":76561198067196509,"connected_time":8278000000000,"state":"active","ping":44},{"user_id":635,"name":"gabe","steam_id":76561198106707955,"connected_time":5019000000000,"state":"active","ping":117},{"user_id":679,"name":"Doughbouy","steam_id":76561198033321318,"connected_time":1612000000000,"state":"active","ping":99},{"user_id":695,"name":"Whisper!","steam_id":76561198119609795,"connected_time":273000000000,"state":"active","ping":65},{"user_id":693,"name":"Context","steam_id":76561197972634187,"connected_time":703000000000,"state":"active","ping":46},{"user_id":648,"name":"john.","steam_id":76561198982939658,"connected_time":3747000000000,"state":"active","ping":58},{"user_id":681,"name":"Unlicensed Fed","steam_id":76561198166040449,"connected_time":1523000000000,"state":"active","ping":66},{"user_id":644,"name":"Under an Unquiet Skull","steam_id":76561198164782653,"connected_time":4456000000000,"state":"active","ping":119},{"user_id":686,"name":"Phoysh","steam_id":76561198137111021,"connected_time":1075000000000,"state":"active","ping":85},{"user_id":694,"name":"Toomey","steam_id":76561198012214023,"connected_time":294000000000,"state":"active","ping":94},{"user_id":646,"name":"gerg","steam_id":76561197997127387,"connected_time":4222000000000,"state":"active","ping":60},{"user_id":661,"name":"skegeton","steam_id":76561198095581099,"connected_time":2990000000000,"state":"active","ping":85},{"user_id":691,"name":"t**** beheader","steam_id":76561199395351700,"connected_time":836000000000,"state":"active","ping":58}]},{"server_id":324,"name":"Uncletopia | Los Angeles | 3 | All Maps","name_short":"lax-3","host":"lax-1.us.uncletopia.com","port":27035,"enabled":true,"region":"us-west","cc":"us","latitude":33.94279,"longitude":-118.41004,"reserved":0,"last_update":"0001-01-01T00:00:00Z","name_a2s":"Uncletopia | Los Angeles | 3 | All Maps","protocol":17,"map":"pl_upward","folder":"tf","game":"Team Fortress","app_id":440,"player_count":12,"max_players":24,"Bots":0,"server_type":"Dedicated","server_os":"Linux","password":true,"vac":true,"version":"7961495","steam_id":85568392924510198,"keywords":["nocrits","nodmgspread","payload","uncletopia"],"game_id":440,"stv_port":27036,"stv_name":"Uncletopia | Los Angeles | 3 | All Maps | STV","players":[{"user_id":251,"name":"roach :3","steam_id":76561198354811369,"connected_time":187000000000,"state":"connecting","ping":60},{"user_id":188,"name":"Noscope","steam_id":76561198092017151,"connected_time":4405000000000,"state":"connecting","ping":85},{"user_id":256,"name":"The Great Karizma!","steam_id":76561198346191193,"connected_time":30000000000,"state":"connecting","ping":107},{"user_id":244,"name":"lonelymaw","steam_id":76561198020675278,"connected_time":833000000000,"state":"connecting","ping":80},{"user_id":245,"name":"Turrón","steam_id":76561198272381217,"connected_time":651000000000,"state":"connecting","ping":66},{"user_id":255,"name":"Eärendil","steam_id":76561198067934529,"connected_time":69000000000,"state":"connecting","ping":79},{"user_id":248,"name":"mr. stinkums","steam_id":76561198179338019,"connected_time":515000000000,"state":"connecting","ping":86},{"user_id":222,"name":"Happy Chaos (Real)","steam_id":76561199154372279,"connected_time":2825000000000,"state":"connecting","ping":123},{"user_id":236,"name":"KrylonHeretic","steam_id":76561198139811459,"connected_time":1751000000000,"state":"connecting","ping":81}]},{"server_id":25,"name":"Uncletopia | Los Angeles | 4 | Stopwatch","name_short":"lax-4","host":"lax-1.us.uncletopia.com","port":27045,"enabled":true,"region":"us-west","cc":"us","latitude":33.94279,"longitude":-118.41004,"reserved":0,"last_update":"0001-01-01T00:00:00Z","name_a2s":"Uncletopia | Los Angeles | 4 | Stopwatch","protocol":17,"map":"koth_lakeside_final","folder":"tf","game":"Team Fortress","app_id":440,"player_count":0,"max_players":24,"Bots":0,"server_type":"Dedicated","server_os":"Linux","password":true,"vac":true,"version":"7961495","steam_id":85568392924510199,"keywords":["cp","nocrits","nodmgspread","uncletopia"],"game_id":440,"stv_port":27046,"stv_name":"Uncletopia | Los Angeles | 4 | Stopwatch | STV","players":null},{"server_id":11,"name":"Uncletopia | London | 1 | All Maps","name_short":"lon-1","host":"lon-1.uk.uncletopia.com","port":27015,"enabled":true,"region":"eu","cc":"gb","latitude":51.509865,"longitude":-0.118092,"reserved":0,"last_update":"0001-01-01T00:00:00Z","name_a2s":"Uncletopia | London | 1 | All Maps","protocol":17,"map":"koth_highpass","folder":"tf","game":"Team Fortress","app_id":440,"player_count":0,"max_players":24,"Bots":0,"server_type":"Dedicated","server_os":"Linux","password":true,"vac":true,"version":"7961495","steam_id":85568392924367362,"keywords":["cp","nocrits","nodmgspread","uncletopia"],"game_id":440,"stv_port":27016,"stv_name":"Uncletopia | London | 1 | All Maps | STV","players":null},{"server_id":114,"name":"Uncletopia | London | 2 | All Maps","name_short":"lon-2","host":"lon-1.uk.uncletopia.com","port":27025,"enabled":true,"region":"eu","cc":"gb","latitude":51.509865,"longitude":-0.118092,"reserved":0,"last_update":"0001-01-01T00:00:00Z","name_a2s":"Uncletopia | London | 2 | All Maps","protocol":17,"map":"koth_lakeside_final","folder":"tf","game":"Team Fortress","app_id":440,"player_count":0,"max_players":24,"Bots":0,"server_type":"Dedicated","server_os":"Linux","password":true,"vac":true,"version":"7961495","steam_id":85568392924470941,"keywords":["cp","nocrits","nodmgspread","uncletopia"],"game_id":440,"stv_port":27026,"stv_name":"Uncletopia | London | 2 | All Maps | STV","players":null},{"server_id":320,"name":"Uncletopia | London | 3 | All Maps","name_short":"lon-3","host":"lon-1.uk.uncletopia.com","port":27035,"enabled":true,"region":"eu","cc":"gb","latitude":51.509865,"longitude":-0.118092,"reserved":0,"last_update":"0001-01-01T00:00:00Z","name_a2s":"Uncletopia | London | 3 | All Maps","protocol":17,"map":"cp_process_final","folder":"tf","game":"Team Fortress","app_id":440,"player_count":0,"max_players":24,"Bots":0,"server_type":"Dedicated","server_os":"Linux","password":true,"vac":true,"version":"7961495","steam_id":85568392924510192,"keywords":["cp","nocrits","nodmgspread","uncletopia"],"game_id":440,"stv_port":27036,"stv_name":"Uncletopia | London | 3 | All Maps | STV","players":null},{"server_id":321,"name":"Uncletopia | London | 4 | All Maps","name_short":"lon-4","host":"lon-1.uk.uncletopia.com","port":27045,"enabled":true,"region":"eu","cc":"gb","latitude":51.509865,"longitude":-0.118092,"reserved":0,"last_update":"0001-01-01T00:00:00Z","name_a2s":"Uncletopia | London | 4 | All Maps","protocol":17,"map":"koth_cascade","folder":"tf","game":"Team Fortress","app_id":440,"player_count":0,"max_players":24,"Bots":0,"server_type":"Dedicated","server_os":"Linux","password":true,"vac":true,"version":"7961495","steam_id":85568392924510193,"keywords":["cp","nocrits","nodmgspread","uncletopia"],"game_id":440,"stv_port":27046,"stv_name":"Uncletopia | London | 4 | All Maps | STV","players":null},{"server_id":21,"name":"Uncletopia | London | 5 | All Maps","name_short":"lon-5","host":"lon-1.uk.uncletopia.com","port":27055,"enabled":true,"region":"eu","cc":"gb","latitude":51.509865,"longitude":-0.118092,"reserved":0,"last_update":"0001-01-01T00:00:00Z","name_a2s":"Uncletopia | London | 5 | All Maps","protocol":17,"map":"koth_lakeside_final","folder":"tf","game":"Team Fortress","app_id":440,"player_count":0,"max_players":24,"Bots":0,"server_type":"Dedicated","server_os":"Linux","password":true,"vac":true,"version":"7961495","steam_id":85568392924742829,"keywords":["cp","nocrits","nodmgspread","uncletopia"],"game_id":440,"stv_port":27056,"stv_name":"Uncletopia | London | 5 | All Maps | STV","players":null},{"server_id":22,"name":"Uncletopia | London | 6 | All Maps","name_short":"lon-6","host":"lon-1.uk.uncletopia.com","port":27065,"enabled":true,"region":"eu","cc":"gb","latitude":51.509865,"longitude":-0.118092,"reserved":0,"last_update":"0001-01-01T00:00:00Z","name_a2s":"Uncletopia | London | 6 | All Maps","protocol":17,"map":"pl_upward","folder":"tf","game":"Team Fortress","app_id":440,"player_count":0,"max_players":24,"Bots":0,"server_type":"Dedicated","server_os":"Linux","password":true,"vac":true,"version":"7961495","steam_id":85568392924742830,"keywords":["nocrits","nodmgspread","payload","uncletopia"],"game_id":440,"stv_port":27066,"stv_name":"Uncletopia | London | 6 | All Maps | STV","players":null},{"server_id":40,"name":"Uncletopia | London | 7 | Stopwatch","name_short":"lon-7","host":"lon-1.uk.uncletopia.com","port":27075,"enabled":true,"region":"eu","cc":"gb","latitude":51.509865,"longitude":-0.118092,"reserved":0,"last_update":"0001-01-01T00:00:00Z","name_a2s":"Uncletopia | London | 7 | Stopwatch","protocol":17,"map":"koth_lakeside_final","folder":"tf","game":"Team Fortress","app_id":440,"player_count":0,"max_players":24,"Bots":0,"server_type":"Dedicated","server_os":"Linux","password":true,"vac":true,"version":"7961495","steam_id":85568392924964314,"keywords":["cp","nocrits","nodmgspread","uncletopia"],"game_id":440,"stv_port":27076,"stv_name":"Uncletopia | London | 7 | Stopwatch | STV","players":null},{"server_id":41,"name":"Uncletopia | London | 8 | Community","name_short":"lon-8","host":"lon-1.uk.uncletopia.com","port":27085,"enabled":true,"region":"eu","cc":"gb","latitude":51.509865,"longitude":-0.118092,"reserved":0,"last_update":"0001-01-01T00:00:00Z","name_a2s":"Uncletopia | London | 8 | Community","protocol":17,"map":"cp_snakewater_final1","folder":"tf","game":"Team Fortress","app_id":440,"player_count":0,"max_players":24,"Bots":0,"server_type":"Dedicated","server_os":"Linux","password":true,"vac":true,"version":"7961495","steam_id":85568392924964315,"keywords":["cp","nocrits","nodmgspread","uncletopia"],"game_id":440,"stv_port":27086,"stv_name":"Uncletopia | London | 8 | Community | STV","players":null},{"server_id":300,"name":"Uncletopia | Montréal | 1 | One Thousand Uncles","name_short":"mtl-1","host":"mtl-1.ca.uncletopia.com","port":27015,"enabled":true,"region":"us-east","cc":"ca","latitude":45.50889,"longitude":-73.56167,"reserved":0,"last_update":"0001-01-01T00:00:00Z","name_a2s":"","protocol":0,"map":"","folder":"","game":"","app_id":0,"player_count":0,"max_players":0,"Bots":0,"server_type":"","server_os":"","password":false,"vac":false,"version":"","steam_id":0,"keywords":null,"game_id":0,"stv_port":0,"stv_name":"","players":null},{"server_id":301,"name":"Uncletopia | Montréal | 2 | One Thousand Uncles","name_short":"mtl-2","host":"mtl-1.ca.uncletopia.com","port":27025,"enabled":true,"region":"us-east","cc":"ca","latitude":45.50889,"longitude":-73.56167,"reserved":0,"last_update":"0001-01-01T00:00:00Z","name_a2s":"","protocol":0,"map":"","folder":"","game":"","app_id":0,"player_count":0,"max_players":0,"Bots":0,"server_type":"","server_os":"","password":false,"vac":false,"version":"","steam_id":0,"keywords":null,"game_id":0,"stv_port":0,"stv_name":"","players":null},{"server_id":302,"name":"Uncletopia | Montréal | 3 | One Thousand Uncles","name_short":"mtl-3","host":"mtl-1.ca.uncletopia.com","port":27035,"enabled":true,"region":"us-east","cc":"ca","latitude":45.50889,"longitude":-73.56167,"reserved":0,"last_update":"0001-01-01T00:00:00Z","name_a2s":"","protocol":0,"map":"","folder":"","game":"","app_id":0,"player_count":0,"max_players":0,"Bots":0,"server_type":"","server_os":"","password":false,"vac":false,"version":"","steam_id":0,"keywords":null,"game_id":0,"stv_port":0,"stv_name":"","players":null},{"server_id":13,"name":"Uncletopia | New York City | 1 | All Maps","name_short":"nyc-1","host":"nyc-1.us.uncletopia.com","port":27015,"enabled":true,"region":"us-east","cc":"us","latitude":40.73061,"longitude":-73.93524,"reserved":0,"last_update":"0001-01-01T00:00:00Z","name_a2s":"Uncletopia | New York City | 1 | All Maps","protocol":17,"map":"pl_snowycoast","folder":"tf","game":"Team Fortress","app_id":440,"player_count":0,"max_players":24,"Bots":0,"server_type":"Dedicated","server_os":"Linux","password":true,"vac":true,"version":"7961495","steam_id":85568392924469993,"keywords":["nocrits","nodmgspread","payload","uncletopia"],"game_id":440,"stv_port":27016,"stv_name":"Uncletopia | New York City | 1 | All Maps | STV","players":null},{"server_id":14,"name":"Uncletopia | New York City | 2 | All Maps","name_short":"nyc-2","host":"nyc-1.us.uncletopia.com","port":27025,"enabled":true,"region":"us-east","cc":"us","latitude":40.73061,"longitude":-73.93524,"reserved":0,"last_update":"0001-01-01T00:00:00Z","name_a2s":"Uncletopia | New York City | 2 | All Maps","protocol":17,"map":"cp_mountainlab","folder":"tf","game":"Team Fortress","app_id":440,"player_count":24,"max_players":24,"Bots":0,"server_type":"Dedicated","server_os":"Linux","password":true,"vac":true,"version":"7961495","steam_id":85568392924469994,"keywords":["cp","nocrits","nodmgspread","uncletopia"],"game_id":440,"stv_port":27026,"stv_name":"Uncletopia | New York City | 2 | All Maps | STV","players":[{"user_id":565,"name":"𝙴 𝚡 𝚌 𝚎 𝚕 𝚕 \ufffd","steam_id":76561198011887958,"connected_time":2912000000000,"state":"active","ping":46},{"user_id":544,"name":"why","steam_id":76561199059732212,"connected_time":4528000000000,"state":"active","ping":74},{"user_id":597,"name":"moNoelle","steam_id":76561198411356696,"connected_time":357000000000,"state":"active","ping":119},{"user_id":555,"name":"Onix","steam_id":76561198043256782,"connected_time":3932000000000,"state":"active","ping":73},{"user_id":590,"name":"rellik","steam_id":76561198066701976,"connected_time":890000000000,"state":"active","ping":68},{"user_id":554,"name":"Terror-Billy #SaveTF2","steam_id":76561198328141870,"connected_time":3965000000000,"state":"active","ping":65},{"user_id":594,"name":"_GOOSE","steam_id":76561198013747901,"connected_time":498000000000,"state":"active","ping":63},{"user_id":579,"name":"Sweater-Fan","steam_id":76561199389567214,"connected_time":1748000000000,"state":"active","ping":62},{"user_id":429,"name":"Geodude","steam_id":76561198113364714,"connected_time":14555000000000,"state":"active","ping":50},{"user_id":581,"name":"Elliot","steam_id":76561198052843856,"connected_time":1725000000000,"state":"active","ping":59},{"user_id":578,"name":"goofbears","steam_id":76561199100831175,"connected_time":1830000000000,"state":"active","ping":59},{"user_id":488,"name":"daemon","steam_id":76561198001541433,"connected_time":8941000000000,"state":"active","ping":74},{"user_id":395,"name":"Strange Festive Femboy","steam_id":76561198050385093,"connected_time":17031000000000,"state":"active","ping":65},{"user_id":542,"name":"Toxic Ron","steam_id":76561198089302972,"connected_time":4740000000000,"state":"active","ping":69},{"user_id":534,"name":"C Papi","steam_id":76561198027779564,"connected_time":5694000000000,"state":"active","ping":60},{"user_id":570,"name":"ＲＥＤ","steam_id":76561198030282308,"connected_time":2623000000000,"state":"active","ping":135},{"user_id":584,"name":"🍒buta🍒","steam_id":76561198135538212,"connected_time":1683000000000,"state":"active","ping":75},{"user_id":583,"name":"KYLE KYLESON","steam_id":76561198021920887,"connected_time":1687000000000,"state":"active","ping":59},{"user_id":585,"name":"yeah right","steam_id":76561198301127098,"connected_time":1644000000000,"state":"active","ping":131},{"user_id":571,"name":"lalman","steam_id":76561198196605887,"connected_time":2614000000000,"state":"active","ping":51},{"user_id":572,"name":"breathing meat donut","steam_id":76561198123566649,"connected_time":2603000000000,"state":"active","ping":89},{"user_id":586,"name":"reii","steam_id":76561198134442912,"connected_time":1643000000000,"state":"active","ping":90},{"user_id":562,"name":"cure","steam_id":76561199174450788,"connected_time":3537000000000,"state":"active","ping":97},{"user_id":595,"name":"DethSQRL","steam_id":76561199149628610,"connected_time":488000000000,"state":"active","ping":82}]},{"server_id":15,"name":"Uncletopia | New York City | 3 | Stopwatch","name_short":"nyc-3","host":"nyc-1.us.uncletopia.com","port":27035,"enabled":true,"region":"us-east","cc":"us","latitude":40.73061,"longitude":-73.93524,"reserved":0,"last_update":"0001-01-01T00:00:00Z","name_a2s":"Uncletopia | New York City | 3 | Stopwatch","protocol":17,"map":"workshop/koth_ashville_final.ugc2130459942","folder":"tf","game":"Team Fortress","app_id":440,"player_count":0,"max_players":24,"Bots":0,"server_type":"Dedicated","server_os":"Linux","password":true,"vac":true,"version":"7961495","steam_id":85568392924742820,"keywords":["cp","nocrits","nodmgspread","uncletopia"],"game_id":440,"stv_port":27036,"stv_name":"Uncletopia | New York City | 3 | Stopwatch | STV","players":null},{"server_id":16,"name":"Uncletopia | New York City | 4 | Community","name_short":"nyc-4","host":"nyc-1.us.uncletopia.com","port":27045,"enabled":true,"region":"us-east","cc":"us","latitude":40.73061,"longitude":-73.93524,"reserved":0,"last_update":"0001-01-01T00:00:00Z","name_a2s":"Uncletopia | New York City | 4 | Community","protocol":17,"map":"workshop/rd_asteroid_redux_b1.ugc2154902912","folder":"tf","game":"Team Fortress","app_id":440,"player_count":0,"max_players":24,"Bots":0,"server_type":"Dedicated","server_os":"Linux","password":true,"vac":true,"version":"7961495","steam_id":85568392924742821,"keywords":["beta","nocrits","nodmgspread","rd","uncletopia"],"game_id":440,"stv_port":27046,"stv_name":"Uncletopia | New York City | 4 | Community | STV","players":null},{"server_id":142,"name":"Uncletopia | São Paulo | 1 | All Maps","name_short":"sao-1","host":"sao-1.br.uncletopia.com","port":27015,"enabled":true,"region":"sa","cc":"br","latitude":-23.533773,"longitude":-46.62529,"reserved":0,"last_update":"0001-01-01T00:00:00Z","name_a2s":"Uncletopia | São Paulo | 1 | All Maps","protocol":17,"map":"koth_highpass","folder":"tf","game":"Team Fortress","app_id":440,"player_count":0,"max_players":24,"Bots":0,"server_type":"Dedicated","server_os":"Linux","password":true,"vac":true,"version":"7961495","steam_id":85568392924469996,"keywords":["cp","nocrits","nodmgspread","uncletopia"],"game_id":440,"stv_port":27016,"stv_name":"Uncletopia | São Paulo | 1 | All Maps | STV","players":null},{"server_id":143,"name":"Uncletopia | São Paulo | 2 | Community","name_short":"sao-2","host":"sao-2.br.uncletopia.com","port":27015,"enabled":true,"region":"sa","cc":"br","latitude":-23.533773,"longitude":-46.62529,"reserved":0,"last_update":"0001-01-01T00:00:00Z","name_a2s":"Uncletopia | São Paulo | 2 | Community","protocol":17,"map":"workshop/pl_boundary_final1.ugc456799153","folder":"tf","game":"Team Fortress","app_id":440,"player_count":0,"max_players":24,"Bots":0,"server_type":"Dedicated","server_os":"Linux","password":true,"vac":true,"version":"7961495","steam_id":85568392924485349,"keywords":["nocrits","nodmgspread","payload","uncletopia"],"game_id":440,"stv_port":27016,"stv_name":"Uncletopia | São Paulo | 2 | Community | STV","players":null},{"server_id":7,"name":"Uncletopia | Seattle | 1 | All Maps","name_short":"sea-1","host":"sea-1.us.uncletopia.com","port":27015,"enabled":true,"region":"us-west","cc":"us","latitude":47.608013,"longitude":-122.33517,"reserved":0,"last_update":"0001-01-01T00:00:00Z","name_a2s":"Uncletopia | Seattle | 1 | All Maps","protocol":17,"map":"pl_cactuscanyon","folder":"tf","game":"Team Fortress","app_id":440,"player_count":24,"max_players":24,"Bots":0,"server_type":"Dedicated","server_os":"Linux","password":true,"vac":true,"version":"7961495","steam_id":85568392924469997,"keywords":["beta","nocrits","nodmgspread","payload","uncletopia"],"game_id":440,"stv_port":27016,"stv_name":"Uncletopia | Seattle | 1 | All Maps | STV","players":[{"user_id":376,"name":"Sweets","steam_id":76561198998446307,"connected_time":13852000000000,"state":"active","ping":60},{"user_id":856,"name":"An Alien Mango","steam_id":76561198864823970,"connected_time":483000000000,"state":"active","ping":60},{"user_id":848,"name":"fwoov","steam_id":76561198129166260,"connected_time":1598000000000,"state":"active","ping":75},{"user_id":805,"name":"Havi","steam_id":76561198197832829,"connected_time":6897000000000,"state":"active","ping":50},{"user_id":853,"name":"Optimore","steam_id":76561198047662990,"connected_time":972000000000,"state":"active","ping":75},{"user_id":828,"name":"Varrock Guard #7","steam_id":76561198097178599,"connected_time":4327000000000,"state":"active","ping":56},{"user_id":857,"name":"Rommel2007","steam_id":76561198041744631,"connected_time":317000000000,"state":"active","ping":133},{"user_id":827,"name":"Streamline","steam_id":76561198031098638,"connected_time":4333000000000,"state":"active","ping":101},{"user_id":839,"name":"Arsonist Goose","steam_id":76561198147441830,"connected_time":2649000000000,"state":"active","ping":74},{"user_id":639,"name":"Lord Hater","steam_id":76561199158148782,"connected_time":8961000000000,"state":"active","ping":60},{"user_id":850,"name":"kitty cat","steam_id":76561198131833567,"connected_time":1283000000000,"state":"active","ping":79},{"user_id":830,"name":"Zee✞","steam_id":76561198274550638,"connected_time":4326000000000,"state":"active","ping":115},{"user_id":809,"name":"NEBULA","steam_id":76561198086878595,"connected_time":6865000000000,"state":"active","ping":69},{"user_id":851,"name":"Bcuz","steam_id":76561197981318027,"connected_time":1246000000000,"state":"active","ping":82},{"user_id":842,"name":"Melly","steam_id":76561198045867175,"connected_time":2211000000000,"state":"active","ping":60},{"user_id":852,"name":"U ω U","steam_id":76561198118802562,"connected_time":1166000000000,"state":"active","ping":82},{"user_id":854,"name":"rushy :))","steam_id":76561198065825165,"connected_time":860000000000,"state":"active","ping":120},{"user_id":824,"name":"camp3r","steam_id":76561197992870439,"connected_time":5172000000000,"state":"active","ping":32},{"user_id":571,"name":"worker","steam_id":76561198039608940,"connected_time":10035000000000,"state":"active","ping":47},{"user_id":831,"name":"toes","steam_id":76561198221151676,"connected_time":4313000000000,"state":"active","ping":54},{"user_id":421,"name":"Ayayayayayayayayahuasca","steam_id":76561199002906056,"connected_time":12487000000000,"state":"active","ping":51},{"user_id":648,"name":"John Calibur","steam_id":76561197999986606,"connected_time":8843000000000,"state":"active","ping":72},{"user_id":836,"name":"Spicy Chicken","steam_id":76561198074209737,"connected_time":4071000000000,"state":"active","ping":99},{"user_id":855,"name":"Dog","steam_id":76561198041841128,"connected_time":705000000000,"state":"active","ping":83}]},{"server_id":119,"name":"Uncletopia | Seattle | 2 | All Maps","name_short":"sea-2","host":"sea-1.us.uncletopia.com","port":27025,"enabled":true,"region":"us-west","cc":"us","latitude":47.608013,"longitude":-122.33517,"reserved":0,"last_update":"0001-01-01T00:00:00Z","name_a2s":"Uncletopia | Seattle | 2 | All Maps","protocol":17,"map":"pl_upward","folder":"tf","game":"Team Fortress","app_id":440,"player_count":0,"max_players":24,"Bots":0,"server_type":"Dedicated","server_os":"Linux","password":true,"vac":true,"version":"7961495","steam_id":85568392924469998,"keywords":["nocrits","nodmgspread","payload","uncletopia"],"game_id":440,"stv_port":27026,"stv_name":"Uncletopia | Seattle | 2 | All Maps | STV","players":null},{"server_id":406,"name":"Uncletopia | Seattle | 3 | Stopwatch","name_short":"sea-3","host":"sea-1.us.uncletopia.com","port":27035,"enabled":true,"region":"us-west","cc":"us","latitude":47.608013,"longitude":-122.33517,"reserved":0,"last_update":"0001-01-01T00:00:00Z","name_a2s":"Uncletopia | Seattle | 3 | Stopwatch","protocol":17,"map":"workshop/koth_ashville_final.ugc2130459942","folder":"tf","game":"Team Fortress","app_id":440,"player_count":0,"max_players":24,"Bots":0,"server_type":"Dedicated","server_os":"Linux","password":true,"vac":true,"version":"7961495","steam_id":85568392924515217,"keywords":["cp","nocrits","nodmgspread","uncletopia"],"game_id":440,"stv_port":27036,"stv_name":"Uncletopia | Seattle | 3 | Stopwatch | STV","players":null},{"server_id":17,"name":"Uncletopia | San Francisco | 1 | All Maps","name_short":"sfo-1","host":"sfo-1.us.uncletopia.com","port":27015,"enabled":true,"region":"us-west","cc":"us","latitude":37.77397,"longitude":-122.4313,"reserved":0,"last_update":"0001-01-01T00:00:00Z","name_a2s":"Uncletopia | San Francisco | 1 | All Maps","protocol":17,"map":"pl_barnblitz","folder":"tf","game":"Team Fortress","app_id":440,"player_count":24,"max_players":24,"Bots":0,"server_type":"Dedicated","server_os":"Linux","password":true,"vac":true,"version":"7961495","steam_id":85568392924469999,"keywords":["nocrits","nodmgspread","payload","uncletopia"],"game_id":440,"stv_port":27016,"stv_name":"Uncletopia | San Francisco | 1 | All Maps | STV","players":[{"user_id":222,"name":"raaabr","steam_id":76561198050339024,"connected_time":517000000000,"state":"active","ping":72},{"user_id":207,"name":"One Frame","steam_id":76561198143287731,"connected_time":2132000000000,"state":"active","ping":51},{"user_id":214,"name":"Houdini Cache","steam_id":76561198045506970,"connected_time":1785000000000,"state":"active","ping":70},{"user_id":223,"name":"porksoda","steam_id":76561198021451377,"connected_time":444000000000,"state":"active","ping":61},{"user_id":224,"name":"DMJanitor","steam_id":76561198058929753,"connected_time":360000000000,"state":"active","ping":66},{"user_id":193,"name":"scringo","steam_id":76561198169969030,"connected_time":3262000000000,"state":"active","ping":67},{"user_id":220,"name":"chesterwnimitz","steam_id":76561198062664377,"connected_time":770000000000,"state":"active","ping":90},{"user_id":194,"name":"The Grim Heaper","steam_id":76561197987759101,"connected_time":3261000000000,"state":"active","ping":81},{"user_id":226,"name":"DV","steam_id":76561198295570806,"connected_time":172000000000,"state":"active","ping":60},{"user_id":195,"name":"Pit","steam_id":76561198072662328,"connected_time":3236000000000,"state":"active","ping":59},{"user_id":196,"name":"l u n a r .","steam_id":76561198075773796,"connected_time":3143000000000,"state":"active","ping":58},{"user_id":191,"name":"profnyan (he/they)","steam_id":76561198062755171,"connected_time":3769000000000,"state":"active","ping":62},{"user_id":189,"name":"nile","steam_id":76561197980035714,"connected_time":3909000000000,"state":"active","ping":81},{"user_id":216,"name":"HungryHippo","steam_id":76561198047615363,"connected_time":1582000000000,"state":"active","ping":58},{"user_id":218,"name":"dodecadron","steam_id":76561198027397222,"connected_time":1337000000000,"state":"active","ping":82},{"user_id":175,"name":"MASHUP KREEPS !!!","steam_id":76561198114269880,"connected_time":4679000000000,"state":"active","ping":55},{"user_id":203,"name":"jackin626","steam_id":76561198269277735,"connected_time":2775000000000,"state":"active","ping":70},{"user_id":213,"name":"Spam The Alien","steam_id":76561199122290968,"connected_time":1832000000000,"state":"active","ping":72},{"user_id":181,"name":"› DTC24","steam_id":76561198025202063,"connected_time":4523000000000,"state":"active","ping":47},{"user_id":221,"name":"Daikaiju15","steam_id":76561198383955066,"connected_time":569000000000,"state":"active","ping":71},{"user_id":227,"name":"lazy bones","steam_id":76561199471507997,"connected_time":115000000000,"state":"active","ping":65},{"user_id":192,"name":"Headrocks","steam_id":76561198052960513,"connected_time":3426000000000,"state":"active","ping":58},{"user_id":215,"name":"PTR","steam_id":76561198237253772,"connected_time":1679000000000,"state":"active","ping":83},{"user_id":228,"name":"irelandseanz","steam_id":76561199026344854,"connected_time":21000000000,"state":"active","ping":81}]},{"server_id":18,"name":"Uncletopia | San Francisco | 2 | All Maps","name_short":"sfo-2","host":"sfo-1.us.uncletopia.com","port":27025,"enabled":true,"region":"us-west","cc":"us","latitude":37.77397,"longitude":-122.4313,"reserved":0,"last_update":"0001-01-01T00:00:00Z","name_a2s":"Uncletopia | San Francisco | 2 | All Maps","protocol":17,"map":"cp_process_final","folder":"tf","game":"Team Fortress","app_id":440,"player_count":0,"max_players":24,"Bots":0,"server_type":"Dedicated","server_os":"Linux","password":true,"vac":true,"version":"7961495","steam_id":85568392924470000,"keywords":["cp","nocrits","nodmgspread","uncletopia"],"game_id":440,"stv_port":27026,"stv_name":"Uncletopia | San Francisco | 2 | All Maps | STV","players":null},{"server_id":19,"name":"Uncletopia | San Francisco | 3 | Stopwatch","name_short":"sfo-3","host":"sfo-1.us.uncletopia.com","port":27035,"enabled":true,"region":"us-west","cc":"us","latitude":37.77397,"longitude":-122.4313,"reserved":0,"last_update":"0001-01-01T00:00:00Z","name_a2s":"Uncletopia | San Francisco | 3 | Stopwatch","protocol":17,"map":"pl_pier","folder":"tf","game":"Team Fortress","app_id":440,"player_count":0,"max_players":24,"Bots":0,"server_type":"Dedicated","server_os":"Linux","password":true,"vac":true,"version":"7961495","steam_id":85568392924742824,"keywords":["nocrits","nodmgspread","payload","uncletopia"],"game_id":440,"stv_port":27036,"stv_name":"Uncletopia | San Francisco | 3 | Stopwatch | STV","players":null},{"server_id":20,"name":"Uncletopia | San Francisco | 4 | Community","name_short":"sfo-4","host":"sfo-1.us.uncletopia.com","port":27045,"enabled":true,"region":"us-west","cc":"us","latitude":37.77397,"longitude":-122.4313,"reserved":0,"last_update":"0001-01-01T00:00:00Z","name_a2s":"Uncletopia | San Francisco | 4 | Community","protocol":17,"map":"workshop/koth_trenchfoot_ab1.ugc731436616","folder":"tf","game":"Team Fortress","app_id":440,"player_count":0,"max_players":24,"Bots":0,"server_type":"Dedicated","server_os":"Linux","password":true,"vac":true,"version":"7961495","steam_id":85568392924742826,"keywords":["cp","nocrits","nodmgspread","uncletopia"],"game_id":440,"stv_port":27046,"stv_name":"Uncletopia | San Francisco | 4 | Community | STV","players":null},{"server_id":141,"name":"Uncletopia | Sydney | 1 | All Maps","name_short":"syd-1","host":"syd-1.au.uncletopia.com","port":27015,"enabled":true,"region":"au","cc":"au","latitude":-33.865143,"longitude":151.2099,"reserved":0,"last_update":"0001-01-01T00:00:00Z","name_a2s":"Uncletopia | Sydney | 1 | All Maps","protocol":17,"map":"koth_viaduct","folder":"tf","game":"Team Fortress","app_id":440,"player_count":0,"max_players":24,"Bots":0,"server_type":"Dedicated","server_os":"Linux","password":true,"vac":true,"version":"7961495","steam_id":85568392924470001,"keywords":["cp","nocrits","nodmgspread","uncletopia"],"game_id":440,"stv_port":27016,"stv_name":"Uncletopia | Sydney | 1 | All Maps | STV","players":null},{"server_id":123,"name":"Uncletopia | Sydney | 2 | All Maps","name_short":"syd-2","host":"syd-1.au.uncletopia.com","port":27025,"enabled":true,"region":"au","cc":"au","latitude":-33.865143,"longitude":151.2099,"reserved":0,"last_update":"0001-01-01T00:00:00Z","name_a2s":"Uncletopia | Sydney | 2 | All Maps","protocol":17,"map":"pl_badwater","folder":"tf","game":"Team Fortress","app_id":440,"player_count":20,"max_players":24,"Bots":0,"server_type":"Dedicated","server_os":"Linux","password":true,"vac":true,"version":"7961495","steam_id":85568392924470002,"keywords":["nocrits","nodmgspread","payload","uncletopia"],"game_id":440,"stv_port":27026,"stv_name":"Uncletopia | Sydney | 2 | All Maps | STV","players":[{"user_id":117,"name":"coconut doggy","steam_id":76561198071900361,"connected_time":49000000000,"state":"spawning","ping":137},{"user_id":89,"name":"ANML","steam_id":76561198260039591,"connected_time":1294000000000,"state":"active","ping":52},{"user_id":108,"name":"Asl:3x","steam_id":76561198972095766,"connected_time":707000000000,"state":"active","ping":32},{"user_id":109,"name":"TheGoodGuy","steam_id":76561197994105505,"connected_time":652000000000,"state":"active","ping":54},{"user_id":99,"name":"Natty","steam_id":76561199440190709,"connected_time":901000000000,"state":"active","ping":53},{"user_id":104,"name":"Batman in a mid-life crisis","steam_id":76561198326245641,"connected_time":817000000000,"state":"active","ping":65},{"user_id":112,"name":"Spiffing","steam_id":76561199020105540,"connected_time":491000000000,"state":"active","ping":160},{"user_id":47,"name":"horrid webbon ᘛ⁐̤ᕐᐷ","steam_id":76561198061998379,"connected_time":3603000000000,"state":"active","ping":45},{"user_id":115,"name":"Pasta.","steam_id":76561198124243169,"connected_time":263000000000,"state":"active","ping":59},{"user_id":74,"name":"Vaconcovat","steam_id":76561198024284041,"connected_time":2516000000000,"state":"active","ping":58},{"user_id":87,"name":"\u003e:FrozenDragon:\u003c","steam_id":76561198227960928,"connected_time":1385000000000,"state":"active","ping":98},{"user_id":107,"name":"King Stan II","steam_id":76561198890742309,"connected_time":726000000000,"state":"active","ping":71},{"user_id":91,"name":"P. Ness","steam_id":76561198037664265,"connected_time":1256000000000,"state":"active","ping":64},{"user_id":111,"name":"Rizeo","steam_id":76561198147901488,"connected_time":614000000000,"state":"active","ping":67},{"user_id":95,"name":"Ultimate Spaghet","steam_id":76561198880336399,"connected_time":1121000000000,"state":"active","ping":52},{"user_id":94,"name":"internetkittenz13","steam_id":76561198881042979,"connected_time":1152000000000,"state":"active","ping":43},{"user_id":65,"name":"MS PowerPoint","steam_id":76561198369523192,"connected_time":2837000000000,"state":"active","ping":173},{"user_id":67,"name":"ckaje","steam_id":76561198121047380,"connected_time":2775000000000,"state":"active","ping":42},{"user_id":71,"name":"modus","steam_id":76561198025099660,"connected_time":2684000000000,"state":"active","ping":33},{"user_id":98,"name":"Gary","steam_id":76561198304934962,"connected_time":1062000000000,"state":"active","ping":101}]},{"server_id":395,"name":"Uncletopia | Sydney | 3 | All Maps","name_short":"syd-3","host":"syd-1.au.uncletopia.com","port":27035,"enabled":true,"region":"au","cc":"au","latitude":-33.865143,"longitude":151.2099,"reserved":0,"last_update":"0001-01-01T00:00:00Z","name_a2s":"Uncletopia | Sydney | 3 | All Maps","protocol":17,"map":"pl_frontier_final","folder":"tf","game":"Team Fortress","app_id":440,"player_count":0,"max_players":24,"Bots":0,"server_type":"Dedicated","server_os":"Linux","password":true,"vac":true,"version":"7961495","steam_id":85568392925194467,"keywords":["nocrits","nodmgspread","payload","uncletopia"],"game_id":440,"stv_port":27036,"stv_name":"Uncletopia | Sydney | 3 | All Maps | STV","players":null},{"server_id":396,"name":"Uncletopia | Sydney | 4 | All Maps","name_short":"syd-4","host":"syd-1.au.uncletopia.com","port":27045,"enabled":true,"region":"au","cc":"au","latitude":-33.865143,"longitude":151.2099,"reserved":0,"last_update":"0001-01-01T00:00:00Z","name_a2s":"Uncletopia | Sydney | 4 | All Maps","protocol":17,"map":"koth_lakeside_final","folder":"tf","game":"Team Fortress","app_id":440,"player_count":0,"max_players":24,"Bots":0,"server_type":"Dedicated","server_os":"Linux","password":true,"vac":true,"version":"7961495","steam_id":85568392925397958,"keywords":["cp","nocrits","nodmgspread","uncletopia"],"game_id":440,"stv_port":27046,"stv_name":"Uncletopia | Sydney | 4 | All Maps | STV","players":null},{"server_id":58,"name":"Uncletopia | Sydney | 5 | Stopwatch","name_short":"syd-5","host":"syd-1.au.uncletopia.com","port":27055,"enabled":true,"region":"au","cc":"au","latitude":-33.865143,"longitude":151.2099,"reserved":0,"last_update":"0001-01-01T00:00:00Z","name_a2s":"Uncletopia | Sydney | 5 | Stopwatch","protocol":17,"map":"pl_frontier_final","folder":"tf","game":"Team Fortress","app_id":440,"player_count":0,"max_players":24,"Bots":0,"server_type":"Dedicated","server_os":"Linux","password":true,"vac":true,"version":"7961495","steam_id":85568392925397959,"keywords":["nocrits","nodmgspread","payload","uncletopia"],"game_id":440,"stv_port":27056,"stv_name":"Uncletopia | Sydney | 5 | Stopwatch | STV","players":null},{"server_id":59,"name":"Uncletopia | Sydney | 6 | Community","name_short":"syd-6","host":"syd-1.au.uncletopia.com","port":27065,"enabled":true,"region":"au","cc":"au","latitude":-33.865143,"longitude":151.2099,"reserved":0,"last_update":"0001-01-01T00:00:00Z","name_a2s":"Uncletopia | Sydney | 6 | Community","protocol":17,"map":"cp_sunshine","folder":"tf","game":"Team Fortress","app_id":440,"player_count":0,"max_players":24,"Bots":0,"server_type":"Dedicated","server_os":"Linux","password":true,"vac":true,"version":"7961495","steam_id":85568392925397960,"keywords":["cp","nocrits","nodmgspread","uncletopia"],"game_id":440,"stv_port":27066,"stv_name":"Uncletopia | Sydney | 6 | Community | STV","players":null},{"server_id":49,"name":"Uncletopia | Warsaw | 1 | One Thousand Uncles","name_short":"waw-1","host":"waw-1.pl.uncletopia.com","port":27015,"enabled":true,"region":"eu","cc":"pl","latitude":52.2297,"longitude":21.017532,"reserved":0,"last_update":"0001-01-01T00:00:00Z","name_a2s":"Uncletopia | Warsaw | 1 | One Thousand Uncles","protocol":17,"map":"cp_mossrock","folder":"tf","game":"Team Fortress","app_id":440,"player_count":24,"max_players":32,"Bots":16,"server_type":"Dedicated","server_os":"Linux","password":true,"vac":true,"version":"7961495","steam_id":85568392925397850,"keywords":["alltalk","bots","cp","danepve","increased_maxplayers","nocrits","norespawntime","uncletopia"],"game_id":440,"stv_port":0,"stv_name":"","players":[{"user_id":61,"name":"Xi Bingchilling","steam_id":76561198154310301,"connected_time":1211000000000,"state":"active","ping":69},{"user_id":64,"name":"the least schizo John Pork cook","steam_id":76561198048530109,"connected_time":554000000000,"state":"active","ping":84},{"user_id":62,"name":"night.s","steam_id":76561198326287823,"connected_time":680000000000,"state":"active","ping":105},{"user_id":83,"name":"Oden Derg","steam_id":76561198881543434,"connected_time":59000000000,"state":"active","ping":213},{"user_id":28,"name":"snadboxer","steam_id":76561199236982996,"connected_time":3900000000000,"state":"active","ping":427},{"user_id":56,"name":"scott steiners strongest warrio","steam_id":76561198148888622,"connected_time":2002000000000,"state":"active","ping":87},{"user_id":58,"name":"Leroy","steam_id":76561199013064727,"connected_time":1641000000000,"state":"active","ping":234},{"user_id":52,"name":"Sewer man","steam_id":76561199062727714,"connected_time":2495000000000,"state":"active","ping":27}]},{"server_id":50,"name":"Uncletopia | Warsaw | 2 | One Thousand Uncles","name_short":"waw-2","host":"waw-1.pl.uncletopia.com","port":27025,"enabled":true,"region":"eu","cc":"pl","latitude":52.2297,"longitude":21.017532,"reserved":0,"last_update":"0001-01-01T00:00:00Z","name_a2s":"Uncletopia | Warsaw | 2 | One Thousand Uncles","protocol":17,"map":"pl_goldrush","folder":"tf","game":"Team Fortress","app_id":440,"player_count":17,"max_players":32,"Bots":16,"server_type":"Dedicated","server_os":"Linux","password":true,"vac":true,"version":"7961495","steam_id":85568392925397851,"keywords":["alltalk","bots","danepve","increased_maxplayers","nocrits","norespawntime","payload","uncletopia"],"game_id":440,"stv_port":0,"stv_name":"","players":[{"user_id":36,"name":"Doctor Sex","steam_id":76561199403229056,"connected_time":1306000000000,"state":"active","ping":76}]},{"server_id":51,"name":"Uncletopia | Warsaw | 3 | All Maps","name_short":"waw-3","host":"waw-1.pl.uncletopia.com","port":27035,"enabled":true,"region":"eu","cc":"pl","latitude":52.2297,"longitude":21.017532,"reserved":0,"last_update":"0001-01-01T00:00:00Z","name_a2s":"Uncletopia | Warsaw | 3 | All Maps","protocol":17,"map":"plr_pipeline","folder":"tf","game":"Team Fortress","app_id":440,"player_count":0,"max_players":24,"Bots":0,"server_type":"Dedicated","server_os":"Linux","password":true,"vac":true,"version":"7961495","steam_id":85568392925397852,"keywords":["nocrits","nodmgspread","payload","uncletopia"],"game_id":440,"stv_port":27036,"stv_name":"Uncletopia | Warsaw | 3 | All Maps | STV","players":null},{"server_id":52,"name":"Uncletopia | Warsaw | 4 | All Maps","name_short":"waw-4","host":"waw-1.pl.uncletopia.com","port":27045,"enabled":true,"region":"eu","cc":"pl","latitude":52.2297,"longitude":21.017532,"reserved":0,"last_update":"0001-01-01T00:00:00Z","name_a2s":"Uncletopia | Warsaw | 4 | All Maps","protocol":17,"map":"cp_coldfront","folder":"tf","game":"Team Fortress","app_id":440,"player_count":0,"max_players":24,"Bots":0,"server_type":"Dedicated","server_os":"Linux","password":true,"vac":true,"version":"7961495","steam_id":85568392925397853,"keywords":["cp","nocrits","nodmgspread","uncletopia"],"game_id":440,"stv_port":27046,"stv_name":"Uncletopia | Warsaw | 4 | All Maps | STV","players":null},{"server_id":53,"name":"Uncletopia | Warsaw | 5 | Stopwatch","name_short":"waw-5","host":"waw-1.pl.uncletopia.com","port":27055,"enabled":true,"region":"eu","cc":"pl","latitude":52.2297,"longitude":21.017532,"reserved":0,"last_update":"0001-01-01T00:00:00Z","name_a2s":"Uncletopia | Warsaw | 5 | Stopwatch","protocol":17,"map":"workshop/koth_bagel_rc6.ugc2514036946","folder":"tf","game":"Team Fortress","app_id":440,"player_count":0,"max_players":24,"Bots":0,"server_type":"Dedicated","server_os":"Linux","password":true,"vac":true,"version":"7961495","steam_id":85568392925397854,"keywords":["cp","nocrits","nodmgspread","uncletopia"],"game_id":440,"stv_port":27056,"stv_name":"Uncletopia | Warsaw | 5 | Stopwatch | STV","players":null},{"server_id":54,"name":"Uncletopia | Warsaw | 6 | Community","name_short":"waw-6","host":"waw-1.pl.uncletopia.com","port":27065,"enabled":true,"region":"eu","cc":"pl","latitude":52.2297,"longitude":21.017532,"reserved":0,"last_update":"0001-01-01T00:00:00Z","name_a2s":"Uncletopia | Warsaw | 6 | Community","protocol":17,"map":"workshop/cp_caldera_rc3.ugc2834196889","folder":"tf","game":"Team Fortress","app_id":440,"player_count":0,"max_players":24,"Bots":0,"server_type":"Dedicated","server_os":"Linux","password":true,"vac":true,"version":"7961495","steam_id":85568392925397856,"keywords":["cp","nocrits","nodmgspread","uncletopia"],"game_id":440,"stv_port":27066,"stv_name":"Uncletopia | Warsaw | 6 | Community | STV","players":null}]}