{"status":true,"message":"","result":[{"server_id":9,"name":"Uncletopia | Atlanta | 1 | All Maps","name_short":"atl-1","host":"atl-1.us.uncletopia.com","port":27015,"enabled":true,"region":"us-east","cc":"us","latitude":33.753746,"longitude":-84.38633,"reserved":0,"last_update":"0001-01-01T00:00:00Z","name_a2s":"Uncletopia | Atlanta | 1 | All Maps","protocol":17,"map":"pl_frontier_final","folder":"tf","game":"Team Fortress","app_id":440,"player_count":0,"max_players":24,"Bots":0,"server_type":"Dedicated","server_os":"Linux","password":true,"vac":true,"version":"7757534","steam_id":85568392924469982,"keywords":["nocrits","nodmgspread","payload","uncletopia"],"game_id":440,"stv_port":27016,"stv_name":"Uncletopia | Atlanta | 1 | All Maps | STV","players":null},{"server_id":400,"name":"Uncletopia | Atlanta | 3 | Community","name_short":"atl-3","host":"atl-1.us.uncletopia.com","port":27035,"enabled":true,"region":"us-east","cc":"us","latitude":33.753746,"longitude":-84.38633,"reserved":0,"last_update":"0001-01-01T00:00:00Z","name_a2s":"Uncletopia | Atlanta | 3 | Community","protocol":17,"map":"pl_swiftwater_final1","folder":"tf","game":"Team Fortress","app_id":440,"player_count":0,"max_players":32,"Bots":0,"server_type":"Dedicated","server_os":"Linux","password":true,"vac":true,"version":"7757534","steam_id":85568392924515187,"keywords":["increased_maxplayers","nocrits","nodmgspread","payload","uncletopia"],"game_id":440,"stv_port":27036,"stv_name":"Uncletopia | Atlanta | 3 | Community | STV","players":null},{"server_id":401,"name":"Uncletopia | Atlanta | 4 | No Payload","name_short":"atl-4","host":"atl-1.us.uncletopia.com","port":27045,"enabled":true,"region":"us-east","cc":"us","latitude":33.753746,"longitude":-84.38633,"reserved":0,"last_update":"0001-01-01T00:00:00Z","name_a2s":"","protocol":0,"map":"","folder":"","game":"","app_id":0,"player_count":0,"max_players":0,"Bots":0,"server_type":"","server_os":"","password":false,"vac":false,"version":"","steam_id":0,"keywords":null,"game_id":0,"stv_port":0,"stv_name":"","players":null},{"server_id":2,"name":"Uncletopia | Chicago | 1 | All Maps","name_short":"chi-1","host":"chi-1.us.uncletopia.com","port":27015,"enabled":true,"region":"us-central","cc":"us","latitude":41.881832,"longitude":-87.62318,"reserved":0,"last_update":"0001-01-01T00:00:00Z","name_a2s":"Uncletopia | Chicago | 1 | All Maps","protocol":17,"map":"cp_process_final","folder":"tf","game":"Team Fortress","app_id":440,"player_count":0,"max_players":24,"Bots":0,"server_type":"Dedicated","server_os":"Linux","password":true,"vac":true,"version":"7757534","steam_id":85568392924469984,"keywords":["cp","nocrits","nodmgspread","uncletopia"],"game_id":440,"stv_port":27016,"stv_name":"Uncletopia | Chicago | 1 | All Maps | STV","players":null},{"server_id":106,"name":"Uncletopia | Chicago | 2 | All Maps","name_short":"chi-2","host":"chi-1.us.uncletopia.com","port":27025,"enabled":true,"region":"us-central","cc":"us","latitude":41.881832,"longitude":-87.62318,"reserved":0,"last_update":"0001-01-01T00:00:00Z","name_a2s":"Uncletopia | Chicago | 2 | All Maps","protocol":17,"map":"koth_lakeside_final","folder":"tf","game":"Team Fortress","app_id":440,"player_count":24,"max_players":24,"Bots":0,"server_type":"Dedicated","server_os":"Linux","password":true,"vac":true,"version":"7757534","steam_id":85568392924469985,"keywords":["cp","nocrits","nodmgspread","uncletopia"],"game_id":440,"stv_port":27026,"stv_name":"Uncletopia | Chicago | 2 | All Maps | STV","players":[{"user_id":100,"name":"denzy_","steam_id":76561198873788683,"connected_time":1479000000000,"state":"active","ping":67},{"user_id":4,"name":"TheGreatDong","steam_id":76561198000634178,"connected_time":6717000000000,"state":"active","ping":101},{"user_id":5,"name":"The Professor","steam_id":76561198113760863,"connected_time":6715000000000,"state":"active","ping":58},{"user_id":101,"name":"stayshwyehsbu","steam_id":76561198274491536,"connected_time":1447000000000,"state":"active","ping":156},{"user_id":95,"name":"Mattron1","steam_id":76561198012270524,"connected_time":1727000000000,"state":"active","ping":84},{"user_id":96,"name":"The 80's","steam_id":76561198997807831,"connected_time":1648000000000,"state":"active","ping":129},{"user_id":112,"name":"Goober","steam_id":76561198105930089,"connected_time":736000000000,"state":"active","ping":65},{"user_id":102,"name":"shaderoses","steam_id":76561198070800500,"connected_time":1432000000000,"state":"active","ping":60},{"user_id":111,"name":"butterbutt!","steam_id":76561198038160740,"connected_time":803000000000,"state":"active","ping":134},{"user_id":116,"name":"Vanilla","steam_id":76561199106847859,"connected_time":437000000000,"state":"active","ping":66},{"user_id":108,"name":"mommy","steam_id":76561198129195009,"connected_time":1149000000000,"state":"active","ping":71},{"user_id":91,"name":"pant shidder","steam_id":76561198013308693,"connected_time":2036000000000,"state":"active","ping":61},{"user_id":121,"name":"Futa Lover","steam_id":76561198056775795,"connected_time":84000000000,"state":"active","ping":69},{"user_id":104,"name":"Yiff Police","steam_id":76561198103938356,"connected_time":1344000000000,"state":"active","ping":86},{"user_id":92,"name":"Griffin","steam_id":76561198159339442,"connected_time":1992000000000,"state":"active","ping":69},{"user_id":93,"name":"IronPotato","steam_id":76561198871330025,"connected_time":1854000000000,"state":"active","ping":95},{"user_id":99,"name":"Reaper","steam_id":76561198435826103,"connected_time":1499000000000,"state":"active","ping":62},{"user_id":88,"name":"Slug Warrior","steam_id":76561197996052704,"connected_time":2444000000000,"state":"active","ping":79},{"user_id":120,"name":"Lanky Kong","steam_id":76561198142455488,"connected_time":152000000000,"state":"active","ping":60},{"user_id":67,"name":"Tyler\u0026Fingers","steam_id":76561198085154485,"connected_time":3995000000000,"state":"active","ping":86},{"user_id":106,"name":"Resistance","steam_id":76561198146782074,"connected_time":1259000000000,"state":"active","ping":59},{"user_id":114,"name":"20 miles for a Quaalude","steam_id":76561198042579477,"connected_time":574000000000,"state":"active","ping":65},{"user_id":109,"name":"Laelaps","steam_id":76561198100061416,"connected_time":1128000000000,"state":"active","ping":65},{"user_id":115,"name":"richard clock","steam_id":76561198048455671,"connected_time":494000000000,"state":"active","ping":60}]},{"server_id":402,"name":"Uncletopia | Chicago | 3 | All Maps","name_short":"chi-3","host":"chi-1.us.uncletopia.com","port":27035,"enabled":true,"region":"us-central","cc":"us","latitude":41.881832,"longitude":-87.62318,"reserved":0,"last_update":"0001-01-01T00:00:00Z","name_a2s":"Uncletopia | Chicago | 3 | All Maps","protocol":17,"map":"koth_lakeside_final","folder":"tf","game":"Team Fortress","app_id":440,"player_count":0,"max_players":24,"Bots":0,"server_type":"Dedicated","server_os":"Linux","password":true,"vac":true,"version":"7757534","steam_id":85568392924515191,"keywords":["cp","nocrits","nodmgspread","uncletopia"],"game_id":440,"stv_port":27036,"stv_name":"Uncletopia | Chicago | 3 | All Maps | STV","players":null},{"server_id":403,"name":"Uncletopia | Chicago | 4 | All Maps","name_short":"chi-4","host":"chi-1.us.uncletopia.com","port":27045,"enabled":true,"region":"us-central","cc":"us","latitude":41.881832,"longitude":-87.62318,"reserved":0,"last_update":"0001-01-01T00:00:00Z","name_a2s":"Uncletopia | Chicago | 4 | All Maps","protocol":17,"map":"pl_badwater","folder":"tf","game":"Team Fortress","app_id":440,"player_count":0,"max_players":24,"Bots":0,"server_type":"Dedicated","server_os":"Linux","password":true,"vac":true,"version":"7757534","steam_id":85568392924515193,"keywords":["nocrits","nodmgspread","payload","uncletopia"],"game_id":440,"stv_port":27046,"stv_name":"Uncletopia | Chicago | 4 | All Maps | STV","players":null},{"server_id":36,"name":"Uncletopia | Chicago | 5 | All Maps","name_short":"chi-5","host":"chi-2.us.uncletopia.com","port":27015,"enabled":true,"region":"us-central","cc":"us","latitude":41.881832,"longitude":-87.62318,"reserved":0,"last_update":"0001-01-01T00:00:00Z","name_a2s":"Uncletopia | Chicago | 5 | All Maps","protocol":17,"map":"koth_cascade","folder":"tf","game":"Team Fortress","app_id":440,"player_count":0,"max_players":24,"Bots":0,"server_type":"Dedicated","server_os":"Linux","password":true,"vac":true,"version":"7757534","steam_id":85568392924866362,"keywords":["cp","nocrits","nodmgspread","uncletopia"],"game_id":440,"stv_port":27016,"stv_name":"Uncletopia | Chicago | 5 | All Maps | STV","players":null},{"server_id":37,"name":"Uncletopia | Chicago | 6 | All Maps","name_short":"chi-6","host":"chi-2.us.uncletopia.com","port":27025,"enabled":true,"region":"us-central","cc":"us","latitude":41.881832,"longitude":-87.62318,"reserved":0,"last_update":"0001-01-01T00:00:00Z","name_a2s":"Uncletopia | Chicago | 6 | All Maps","protocol":17,"map":"koth_cascade","folder":"tf","game":"Team Fortress","app_id":440,"player_count":0,"max_players":24,"Bots":0,"server_type":"Dedicated","server_os":"Linux","password":true,"vac":true,"version":"7757534","steam_id":85568392924866363,"keywords":["cp","nocrits","nodmgspread","uncletopia"],"game_id":440,"stv_port":27026,"stv_name":"Uncletopia | Chicago | 6 | All Maps | STV","players":null},{"server_id":38,"name":"Uncletopia | Chicago | 7 | Stopwatch Beta","name_short":"chi-7","host":"chi-2.us.uncletopia.com","port":27035,"enabled":true,"region":"us-central","cc":"us","latitude":41.881832,"longitude":-87.62318,"reserved":0,"last_update":"0001-01-01T00:00:00Z","name_a2s":"Uncletopia | Chicago | 7 | Stopwatch Beta","protocol":17,"map":"pl_upward","folder":"tf","game":"Team Fortress","app_id":440,"player_count":0,"max_players":24,"Bots":0,"server_type":"Dedicated","server_os":"Linux","password":true,"vac":true,"version":"7757534","steam_id":85568392924866364,"keywords":["nocrits","nodmgspread","payload","uncletopia"],"game_id":440,"stv_port":27036,"stv_name":"Uncletopia | Chicago | 7 | Stopwatch Beta | STV","players":null},{"server_id":39,"name":"Uncletopia | Chicago | 8 | Community","name_short":"chi-8","host":"chi-2.us.uncletopia.com","port":27045,"enabled":true,"region":"us-central","cc":"us","latitude":41.881832,"longitude":-87.62318,"reserved":0,"last_update":"0001-01-01T00:00:00Z","name_a2s":"Uncletopia | Chicago | 8 | Community","protocol":17,"map":"pl_barnblitz","folder":"tf","game":"Team Fortress","app_id":440,"player_count":0,"max_players":24,"Bots":0,"server_type":"Dedicated","server_os":"Linux","password":true,"vac":true,"version":"7757534","steam_id":85568392924866365,"keywords":["nocrits","nodmgspread","payload","uncletopia"],"game_id":440,"stv_port":27046,"stv_name":"Uncletopia | Chicago | 8 | Community | STV","players":null},{"server_id":8,"name":"Uncletopia | Dallas | 1 | All Maps","name_short":"dal-1","host":"dal-1.us.uncletopia.com","port":27015,"enabled":true,"region":"us-central","cc":"us","latitude":32.779167,"longitude":-96.80889,"reserved":0,"last_update":"0001-01-01T00:00:00Z","name_a2s":"Uncletopia | Dallas | 1 | All Maps","protocol":17,"map":"koth_cascade","folder":"tf","game":"Team Fortress","app_id":440,"player_count":0,"max_players":24,"Bots":0,"server_type":"Dedicated","server_os":"Linux","password":true,"vac":true,"version":"7757534","steam_id":85568392924469986,"keywords":["cp","nocrits","nodmgspread","uncletopia"],"game_id":440,"stv_port":27016,"stv_name":"Uncletopia | Dallas | 1 | All Maps | STV","players":null},{"server_id":108,"name":"Uncletopia | Dallas | 2 | All Maps","name_short":"dal-2","host":"dal-1.us.uncletopia.com","port":27025,"enabled":true,"region":"us-central","cc":"us","latitude":32.779167,"longitude":-96.80889,"reserved":0,"last_update":"0001-01-01T00:00:00Z","name_a2s":"Uncletopia | Dallas | 2 | All Maps","protocol":17,"map":"cp_altitude","folder":"tf","game":"Team Fortress","app_id":440,"player_count":0,"max_players":24,"Bots":0,"server_type":"Dedicated","server_os":"Linux","password":true,"vac":true,"version":"7757534","steam_id":85568392924469988,"keywords":["cp","nocrits","nodmgspread","uncletopia"],"game_id":440,"stv_port":27026,"stv_name":"Uncletopia | Dallas | 2 | All Maps | STV","players":null},{"server_id":5,"name":"Uncletopia | Frankfurt | 1 | All Maps","name_short":"frk-1","host":"frk-1.de.uncletopia.com","port":27015,"enabled":true,"region":"eu","cc":"de","latitude":50.110924,"longitude":8.682127,"reserved":0,"last_update":"0001-01-01T00:00:00Z","name_a2s":"Uncletopia | Frankfurt | 1 | All Maps","protocol":17,"map":"pl_badwater","folder":"tf","game":"Team Fortress","app_id":440,"player_count":24,"max_players":24,"Bots":0,"server_type":"Dedicated","server_os":"Linux","password":true,"vac":true,"version":"7757534","steam_id":85568392924469989,"keywords":["nocrits","nodmgspread","payload","uncletopia"],"game_id":440,"stv_port":27016,"stv_name":"Uncletopia | Frankfurt | 1 | All Maps | STV","players":[{"user_id":164,"name":"BŒ£NZOIC","steam_id":76561198875665995,"connected_time":8236000000000,"state":"active","ping":76},{"user_id":255,"name":"Zoldatnov","steam_id":76561198093269694,"connected_time":1452000000000,"state":"active","ping":136},{"user_id":270,"name":"Zonts","steam_id":76561198850176432,"connected_time":494000000000,"state":"active","ping":82},{"user_id":257,"name":"Spootnak","steam_id":76561198049052518,"connected_time":1448000000000,"state":"active","ping":70},{"user_id":268,"name":"S.P.Christensen","steam_id":76561197989940495,"connected_time":646000000000,"state":"active","ping":85},{"user_id":266,"name":"Laki","steam_id":76561198126078953,"connected_time":881000000000,"state":"active","ping":111},{"user_id":262,"name":"Combat Wombat","steam_id":76561197994720068,"connected_time":1372000000000,"state":"active","ping":79},{"user_id":259,"name":"JazzMaster","steam_id":76561198204524845,"connected_time":1439000000000,"state":"active","ping":84},{"user_id":247,"name":"Dolcelatte","steam_id":76561198038501770,"connected_time":2301000000000,"state":"active","ping":45},{"user_id":239,"name":"œÉsiris","steam_id":76561198050791602,"connected_time":2837000000000,"state":"active","ping":43},{"user_id":240,"name":"–ê–ª–∏—Å–∞ [ALTFS]","steam_id":76561197997013232,"connected_time":2829000000000,"state":"active","ping":60},{"user_id":271,"name":"Ane≈•√°k","steam_id":76561198159294906,"connected_time":476000000000,"state":"active","ping":63},{"user_id":264,"name":"xd","steam_id":76561198066523881,"connected_time":1322000000000,"state":"active","ping":57},{"user_id":246,"name":"smrk","steam_id":76561198066926098,"connected_time":2412000000000,"state":"active","ping":54},{"user_id":242,"name":"Nuuskis","steam_id":76561198084042012,"connected_time":2814000000000,"state":"active","ping":105},{"user_id":201,"name":"balanced diet","steam_id":76561198240320806,"connected_time":5375000000000,"state":"active","ping":69},{"user_id":265,"name":"Rops","steam_id":76561198031608011,"connected_time":1242000000000,"state":"active","ping":77},{"user_id":132,"name":"Pico","steam_id":76561198063552545,"connected_time":10614000000000,"state":"active","ping":99},{"user_id":158,"name":"Truegr","steam_id":76561198811912339,"connected_time":8279000000000,"state":"active","ping":59},{"user_id":269,"name":"That Phlog mfer","steam_id":76561198050416948,"connected_time":557000000000,"state":"active","ping":58},{"user_id":251,"name":"Magiccomplex","steam_id":76561199203555188,"connected_time":2222000000000,"state":"active","ping":44},{"user_id":248,"name":"Mumu :3","steam_id":76561198052794823,"connected_time":2297000000000,"state":"active","ping":46},{"user_id":198,"name":"Cuthbert","steam_id":76561198204649481,"connected_time":5495000000000,"state":"active","ping":97},{"user_id":214,"name":"Syringe Gun","steam_id":76561198097789669,"connected_time":4289000000000,"state":"active","ping":59}]},{"server_id":110,"name":"Uncletopia | Frankfurt | 2 | All Maps","name_short":"frk-2","host":"frk-1.de.uncletopia.com","port":27025,"enabled":true,"region":"eu","cc":"de","latitude":50.110924,"longitude":8.682127,"reserved":0,"last_update":"0001-01-01T00:00:00Z","name_a2s":"Uncletopia | Frankfurt | 2 | All Maps","protocol":17,"map":"cp_sunshine","folder":"tf","game":"Team Fortress","app_id":440,"player_count":24,"max_players":24,"Bots":0,"server_type":"Dedicated","server_os":"Linux","password":true,"vac":true,"version":"7757534","steam_id":85568392924469990,"keywords":["cp","nocrits","nodmgspread","uncletopia"],"game_id":440,"stv_port":27026,"stv_name":"Uncletopia | Frankfurt | 2 | All Maps | STV","players":[{"user_id":219,"name":"yeh","steam_id":76561198061197114,"connected_time":1859000000000,"state":"active","ping":64},{"user_id":230,"name":"moon","steam_id":76561199212557251,"connected_time":472000000000,"state":"active","ping":121},{"user_id":224,"name":"he's not even good xd","steam_id":76561198148115584,"connected_time":1030000000000,"state":"active","ping":75},{"user_id":203,"name":"glyph","steam_id":76561197980736364,"connected_time":2655000000000,"state":"active","ping":76},{"user_id":229,"name":"pipe jesus","steam_id":76561198084174868,"connected_time":539000000000,"state":"active","ping":58},{"user_id":231,"name":"Suomipe","steam_id":76561198816127818,"connected_time":466000000000,"state":"active","ping":91},{"user_id":235,"name":"fake gamer","steam_id":76561198798486234,"connected_time":288000000000,"state":"active","ping":177},{"user_id":206,"name":"zek","steam_id":76561198862763731,"connected_time":2555000000000,"state":"active","ping":57},{"user_id":233,"name":"Neo0","steam_id":76561199031254338,"connected_time":327000000000,"state":"active","ping":84},{"user_id":234,"name":"zurv","steam_id":76561198246456488,"connected_time":309000000000,"state":"active","ping":60},{"user_id":236,"name":"Elfie","steam_id":76561198206802255,"connected_time":253000000000,"state":"active","ping":60},{"user_id":201,"name":"Spajro","steam_id":76561198257383813,"connected_time":3157000000000,"state":"active","ping":45},{"user_id":237,"name":"napole","steam_id":76561198267530436,"connected_time":252000000000,"state":"active","ping":110},{"user_id":225,"name":"Sparky","steam_id":76561198036754195,"connected_time":583000000000,"state":"active","ping":43},{"user_id":238,"name":"–ü–µ—Å –ü–∞—Ç—Ä–æ–Ω","steam_id":76561198273199378,"connected_time":224000000000,"state":"active","ping":63},{"user_id":239,"name":"danny.leuhew","steam_id":76561199229544765,"connected_time":199000000000,"state":"active","ping":98},{"user_id":240,"name":"Morbidly A Beast","steam_id":76561198251578274,"connected_time":186000000000,"state":"active","ping":108},{"user_id":246,"name":"gxoul","steam_id":76561199091006994,"connected_time":19000000000,"state":"active","ping":81},{"user_id":148,"name":"yyny","steam_id":76561198066287297,"connected_time":8455000000000,"state":"active","ping":47},{"user_id":245,"name":"Bromoneto","steam_id":76561198876695014,"connected_time":110000000000,"state":"active","ping":71},{"user_id":243,"name":"drip goblin","steam_id":76561198986704960,"connected_time":165000000000,"state":"active","ping":72},{"user_id":244,"name":"Igames","steam_id":76561198414062544,"connected_time":157000000000,"state":"active","ping":68},{"user_id":209,"name":"youmme95","steam_id":76561198049802823,"connected_time":2317000000000,"state":"active","ping":71},{"user_id":223,"name":"Damn fiddle!","steam_id":76561198345873608,"connected_time":1193000000000,"state":"active","ping":85}]},{"server_id":308,"name":"Uncletopia | Frankfurt | 3 | All Maps","name_short":"frk-3","host":"frk-1.de.uncletopia.com","port":27035,"enabled":true,"region":"eu","cc":"de","latitude":50.110924,"longitude":8.682127,"reserved":0,"last_update":"0001-01-01T00:00:00Z","name_a2s":"Uncletopia | Frankfurt | 3 | All Maps","protocol":17,"map":"pl_pier","folder":"tf","game":"Team Fortress","app_id":440,"player_count":24,"max_players":24,"Bots":0,"server_type":"Dedicated","server_os":"Linux","password":true,"vac":true,"version":"7757534","steam_id":85568392924504274,"keywords":["nocrits","nodmgspread","payload","uncletopia"],"game_id":440,"stv_port":27036,"stv_name":"Uncletopia | Frankfurt | 3 | All Maps | STV","players":[{"user_id":108,"name":"TJ1212","steam_id":76561199013575313,"connected_time":1778000000000,"state":"active","ping":69},{"user_id":129,"name":"Xoukz","steam_id":76561198356014540,"connected_time":657000000000,"state":"active","ping":114},{"user_id":47,"name":"CalThePal","steam_id":76561198084842126,"connected_time":5635000000000,"state":"active","ping":71},{"user_id":131,"name":"Whizzard","steam_id":76561198184017082,"connected_time":637000000000,"state":"active","ping":172},{"user_id":117,"name":"Rambi","steam_id":76561199058078505,"connected_time":1436000000000,"state":"active","ping":149},{"user_id":118,"name":"sabaka jebanoia","steam_id":76561198147249160,"connected_time":1419000000000,"state":"active","ping":100},{"user_id":132,"name":"‚ô´‚òÖXriasp‚òÖ‚ô´","steam_id":76561198104721321,"connected_time":637000000000,"state":"active","ping":73},{"user_id":128,"name":"cult","steam_id":76561198188647690,"connected_time":659000000000,"state":"active","ping":67},{"user_id":49,"name":"Weezard","steam_id":76561198045660732,"connected_time":5604000000000,"state":"active","ping":73},{"user_id":43,"name":"LAMC","steam_id":76561199066888917,"connected_time":5699000000000,"state":"active","ping":57},{"user_id":87,"name":"Mike Rizzowski","steam_id":76561198798657045,"connected_time":2917000000000,"state":"active","ping":73},{"user_id":127,"name":"LoSpacemarine","steam_id":76561198268400585,"connected_time":663000000000,"state":"active","ping":67},{"user_id":86,"name":"dob:cob","steam_id":76561198253323044,"connected_time":2997000000000,"state":"active","ping":71},{"user_id":96,"name":"K.V. #RemoveRandomCrits","steam_id":76561197994832993,"connected_time":2310000000000,"state":"active","ping":73},{"user_id":112,"name":"posht0O :/","steam_id":76561198106182078,"connected_time":1537000000000,"state":"active","ping":100},{"user_id":135,"name":"Cherry","steam_id":76561198111462976,"connected_time":352000000000,"state":"active","ping":91},{"user_id":134,"name":"holykyckling","steam_id":76561198040661615,"connected_time":491000000000,"state":"active","ping":75},{"user_id":89,"name":"jhonny el sins","steam_id":76561198982787752,"connected_time":2643000000000,"state":"active","ping":57},{"user_id":142,"name":"Arkainiel Silver","steam_id":76561198188302519,"connected_time":40000000000,"state":"active","ping":60},{"user_id":121,"name":"Sandvich Gaming","steam_id":76561199079493666,"connected_time":1346000000000,"state":"active","ping":92},{"user_id":125,"name":"JP3","steam_id":76561197970963576,"connected_time":1128000000000,"state":"active","ping":56},{"user_id":40,"name":"Wario","steam_id":76561198356089255,"connected_time":5747000000000,"state":"active","ping":62},{"user_id":42,"name":"Not Friends","steam_id":76561198043775605,"connected_time":5723000000000,"state":"active","ping":79},{"user_id":133,"name":"Jackiplier (real)","steam_id":76561198241772340,"connected_time":534000000000,"state":"active","ping":115}]},{"server_id":309,"name":"Uncletopia | Frankfurt | 4 | All Maps","name_short":"frk-4","host":"frk-1.de.uncletopia.com","port":27045,"enabled":true,"region":"eu","cc":"de","latitude":50.110924,"longitude":8.682127,"reserved":0,"last_update":"0001-01-01T00:00:00Z","name_a2s":"Uncletopia | Frankfurt | 4 | All Maps","protocol":17,"map":"cp_altitude","folder":"tf","game":"Team Fortress","app_id":440,"player_count":0,"max_players":24,"Bots":0,"server_type":"Dedicated","server_os":"Linux","password":true,"vac":true,"version":"7757534","steam_id":85568392924504275,"keywords":["cp","nocrits","nodmgspread","uncletopia"],"game_id":440,"stv_port":27046,"stv_name":"Uncletopia | Frankfurt | 4 | All Maps | STV","players":null},{"server_id":310,"name":"Uncletopia | Frankfurt | 5 | All Maps","name_short":"frk-5","host":"frk-1.de.uncletopia.com","port":27055,"enabled":true,"region":"eu","cc":"de","latitude":50.110924,"longitude":8.682127,"reserved":0,"last_update":"0001-01-01T00:00:00Z","name_a2s":"Uncletopia | Frankfurt | 5 | All Maps","protocol":17,"map":"koth_suijin","folder":"tf","game":"Team Fortress","app_id":440,"player_count":23,"max_players":24,"Bots":0,"server_type":"Dedicated","server_os":"Linux","password":true,"vac":true,"version":"7757534","steam_id":85568392924504277,"keywords":["cp","nocrits","nodmgspread","uncletopia"],"game_id":440,"stv_port":27056,"stv_name":"Uncletopia | Frankfurt | 5 | All Maps | STV","players":[{"user_id":181,"name":"sad and flaccid","steam_id":76561198107978481,"connected_time":107000000000,"state":"active","ping":84},{"user_id":174,"name":"LemonLeCitron","steam_id":76561198215545267,"connected_time":661000000000,"state":"active","ping":75},{"user_id":163,"name":"fnaf 2","steam_id":76561199149307190,"connected_time":1128000000000,"state":"active","ping":76},{"user_id":108,"name":"[CC]Nyafka","steam_id":76561198289878090,"connected_time":6063000000000,"state":"active","ping":122},{"user_id":121,"name":"jerf","steam_id":76561199213901239,"connected_time":4508000000000,"state":"active","ping":69},{"user_id":161,"name":"Hestia","steam_id":76561198357455820,"connected_time":1205000000000,"state":"active","ping":85},{"user_id":182,"name":"Lessoz","steam_id":76561199211572036,"connected_time":74000000000,"state":"active","ping":92},{"user_id":165,"name":"duuuuutch","steam_id":76561199062586342,"connected_time":1062000000000,"state":"active","ping":96},{"user_id":157,"name":"Baki „ÉÑ","steam_id":76561198193615529,"connected_time":1841000000000,"state":"active","ping":55},{"user_id":159,"name":"Fat Pigeon","steam_id":76561198817940142,"connected_time":1624000000000,"state":"active","ping":54},{"user_id":150,"name":"AwterSix","steam_id":76561198042561678,"connected_time":2505000000000,"state":"active","ping":56},{"user_id":166,"name":"Yoshikage Kira","steam_id":76561198326041272,"connected_time":1055000000000,"state":"active","ping":71},{"user_id":141,"name":"mark","steam_id":76561198309246388,"connected_time":2806000000000,"state":"active","ping":47},{"user_id":167,"name":"punchmypotatoes","steam_id":76561198091255731,"connected_time":1045000000000,"state":"active","ping":67},{"user_id":148,"name":"Dr. Le Quack","steam_id":76561197995711176,"connected_time":2651000000000,"state":"active","ping":89},{"user_id":168,"name":"saalvberg","steam_id":76561199409062000,"connected_time":1032000000000,"state":"active","ping":69},{"user_id":169,"name":"Skepter","steam_id":76561198097268468,"connected_time":1026000000000,"state":"active","ping":76},{"user_id":183,"name":"Real Lad‚Ñ¢","steam_id":76561198053730933,"connected_time":59000000000,"state":"active","ping":74},{"user_id":144,"name":"Fuvuk","steam_id":76561198044458593,"connected_time":2763000000000,"state":"active","ping":93},{"user_id":184,"name":"minespweper ‚òÜ","steam_id":76561199096919345,"connected_time":53000000000,"state":"active","ping":78},{"user_id":158,"name":"Â∞è„Åï„Å™„Éö„Éã„Çπ„ÅÆÊïóËÄÖ","steam_id":76561198394221491,"connected_time":1751000000000,"state":"active","ping":55},{"user_id":156,"name":"AHKrzych","steam_id":76561198012688555,"connected_time":2175000000000,"state":"active","ping":100},{"user_id":171,"name":"jge","steam_id":76561198123186387,"connected_time":1006000000000,"state":"active","ping":57}]},{"server_id":311,"name":"Uncletopia | Frankfurt | 6 | All Maps","name_short":"frk-6","host":"frk-1.de.uncletopia.com","port":27065,"enabled":true,"region":"eu","cc":"de","latitude":50.110924,"longitude":8.682127,"reserved":0,"last_update":"0001-01-01T00:00:00Z","name_a2s":"Uncletopia | Frankfurt | 6 | All Maps","protocol":17,"map":"pl_snowycoast","folder":"tf","game":"Team Fortress","app_id":440,"player_count":18,"max_players":24,"Bots":0,"server_type":"Dedicated","server_os":"Linux","password":true,"vac":true,"version":"7757534","steam_id":85568392924504278,"keywords":["nocrits","nodmgspread","payload","uncletopia"],"game_id":440,"stv_port":27066,"stv_name":"Uncletopia | Frankfurt | 6 | All Maps | STV","players":[{"user_id":41,"name":"autistic luigi","steam_id":76561199218285040,"connected_time":1001000000000,"state":"active","ping":85},{"user_id":58,"name":"tummaluppo taivaltaja","steam_id":76561198093458326,"connected_time":60000000000,"state":"active","ping":51},{"user_id":42,"name":"Jonas Destark","steam_id":76561198030327441,"connected_time":896000000000,"state":"active","ping":68},{"user_id":52,"name":"DrExplosive","steam_id":76561198063678579,"connected_time":258000000000,"state":"active","ping":48},{"user_id":53,"name":"Wardruna96","steam_id":76561199057083828,"connected_time":241000000000,"state":"active","ping":89},{"user_id":38,"name":"toe eater","steam_id":76561199272782484,"connected_time":1151000000000,"state":"active","ping":75},{"user_id":44,"name":"cof","steam_id":76561199128417805,"connected_time":740000000000,"state":"active","ping":79},{"user_id":45,"name":"Henk_de_Patatman","steam_id":76561198070103191,"connected_time":733000000000,"state":"active","ping":44},{"user_id":46,"name":"EEEEEH","steam_id":76561198126717413,"connected_time":714000000000,"state":"active","ping":85},{"user_id":47,"name":"MrMartin","steam_id":76561198399954507,"connected_time":652000000000,"state":"active","ping":95},{"user_id":54,"name":"nvs\"","steam_id":76561198188745915,"connected_time":169000000000,"state":"active","ping":87},{"user_id":55,"name":"Pungkrockaren","steam_id":76561198050214002,"connected_time":152000000000,"state":"active","ping":60},{"user_id":56,"name":"peams","steam_id":76561198343328308,"connected_time":118000000000,"state":"active","ping":60},{"user_id":57,"name":"The2PLAYZ","steam_id":76561198352720404,"connected_time":103000000000,"state":"active","ping":86},{"user_id":59,"name":"banyesz","steam_id":76561198152997658,"connected_time":51000000000,"state":"active","ping":79},{"user_id":60,"name":"Albert Einstein","steam_id":76561198351190006,"connected_time":42000000000,"state":"spawning","ping":90},{"user_id":61,"name":"Octoroller","steam_id":76561198065313043,"connected_time":38000000000,"state":"spawning","ping":79},{"user_id":62,"name":"Shepard","steam_id":76561198097280925,"connected_time":31000000000,"state":"active","ping":99}]},{"server_id":23,"name":"Uncletopia | Frankfurt | 7 | Stopwatch Beta","name_short":"frk-7","host":"frk-1.de.uncletopia.com","port":27075,"enabled":true,"region":"eu","cc":"de","latitude":50.110924,"longitude":8.682127,"reserved":0,"last_update":"0001-01-01T00:00:00Z","name_a2s":"Uncletopia | Frankfurt | 7 | Stopwatch Beta","protocol":17,"map":"pl_frontier_final","folder":"tf","game":"Team Fortress","app_id":440,"player_count":0,"max_players":24,"Bots":0,"server_type":"Dedicated","server_os":"Linux","password":true,"vac":true,"version":"7757534","steam_id":85568392924742827,"keywords":["nocrits","nodmgspread","payload","uncletopia"],"game_id":440,"stv_port":27076,"stv_name":"Uncletopia | Frankfurt | 7 | Stopwatch Beta | STV","players":null},{"server_id":24,"name":"Uncletopia | Frankfurt | 8 | Community","name_short":"frk-8","host":"frk-1.de.uncletopia.com","port":27085,"enabled":true,"region":"eu","cc":"de","latitude":50.110924,"longitude":8.682127,"reserved":0,"last_update":"0001-01-01T00:00:00Z","name_a2s":"Uncletopia | Frankfurt | 8 | Community","protocol":17,"map":"workshop/koth_bagel_rc5.ugc2514036946","folder":"tf","game":"Team Fortress","app_id":440,"player_count":0,"max_players":24,"Bots":0,"server_type":"Dedicated","server_os":"Linux","password":true,"vac":true,"version":"7757534","steam_id":85568392924742828,"keywords":["cp","nocrits","nodmgspread","uncletopia"],"game_id":440,"stv_port":27086,"stv_name":"Uncletopia | Frankfurt | 8 | Community | STV","players":null},{"server_id":202,"name":"Uncletopia | Hong Kong | 1 | All Maps","name_short":"hgk-1","host":"hgk-1.hk.uncletopia.com","port":27015,"enabled":true,"region":"asia","cc":"hk","latitude":22.302711,"longitude":114.177216,"reserved":0,"last_update":"0001-01-01T00:00:00Z","name_a2s":"Uncletopia | Hong Kong | 1 | All Maps","protocol":17,"map":"cp_sunshine","folder":"tf","game":"Team Fortress","app_id":440,"player_count":24,"max_players":24,"Bots":0,"server_type":"Dedicated","server_os":"Linux","password":true,"vac":true,"version":"7757534","steam_id":85568392924494504,"keywords":["cp","nocrits","nodmgspread","uncletopia"],"game_id":440,"stv_port":27016,"stv_name":"Uncletopia | Hong Kong | 1 | All Maps | STV","players":[{"user_id":475,"name":"moguizhong","steam_id":76561198152588681,"connected_time":4151000000000,"state":"active","ping":84},{"user_id":303,"name":"silverhouse7","steam_id":76561198349634906,"connected_time":15902000000000,"state":"active","ping":67},{"user_id":476,"name":"Pillboi","steam_id":76561198011172886,"connected_time":4148000000000,"state":"active","ping":40},{"user_id":502,"name":"DETRO!!!","steam_id":76561198412329672,"connected_time":1255000000000,"state":"active","ping":85},{"user_id":508,"name":"Socello123","steam_id":76561198400838979,"connected_time":875000000000,"state":"active","ping":77},{"user_id":465,"name":"moron","steam_id":76561198324008555,"connected_time":5619000000000,"state":"active","ping":49},{"user_id":495,"name":"AmaiToxic","steam_id":76561199122491157,"connected_time":2270000000000,"state":"active","ping":149},{"user_id":483,"name":"cinderacefan500","steam_id":76561198981987710,"connected_time":3801000000000,"state":"active","ping":96},{"user_id":344,"name":"timmy.1366","steam_id":76561199065433547,"connected_time":13232000000000,"state":"active","ping":79},{"user_id":492,"name":"Vladimir Spencer Pootis","steam_id":76561198144686119,"connected_time":2320000000000,"state":"active","ping":66},{"user_id":378,"name":"sloth of the fragment clan","steam_id":76561198214192048,"connected_time":10939000000000,"state":"active","ping":147},{"user_id":380,"name":"Shinobimono","steam_id":76561198343322788,"connected_time":10829000000000,"state":"active","ping":133},{"user_id":467,"name":"zsb","steam_id":76561198073857914,"connected_time":5566000000000,"state":"active","ping":75},{"user_id":493,"name":"Nasi Lemak Gaming","steam_id":76561198082921407,"connected_time":2318000000000,"state":"active","ping":81},{"user_id":503,"name":"8091573212","steam_id":76561198968776439,"connected_time":1182000000000,"state":"active","ping":89},{"user_id":477,"name":"Polyester","steam_id":76561198400698408,"connected_time":4148000000000,"state":"active","ping":92},{"user_id":498,"name":"Aiko Kanata Zhenco","steam_id":76561199262955185,"connected_time":2143000000000,"state":"active","ping":132},{"user_id":501,"name":"kliq heads","steam_id":76561198439382132,"connected_time":1276000000000,"state":"active","ping":107},{"user_id":497,"name":"Miles Per'Hour","steam_id":76561199000630075,"connected_time":2207000000000,"state":"active","ping":117},{"user_id":473,"name":"laptopgaming2003","steam_id":76561198796036009,"connected_time":5011000000000,"state":"active","ping":89},{"user_id":499,"name":"Stupid B l #saveTF2","steam_id":76561198131423270,"connected_time":1919000000000,"state":"active","ping":151},{"user_id":487,"name":"let cook","steam_id":76561198055553140,"connected_time":3387000000000,"state":"active","ping":78},{"user_id":491,"name":"SunShine","steam_id":76561198323642446,"connected_time":2654000000000,"state":"active","ping":97},{"user_id":513,"name":"\"SKS\"","steam_id":76561198187995386,"connected_time":178000000000,"state":"active","ping":85}]},{"server_id":1,"name":"Uncletopia | Los Angeles | 1 | All Maps","name_short":"lax-1","host":"lax-1.us.uncletopia.com","port":27015,"enabled":true,"region":"us-west","cc":"us","latitude":33.94279,"longitude":-118.41004,"reserved":0,"last_update":"0001-01-01T00:00:00Z","name_a2s":"Uncletopia | Los Angeles | 1 | All Maps","protocol":17,"map":"cp_altitude","folder":"tf","game":"Team Fortress","app_id":440,"player_count":0,"max_players":24,"Bots":0,"server_type":"Dedicated","server_os":"Linux","password":true,"vac":true,"version":"7757534","steam_id":85568392924469991,"keywords":["cp","nocrits","nodmgspread","uncletopia"],"game_id":440,"stv_port":27016,"stv_name":"Uncletopia | Los Angeles | 1 | All Maps | STV","players":null},{"server_id":112,"name":"Uncletopia | Los Angeles | 2 | All Maps","name_short":"lax-2","host":"lax-1.us.uncletopia.com","port":27025,"enabled":true,"region":"us-west","cc":"us","latitude":33.94279,"longitude":-118.41004,"reserved":0,"last_update":"0001-01-01T00:00:00Z","name_a2s":"Uncletopia | Los Angeles | 2 | All Maps","protocol":17,"map":"koth_cascade","folder":"tf","game":"Team Fortress","app_id":440,"player_count":0,"max_players":24,"Bots":0,"server_type":"Dedicated","server_os":"Linux","password":true,"vac":true,"version":"7757534","steam_id":85568392924469992,"keywords":["cp","nocrits","nodmgspread","uncletopia"],"game_id":440,"stv_port":27026,"stv_name":"Uncletopia | Los Angeles | 2 | All Maps | STV","players":null},{"server_id":324,"name":"Uncletopia | Los Angeles | 3 | All Maps","name_short":"lax-3","host":"lax-1.us.uncletopia.com","port":27035,"enabled":true,"region":"us-west","cc":"us","latitude":33.94279,"longitude":-118.41004,"reserved":0,"last_update":"0001-01-01T00:00:00Z","name_a2s":"Uncletopia | Los Angeles | 3 | All Maps","protocol":17,"map":"koth_highpass","folder":"tf","game":"Team Fortress","app_id":440,"player_count":0,"max_players":24,"Bots":0,"server_type":"Dedicated","server_os":"Linux","password":true,"vac":true,"version":"7757534","steam_id":85568392924510198,"keywords":["cp","nocrits","nodmgspread","uncletopia"],"game_id":440,"stv_port":27036,"stv_name":"Uncletopia | Los Angeles | 3 | All Maps | STV","players":null},{"server_id":25,"name":"Uncletopia | Los Angeles | 4 | Stopwatch Beta","name_short":"lax-4","host":"lax-1.us.uncletopia.com","port":27045,"enabled":true,"region":"us-west","cc":"us","latitude":33.94279,"longitude":-118.41004,"reserved":0,"last_update":"0001-01-01T00:00:00Z","name_a2s":"Uncletopia | Los Angeles | 4 | Stopwatch Beta","protocol":17,"map":"pl_frontier_final","folder":"tf","game":"Team Fortress","app_id":440,"player_count":0,"max_players":24,"Bots":0,"server_type":"Dedicated","server_os":"Linux","password":true,"vac":true,"version":"7757534","steam_id":85568392924510199,"keywords":["nocrits","nodmgspread","payload","uncletopia"],"game_id":440,"stv_port":27046,"stv_name":"Uncletopia | Los Angeles | 4 | Stopwatch Beta | STV","players":null},{"server_id":11,"name":"Uncletopia | London | 1 | All Maps","name_short":"lon-1","host":"lon-1.uk.uncletopia.com","port":27015,"enabled":true,"region":"eu","cc":"gb","latitude":51.509865,"longitude":-0.118092,"reserved":0,"last_update":"0001-01-01T00:00:00Z","name_a2s":"Uncletopia | London | 1 | All Maps","protocol":17,"map":"koth_lakeside_final","folder":"tf","game":"Team Fortress","app_id":440,"player_count":24,"max_players":24,"Bots":0,"server_type":"Dedicated","server_os":"Linux","password":true,"vac":true,"version":"7757534","steam_id":85568392924367362,"keywords":["cp","nocrits","nodmgspread","uncletopia"],"game_id":440,"stv_port":27016,"stv_name":"Uncletopia | London | 1 | All Maps | STV","players":[{"user_id":263,"name":"JOHN GAMING (based)","steam_id":76561199085822219,"connected_time":2392000000000,"state":"active","ping":90},{"user_id":268,"name":"walluu","steam_id":76561198121830870,"connected_time":2047000000000,"state":"active","ping":79},{"user_id":236,"name":"dafydd","steam_id":76561198052200325,"connected_time":4123000000000,"state":"active","ping":91},{"user_id":287,"name":"‚òÖùñòùñîùñüùñäùñôùñòùñö","steam_id":76561198012883006,"connected_time":382000000000,"state":"active","ping":90},{"user_id":255,"name":"many thanks","steam_id":76561198089003514,"connected_time":2978000000000,"state":"active","ping":60},{"user_id":205,"name":"AnonTron","steam_id":76561199031895493,"connected_time":7384000000000,"state":"active","ping":172},{"user_id":249,"name":"BigBustyBiden","steam_id":76561198155187233,"connected_time":3867000000000,"state":"active","ping":64},{"user_id":282,"name":"Moonlightexel","steam_id":76561198262044897,"connected_time":1019000000000,"state":"active","ping":96},{"user_id":283,"name":"Flare","steam_id":76561198039098320,"connected_time":984000000000,"state":"active","ping":47},{"user_id":244,"name":"Commander DM","steam_id":76561198059236770,"connected_time":4038000000000,"state":"active","ping":85},{"user_id":254,"name":"robsan","steam_id":76561198137375391,"connected_time":3080000000000,"state":"active","ping":84},{"user_id":220,"name":"Fishum","steam_id":76561198148556559,"connected_time":5575000000000,"state":"active","ping":50},{"user_id":232,"name":"Greenmaker","steam_id":76561198060466591,"connected_time":4447000000000,"state":"active","ping":96},{"user_id":253,"name":"Funny mann with a shootgun","steam_id":76561199017872113,"connected_time":3113000000000,"state":"active","ping":49},{"user_id":289,"name":"Desj","steam_id":76561198114212636,"connected_time":121000000000,"state":"active","ping":60},{"user_id":273,"name":"ayadam","steam_id":76561198161515769,"connected_time":1368000000000,"state":"active","ping":114},{"user_id":290,"name":"BSantos57","steam_id":76561198000597094,"connected_time":104000000000,"state":"active","ping":104},{"user_id":286,"name":"SPONGE","steam_id":76561198040933472,"connected_time":523000000000,"state":"active","ping":70},{"user_id":246,"name":"Û†Ä°Û†Ä°HELE","steam_id":76561198886612260,"connected_time":3992000000000,"state":"active","ping":71},{"user_id":193,"name":"Sneaky boi","steam_id":76561199195985387,"connected_time":8519000000000,"state":"active","ping":94},{"user_id":275,"name":"Bill","steam_id":76561198407800452,"connected_time":1334000000000,"state":"active","ping":69},{"user_id":285,"name":"Tywhip","steam_id":76561199207545191,"connected_time":923000000000,"state":"active","ping":62},{"user_id":277,"name":"Ray","steam_id":76561199472077482,"connected_time":1313000000000,"state":"active","ping":71},{"user_id":248,"name":"K√∏sm√Ø","steam_id":76561198074938275,"connected_time":3901000000000,"state":"active","ping":77}]},{"server_id":114,"name":"Uncletopia | London | 2 | All Maps","name_short":"lon-2","host":"lon-1.uk.uncletopia.com","port":27025,"enabled":true,"region":"eu","cc":"gb","latitude":51.509865,"longitude":-0.118092,"reserved":0,"last_update":"0001-01-01T00:00:00Z","name_a2s":"Uncletopia | London | 2 | All Maps","protocol":17,"map":"cp_gullywash_final1","folder":"tf","game":"Team Fortress","app_id":440,"player_count":23,"max_players":24,"Bots":0,"server_type":"Dedicated","server_os":"Linux","password":true,"vac":true,"version":"7757534","steam_id":85568392924470941,"keywords":["cp","nocrits","nodmgspread","uncletopia"],"game_id":440,"stv_port":27026,"stv_name":"Uncletopia | London | 2 | All Maps | STV","players":[{"user_id":235,"name":"Carver","steam_id":76561198000635507,"connected_time":1462000000000,"state":"active","ping":63},{"user_id":254,"name":"mentally ill","steam_id":76561199042470246,"connected_time":288000000000,"state":"active","ping":67},{"user_id":216,"name":"_zipfile","steam_id":76561198066133808,"connected_time":3426000000000,"state":"active","ping":75},{"user_id":246,"name":"Zhongding Construction Group Lt","steam_id":76561198065915748,"connected_time":433000000000,"state":"active","ping":50},{"user_id":247,"name":"AlexV_0","steam_id":76561199200780913,"connected_time":426000000000,"state":"active","ping":170},{"user_id":248,"name":"Savlon","steam_id":76561198011597274,"connected_time":425000000000,"state":"active","ping":30},{"user_id":250,"name":"R3inis","steam_id":76561199030393569,"connected_time":409000000000,"state":"active","ping":95},{"user_id":259,"name":"Koi-Koi","steam_id":76561198045527771,"connected_time":21000000000,"state":"active","ping":78},{"user_id":167,"name":"Purple Panda","steam_id":76561198092231980,"connected_time":6234000000000,"state":"active","ping":41},{"user_id":258,"name":"Fortuit","steam_id":76561198065143703,"connected_time":110000000000,"state":"active","ping":82},{"user_id":207,"name":"chocolate flavoured femboy","steam_id":76561198819353867,"connected_time":3642000000000,"state":"active","ping":32},{"user_id":257,"name":"yeldad","steam_id":76561198447264153,"connected_time":139000000000,"state":"active","ping":176},{"user_id":233,"name":"Purps","steam_id":76561198053886680,"connected_time":1482000000000,"state":"active","ping":45},{"user_id":177,"name":"Anri Okita's Massive Milkers","steam_id":76561199186352720,"connected_time":5698000000000,"state":"active","ping":57},{"user_id":223,"name":"jmp","steam_id":76561198168283286,"connected_time":1865000000000,"state":"active","ping":76},{"user_id":253,"name":"R A S M U S","steam_id":76561198279799226,"connected_time":346000000000,"state":"active","ping":55},{"user_id":139,"name":"Sgreff","steam_id":76561198036304365,"connected_time":8279000000000,"state":"active","ping":45},{"user_id":243,"name":"Techm32","steam_id":76561198317134994,"connected_time":1250000000000,"state":"active","ping":77},{"user_id":224,"name":"toothpaste vaper","steam_id":76561198078458780,"connected_time":1858000000000,"state":"active","ping":55},{"user_id":215,"name":"Red Dynamite","steam_id":76561199073167935,"connected_time":3455000000000,"state":"active","ping":149},{"user_id":189,"name":"StabbyKnife","steam_id":76561198094010004,"connected_time":4787000000000,"state":"active","ping":96},{"user_id":245,"name":"GARbageTrash","steam_id":76561199101269633,"connected_time":826000000000,"state":"active","ping":80},{"user_id":236,"name":"‚ò≠ybercat","steam_id":76561198014070417,"connected_time":1462000000000,"state":"active","ping":63}]},{"server_id":320,"name":"Uncletopia | London | 3 | All Maps","name_short":"lon-3","host":"lon-1.uk.uncletopia.com","port":27035,"enabled":true,"region":"eu","cc":"gb","latitude":51.509865,"longitude":-0.118092,"reserved":0,"last_update":"0001-01-01T00:00:00Z","name_a2s":"Uncletopia | London | 3 | All Maps","protocol":17,"map":"cp_mountainlab","folder":"tf","game":"Team Fortress","app_id":440,"player_count":0,"max_players":24,"Bots":0,"server_type":"Dedicated","server_os":"Linux","password":true,"vac":true,"version":"7757534","steam_id":85568392924510192,"keywords":["cp","nocrits","nodmgspread","uncletopia"],"game_id":440,"stv_port":27036,"stv_name":"Uncletopia | London | 3 | All Maps | STV","players":null},{"server_id":321,"name":"Uncletopia | London | 4 | All Maps","name_short":"lon-4","host":"lon-1.uk.uncletopia.com","port":27045,"enabled":true,"region":"eu","cc":"gb","latitude":51.509865,"longitude":-0.118092,"reserved":0,"last_update":"0001-01-01T00:00:00Z","name_a2s":"Uncletopia | London | 4 | All Maps","protocol":17,"map":"koth_viaduct","folder":"tf","game":"Team Fortress","app_id":440,"player_count":0,"max_players":24,"Bots":0,"server_type":"Dedicated","server_os":"Linux","password":true,"vac":true,"version":"7757534","steam_id":85568392924510193,"keywords":["cp","nocrits","nodmgspread","uncletopia"],"game_id":440,"stv_port":27046,"stv_name":"Uncletopia | London | 4 | All Maps | STV","players":null},{"server_id":21,"name":"Uncletopia | London | 5 | All Maps","name_short":"lon-5","host":"lon-1.uk.uncletopia.com","port":27055,"enabled":true,"region":"eu","cc":"gb","latitude":51.509865,"longitude":-0.118092,"reserved":0,"last_update":"0001-01-01T00:00:00Z","name_a2s":"Uncletopia | London | 5 | All Maps","protocol":17,"map":"pl_snowycoast","folder":"tf","game":"Team Fortress","app_id":440,"player_count":0,"max_players":24,"Bots":0,"server_type":"Dedicated","server_os":"Linux","password":true,"vac":true,"version":"7757534","steam_id":85568392924742829,"keywords":["nocrits","nodmgspread","payload","uncletopia"],"game_id":440,"stv_port":27056,"stv_name":"Uncletopia | London | 5 | All Maps | STV","players":null},{"server_id":22,"name":"Uncletopia | London | 6 | All Maps","name_short":"lon-6","host":"lon-1.uk.uncletopia.com","port":27065,"enabled":true,"region":"eu","cc":"gb","latitude":51.509865,"longitude":-0.118092,"reserved":0,"last_update":"0001-01-01T00:00:00Z","name_a2s":"Uncletopia | London | 6 | All Maps","protocol":17,"map":"pl_swiftwater_final1","folder":"tf","game":"Team Fortress","app_id":440,"player_count":5,"max_players":24,"Bots":0,"server_type":"Dedicated","server_os":"Linux","password":true,"vac":true,"version":"7757534","steam_id":85568392924742830,"keywords":["nocrits","nodmgspread","payload","uncletopia"],"game_id":440,"stv_port":27066,"stv_name":"Uncletopia | London | 6 | All Maps | STV","players":[{"user_id":16,"name":"unlikeaboss","steam_id":76561198216427465,"connected_time":2369000000000,"state":"active","ping":64},{"user_id":17,"name":"RAM","steam_id":76561199178173462,"connected_time":2065000000000,"state":"active","ping":92},{"user_id":19,"name":"girlthulhu","steam_id":76561198268596290,"connected_time":763000000000,"state":"active","ping":45},{"user_id":20,"name":"Ariedente","steam_id":76561198844312151,"connected_time":697000000000,"state":"active","ping":99},{"user_id":21,"name":"Grizz","steam_id":76561198171010107,"connected_time":494000000000,"state":"active","ping":54}]},{"server_id":40,"name":"Uncletopia | London | 7 | No Payload","name_short":"lon-7","host":"lon-1.uk.uncletopia.com","port":27075,"enabled":true,"region":"eu","cc":"gb","latitude":51.509865,"longitude":-0.118092,"reserved":0,"last_update":"0001-01-01T00:00:00Z","name_a2s":"Uncletopia | London | 7 | No Payload","protocol":17,"map":"koth_king","folder":"tf","game":"Team Fortress","app_id":440,"player_count":24,"max_players":24,"Bots":0,"server_type":"Dedicated","server_os":"Linux","password":true,"vac":true,"version":"7757534","steam_id":85568392924964314,"keywords":["cp","nocrits","nodmgspread","uncletopia"],"game_id":440,"stv_port":27076,"stv_name":"Uncletopia | London | 7 | No Payload | STV","players":[{"user_id":161,"name":"yurkur","steam_id":76561198407108497,"connected_time":351000000000,"state":"active","ping":65},{"user_id":131,"name":"GMsU | Rebikas","steam_id":76561198077053764,"connected_time":2483000000000,"state":"active","ping":57},{"user_id":139,"name":"Barbatruc","steam_id":76561198119019916,"connected_time":1720000000000,"state":"active","ping":67},{"user_id":146,"name":"Old Hat","steam_id":76561197994673297,"connected_time":1378000000000,"state":"active","ping":63},{"user_id":133,"name":"burger","steam_id":76561198071674964,"connected_time":2158000000000,"state":"active","ping":80},{"user_id":162,"name":"i'm sleepy","steam_id":76561198041966915,"connected_time":326000000000,"state":"active","ping":60},{"user_id":164,"name":"Jon Snuh","steam_id":76561198075298635,"connected_time":295000000000,"state":"active","ping":125},{"user_id":163,"name":"MEDiUM","steam_id":76561198112328561,"connected_time":305000000000,"state":"active","ping":91},{"user_id":166,"name":"\u003e:3 (normal)","steam_id":76561198068586634,"connected_time":276000000000,"state":"active","ping":145},{"user_id":141,"name":"mesoni","steam_id":76561199141290973,"connected_time":1692000000000,"state":"active","ping":85},{"user_id":121,"name":"CRAZY VIKING","steam_id":76561198061440669,"connected_time":3225000000000,"state":"active","ping":67},{"user_id":167,"name":"Freddy Fazbear","steam_id":76561199097447928,"connected_time":148000000000,"state":"active","ping":51},{"user_id":142,"name":"dorak","steam_id":76561198818037965,"connected_time":1647000000000,"state":"active","ping":115},{"user_id":155,"name":"ViktorYoshi","steam_id":76561199157555246,"connected_time":941000000000,"state":"active","ping":53},{"user_id":26,"name":"Garden Freeman","steam_id":76561199073314677,"connected_time":7556000000000,"state":"active","ping":83},{"user_id":108,"name":"Laru","steam_id":76561197998838438,"connected_time":3712000000000,"state":"active","ping":79},{"user_id":152,"name":"penis","steam_id":76561199002864030,"connected_time":1200000000000,"state":"active","ping":102},{"user_id":149,"name":"Mayor Wank from Wanker Town","steam_id":76561197998253588,"connected_time":1349000000000,"state":"active","ping":60},{"user_id":136,"name":"FUKAYU","steam_id":76561198380484033,"connected_time":2122000000000,"state":"active","ping":60},{"user_id":128,"name":"Mefuu","steam_id":76561198287729818,"connected_time":2975000000000,"state":"active","ping":109},{"user_id":153,"name":"porridge","steam_id":76561198044585737,"connected_time":1180000000000,"state":"active","ping":45},{"user_id":157,"name":"GMsU | Acoul","steam_id":76561198229222992,"connected_time":728000000000,"state":"active","ping":67},{"user_id":107,"name":"Welder","steam_id":76561198355300561,"connected_time":3781000000000,"state":"active","ping":74}]},{"server_id":41,"name":"Uncletopia | London | 8 | Community","name_short":"lon-8","host":"lon-1.uk.uncletopia.com","port":27085,"enabled":true,"region":"eu","cc":"gb","latitude":51.509865,"longitude":-0.118092,"reserved":0,"last_update":"0001-01-01T00:00:00Z","name_a2s":"Uncletopia | London | 8 | Community","protocol":17,"map":"workshop/pl_highwood_b13.ugc1769496557","folder":"tf","game":"Team Fortress","app_id":440,"player_count":0,"max_players":24,"Bots":0,"server_type":"Dedicated","server_os":"Linux","password":true,"vac":true,"version":"7757534","steam_id":85568392924964315,"keywords":["nocrits","nodmgspread","payload","uncletopia"],"game_id":440,"stv_port":27086,"stv_name":"Uncletopia | London | 8 | Community | STV","players":null},{"server_id":300,"name":"Uncletopia | Montr√©al | 1 | All Maps","name_short":"mtl-1","host":"mtl-1.ca.uncletopia.com","port":27015,"enabled":true,"region":"us-east","cc":"ca","latitude":45.50889,"longitude":-73.56167,"reserved":0,"last_update":"0001-01-01T00:00:00Z","name_a2s":"Uncletopia | Montr√©al | 1 | All Maps","protocol":17,"map":"pl_snowycoast","folder":"tf","game":"Team Fortress","app_id":440,"player_count":0,"max_players":24,"Bots":0,"server_type":"Dedicated","server_os":"Linux","password":true,"vac":true,"version":"7757534","steam_id":85568392924500087,"keywords":["nocrits","nodmgspread","payload","uncletopia"],"game_id":440,"stv_port":27016,"stv_name":"Uncletopia | Montr√©al | 1 | All Maps | STV","players":null},{"server_id":301,"name":"Uncletopia | Montr√©al | 2 | All Maps","name_short":"mtl-2","host":"mtl-1.ca.uncletopia.com","port":27025,"enabled":true,"region":"us-east","cc":"ca","latitude":45.50889,"longitude":-73.56167,"reserved":0,"last_update":"0001-01-01T00:00:00Z","name_a2s":"Uncletopia | Montr√©al | 2 | All Maps","protocol":17,"map":"pl_snowycoast","folder":"tf","game":"Team Fortress","app_id":440,"player_count":0,"max_players":24,"Bots":0,"server_type":"Dedicated","server_os":"Linux","password":true,"vac":true,"version":"7757534","steam_id":85568392924500088,"keywords":["nocrits","nodmgspread","payload","uncletopia"],"game_id":440,"stv_port":27026,"stv_name":"Uncletopia | Montr√©al | 2 | All Maps | STV","players":null},{"server_id":302,"name":"Uncletopia | Montr√©al | 3 | All Maps","name_short":"mtl-3","host":"mtl-1.ca.uncletopia.com","port":27035,"enabled":true,"region":"us-east","cc":"ca","latitude":45.50889,"longitude":-73.56167,"reserved":0,"last_update":"0001-01-01T00:00:00Z","name_a2s":"Uncletopia | Montr√©al | 3 | All Maps","protocol":17,"map":"cp_dustbowl","folder":"tf","game":"Team Fortress","app_id":440,"player_count":0,"max_players":24,"Bots":0,"server_type":"Dedicated","server_os":"Linux","password":true,"vac":true,"version":"7757534","steam_id":85568392924500089,"keywords":["cp","nocrits","nodmgspread","uncletopia"],"game_id":440,"stv_port":27036,"stv_name":"Uncletopia | Montr√©al | 3 | All Maps | STV","players":null},{"server_id":303,"name":"Uncletopia | Montr√©al | 4 | No Payload","name_short":"mtl-4","host":"mtl-1.ca.uncletopia.com","port":27045,"enabled":true,"region":"us-east","cc":"ca","latitude":45.50889,"longitude":-73.56167,"reserved":0,"last_update":"0001-01-01T00:00:00Z","name_a2s":"Uncletopia | Montr√©al | 4 | No Payload","protocol":17,"map":"pl_borneo","folder":"tf","game":"Team Fortress","app_id":440,"player_count":0,"max_players":24,"Bots":0,"server_type":"Dedicated","server_os":"Linux","password":true,"vac":true,"version":"7757534","steam_id":85568392924500090,"keywords":["nocrits","nodmgspread","payload","uncletopia"],"game_id":440,"stv_port":27046,"stv_name":"Uncletopia | Montr√©al | 4 | No Payload | STV","players":null},{"server_id":13,"name":"Uncletopia | New York City | 1 | All Maps","name_short":"nyc-1","host":"nyc-1.us.uncletopia.com","port":27015,"enabled":true,"region":"us-east","cc":"us","latitude":40.73061,"longitude":-73.93524,"reserved":0,"last_update":"0001-01-01T00:00:00Z","name_a2s":"Uncletopia | New York City | 1 | All Maps","protocol":17,"map":"koth_cascade","folder":"tf","game":"Team Fortress","app_id":440,"player_count":0,"max_players":24,"Bots":0,"server_type":"Dedicated","server_os":"Linux","password":true,"vac":true,"version":"7757534","steam_id":85568392924469993,"keywords":["cp","nocrits","nodmgspread","uncletopia"],"game_id":440,"stv_port":27016,"stv_name":"Uncletopia | New York City | 1 | All Maps | STV","players":null},{"server_id":14,"name":"Uncletopia | New York City | 2 | All Maps","name_short":"nyc-2","host":"nyc-1.us.uncletopia.com","port":27025,"enabled":true,"region":"us-east","cc":"us","latitude":40.73061,"longitude":-73.93524,"reserved":0,"last_update":"0001-01-01T00:00:00Z","name_a2s":"Uncletopia | New York City | 2 | All Maps","protocol":17,"map":"pl_pier","folder":"tf","game":"Team Fortress","app_id":440,"player_count":2,"max_players":24,"Bots":0,"server_type":"Dedicated","server_os":"Linux","password":true,"vac":true,"version":"7757534","steam_id":85568392924469994,"keywords":["nocrits","nodmgspread","payload","uncletopia"],"game_id":440,"stv_port":27026,"stv_name":"Uncletopia | New York City | 2 | All Maps | STV","players":[{"user_id":3,"name":"grind","steam_id":76561198801214349,"connected_time":375000000000,"state":"active","ping":59},{"user_id":4,"name":"Jailbreak","steam_id":76561198802085218,"connected_time":366000000000,"state":"active","ping":94}]},{"server_id":15,"name":"Uncletopia | New York City | 3 | Stopwatch Beta","name_short":"nyc-3","host":"nyc-1.us.uncletopia.com","port":27035,"enabled":true,"region":"us-east","cc":"us","latitude":40.73061,"longitude":-73.93524,"reserved":0,"last_update":"0001-01-01T00:00:00Z","name_a2s":"Uncletopia | New York City | 3 | Stopwatch Beta","protocol":17,"map":"cp_mountainlab","folder":"tf","game":"Team Fortress","app_id":440,"player_count":0,"max_players":24,"Bots":0,"server_type":"Dedicated","server_os":"Linux","password":true,"vac":true,"version":"7757534","steam_id":85568392924742820,"keywords":["cp","nocrits","nodmgspread","uncletopia"],"game_id":440,"stv_port":27036,"stv_name":"Uncletopia | New York City | 3 | Stopwatch Beta | STV","players":null},{"server_id":16,"name":"Uncletopia | New York City | 4 | Community","name_short":"nyc-4","host":"nyc-1.us.uncletopia.com","port":27045,"enabled":true,"region":"us-east","cc":"us","latitude":40.73061,"longitude":-73.93524,"reserved":0,"last_update":"0001-01-01T00:00:00Z","name_a2s":"Uncletopia | New York City | 4 | Community","protocol":17,"map":"pl_borneo","folder":"tf","game":"Team Fortress","app_id":440,"player_count":1,"max_players":24,"Bots":0,"server_type":"Dedicated","server_os":"Linux","password":true,"vac":true,"version":"7757534","steam_id":85568392924742821,"keywords":["nocrits","nodmgspread","payload","uncletopia"],"game_id":440,"stv_port":27046,"stv_name":"Uncletopia | New York City | 4 | Community | STV","players":[{"user_id":4,"name":"SuperWylander","steam_id":76561198985403900,"connected_time":315000000000,"state":"active","ping":55}]},{"server_id":142,"name":"Uncletopia | S√£o Paulo | 1 | All Maps","name_short":"sao-1","host":"sao-1.br.uncletopia.com","port":27015,"enabled":true,"region":"sa","cc":"br","latitude":-23.533773,"longitude":-46.62529,"reserved":0,"last_update":"0001-01-01T00:00:00Z","name_a2s":"Uncletopia | S√£o Paulo | 1 | All Maps","protocol":17,"map":"pl_snowycoast","folder":"tf","game":"Team Fortress","app_id":440,"player_count":0,"max_players":24,"Bots":0,"server_type":"Dedicated","server_os":"Linux","password":true,"vac":true,"version":"7757534","steam_id":85568392924469996,"keywords":["nocrits","nodmgspread","payload","uncletopia"],"game_id":440,"stv_port":27016,"stv_name":"Uncletopia | S√£o Paulo | 1 | All Maps | STV","players":null},{"server_id":143,"name":"Uncletopia | S√£o Paulo | 2 | All Maps","name_short":"sao-2","host":"sao-2.br.uncletopia.com","port":27015,"enabled":true,"region":"sa","cc":"br","latitude":-23.533773,"longitude":-46.62529,"reserved":0,"last_update":"0001-01-01T00:00:00Z","name_a2s":"Uncletopia | S√£o Paulo | 2 | All Maps","protocol":17,"map":"pl_swiftwater_final1","folder":"tf","game":"Team Fortress","app_id":440,"player_count":0,"max_players":24,"Bots":0,"server_type":"Dedicated","server_os":"Linux","password":true,"vac":true,"version":"7757534","steam_id":85568392924485349,"keywords":["nocrits","nodmgspread","payload","uncletopia"],"game_id":440,"stv_port":27016,"stv_name":"Uncletopia | S√£o Paulo | 2 | All Maps | STV","players":null},{"server_id":7,"name":"Uncletopia | Seattle | 1 | All Maps","name_short":"sea-1","host":"sea-1.us.uncletopia.com","port":27015,"enabled":true,"region":"us-west","cc":"us","latitude":47.608013,"longitude":-122.33517,"reserved":0,"last_update":"0001-01-01T00:00:00Z","name_a2s":"Uncletopia | Seattle | 1 | All Maps","protocol":17,"map":"pl_snowycoast","folder":"tf","game":"Team Fortress","app_id":440,"player_count":24,"max_players":24,"Bots":0,"server_type":"Dedicated","server_os":"Linux","password":true,"vac":true,"version":"7757534","steam_id":85568392924469997,"keywords":["nocrits","nodmgspread","payload","uncletopia"],"game_id":440,"stv_port":27016,"stv_name":"Uncletopia | Seattle | 1 | All Maps | STV","players":[{"user_id":1059,"name":"\u003c3Elise\u003c3","steam_id":76561198146435005,"connected_time":187000000000,"state":"active","ping":71},{"user_id":1049,"name":"stink sauce","steam_id":76561198012149619,"connected_time":827000000000,"state":"active","ping":122},{"user_id":1058,"name":"moe","steam_id":76561198929586245,"connected_time":267000000000,"state":"active","ping":63},{"user_id":1033,"name":"Dr. Enforcicle (real)","steam_id":76561198964471859,"connected_time":1707000000000,"state":"active","ping":131},{"user_id":1034,"name":"Berserk","steam_id":76561198000357361,"connected_time":1669000000000,"state":"active","ping":88},{"user_id":1041,"name":"Louisiana Linus","steam_id":76561197995979727,"connected_time":1226000000000,"state":"active","ping":82},{"user_id":1044,"name":"Mask","steam_id":76561198877649728,"connected_time":1029000000000,"state":"active","ping":189},{"user_id":1057,"name":"Frankthetank64","steam_id":76561198362368253,"connected_time":321000000000,"state":"active","ping":139},{"user_id":1061,"name":"LeFunnyMan","steam_id":76561199081645289,"connected_time":18000000000,"state":"spawning","ping":94},{"user_id":1052,"name":"Kringemaster Hackee","steam_id":76561197989952849,"connected_time":738000000000,"state":"active","ping":125},{"user_id":1053,"name":"JP Bishop","steam_id":76561198032907482,"connected_time":730000000000,"state":"active","ping":152},{"user_id":1046,"name":"Mr.Kevin120","steam_id":76561199186919096,"connected_time":966000000000,"state":"active","ping":121},{"user_id":1047,"name":"Ovr","steam_id":76561198405516708,"connected_time":934000000000,"state":"active","ping":85},{"user_id":1024,"name":"INFINITE","steam_id":76561197971285557,"connected_time":2110000000000,"state":"active","ping":120},{"user_id":938,"name":"pickle","steam_id":76561198115269587,"connected_time":8578000000000,"state":"active","ping":115},{"user_id":1054,"name":"SilverBowz","steam_id":76561198126840894,"connected_time":724000000000,"state":"active","ping":207},{"user_id":958,"name":"Chemo","steam_id":76561197961308370,"connected_time":6592000000000,"state":"active","ping":127},{"user_id":1019,"name":"High Medic","steam_id":76561198082405984,"connected_time":2345000000000,"state":"active","ping":112},{"user_id":975,"name":"Kuma","steam_id":76561199100813140,"connected_time":5685000000000,"state":"active","ping":85},{"user_id":1056,"name":"SpagetDrive","steam_id":76561198447015579,"connected_time":634000000000,"state":"active","ping":135},{"user_id":1013,"name":"personal taco trainer","steam_id":76561198064260235,"connected_time":2717000000000,"state":"active","ping":108},{"user_id":1037,"name":"Brad Goodman","steam_id":76561198138465052,"connected_time":1510000000000,"state":"active","ping":83},{"user_id":1021,"name":"tannerjacobs2010","steam_id":76561198269253587,"connected_time":2291000000000,"state":"active","ping":64},{"user_id":1039,"name":"Illinois James","steam_id":76561198010228810,"connected_time":1450000000000,"state":"active","ping":103}]},{"server_id":119,"name":"Uncletopia | Seattle | 2 | All Maps","name_short":"sea-2","host":"sea-1.us.uncletopia.com","port":27025,"enabled":true,"region":"us-west","cc":"us","latitude":47.608013,"longitude":-122.33517,"reserved":0,"last_update":"0001-01-01T00:00:00Z","name_a2s":"Uncletopia | Seattle | 2 | All Maps","protocol":17,"map":"pl_frontier_final","folder":"tf","game":"Team Fortress","app_id":440,"player_count":24,"max_players":24,"Bots":0,"server_type":"Dedicated","server_os":"Linux","password":true,"vac":true,"version":"7757534","steam_id":85568392924469998,"keywords":["nocrits","nodmgspread","payload","uncletopia"],"game_id":440,"stv_port":27026,"stv_name":"Uncletopia | Seattle | 2 | All Maps | STV","players":[{"user_id":965,"name":"Vailat","steam_id":76561199208904949,"connected_time":2226000000000,"state":"active","ping":127},{"user_id":970,"name":"chicken wit dah eggrow","steam_id":76561198115458307,"connected_time":1480000000000,"state":"active","ping":76},{"user_id":985,"name":"Noname","steam_id":76561197971192396,"connected_time":634000000000,"state":"active","ping":121},{"user_id":981,"name":"Glazed","steam_id":76561198043020404,"connected_time":757000000000,"state":"active","ping":77},{"user_id":973,"name":"abobobini","steam_id":76561198024307311,"connected_time":1233000000000,"state":"active","ping":74},{"user_id":991,"name":"Tiny Microwave Quiches :3","steam_id":76561198025463423,"connected_time":325000000000,"state":"active","ping":87},{"user_id":969,"name":"Rick Assley","steam_id":76561198365019199,"connected_time":1728000000000,"state":"active","ping":130},{"user_id":946,"name":"Little Linguine","steam_id":76561198816986370,"connected_time":3699000000000,"state":"active","ping":117},{"user_id":992,"name":"Super","steam_id":76561199179611350,"connected_time":213000000000,"state":"active","ping":129},{"user_id":951,"name":"HAT-WEARING‚Ñ¢ Maggot Gamer Cat","steam_id":76561197973992705,"connected_time":3432000000000,"state":"active","ping":81},{"user_id":988,"name":"psychic","steam_id":76561198136301926,"connected_time":428000000000,"state":"active","ping":75},{"user_id":928,"name":"Akers","steam_id":76561198181793815,"connected_time":4375000000000,"state":"active","ping":143},{"user_id":947,"name":"marcie","steam_id":76561198068972567,"connected_time":3585000000000,"state":"active","ping":55},{"user_id":989,"name":"Aqua Tofana","steam_id":76561198351183381,"connected_time":418000000000,"state":"active","ping":56},{"user_id":977,"name":"Aspiring Engie Player(F2p)","steam_id":76561199388826335,"connected_time":871000000000,"state":"active","ping":139},{"user_id":990,"name":"PASTA OPRESSOR","steam_id":76561198281612642,"connected_time":407000000000,"state":"active","ping":53},{"user_id":959,"name":"HollowSparkiie","steam_id":76561198148922284,"connected_time":2886000000000,"state":"active","ping":102},{"user_id":964,"name":"KingFria","steam_id":76561198068323872,"connected_time":2372000000000,"state":"active","ping":62},{"user_id":979,"name":"pilot","steam_id":76561198119582268,"connected_time":837000000000,"state":"active","ping":133},{"user_id":938,"name":"Larry","steam_id":76561198005056455,"connected_time":4008000000000,"state":"active","ping":75},{"user_id":939,"name":"huh","steam_id":76561198102265073,"connected_time":4003000000000,"state":"active","ping":84},{"user_id":980,"name":"Ansuz();","steam_id":76561198260732135,"connected_time":790000000000,"state":"active","ping":81},{"user_id":972,"name":" Ä.Íï§ÔΩ°.","steam_id":76561198029580420,"connected_time":1348000000000,"state":"active","ping":169},{"user_id":956,"name":"Discourse","steam_id":76561198984286678,"connected_time":3243000000000,"state":"active","ping":104}]},{"server_id":406,"name":"Uncletopia | Seattle | 3 | Stopwatch Beta","name_short":"sea-3","host":"sea-1.us.uncletopia.com","port":27035,"enabled":true,"region":"us-west","cc":"us","latitude":47.608013,"longitude":-122.33517,"reserved":0,"last_update":"0001-01-01T00:00:00Z","name_a2s":"Uncletopia | Seattle | 3 | Stopwatch Beta","protocol":17,"map":"workshop/koth_product_final.ugc454272353","folder":"tf","game":"Team Fortress","app_id":440,"player_count":0,"max_players":24,"Bots":0,"server_type":"Dedicated","server_os":"Linux","password":true,"vac":true,"version":"7757534","steam_id":85568392924515217,"keywords":["cp","nocrits","nodmgspread","uncletopia"],"game_id":440,"stv_port":27036,"stv_name":"Uncletopia | Seattle | 3 | Stopwatch Beta | STV","players":null},{"server_id":17,"name":"Uncletopia | San Francisco | 1 | All Maps","name_short":"sfo-1","host":"sfo-1.us.uncletopia.com","port":27015,"enabled":true,"region":"us-west","cc":"us","latitude":37.77397,"longitude":-122.4313,"reserved":0,"last_update":"0001-01-01T00:00:00Z","name_a2s":"Uncletopia | San Francisco | 1 | All Maps","protocol":17,"map":"koth_cascade","folder":"tf","game":"Team Fortress","app_id":440,"player_count":0,"max_players":24,"Bots":0,"server_type":"Dedicated","server_os":"Linux","password":true,"vac":true,"version":"7757534","steam_id":85568392924469999,"keywords":["cp","nocrits","nodmgspread","uncletopia"],"game_id":440,"stv_port":27016,"stv_name":"Uncletopia | San Francisco | 1 | All Maps | STV","players":null},{"server_id":18,"name":"Uncletopia | San Francisco | 2 | All Maps","name_short":"sfo-2","host":"sfo-1.us.uncletopia.com","port":27025,"enabled":true,"region":"us-west","cc":"us","latitude":37.77397,"longitude":-122.4313,"reserved":0,"last_update":"0001-01-01T00:00:00Z","name_a2s":"Uncletopia | San Francisco | 2 | All Maps","protocol":17,"map":"cp_dustbowl","folder":"tf","game":"Team Fortress","app_id":440,"player_count":0,"max_players":24,"Bots":0,"server_type":"Dedicated","server_os":"Linux","password":true,"vac":true,"version":"7757534","steam_id":85568392924470000,"keywords":["cp","nocrits","nodmgspread","uncletopia"],"game_id":440,"stv_port":27026,"stv_name":"Uncletopia | San Francisco | 2 | All Maps | STV","players":null},{"server_id":19,"name":"Uncletopia | San Francisco | 3 | Stopwatch Beta","name_short":"sfo-3","host":"sfo-1.us.uncletopia.com","port":27035,"enabled":true,"region":"us-west","cc":"us","latitude":37.77397,"longitude":-122.4313,"reserved":0,"last_update":"0001-01-01T00:00:00Z","name_a2s":"Uncletopia | San Francisco | 3 | Stopwatch Beta","protocol":17,"map":"pl_borneo","folder":"tf","game":"Team Fortress","app_id":440,"player_count":0,"max_players":24,"Bots":0,"server_type":"Dedicated","server_os":"Linux","password":true,"vac":true,"version":"7757534","steam_id":85568392924742824,"keywords":["nocrits","nodmgspread","payload","uncletopia"],"game_id":440,"stv_port":27036,"stv_name":"Uncletopia | San Francisco | 3 | Stopwatch Beta | STV","players":null},{"server_id":20,"name":"Uncletopia | San Francisco | 4 | Community","name_short":"sfo-4","host":"sfo-1.us.uncletopia.com","port":27045,"enabled":true,"region":"us-west","cc":"us","latitude":37.77397,"longitude":-122.4313,"reserved":0,"last_update":"0001-01-01T00:00:00Z","name_a2s":"Uncletopia | San Francisco | 4 | Community","protocol":17,"map":"workshop/koth_bagel_rc5.ugc2514036946","folder":"tf","game":"Team Fortress","app_id":440,"player_count":0,"max_players":24,"Bots":0,"server_type":"Dedicated","server_os":"Linux","password":true,"vac":true,"version":"7757534","steam_id":85568392924742826,"keywords":["cp","nocrits","nodmgspread","uncletopia"],"game_id":440,"stv_port":27046,"stv_name":"Uncletopia | San Francisco | 4 | Community | STV","players":null},{"server_id":141,"name":"Uncletopia | Sydney | 1 | All Maps","name_short":"syd-1","host":"syd-1.au.uncletopia.com","port":27015,"enabled":true,"region":"au","cc":"au","latitude":-33.865143,"longitude":151.2099,"reserved":0,"last_update":"0001-01-01T00:00:00Z","name_a2s":"Uncletopia | Sydney | 1 | All Maps","protocol":17,"map":"cp_dustbowl","folder":"tf","game":"Team Fortress","app_id":440,"player_count":0,"max_players":24,"Bots":0,"server_type":"Dedicated","server_os":"Linux","password":true,"vac":true,"version":"7757534","steam_id":85568392924470001,"keywords":["cp","nocrits","nodmgspread","uncletopia"],"game_id":440,"stv_port":27016,"stv_name":"Uncletopia | Sydney | 1 | All Maps | STV","players":null},{"server_id":123,"name":"Uncletopia | Sydney | 2 | All Maps","name_short":"syd-2","host":"syd-1.au.uncletopia.com","port":27025,"enabled":true,"region":"au","cc":"au","latitude":-33.865143,"longitude":151.2099,"reserved":0,"last_update":"0001-01-01T00:00:00Z","name_a2s":"Uncletopia | Sydney | 2 | All Maps","protocol":17,"map":"pl_frontier_final","folder":"tf","game":"Team Fortress","app_id":440,"player_count":21,"max_players":24,"Bots":0,"server_type":"Dedicated","server_os":"Linux","password":true,"vac":true,"version":"7757534","steam_id":85568392924470002,"keywords":["nocrits","nodmgspread","payload","uncletopia"],"game_id":440,"stv_port":27026,"stv_name":"Uncletopia | Sydney | 2 | All Maps | STV","players":[{"user_id":381,"name":"Doctor Estonia","steam_id":76561198057365089,"connected_time":1896000000000,"state":"active","ping":99},{"user_id":409,"name":"Pizzaray","steam_id":76561198005075102,"connected_time":135000000000,"state":"active","ping":32},{"user_id":367,"name":"Distracted Chibi","steam_id":76561198033546650,"connected_time":3796000000000,"state":"active","ping":45},{"user_id":360,"name":"ben","steam_id":76561198223331996,"connected_time":5151000000000,"state":"active","ping":66},{"user_id":387,"name":"mathgeniuswhocares","steam_id":76561198293036993,"connected_time":1590000000000,"state":"active","ping":40},{"user_id":376,"name":"ps2 nishiki","steam_id":76561198958322621,"connected_time":2919000000000,"state":"active","ping":109},{"user_id":401,"name":"MikkyD","steam_id":76561198043452962,"connected_time":699000000000,"state":"active","ping":62},{"user_id":394,"name":"Jex","steam_id":76561198296071105,"connected_time":1219000000000,"state":"active","ping":49},{"user_id":402,"name":"XenoConroy","steam_id":76561198299737803,"connected_time":611000000000,"state":"active","ping":58},{"user_id":379,"name":"T0vex","steam_id":76561198127222589,"connected_time":2344000000000,"state":"active","ping":74},{"user_id":371,"name":"Empr","steam_id":76561198024387396,"connected_time":3388000000000,"state":"active","ping":61},{"user_id":404,"name":"bangerlop","steam_id":76561199349993627,"connected_time":294000000000,"state":"active","ping":148},{"user_id":362,"name":"( Õ°¬∞ Õú ñ Õ°¬∞)","steam_id":76561199262196710,"connected_time":4665000000000,"state":"active","ping":42},{"user_id":392,"name":"hobo","steam_id":76561199046481213,"connected_time":1311000000000,"state":"active","ping":69},{"user_id":385,"name":"soupy","steam_id":76561198073734936,"connected_time":1657000000000,"state":"active","ping":90},{"user_id":354,"name":"Lincoln2603","steam_id":76561198170236666,"connected_time":5780000000000,"state":"active","ping":30},{"user_id":411,"name":"Azzy","steam_id":76561198096245286,"connected_time":73000000000,"state":"active","ping":51},{"user_id":408,"name":"steame17","steam_id":76561199387872784,"connected_time":158000000000,"state":"active","ping":176},{"user_id":388,"name":"LordCheese","steam_id":76561198294202833,"connected_time":1579000000000,"state":"active","ping":56},{"user_id":393,"name":"xd","steam_id":76561198302670452,"connected_time":1267000000000,"state":"active","ping":54},{"user_id":391,"name":"Mouse Balls","steam_id":76561199037470627,"connected_time":1452000000000,"state":"active","ping":104}]},{"server_id":395,"name":"Uncletopia | Sydney | 3 | All Maps","name_short":"syd-3","host":"syd-1.au.uncletopia.com","port":27035,"enabled":true,"region":"au","cc":"au","latitude":-33.865143,"longitude":151.2099,"reserved":0,"last_update":"0001-01-01T00:00:00Z","name_a2s":"Uncletopia | Sydney | 3 | All Maps","protocol":17,"map":"cp_altitude","folder":"tf","game":"Team Fortress","app_id":440,"player_count":0,"max_players":24,"Bots":0,"server_type":"Dedicated","server_os":"Linux","password":true,"vac":true,"version":"7757534","steam_id":85568392925194467,"keywords":["cp","nocrits","nodmgspread","uncletopia"],"game_id":440,"stv_port":27036,"stv_name":"Uncletopia | Sydney | 3 | All Maps | STV","players":null},{"server_id":396,"name":"Uncletopia | Sydney | 4 | All Maps","name_short":"syd-4","host":"syd-1.au.uncletopia.com","port":27045,"enabled":true,"region":"au","cc":"au","latitude":-33.865143,"longitude":151.2099,"reserved":0,"last_update":"0001-01-01T00:00:00Z","name_a2s":"Uncletopia | Sydney | 4 | All Maps","protocol":17,"map":"koth_viaduct","folder":"tf","game":"Team Fortress","app_id":440,"player_count":0,"max_players":24,"Bots":0,"server_type":"Dedicated","server_os":"Linux","password":true,"vac":true,"version":"7757534","steam_id":85568392925397958,"keywords":["cp","nocrits","nodmgspread","uncletopia"],"game_id":440,"stv_port":27046,"stv_name":"Uncletopia | Sydney | 4 | All Maps | STV","players":null},{"server_id":58,"name":"Uncletopia | Sydney | 5 | Stopwatch Beta","name_short":"syd-5","host":"syd-1.au.uncletopia.com","port":27055,"enabled":true,"region":"au","cc":"au","latitude":-33.865143,"longitude":151.2099,"reserved":0,"last_update":"0001-01-01T00:00:00Z","name_a2s":"Uncletopia | Sydney | 5 | Stopwatch Beta","protocol":17,"map":"workshop/koth_ramjam_rc1.ugc459778887","folder":"tf","game":"Team Fortress","app_id":440,"player_count":0,"max_players":24,"Bots":0,"server_type":"Dedicated","server_os":"Linux","password":true,"vac":true,"version":"7757534","steam_id":85568392925397959,"keywords":["cp","nocrits","nodmgspread","uncletopia"],"game_id":440,"stv_port":27056,"stv_name":"Uncletopia | Sydney | 5 | Stopwatch Beta | STV","players":null},{"server_id":59,"name":"Uncletopia | Sydney | 6 | Community","name_short":"syd-6","host":"syd-1.au.uncletopia.com","port":27065,"enabled":true,"region":"au","cc":"au","latitude":-33.865143,"longitude":151.2099,"reserved":0,"last_update":"0001-01-01T00:00:00Z","name_a2s":"Uncletopia | Sydney | 6 | Community","protocol":17,"map":"cp_sunshine","folder":"tf","game":"Team Fortress","app_id":440,"player_count":0,"max_players":24,"Bots":0,"server_type":"Dedicated","server_os":"Linux","password":true,"vac":true,"version":"7757534","steam_id":85568392925397960,"keywords":["cp","nocrits","nodmgspread","uncletopia"],"game_id":440,"stv_port":27066,"stv_name":"Uncletopia | Sydney | 6 | Community | STV","players":null},{"server_id":49,"name":"Uncletopia | Warsaw | 1 | All Maps","name_short":"waw-1","host":"waw-1.pl.uncletopia.com","port":27015,"enabled":true,"region":"eu","cc":"pl","latitude":52.2297,"longitude":21.017532,"reserved":0,"last_update":"0001-01-01T00:00:00Z","name_a2s":"","protocol":0,"map":"","folder":"","game":"","app_id":0,"player_count":0,"max_players":0,"Bots":0,"server_type":"","server_os":"","password":false,"vac":false,"version":"","steam_id":0,"keywords":null,"game_id":0,"stv_port":0,"stv_name":"","players":null},{"server_id":50,"name":"Uncletopia | Warsaw | 2 | All Maps","name_short":"waw-2","host":"waw-1.pl.uncletopia.com","port":27025,"enabled":true,"region":"eu","cc":"pl","latitude":52.2297,"longitude":21.017532,"reserved":0,"last_update":"0001-01-01T00:00:00Z","name_a2s":"Uncletopia | Warsaw | 2 | All Maps","protocol":17,"map":"koth_viaduct","folder":"tf","game":"Team Fortress","app_id":440,"player_count":0,"max_players":24,"Bots":0,"server_type":"Dedicated","server_os":"Linux","password":true,"vac":true,"version":"7757534","steam_id":85568392925397851,"keywords":["cp","nocrits","nodmgspread","uncletopia"],"game_id":440,"stv_port":27026,"stv_name":"Uncletopia | Warsaw | 2 | All Maps | STV","players":null},{"server_id":51,"name":"Uncletopia | Warsaw | 3 | All Maps","name_short":"waw-3","host":"waw-1.pl.uncletopia.com","port":27035,"enabled":true,"region":"eu","cc":"pl","latitude":52.2297,"longitude":21.017532,"reserved":0,"last_update":"0001-01-01T00:00:00Z","name_a2s":"Uncletopia | Warsaw | 3 | All Maps","protocol":17,"map":"pl_barnblitz","folder":"tf","game":"Team Fortress","app_id":440,"player_count":0,"max_players":24,"Bots":0,"server_type":"Dedicated","server_os":"Linux","password":true,"vac":true,"version":"7757534","steam_id":85568392925397852,"keywords":["nocrits","nodmgspread","payload","uncletopia"],"game_id":440,"stv_port":27036,"stv_name":"Uncletopia | Warsaw | 3 | All Maps | STV","players":null},{"server_id":52,"name":"Uncletopia | Warsaw | 4 | All Maps","name_short":"waw-4","host":"waw-1.pl.uncletopia.com","port":27045,"enabled":true,"region":"eu","cc":"pl","latitude":52.2297,"longitude":21.017532,"reserved":0,"last_update":"0001-01-01T00:00:00Z","name_a2s":"Uncletopia | Warsaw | 4 | All Maps","protocol":17,"map":"pl_snowycoast","folder":"tf","game":"Team Fortress","app_id":440,"player_count":0,"max_players":24,"Bots":0,"server_type":"Dedicated","server_os":"Linux","password":true,"vac":true,"version":"7757534","steam_id":85568392925397853,"keywords":["nocrits","nodmgspread","payload","uncletopia"],"game_id":440,"stv_port":27046,"stv_name":"Uncletopia | Warsaw | 4 | All Maps | STV","players":null},{"server_id":53,"name":"Uncletopia | Warsaw | 5 | Stopwatch Beta","name_short":"waw-5","host":"waw-1.pl.uncletopia.com","port":27055,"enabled":true,"region":"eu","cc":"pl","latitude":52.2297,"longitude":21.017532,"reserved":0,"last_update":"0001-01-01T00:00:00Z","name_a2s":"Uncletopia | Warsaw | 5 | Stopwatch Beta","protocol":17,"map":"pl_barnblitz","folder":"tf","game":"Team Fortress","app_id":440,"player_count":0,"max_players":24,"Bots":0,"server_type":"Dedicated","server_os":"Linux","password":true,"vac":true,"version":"7757534","steam_id":85568392925397854,"keywords":["nocrits","nodmgspread","payload","uncletopia"],"game_id":440,"stv_port":27056,"stv_name":"Uncletopia | Warsaw | 5 | Stopwatch Beta | STV","players":null},{"server_id":54,"name":"Uncletopia | Warsaw | 6 | Community","name_short":"waw-6","host":"waw-1.pl.uncletopia.com","port":27065,"enabled":true,"region":"eu","cc":"pl","latitude":52.2297,"longitude":21.017532,"reserved":0,"last_update":"0001-01-01T00:00:00Z","name_a2s":"Uncletopia | Warsaw | 6 | Community","protocol":17,"map":"pl_swiftwater_final1","folder":"tf","game":"Team Fortress","app_id":440,"player_count":0,"max_players":24,"Bots":0,"server_type":"Dedicated","server_os":"Linux","password":true,"vac":true,"version":"7757534","steam_id":85568392925397856,"keywords":["nocrits","nodmgspread","payload","uncletopia"],"game_id":440,"stv_port":27066,"stv_name":"Uncletopia | Warsaw | 6 | Community | STV","players":null}]}