{"status":true,"message":"","result":[{"server_id":9,"name":"Uncletopia | Atlanta | 1 | All Maps","name_short":"atl-1","host":"atl-1.us.uncletopia.com","port":27015,"enabled":true,"region":"us-east","cc":"us","latitude":33.753746,"longitude":-84.38633,"reserved":0,"last_update":"0001-01-01T00:00:00Z","name_a2s":"Uncletopia | Atlanta | 1 | All Maps","protocol":17,"map":"cp_gorge","folder":"tf","game":"Team Fortress","app_id":440,"player_count":24,"max_players":24,"Bots":0,"server_type":"Dedicated","server_os":"Linux","password":true,"vac":true,"version":"7961495","steam_id":85568392924469982,"keywords":["cp","nocrits","nodmgspread","uncletopia"],"game_id":440,"stv_port":27016,"stv_name":"Uncletopia | Atlanta | 1 | All Maps | STV","players":[{"user_id":689,"name":"Cheese","steam_id":76561199435683727,"connected_time":2514000000000,"state":"active","ping":165},{"user_id":701,"name":"MexicanTortilla","steam_id":76561198195872719,"connected_time":2167000000000,"state":"active","ping":125},{"user_id":713,"name":"a highly probable flip","steam_id":76561198045964573,"connected_time":237000000000,"state":"active","ping":91},{"user_id":707,"name":"Bunt","steam_id":76561198124477567,"connected_time":1314000000000,"state":"active","ping":40},{"user_id":717,"name":"Charlie","steam_id":76561199098209171,"connected_time":2000000000,"state":"spawning","ping":55},{"user_id":709,"name":"ballmuncher29","steam_id":76561199122915452,"connected_time":1173000000000,"state":"active","ping":113},{"user_id":716,"name":"Kiphus","steam_id":76561198025289407,"connected_time":104000000000,"state":"active","ping":61},{"user_id":715,"name":"PickleHater13","steam_id":76561198259380127,"connected_time":167000000000,"state":"active","ping":77},{"user_id":708,"name":"Mintchacolate","steam_id":76561198058011580,"connected_time":1286000000000,"state":"active","ping":59},{"user_id":706,"name":"DerpMan107","steam_id":76561198131507408,"connected_time":1662000000000,"state":"active","ping":81},{"user_id":678,"name":"gallowsCalibrator","steam_id":76561198404707578,"connected_time":3100000000000,"state":"active","ping":55},{"user_id":680,"name":"zoey","steam_id":76561198084679526,"connected_time":2917000000000,"state":"active","ping":65},{"user_id":691,"name":"Cabbage","steam_id":76561198405573530,"connected_time":2483000000000,"state":"active","ping":66},{"user_id":681,"name":"Generic","steam_id":76561198092579482,"connected_time":2900000000000,"state":"active","ping":61},{"user_id":682,"name":"FinalFlash9000","steam_id":76561199092775051,"connected_time":2835000000000,"state":"active","ping":71},{"user_id":692,"name":"jek","steam_id":76561198097816136,"connected_time":2477000000000,"state":"active","ping":48},{"user_id":684,"name":"saucy jack","steam_id":76561198307012859,"connected_time":2701000000000,"state":"active","ping":106},{"user_id":698,"name":"robot with human hair","steam_id":76561198018691308,"connected_time":2316000000000,"state":"active","ping":90},{"user_id":710,"name":"Theoktistos","steam_id":76561198930868567,"connected_time":1094000000000,"state":"active","ping":82},{"user_id":686,"name":"Scrux","steam_id":76561198129763115,"connected_time":2656000000000,"state":"active","ping":87},{"user_id":695,"name":"Doctorking9","steam_id":76561198124418360,"connected_time":2396000000000,"state":"active","ping":92},{"user_id":696,"name":"Cecilian","steam_id":76561198092582478,"connected_time":2380000000000,"state":"active","ping":57},{"user_id":712,"name":"paetho YT","steam_id":76561198152690003,"connected_time":484000000000,"state":"active","ping":48},{"user_id":700,"name":"Mad{}Mouse","steam_id":76561198162576354,"connected_time":2278000000000,"state":"active","ping":77}]},{"server_id":104,"name":"Uncletopia | Atlanta | 2 | All Maps","name_short":"atl-2","host":"atl-1.us.uncletopia.com","port":27025,"enabled":true,"region":"us-east","cc":"us","latitude":33.753746,"longitude":-84.38633,"reserved":0,"last_update":"0001-01-01T00:00:00Z","name_a2s":"Uncletopia | Atlanta | 2 | All Maps","protocol":17,"map":"pl_thundermountain","folder":"tf","game":"Team Fortress","app_id":440,"player_count":17,"max_players":24,"Bots":0,"server_type":"Dedicated","server_os":"Linux","password":true,"vac":true,"version":"7961495","steam_id":85568392924469983,"keywords":["nocrits","nodmgspread","payload","uncletopia"],"game_id":440,"stv_port":27026,"stv_name":"Uncletopia | Atlanta | 2 | All Maps | STV","players":[{"user_id":576,"name":"Oopsie Daisy ❋","steam_id":76561198042144492,"connected_time":372000000000,"state":"active","ping":45},{"user_id":580,"name":"Sentry Food","steam_id":76561198042926224,"connected_time":94000000000,"state":"active","ping":54},{"user_id":553,"name":"The Brain Fuckler","steam_id":76561198042601093,"connected_time":1154000000000,"state":"active","ping":75},{"user_id":549,"name":"Wey","steam_id":76561198089235065,"connected_time":1326000000000,"state":"active","ping":89},{"user_id":581,"name":"Fargo","steam_id":76561198044703931,"connected_time":65000000000,"state":"active","ping":75},{"user_id":575,"name":"Lost","steam_id":76561198025933206,"connected_time":422000000000,"state":"active","ping":75},{"user_id":552,"name":"Bee's","steam_id":76561198041888432,"connected_time":1156000000000,"state":"active","ping":82},{"user_id":577,"name":"He rolls his own","steam_id":76561198058162684,"connected_time":275000000000,"state":"active","ping":68},{"user_id":516,"name":"opossum","steam_id":76561198148905570,"connected_time":4462000000000,"state":"active","ping":61},{"user_id":572,"name":"Darkshadows","steam_id":76561198051424894,"connected_time":528000000000,"state":"active","ping":104},{"user_id":570,"name":"closet heater","steam_id":76561198216487540,"connected_time":628000000000,"state":"active","ping":103},{"user_id":559,"name":"Umevol","steam_id":76561198082943489,"connected_time":997000000000,"state":"active","ping":94},{"user_id":560,"name":"obliterator4","steam_id":76561198895046335,"connected_time":991000000000,"state":"active","ping":90},{"user_id":543,"name":"twinbl0ck","steam_id":76561198157414556,"connected_time":2271000000000,"state":"active","ping":54},{"user_id":561,"name":"Curious virgin","steam_id":76561198067751541,"connected_time":906000000000,"state":"active","ping":71},{"user_id":579,"name":"Papa Smoke","steam_id":76561198181348206,"connected_time":223000000000,"state":"active","ping":60},{"user_id":564,"name":"ShadowFlame","steam_id":76561198323525966,"connected_time":848000000000,"state":"active","ping":89}]},{"server_id":400,"name":"Uncletopia | Atlanta | 3 | Stopwatch","name_short":"atl-3","host":"atl-1.us.uncletopia.com","port":27035,"enabled":true,"region":"us-east","cc":"us","latitude":33.753746,"longitude":-84.38633,"reserved":0,"last_update":"0001-01-01T00:00:00Z","name_a2s":"Uncletopia | Atlanta | 3 | Stopwatch","protocol":17,"map":"pl_borneo","folder":"tf","game":"Team Fortress","app_id":440,"player_count":0,"max_players":24,"Bots":0,"server_type":"Dedicated","server_os":"Linux","password":true,"vac":true,"version":"7961495","steam_id":85568392924515187,"keywords":["nocrits","nodmgspread","payload","uncletopia"],"game_id":440,"stv_port":27036,"stv_name":"Uncletopia | Atlanta | 3 | Stopwatch | STV","players":null},{"server_id":401,"name":"Uncletopia | Atlanta | 4 | Community","name_short":"atl-4","host":"atl-1.us.uncletopia.com","port":27045,"enabled":true,"region":"us-east","cc":"us","latitude":33.753746,"longitude":-84.38633,"reserved":0,"last_update":"0001-01-01T00:00:00Z","name_a2s":"Uncletopia | Atlanta | 4 | Community","protocol":17,"map":"workshop/koth_kemptown_rc1.ugc767410655","folder":"tf","game":"Team Fortress","app_id":440,"player_count":0,"max_players":24,"Bots":0,"server_type":"Dedicated","server_os":"Linux","password":true,"vac":true,"version":"7961495","steam_id":85568392924515188,"keywords":["cp","nocrits","nodmgspread","uncletopia"],"game_id":440,"stv_port":27046,"stv_name":"Uncletopia | Atlanta | 4 | Community | STV","players":null},{"server_id":2,"name":"Uncletopia | Chicago | 1 | All Maps","name_short":"chi-1","host":"chi-1.us.uncletopia.com","port":27015,"enabled":true,"region":"us-central","cc":"us","latitude":41.881832,"longitude":-87.62318,"reserved":0,"last_update":"0001-01-01T00:00:00Z","name_a2s":"Uncletopia | Chicago | 1 | All Maps","protocol":17,"map":"cp_sunshine","folder":"tf","game":"Team Fortress","app_id":440,"player_count":17,"max_players":24,"Bots":0,"server_type":"Dedicated","server_os":"Linux","password":true,"vac":true,"version":"7961495","steam_id":85568392924469984,"keywords":["cp","nocrits","nodmgspread","uncletopia"],"game_id":440,"stv_port":27016,"stv_name":"Uncletopia | Chicago | 1 | All Maps | STV","players":[{"user_id":674,"name":"Passionate Map Researcher","steam_id":76561199490508357,"connected_time":484000000000,"state":"active","ping":62},{"user_id":639,"name":"Bubby Koromon the 4rd","steam_id":76561198398729993,"connected_time":3414000000000,"state":"active","ping":75},{"user_id":682,"name":"stormfoam","steam_id":76561198936871387,"connected_time":94000000000,"state":"active","ping":60},{"user_id":675,"name":"Pongallow","steam_id":76561198146876078,"connected_time":458000000000,"state":"active","ping":44},{"user_id":680,"name":"Elias","steam_id":76561198106431732,"connected_time":232000000000,"state":"active","ping":59},{"user_id":654,"name":"Xuri","steam_id":76561198267331108,"connected_time":2419000000000,"state":"active","ping":44},{"user_id":637,"name":"High King of Hoodoo","steam_id":76561198299094088,"connected_time":3444000000000,"state":"active","ping":62},{"user_id":677,"name":"Raccoon Wizard","steam_id":76561198072562591,"connected_time":443000000000,"state":"active","ping":61},{"user_id":667,"name":"GoodleShoes/ttv","steam_id":76561198030993521,"connected_time":1198000000000,"state":"active","ping":60},{"user_id":632,"name":"KhorneBread ︻デ 一","steam_id":76561198097069958,"connected_time":3960000000000,"state":"active","ping":71},{"user_id":666,"name":"Bunner","steam_id":76561198074464842,"connected_time":1221000000000,"state":"active","ping":105},{"user_id":681,"name":"Watt Dafuq","steam_id":76561198194402925,"connected_time":141000000000,"state":"active","ping":82},{"user_id":658,"name":"MonsterHunter","steam_id":76561198146118010,"connected_time":2169000000000,"state":"active","ping":82},{"user_id":672,"name":"Minimite","steam_id":76561198119628940,"connected_time":755000000000,"state":"active","ping":66},{"user_id":618,"name":"Comradical","steam_id":76561197990808285,"connected_time":6021000000000,"state":"active","ping":59},{"user_id":648,"name":"Eugene Thaddeus Hinkle V","steam_id":76561198821535846,"connected_time":3179000000000,"state":"active","ping":56},{"user_id":663,"name":"Toxic Mercenary","steam_id":76561197988501611,"connected_time":1725000000000,"state":"active","ping":69}]},{"server_id":106,"name":"Uncletopia | Chicago | 2 | All Maps","name_short":"chi-2","host":"chi-1.us.uncletopia.com","port":27025,"enabled":true,"region":"us-central","cc":"us","latitude":41.881832,"longitude":-87.62318,"reserved":0,"last_update":"0001-01-01T00:00:00Z","name_a2s":"Uncletopia | Chicago | 2 | All Maps","protocol":17,"map":"koth_highpass","folder":"tf","game":"Team Fortress","app_id":440,"player_count":24,"max_players":24,"Bots":0,"server_type":"Dedicated","server_os":"Linux","password":true,"vac":true,"version":"7961495","steam_id":85568392924469985,"keywords":["cp","nocrits","nodmgspread","uncletopia"],"game_id":440,"stv_port":27026,"stv_name":"Uncletopia | Chicago | 2 | All Maps | STV","players":[{"user_id":917,"name":"The Pug","steam_id":76561198067827959,"connected_time":100000000000,"state":"active","ping":69},{"user_id":860,"name":"-Spîdêr-","steam_id":76561198064531248,"connected_time":5276000000000,"state":"active","ping":81},{"user_id":916,"name":"Ruby","steam_id":76561198053335880,"connected_time":176000000000,"state":"active","ping":74},{"user_id":912,"name":"SteveC","steam_id":76561197994786195,"connected_time":330000000000,"state":"active","ping":66},{"user_id":861,"name":"Liminality","steam_id":76561198002601402,"connected_time":5270000000000,"state":"active","ping":93},{"user_id":918,"name":"dserv789","steam_id":76561199496842836,"connected_time":76000000000,"state":"active","ping":183},{"user_id":849,"name":"yuumi...! ♡","steam_id":76561198084708100,"connected_time":5855000000000,"state":"active","ping":88},{"user_id":891,"name":"Gaming is for girls","steam_id":76561198401725755,"connected_time":2779000000000,"state":"active","ping":45},{"user_id":905,"name":"Shulgin_4-HO_MET","steam_id":76561198038784254,"connected_time":1138000000000,"state":"active","ping":42},{"user_id":876,"name":"tome123","steam_id":76561198078206722,"connected_time":4243000000000,"state":"active","ping":98},{"user_id":881,"name":"9gon Danmar33","steam_id":76561198056453091,"connected_time":4042000000000,"state":"active","ping":47},{"user_id":887,"name":"runescape legend","steam_id":76561198077791373,"connected_time":3300000000000,"state":"active","ping":53},{"user_id":904,"name":"O.G. C.E.O","steam_id":76561198063928325,"connected_time":1326000000000,"state":"active","ping":45},{"user_id":795,"name":"HundchenTanque","steam_id":76561198122692754,"connected_time":9448000000000,"state":"active","ping":59},{"user_id":908,"name":"Zesty Zucchini Ziti","steam_id":76561198092494136,"connected_time":945000000000,"state":"active","ping":88},{"user_id":913,"name":"uranium","steam_id":76561198836802899,"connected_time":324000000000,"state":"active","ping":167},{"user_id":914,"name":"joseph stalin","steam_id":76561199230441293,"connected_time":319000000000,"state":"active","ping":73},{"user_id":839,"name":"mohamy_19","steam_id":76561198075833698,"connected_time":6139000000000,"state":"active","ping":75},{"user_id":915,"name":"uufyfuu","steam_id":76561198142787212,"connected_time":307000000000,"state":"active","ping":77},{"user_id":910,"name":"lukamine","steam_id":76561198166827208,"connected_time":922000000000,"state":"active","ping":91},{"user_id":894,"name":"sock","steam_id":76561198278457431,"connected_time":2653000000000,"state":"active","ping":78},{"user_id":919,"name":"frank","steam_id":76561198137777483,"connected_time":1000000000,"state":"spawning","ping":48},{"user_id":898,"name":"exa*✩‧₊˚","steam_id":76561198044511912,"connected_time":2548000000000,"state":"active","ping":94},{"user_id":850,"name":"Ashton","steam_id":76561198300590302,"connected_time":5849000000000,"state":"active","ping":57}]},{"server_id":402,"name":"Uncletopia | Chicago | 3 | All Maps","name_short":"chi-3","host":"chi-1.us.uncletopia.com","port":27035,"enabled":true,"region":"us-central","cc":"us","latitude":41.881832,"longitude":-87.62318,"reserved":0,"last_update":"0001-01-01T00:00:00Z","name_a2s":"Uncletopia | Chicago | 3 | All Maps","protocol":17,"map":"cp_sunshine","folder":"tf","game":"Team Fortress","app_id":440,"player_count":0,"max_players":24,"Bots":0,"server_type":"Dedicated","server_os":"Linux","password":true,"vac":true,"version":"7961495","steam_id":85568392924515191,"keywords":["cp","nocrits","nodmgspread","uncletopia"],"game_id":440,"stv_port":27036,"stv_name":"Uncletopia | Chicago | 3 | All Maps | STV","players":null},{"server_id":403,"name":"Uncletopia | Chicago | 4 | All Maps","name_short":"chi-4","host":"chi-1.us.uncletopia.com","port":27045,"enabled":true,"region":"us-central","cc":"us","latitude":41.881832,"longitude":-87.62318,"reserved":0,"last_update":"0001-01-01T00:00:00Z","name_a2s":"Uncletopia | Chicago | 4 | All Maps","protocol":17,"map":"cp_gravelpit","folder":"tf","game":"Team Fortress","app_id":440,"player_count":4,"max_players":24,"Bots":0,"server_type":"Dedicated","server_os":"Linux","password":true,"vac":true,"version":"7961495","steam_id":85568392924515193,"keywords":["cp","nocrits","nodmgspread","uncletopia"],"game_id":440,"stv_port":27046,"stv_name":"Uncletopia | Chicago | 4 | All Maps | STV","players":[{"user_id":421,"name":"ninety9dragonfly","steam_id":76561198363406983,"connected_time":896000000000,"state":"active","ping":96},{"user_id":424,"name":"❤Butr Bwed❤","steam_id":76561199028282690,"connected_time":764000000000,"state":"active","ping":74},{"user_id":403,"name":"Six Piece Chicken McNobody","steam_id":76561198129848222,"connected_time":3036000000000,"state":"active","ping":57},{"user_id":420,"name":"GamingJuice42","steam_id":76561198110469437,"connected_time":978000000000,"state":"active","ping":72}]},{"server_id":36,"name":"Uncletopia | Chicago | 5 | All Maps","name_short":"chi-5","host":"chi-2.us.uncletopia.com","port":27015,"enabled":true,"region":"us-central","cc":"us","latitude":41.881832,"longitude":-87.62318,"reserved":0,"last_update":"0001-01-01T00:00:00Z","name_a2s":"Uncletopia | Chicago | 5 | All Maps","protocol":17,"map":"koth_highpass","folder":"tf","game":"Team Fortress","app_id":440,"player_count":0,"max_players":24,"Bots":0,"server_type":"Dedicated","server_os":"Linux","password":true,"vac":true,"version":"7961495","steam_id":85568392924866362,"keywords":["cp","nocrits","nodmgspread","uncletopia"],"game_id":440,"stv_port":27016,"stv_name":"Uncletopia | Chicago | 5 | All Maps | STV","players":null},{"server_id":37,"name":"Uncletopia | Chicago | 6 | All Maps","name_short":"chi-6","host":"chi-2.us.uncletopia.com","port":27025,"enabled":true,"region":"us-central","cc":"us","latitude":41.881832,"longitude":-87.62318,"reserved":0,"last_update":"0001-01-01T00:00:00Z","name_a2s":"Uncletopia | Chicago | 6 | All Maps","protocol":17,"map":"cp_dustbowl","folder":"tf","game":"Team Fortress","app_id":440,"player_count":5,"max_players":24,"Bots":0,"server_type":"Dedicated","server_os":"Linux","password":true,"vac":true,"version":"7961495","steam_id":85568392924866363,"keywords":["cp","nocrits","nodmgspread","uncletopia"],"game_id":440,"stv_port":27026,"stv_name":"Uncletopia | Chicago | 6 | All Maps | STV","players":[{"user_id":427,"name":"base","steam_id":76561199031775779,"connected_time":1049000000000,"state":"active","ping":75},{"user_id":415,"name":"Esteban Delsin","steam_id":76561198433519639,"connected_time":2224000000000,"state":"active","ping":84},{"user_id":355,"name":"ATLS1 | Strange Festive","steam_id":76561198050385093,"connected_time":7844000000000,"state":"active","ping":60},{"user_id":406,"name":"fish","steam_id":76561198054070811,"connected_time":3838000000000,"state":"active","ping":93},{"user_id":352,"name":"C Papi","steam_id":76561198027779564,"connected_time":8356000000000,"state":"active","ping":48}]},{"server_id":38,"name":"Uncletopia | Chicago | 7 | Stopwatch","name_short":"chi-7","host":"chi-2.us.uncletopia.com","port":27035,"enabled":true,"region":"us-central","cc":"us","latitude":41.881832,"longitude":-87.62318,"reserved":0,"last_update":"0001-01-01T00:00:00Z","name_a2s":"Uncletopia | Chicago | 7 | Stopwatch","protocol":17,"map":"pl_upward","folder":"tf","game":"Team Fortress","app_id":440,"player_count":0,"max_players":24,"Bots":0,"server_type":"Dedicated","server_os":"Linux","password":true,"vac":true,"version":"7961495","steam_id":85568392924866364,"keywords":["nocrits","nodmgspread","payload","uncletopia"],"game_id":440,"stv_port":27036,"stv_name":"Uncletopia | Chicago | 7 | Stopwatch | STV","players":null},{"server_id":39,"name":"Uncletopia | Chicago | 8 | Community","name_short":"chi-8","host":"chi-2.us.uncletopia.com","port":27045,"enabled":true,"region":"us-central","cc":"us","latitude":41.881832,"longitude":-87.62318,"reserved":0,"last_update":"0001-01-01T00:00:00Z","name_a2s":"Uncletopia | Chicago | 8 | Community","protocol":17,"map":"workshop/pl_corrode_rc2.ugc546577989","folder":"tf","game":"Team Fortress","app_id":440,"player_count":0,"max_players":24,"Bots":0,"server_type":"Dedicated","server_os":"Linux","password":true,"vac":true,"version":"7961495","steam_id":85568392924866365,"keywords":["nocrits","nodmgspread","payload","uncletopia"],"game_id":440,"stv_port":27046,"stv_name":"Uncletopia | Chicago | 8 | Community | STV","players":null},{"server_id":8,"name":"Uncletopia | Dallas | 1 | All Maps","name_short":"dal-1","host":"dal-1.us.uncletopia.com","port":27015,"enabled":true,"region":"us-central","cc":"us","latitude":32.779167,"longitude":-96.80889,"reserved":0,"last_update":"0001-01-01T00:00:00Z","name_a2s":"Uncletopia | Dallas | 1 | All Maps","protocol":17,"map":"pl_upward","folder":"tf","game":"Team Fortress","app_id":440,"player_count":22,"max_players":24,"Bots":0,"server_type":"Dedicated","server_os":"Linux","password":true,"vac":true,"version":"7961495","steam_id":85568392924469986,"keywords":["nocrits","nodmgspread","payload","uncletopia"],"game_id":440,"stv_port":27016,"stv_name":"Uncletopia | Dallas | 1 | All Maps | STV","players":[{"user_id":429,"name":"AvapXia","steam_id":76561198147476096,"connected_time":1554000000000,"state":"active","ping":106},{"user_id":376,"name":"shnowshner","steam_id":76561198066450438,"connected_time":6157000000000,"state":"active","ping":90},{"user_id":425,"name":"9/11 Airlines","steam_id":76561198096306325,"connected_time":1998000000000,"state":"active","ping":79},{"user_id":415,"name":"Wake Up","steam_id":76561199364352461,"connected_time":2590000000000,"state":"active","ping":57},{"user_id":430,"name":"ryann","steam_id":76561198042996639,"connected_time":1541000000000,"state":"active","ping":75},{"user_id":427,"name":"Nero25","steam_id":76561198027720631,"connected_time":1599000000000,"state":"active","ping":79},{"user_id":397,"name":"kris736","steam_id":76561198038208255,"connected_time":4823000000000,"state":"active","ping":80},{"user_id":379,"name":"purple hatsune miku","steam_id":76561198108844158,"connected_time":6087000000000,"state":"active","ping":80},{"user_id":440,"name":"for the king","steam_id":76561197973488858,"connected_time":421000000000,"state":"active","ping":75},{"user_id":330,"name":"kaimann_25","steam_id":76561198867926098,"connected_time":11254000000000,"state":"active","ping":71},{"user_id":382,"name":"zpalmtree","steam_id":76561198134307620,"connected_time":6036000000000,"state":"active","ping":75},{"user_id":428,"name":"Tokani","steam_id":76561198066904353,"connected_time":1594000000000,"state":"active","ping":52},{"user_id":400,"name":"Yoshi","steam_id":76561198033784848,"connected_time":4427000000000,"state":"active","ping":74},{"user_id":383,"name":"Pheonix Fel Dragon","steam_id":76561198164974227,"connected_time":6027000000000,"state":"active","ping":41},{"user_id":436,"name":"lobster","steam_id":76561198147417707,"connected_time":597000000000,"state":"active","ping":75},{"user_id":438,"name":"raya","steam_id":76561198051504581,"connected_time":565000000000,"state":"active","ping":45},{"user_id":412,"name":"tsz","steam_id":76561199246231090,"connected_time":3096000000000,"state":"active","ping":74},{"user_id":421,"name":"Umbrazeta","steam_id":76561198122650609,"connected_time":2253000000000,"state":"active","ping":59},{"user_id":422,"name":"VenomX","steam_id":76561198123418900,"connected_time":2244000000000,"state":"active","ping":80},{"user_id":442,"name":"Ŧayeє.4.ⓤ","steam_id":76561198044176988,"connected_time":165000000000,"state":"active","ping":83},{"user_id":439,"name":"transfem atsuko kagari","steam_id":76561198217402847,"connected_time":560000000000,"state":"active","ping":89},{"user_id":426,"name":"basilberry","steam_id":76561198145275937,"connected_time":1856000000000,"state":"active","ping":59}]},{"server_id":108,"name":"Uncletopia | Dallas | 2 | All Maps","name_short":"dal-2","host":"dal-1.us.uncletopia.com","port":27025,"enabled":true,"region":"us-central","cc":"us","latitude":32.779167,"longitude":-96.80889,"reserved":0,"last_update":"0001-01-01T00:00:00Z","name_a2s":"Uncletopia | Dallas | 2 | All Maps","protocol":17,"map":"pl_frontier_final","folder":"tf","game":"Team Fortress","app_id":440,"player_count":21,"max_players":24,"Bots":0,"server_type":"Dedicated","server_os":"Linux","password":true,"vac":true,"version":"7961495","steam_id":85568392924469988,"keywords":["nocrits","nodmgspread","payload","uncletopia"],"game_id":440,"stv_port":27026,"stv_name":"Uncletopia | Dallas | 2 | All Maps | STV","players":[{"user_id":539,"name":"ルナ・ノー・スラッツ","steam_id":76561198197135971,"connected_time":90000000000,"state":"active","ping":143},{"user_id":528,"name":"spicydogecena6505+","steam_id":76561198053609801,"connected_time":360000000000,"state":"active","ping":60},{"user_id":527,"name":"sleepy","steam_id":76561198288663776,"connected_time":411000000000,"state":"active","ping":96},{"user_id":537,"name":"ashelin praxis nude mod","steam_id":76561198167907089,"connected_time":130000000000,"state":"active","ping":67},{"user_id":519,"name":"Dr. Kokkinbahlz","steam_id":76561198166245239,"connected_time":1595000000000,"state":"active","ping":57},{"user_id":506,"name":"Stinky Wizzleteats.","steam_id":76561198075628776,"connected_time":3066000000000,"state":"active","ping":79},{"user_id":484,"name":"Certified Hood Classic","steam_id":76561199086159354,"connected_time":4076000000000,"state":"active","ping":44},{"user_id":531,"name":"Soggy Zogg","steam_id":76561198836316052,"connected_time":259000000000,"state":"active","ping":73},{"user_id":532,"name":"goth witch","steam_id":76561198069605283,"connected_time":251000000000,"state":"active","ping":77},{"user_id":533,"name":"Kenn","steam_id":76561198061505015,"connected_time":233000000000,"state":"active","ping":84},{"user_id":534,"name":"Unlimited_Trees","steam_id":76561198299141443,"connected_time":227000000000,"state":"active","ping":111},{"user_id":424,"name":"Bond","steam_id":76561198089262776,"connected_time":9695000000000,"state":"active","ping":45},{"user_id":535,"name":"UrbudBenny","steam_id":76561198362317483,"connected_time":218000000000,"state":"active","ping":63},{"user_id":538,"name":"have blue","steam_id":76561198054260599,"connected_time":109000000000,"state":"active","ping":57},{"user_id":513,"name":"werecat","steam_id":76561198005091213,"connected_time":1934000000000,"state":"active","ping":84},{"user_id":540,"name":"Team Fartpiss Poo","steam_id":76561199163591880,"connected_time":39000000000,"state":"active","ping":92},{"user_id":479,"name":"Liinde","steam_id":76561198140837602,"connected_time":5401000000000,"state":"active","ping":64},{"user_id":520,"name":"Arrythmia","steam_id":76561198093748123,"connected_time":1420000000000,"state":"active","ping":106},{"user_id":498,"name":"Yongle","steam_id":76561198068591156,"connected_time":3606000000000,"state":"active","ping":78},{"user_id":499,"name":"Big Chungus Gaming","steam_id":76561198068794194,"connected_time":3596000000000,"state":"active","ping":78},{"user_id":514,"name":"Boobie and vagene","steam_id":76561198078464924,"connected_time":1916000000000,"state":"active","ping":104}]},{"server_id":404,"name":"Uncletopia | Dallas | 3 | All Maps","name_short":"dal-3","host":"dal-1.us.uncletopia.com","port":27035,"enabled":true,"region":"us-central","cc":"us","latitude":32.779167,"longitude":-96.80889,"reserved":0,"last_update":"0001-01-01T00:00:00Z","name_a2s":"Uncletopia | Dallas | 3 | All Maps","protocol":17,"map":"koth_lakeside_final","folder":"tf","game":"Team Fortress","app_id":440,"player_count":0,"max_players":24,"Bots":0,"server_type":"Dedicated","server_os":"Linux","password":true,"vac":true,"version":"7961495","steam_id":85568392924515219,"keywords":["cp","nocrits","nodmgspread","uncletopia"],"game_id":440,"stv_port":27036,"stv_name":"Uncletopia | Dallas | 3 | All Maps | STV","players":null},{"server_id":405,"name":"Uncletopia | Dallas | 4 | Community","name_short":"dal-4","host":"dal-1.us.uncletopia.com","port":27045,"enabled":true,"region":"us-central","cc":"us","latitude":32.779167,"longitude":-96.80889,"reserved":0,"last_update":"0001-01-01T00:00:00Z","name_a2s":"Uncletopia | Dallas | 4 | Community","protocol":17,"map":"workshop/koth_ashville_final.ugc2130459942","folder":"tf","game":"Team Fortress","app_id":440,"player_count":0,"max_players":24,"Bots":0,"server_type":"Dedicated","server_os":"Linux","password":true,"vac":true,"version":"7961495","steam_id":85568392924515220,"keywords":["cp","nocrits","nodmgspread","uncletopia"],"game_id":440,"stv_port":27046,"stv_name":"Uncletopia | Dallas | 4 | Community | STV","players":null},{"server_id":5,"name":"Uncletopia | Frankfurt | 1 | All Maps","name_short":"frk-1","host":"frk-1.de.uncletopia.com","port":27015,"enabled":true,"region":"eu","cc":"de","latitude":50.110924,"longitude":8.682127,"reserved":0,"last_update":"0001-01-01T00:00:00Z","name_a2s":"Uncletopia | Frankfurt | 1 | All Maps","protocol":17,"map":"koth_viaduct","folder":"tf","game":"Team Fortress","app_id":440,"player_count":0,"max_players":24,"Bots":0,"server_type":"Dedicated","server_os":"Linux","password":true,"vac":true,"version":"7961495","steam_id":85568392924469989,"keywords":["cp","nocrits","nodmgspread","uncletopia"],"game_id":440,"stv_port":27016,"stv_name":"Uncletopia | Frankfurt | 1 | All Maps | STV","players":null},{"server_id":110,"name":"Uncletopia | Frankfurt | 2 | All Maps","name_short":"frk-2","host":"frk-1.de.uncletopia.com","port":27025,"enabled":true,"region":"eu","cc":"de","latitude":50.110924,"longitude":8.682127,"reserved":0,"last_update":"0001-01-01T00:00:00Z","name_a2s":"Uncletopia | Frankfurt | 2 | All Maps","protocol":17,"map":"plr_hightower","folder":"tf","game":"Team Fortress","app_id":440,"player_count":0,"max_players":24,"Bots":0,"server_type":"Dedicated","server_os":"Linux","password":true,"vac":true,"version":"7961495","steam_id":85568392924469990,"keywords":["nocrits","nodmgspread","payload","uncletopia"],"game_id":440,"stv_port":27026,"stv_name":"Uncletopia | Frankfurt | 2 | All Maps | STV","players":null},{"server_id":308,"name":"Uncletopia | Frankfurt | 3 | All Maps","name_short":"frk-3","host":"frk-1.de.uncletopia.com","port":27035,"enabled":true,"region":"eu","cc":"de","latitude":50.110924,"longitude":8.682127,"reserved":0,"last_update":"0001-01-01T00:00:00Z","name_a2s":"Uncletopia | Frankfurt | 3 | All Maps","protocol":17,"map":"cp_process_final","folder":"tf","game":"Team Fortress","app_id":440,"player_count":0,"max_players":24,"Bots":0,"server_type":"Dedicated","server_os":"Linux","password":true,"vac":true,"version":"7961495","steam_id":85568392924504274,"keywords":["cp","nocrits","nodmgspread","uncletopia"],"game_id":440,"stv_port":27036,"stv_name":"Uncletopia | Frankfurt | 3 | All Maps | STV","players":null},{"server_id":309,"name":"Uncletopia | Frankfurt | 4 | All Maps","name_short":"frk-4","host":"frk-1.de.uncletopia.com","port":27045,"enabled":true,"region":"eu","cc":"de","latitude":50.110924,"longitude":8.682127,"reserved":0,"last_update":"0001-01-01T00:00:00Z","name_a2s":"Uncletopia | Frankfurt | 4 | All Maps","protocol":17,"map":"cp_gorge","folder":"tf","game":"Team Fortress","app_id":440,"player_count":0,"max_players":24,"Bots":0,"server_type":"Dedicated","server_os":"Linux","password":true,"vac":true,"version":"7961495","steam_id":85568392924504275,"keywords":["cp","nocrits","nodmgspread","uncletopia"],"game_id":440,"stv_port":27046,"stv_name":"Uncletopia | Frankfurt | 4 | All Maps | STV","players":null},{"server_id":310,"name":"Uncletopia | Frankfurt | 5 | All Maps","name_short":"frk-5","host":"frk-1.de.uncletopia.com","port":27055,"enabled":true,"region":"eu","cc":"de","latitude":50.110924,"longitude":8.682127,"reserved":0,"last_update":"0001-01-01T00:00:00Z","name_a2s":"Uncletopia | Frankfurt | 5 | All Maps","protocol":17,"map":"koth_nucleus","folder":"tf","game":"Team Fortress","app_id":440,"player_count":0,"max_players":24,"Bots":0,"server_type":"Dedicated","server_os":"Linux","password":true,"vac":true,"version":"7961495","steam_id":85568392924504277,"keywords":["cp","nocrits","nodmgspread","uncletopia"],"game_id":440,"stv_port":27056,"stv_name":"Uncletopia | Frankfurt | 5 | All Maps | STV","players":null},{"server_id":311,"name":"Uncletopia | Frankfurt | 6 | All Maps","name_short":"frk-6","host":"frk-1.de.uncletopia.com","port":27065,"enabled":true,"region":"eu","cc":"de","latitude":50.110924,"longitude":8.682127,"reserved":0,"last_update":"0001-01-01T00:00:00Z","name_a2s":"Uncletopia | Frankfurt | 6 | All Maps","protocol":17,"map":"cp_coldfront","folder":"tf","game":"Team Fortress","app_id":440,"player_count":0,"max_players":24,"Bots":0,"server_type":"Dedicated","server_os":"Linux","password":true,"vac":true,"version":"7961495","steam_id":85568392924504278,"keywords":["cp","nocrits","nodmgspread","uncletopia"],"game_id":440,"stv_port":27066,"stv_name":"Uncletopia | Frankfurt | 6 | All Maps | STV","players":null},{"server_id":23,"name":"Uncletopia | Frankfurt | 7 | Stopwatch","name_short":"frk-7","host":"frk-1.de.uncletopia.com","port":27075,"enabled":true,"region":"eu","cc":"de","latitude":50.110924,"longitude":8.682127,"reserved":0,"last_update":"0001-01-01T00:00:00Z","name_a2s":"Uncletopia | Frankfurt | 7 | Stopwatch","protocol":17,"map":"cp_sunshine","folder":"tf","game":"Team Fortress","app_id":440,"player_count":0,"max_players":24,"Bots":0,"server_type":"Dedicated","server_os":"Linux","password":true,"vac":true,"version":"7961495","steam_id":85568392924742827,"keywords":["cp","nocrits","nodmgspread","uncletopia"],"game_id":440,"stv_port":27076,"stv_name":"Uncletopia | Frankfurt | 7 | Stopwatch | STV","players":null},{"server_id":24,"name":"Uncletopia | Frankfurt | 8 | Community","name_short":"frk-8","host":"frk-1.de.uncletopia.com","port":27085,"enabled":true,"region":"eu","cc":"de","latitude":50.110924,"longitude":8.682127,"reserved":0,"last_update":"0001-01-01T00:00:00Z","name_a2s":"Uncletopia | Frankfurt | 8 | Community","protocol":17,"map":"workshop/pl_boundary_final1.ugc456799153","folder":"tf","game":"Team Fortress","app_id":440,"player_count":0,"max_players":24,"Bots":0,"server_type":"Dedicated","server_os":"Linux","password":true,"vac":true,"version":"7961495","steam_id":85568392924742828,"keywords":["nocrits","nodmgspread","payload","uncletopia"],"game_id":440,"stv_port":27086,"stv_name":"Uncletopia | Frankfurt | 8 | Community | STV","players":null},{"server_id":202,"name":"Uncletopia | Hong Kong | 1 | All Maps","name_short":"hgk-1","host":"hgk-1.hk.uncletopia.com","port":27015,"enabled":true,"region":"asia","cc":"hk","latitude":22.302711,"longitude":114.177216,"reserved":0,"last_update":"0001-01-01T00:00:00Z","name_a2s":"Uncletopia | Hong Kong | 1 | All Maps","protocol":17,"map":"koth_highpass","folder":"tf","game":"Team Fortress","app_id":440,"player_count":0,"max_players":24,"Bots":0,"server_type":"Dedicated","server_os":"Linux","password":true,"vac":true,"version":"7961495","steam_id":85568392924494504,"keywords":["cp","nocrits","nodmgspread","uncletopia"],"game_id":440,"stv_port":27016,"stv_name":"Uncletopia | Hong Kong | 1 | All Maps | STV","players":null},{"server_id":1,"name":"Uncletopia | Los Angeles | 1 | All Maps","name_short":"lax-1","host":"lax-1.us.uncletopia.com","port":27015,"enabled":true,"region":"us-west","cc":"us","latitude":33.94279,"longitude":-118.41004,"reserved":0,"last_update":"0001-01-01T00:00:00Z","name_a2s":"Uncletopia | Los Angeles | 1 | All Maps","protocol":17,"map":"pl_badwater","folder":"tf","game":"Team Fortress","app_id":440,"player_count":24,"max_players":24,"Bots":0,"server_type":"Dedicated","server_os":"Linux","password":true,"vac":true,"version":"7961495","steam_id":85568392924469991,"keywords":["nocrits","nodmgspread","payload","uncletopia"],"game_id":440,"stv_port":27016,"stv_name":"Uncletopia | Los Angeles | 1 | All Maps | STV","players":[{"user_id":309,"name":"lol","steam_id":76561198026491738,"connected_time":2084000000000,"state":"active","ping":70},{"user_id":318,"name":"MDEEEEE","steam_id":76561198058460585,"connected_time":1405000000000,"state":"active","ping":54},{"user_id":298,"name":"a chicken","steam_id":76561198313121580,"connected_time":3118000000000,"state":"active","ping":54},{"user_id":301,"name":"Wendall555","steam_id":76561198985637603,"connected_time":2766000000000,"state":"active","ping":46},{"user_id":310,"name":"Humble Learner","steam_id":76561198066091050,"connected_time":2013000000000,"state":"active","ping":88},{"user_id":312,"name":"rmbl","steam_id":76561198150137369,"connected_time":1842000000000,"state":"active","ping":55},{"user_id":320,"name":"Rotarius","steam_id":76561198109893506,"connected_time":1292000000000,"state":"active","ping":60},{"user_id":338,"name":"BLØRG","steam_id":76561198036126673,"connected_time":168000000000,"state":"active","ping":91},{"user_id":337,"name":"FI LO","steam_id":76561198976530881,"connected_time":230000000000,"state":"active","ping":42},{"user_id":269,"name":"Avem","steam_id":76561198058763710,"connected_time":4963000000000,"state":"active","ping":53},{"user_id":294,"name":"Weegee","steam_id":76561198140095755,"connected_time":3537000000000,"state":"active","ping":55},{"user_id":311,"name":"Whisper!","steam_id":76561198119609795,"connected_time":1918000000000,"state":"active","ping":46},{"user_id":343,"name":"bansheerubber","steam_id":76561198042009362,"connected_time":43000000000,"state":"active","ping":45},{"user_id":322,"name":"Rockin.e","steam_id":76561198404370714,"connected_time":1242000000000,"state":"active","ping":48},{"user_id":332,"name":"Junebouvier","steam_id":76561198154395780,"connected_time":858000000000,"state":"active","ping":98},{"user_id":330,"name":"*chuckles smugly*","steam_id":76561198068113347,"connected_time":1105000000000,"state":"active","ping":59},{"user_id":329,"name":"Juicy","steam_id":76561198049220780,"connected_time":1135000000000,"state":"active","ping":47},{"user_id":333,"name":"Stroop","steam_id":76561198138687730,"connected_time":314000000000,"state":"active","ping":75},{"user_id":315,"name":"Ethanol Buttchugger","steam_id":76561199127590316,"connected_time":1827000000000,"state":"active","ping":34},{"user_id":334,"name":"endwalker simp","steam_id":76561198066177299,"connected_time":243000000000,"state":"active","ping":101},{"user_id":308,"name":"dynamite","steam_id":76561198217242365,"connected_time":2145000000000,"state":"active","ping":36},{"user_id":344,"name":"BucketofIce","steam_id":76561199108563726,"connected_time":19000000000,"state":"spawning","ping":48},{"user_id":300,"name":"John Calibur","steam_id":76561197999986606,"connected_time":2897000000000,"state":"active","ping":38},{"user_id":335,"name":"strawberry jam bagel","steam_id":76561198319442494,"connected_time":243000000000,"state":"active","ping":58}]},{"server_id":112,"name":"Uncletopia | Los Angeles | 2 | All Maps","name_short":"lax-2","host":"lax-1.us.uncletopia.com","port":27025,"enabled":true,"region":"us-west","cc":"us","latitude":33.94279,"longitude":-118.41004,"reserved":0,"last_update":"0001-01-01T00:00:00Z","name_a2s":"Uncletopia | Los Angeles | 2 | All Maps","protocol":17,"map":"koth_viaduct","folder":"tf","game":"Team Fortress","app_id":440,"player_count":0,"max_players":24,"Bots":0,"server_type":"Dedicated","server_os":"Linux","password":true,"vac":true,"version":"7961495","steam_id":85568392924469992,"keywords":["cp","nocrits","nodmgspread","uncletopia"],"game_id":440,"stv_port":27026,"stv_name":"Uncletopia | Los Angeles | 2 | All Maps | STV","players":null},{"server_id":324,"name":"Uncletopia | Los Angeles | 3 | All Maps","name_short":"lax-3","host":"lax-1.us.uncletopia.com","port":27035,"enabled":true,"region":"us-west","cc":"us","latitude":33.94279,"longitude":-118.41004,"reserved":0,"last_update":"0001-01-01T00:00:00Z","name_a2s":"Uncletopia | Los Angeles | 3 | All Maps","protocol":17,"map":"cp_process_final","folder":"tf","game":"Team Fortress","app_id":440,"player_count":0,"max_players":24,"Bots":0,"server_type":"Dedicated","server_os":"Linux","password":true,"vac":true,"version":"7961495","steam_id":85568392924510198,"keywords":["cp","nocrits","nodmgspread","uncletopia"],"game_id":440,"stv_port":27036,"stv_name":"Uncletopia | Los Angeles | 3 | All Maps | STV","players":null},{"server_id":25,"name":"Uncletopia | Los Angeles | 4 | Stopwatch","name_short":"lax-4","host":"lax-1.us.uncletopia.com","port":27045,"enabled":true,"region":"us-west","cc":"us","latitude":33.94279,"longitude":-118.41004,"reserved":0,"last_update":"0001-01-01T00:00:00Z","name_a2s":"Uncletopia | Los Angeles | 4 | Stopwatch","protocol":17,"map":"workshop/koth_product_final.ugc454272353","folder":"tf","game":"Team Fortress","app_id":440,"player_count":0,"max_players":24,"Bots":0,"server_type":"Dedicated","server_os":"Linux","password":true,"vac":true,"version":"7961495","steam_id":85568392924510199,"keywords":["cp","nocrits","nodmgspread","uncletopia"],"game_id":440,"stv_port":27046,"stv_name":"Uncletopia | Los Angeles | 4 | Stopwatch | STV","players":null},{"server_id":11,"name":"Uncletopia | London | 1 | All Maps","name_short":"lon-1","host":"lon-1.uk.uncletopia.com","port":27015,"enabled":true,"region":"eu","cc":"gb","latitude":51.509865,"longitude":-0.118092,"reserved":0,"last_update":"0001-01-01T00:00:00Z","name_a2s":"Uncletopia | London | 1 | All Maps","protocol":17,"map":"koth_nucleus","folder":"tf","game":"Team Fortress","app_id":440,"player_count":0,"max_players":24,"Bots":0,"server_type":"Dedicated","server_os":"Linux","password":true,"vac":true,"version":"7961495","steam_id":85568392924367362,"keywords":["cp","nocrits","nodmgspread","uncletopia"],"game_id":440,"stv_port":27016,"stv_name":"Uncletopia | London | 1 | All Maps | STV","players":null},{"server_id":114,"name":"Uncletopia | London | 2 | All Maps","name_short":"lon-2","host":"lon-1.uk.uncletopia.com","port":27025,"enabled":true,"region":"eu","cc":"gb","latitude":51.509865,"longitude":-0.118092,"reserved":0,"last_update":"0001-01-01T00:00:00Z","name_a2s":"Uncletopia | London | 2 | All Maps","protocol":17,"map":"pl_snowycoast","folder":"tf","game":"Team Fortress","app_id":440,"player_count":0,"max_players":24,"Bots":0,"server_type":"Dedicated","server_os":"Linux","password":true,"vac":true,"version":"7961495","steam_id":85568392924470941,"keywords":["nocrits","nodmgspread","payload","uncletopia"],"game_id":440,"stv_port":27026,"stv_name":"Uncletopia | London | 2 | All Maps | STV","players":null},{"server_id":320,"name":"Uncletopia | London | 3 | All Maps","name_short":"lon-3","host":"lon-1.uk.uncletopia.com","port":27035,"enabled":true,"region":"eu","cc":"gb","latitude":51.509865,"longitude":-0.118092,"reserved":0,"last_update":"0001-01-01T00:00:00Z","name_a2s":"Uncletopia | London | 3 | All Maps","protocol":17,"map":"pl_borneo","folder":"tf","game":"Team Fortress","app_id":440,"player_count":0,"max_players":24,"Bots":0,"server_type":"Dedicated","server_os":"Linux","password":true,"vac":true,"version":"7961495","steam_id":85568392924510192,"keywords":["nocrits","nodmgspread","payload","uncletopia"],"game_id":440,"stv_port":27036,"stv_name":"Uncletopia | London | 3 | All Maps | STV","players":null},{"server_id":321,"name":"Uncletopia | London | 4 | All Maps","name_short":"lon-4","host":"lon-1.uk.uncletopia.com","port":27045,"enabled":true,"region":"eu","cc":"gb","latitude":51.509865,"longitude":-0.118092,"reserved":0,"last_update":"0001-01-01T00:00:00Z","name_a2s":"Uncletopia | London | 4 | All Maps","protocol":17,"map":"pl_badwater","folder":"tf","game":"Team Fortress","app_id":440,"player_count":0,"max_players":24,"Bots":0,"server_type":"Dedicated","server_os":"Linux","password":true,"vac":true,"version":"7961495","steam_id":85568392924510193,"keywords":["nocrits","nodmgspread","payload","uncletopia"],"game_id":440,"stv_port":27046,"stv_name":"Uncletopia | London | 4 | All Maps | STV","players":null},{"server_id":21,"name":"Uncletopia | London | 5 | All Maps","name_short":"lon-5","host":"lon-1.uk.uncletopia.com","port":27055,"enabled":true,"region":"eu","cc":"gb","latitude":51.509865,"longitude":-0.118092,"reserved":0,"last_update":"0001-01-01T00:00:00Z","name_a2s":"Uncletopia | London | 5 | All Maps","protocol":17,"map":"koth_lazarus","folder":"tf","game":"Team Fortress","app_id":440,"player_count":0,"max_players":24,"Bots":0,"server_type":"Dedicated","server_os":"Linux","password":true,"vac":true,"version":"7961495","steam_id":85568392924742829,"keywords":["cp","nocrits","nodmgspread","uncletopia"],"game_id":440,"stv_port":27056,"stv_name":"Uncletopia | London | 5 | All Maps | STV","players":null},{"server_id":22,"name":"Uncletopia | London | 6 | All Maps","name_short":"lon-6","host":"lon-1.uk.uncletopia.com","port":27065,"enabled":true,"region":"eu","cc":"gb","latitude":51.509865,"longitude":-0.118092,"reserved":0,"last_update":"0001-01-01T00:00:00Z","name_a2s":"Uncletopia | London | 6 | All Maps","protocol":17,"map":"cp_snakewater_final1","folder":"tf","game":"Team Fortress","app_id":440,"player_count":0,"max_players":24,"Bots":0,"server_type":"Dedicated","server_os":"Linux","password":true,"vac":true,"version":"7961495","steam_id":85568392924742830,"keywords":["cp","nocrits","nodmgspread","uncletopia"],"game_id":440,"stv_port":27066,"stv_name":"Uncletopia | London | 6 | All Maps | STV","players":null},{"server_id":40,"name":"Uncletopia | London | 7 | Stopwatch","name_short":"lon-7","host":"lon-1.uk.uncletopia.com","port":27075,"enabled":true,"region":"eu","cc":"gb","latitude":51.509865,"longitude":-0.118092,"reserved":0,"last_update":"0001-01-01T00:00:00Z","name_a2s":"Uncletopia | London | 7 | Stopwatch","protocol":17,"map":"workshop/pl_badwater_pro_v12.ugc2142942074","folder":"tf","game":"Team Fortress","app_id":440,"player_count":0,"max_players":24,"Bots":0,"server_type":"Dedicated","server_os":"Linux","password":true,"vac":true,"version":"7961495","steam_id":85568392924964314,"keywords":["nocrits","nodmgspread","payload","uncletopia"],"game_id":440,"stv_port":27076,"stv_name":"Uncletopia | London | 7 | Stopwatch | STV","players":null},{"server_id":41,"name":"Uncletopia | London | 8 | Community","name_short":"lon-8","host":"lon-1.uk.uncletopia.com","port":27085,"enabled":true,"region":"eu","cc":"gb","latitude":51.509865,"longitude":-0.118092,"reserved":0,"last_update":"0001-01-01T00:00:00Z","name_a2s":"Uncletopia | London | 8 | Community","protocol":17,"map":"workshop/cp_propaganda_b18.ugc1603743849","folder":"tf","game":"Team Fortress","app_id":440,"player_count":0,"max_players":24,"Bots":0,"server_type":"Dedicated","server_os":"Linux","password":true,"vac":true,"version":"7961495","steam_id":85568392924964315,"keywords":["cp","nocrits","nodmgspread","uncletopia"],"game_id":440,"stv_port":27086,"stv_name":"Uncletopia | London | 8 | Community | STV","players":null},{"server_id":300,"name":"Uncletopia | Montréal | 1 | One Thousand Uncles","name_short":"mtl-1","host":"mtl-1.ca.uncletopia.com","port":27015,"enabled":true,"region":"us-east","cc":"ca","latitude":45.50889,"longitude":-73.56167,"reserved":0,"last_update":"0001-01-01T00:00:00Z","name_a2s":"Uncletopia | Montréal | 1 | One Thousand Uncles","protocol":17,"map":"pl_goldrush","folder":"tf","game":"Team Fortress","app_id":440,"player_count":0,"max_players":32,"Bots":0,"server_type":"Dedicated","server_os":"Linux","password":true,"vac":true,"version":"7961495","steam_id":85568392924500087,"keywords":["alltalk","danepve","increased_maxplayers","norespawntime","payload","uncletopia"],"game_id":440,"stv_port":0,"stv_name":"","players":null},{"server_id":301,"name":"Uncletopia | Montréal | 2 | One Thousand Uncles","name_short":"mtl-2","host":"mtl-1.ca.uncletopia.com","port":27025,"enabled":true,"region":"us-east","cc":"ca","latitude":45.50889,"longitude":-73.56167,"reserved":0,"last_update":"0001-01-01T00:00:00Z","name_a2s":"Uncletopia | Montréal | 2 | One Thousand Uncles","protocol":17,"map":"pl_chilly","folder":"tf","game":"Team Fortress","app_id":440,"player_count":0,"max_players":32,"Bots":0,"server_type":"Dedicated","server_os":"Linux","password":true,"vac":true,"version":"7961495","steam_id":85568392924500088,"keywords":["alltalk","danepve","increased_maxplayers","norespawntime","payload","uncletopia"],"game_id":440,"stv_port":0,"stv_name":"","players":null},{"server_id":302,"name":"Uncletopia | Montréal | 3 | One Thousand Uncles","name_short":"mtl-3","host":"mtl-1.ca.uncletopia.com","port":27035,"enabled":true,"region":"us-east","cc":"ca","latitude":45.50889,"longitude":-73.56167,"reserved":0,"last_update":"0001-01-01T00:00:00Z","name_a2s":"Uncletopia | Montréal | 3 | One Thousand Uncles","protocol":17,"map":"pl_pier","folder":"tf","game":"Team Fortress","app_id":440,"player_count":0,"max_players":32,"Bots":0,"server_type":"Dedicated","server_os":"Linux","password":true,"vac":true,"version":"7961495","steam_id":85568392924500089,"keywords":["alltalk","danepve","increased_maxplayers","norespawntime","payload","uncletopia"],"game_id":440,"stv_port":0,"stv_name":"","players":null},{"server_id":13,"name":"Uncletopia | New York City | 1 | All Maps","name_short":"nyc-1","host":"nyc-1.us.uncletopia.com","port":27015,"enabled":true,"region":"us-east","cc":"us","latitude":40.73061,"longitude":-73.93524,"reserved":0,"last_update":"0001-01-01T00:00:00Z","name_a2s":"Uncletopia | New York City | 1 | All Maps","protocol":17,"map":"pl_pier","folder":"tf","game":"Team Fortress","app_id":440,"player_count":24,"max_players":24,"Bots":0,"server_type":"Dedicated","server_os":"Linux","password":true,"vac":true,"version":"7961495","steam_id":85568392924469993,"keywords":["nocrits","nodmgspread","payload","uncletopia"],"game_id":440,"stv_port":27016,"stv_name":"Uncletopia | New York City | 1 | All Maps | STV","players":[{"user_id":616,"name":"PlatniumBoi","steam_id":76561198276140755,"connected_time":788000000000,"state":"active","ping":88},{"user_id":599,"name":"alfredodan no-edphones","steam_id":76561198025011044,"connected_time":2313000000000,"state":"active","ping":75},{"user_id":604,"name":"Mr Socks","steam_id":76561197991585761,"connected_time":1904000000000,"state":"active","ping":90},{"user_id":618,"name":"SpaceSanctum","steam_id":76561198805242305,"connected_time":588000000000,"state":"active","ping":45},{"user_id":622,"name":"zzzz","steam_id":76561198310495200,"connected_time":33000000000,"state":"active","ping":74},{"user_id":609,"name":"Banana connoisseur","steam_id":76561199156630225,"connected_time":1732000000000,"state":"active","ping":59},{"user_id":592,"name":"Censure","steam_id":76561198850891374,"connected_time":2711000000000,"state":"active","ping":48},{"user_id":601,"name":"PotatoTheCarrot","steam_id":76561198014089484,"connected_time":2082000000000,"state":"active","ping":62},{"user_id":612,"name":"mayor of cool person city","steam_id":76561198048882285,"connected_time":1305000000000,"state":"active","ping":45},{"user_id":611,"name":"Lumi The ✧Lesbian✧","steam_id":76561198089978036,"connected_time":1425000000000,"state":"active","ping":43},{"user_id":600,"name":"bomba","steam_id":76561198301585642,"connected_time":2173000000000,"state":"active","ping":48},{"user_id":607,"name":"puppy :3","steam_id":76561198011196264,"connected_time":1818000000000,"state":"active","ping":87},{"user_id":568,"name":"Wallet","steam_id":76561198081067377,"connected_time":5115000000000,"state":"active","ping":45},{"user_id":595,"name":"estoy durmiendo honk shoo honk ","steam_id":76561198059575962,"connected_time":2527000000000,"state":"active","ping":59},{"user_id":537,"name":"space man","steam_id":76561198066333670,"connected_time":7315000000000,"state":"active","ping":49},{"user_id":608,"name":"Gunslinger Beetle","steam_id":76561198393872595,"connected_time":1790000000000,"state":"active","ping":45},{"user_id":543,"name":"Meskoozy","steam_id":76561198102394479,"connected_time":6856000000000,"state":"active","ping":75},{"user_id":620,"name":"Charlie","steam_id":76561199098209171,"connected_time":95000000000,"state":"connecting","ping":0},{"user_id":619,"name":"De","steam_id":76561198206728044,"connected_time":136000000000,"state":"active","ping":75},{"user_id":419,"name":"Yuzu","steam_id":76561198417913035,"connected_time":15883000000000,"state":"active","ping":52},{"user_id":597,"name":"Quirinus","steam_id":76561198011516889,"connected_time":2459000000000,"state":"active","ping":74},{"user_id":596,"name":"frog from pond AT","steam_id":76561198184900753,"connected_time":2514000000000,"state":"active","ping":59},{"user_id":577,"name":"Dank_Krill","steam_id":76561198839913424,"connected_time":4700000000000,"state":"active","ping":58},{"user_id":621,"name":"googa","steam_id":76561198133130452,"connected_time":93000000000,"state":"active","ping":45}]},{"server_id":14,"name":"Uncletopia | New York City | 2 | All Maps","name_short":"nyc-2","host":"nyc-1.us.uncletopia.com","port":27025,"enabled":true,"region":"us-east","cc":"us","latitude":40.73061,"longitude":-73.93524,"reserved":0,"last_update":"0001-01-01T00:00:00Z","name_a2s":"Uncletopia | New York City | 2 | All Maps","protocol":17,"map":"pl_snowycoast","folder":"tf","game":"Team Fortress","app_id":440,"player_count":0,"max_players":24,"Bots":0,"server_type":"Dedicated","server_os":"Linux","password":true,"vac":true,"version":"7961495","steam_id":85568392924469994,"keywords":["nocrits","nodmgspread","payload","uncletopia"],"game_id":440,"stv_port":27026,"stv_name":"Uncletopia | New York City | 2 | All Maps | STV","players":null},{"server_id":15,"name":"Uncletopia | New York City | 3 | Stopwatch","name_short":"nyc-3","host":"nyc-1.us.uncletopia.com","port":27035,"enabled":true,"region":"us-east","cc":"us","latitude":40.73061,"longitude":-73.93524,"reserved":0,"last_update":"0001-01-01T00:00:00Z","name_a2s":"Uncletopia | New York City | 3 | Stopwatch","protocol":17,"map":"koth_highpass","folder":"tf","game":"Team Fortress","app_id":440,"player_count":0,"max_players":24,"Bots":0,"server_type":"Dedicated","server_os":"Linux","password":true,"vac":true,"version":"7961495","steam_id":85568392924742820,"keywords":["cp","nocrits","nodmgspread","uncletopia"],"game_id":440,"stv_port":27036,"stv_name":"Uncletopia | New York City | 3 | Stopwatch | STV","players":null},{"server_id":16,"name":"Uncletopia | New York City | 4 | Community","name_short":"nyc-4","host":"nyc-1.us.uncletopia.com","port":27045,"enabled":true,"region":"us-east","cc":"us","latitude":40.73061,"longitude":-73.93524,"reserved":0,"last_update":"0001-01-01T00:00:00Z","name_a2s":"Uncletopia | New York City | 4 | Community","protocol":17,"map":"workshop/cp_indulge.ugc528106646","folder":"tf","game":"Team Fortress","app_id":440,"player_count":0,"max_players":24,"Bots":0,"server_type":"Dedicated","server_os":"Linux","password":true,"vac":true,"version":"7961495","steam_id":85568392924742821,"keywords":["cp","nocrits","nodmgspread","uncletopia"],"game_id":440,"stv_port":27046,"stv_name":"Uncletopia | New York City | 4 | Community | STV","players":null},{"server_id":142,"name":"Uncletopia | São Paulo | 1 | All Maps","name_short":"sao-1","host":"sao-1.br.uncletopia.com","port":27015,"enabled":true,"region":"sa","cc":"br","latitude":-23.533773,"longitude":-46.62529,"reserved":0,"last_update":"0001-01-01T00:00:00Z","name_a2s":"Uncletopia | São Paulo | 1 | All Maps","protocol":17,"map":"koth_viaduct","folder":"tf","game":"Team Fortress","app_id":440,"player_count":0,"max_players":24,"Bots":0,"server_type":"Dedicated","server_os":"Linux","password":true,"vac":true,"version":"7961495","steam_id":85568392924469996,"keywords":["cp","nocrits","nodmgspread","uncletopia"],"game_id":440,"stv_port":27016,"stv_name":"Uncletopia | São Paulo | 1 | All Maps | STV","players":null},{"server_id":143,"name":"Uncletopia | São Paulo | 2 | Community","name_short":"sao-2","host":"sao-2.br.uncletopia.com","port":27015,"enabled":true,"region":"sa","cc":"br","latitude":-23.533773,"longitude":-46.62529,"reserved":0,"last_update":"0001-01-01T00:00:00Z","name_a2s":"Uncletopia | São Paulo | 2 | Community","protocol":17,"map":"workshop/koth_product_final.ugc454272353","folder":"tf","game":"Team Fortress","app_id":440,"player_count":0,"max_players":24,"Bots":0,"server_type":"Dedicated","server_os":"Linux","password":true,"vac":true,"version":"7961495","steam_id":85568392924485349,"keywords":["cp","nocrits","nodmgspread","uncletopia"],"game_id":440,"stv_port":27016,"stv_name":"Uncletopia | São Paulo | 2 | Community | STV","players":null},{"server_id":7,"name":"Uncletopia | Seattle | 1 | All Maps","name_short":"sea-1","host":"sea-1.us.uncletopia.com","port":27015,"enabled":true,"region":"us-west","cc":"us","latitude":47.608013,"longitude":-122.33517,"reserved":0,"last_update":"0001-01-01T00:00:00Z","name_a2s":"Uncletopia | Seattle | 1 | All Maps","protocol":17,"map":"koth_nucleus","folder":"tf","game":"Team Fortress","app_id":440,"player_count":23,"max_players":24,"Bots":0,"server_type":"Dedicated","server_os":"Linux","password":true,"vac":true,"version":"7961495","steam_id":85568392924469997,"keywords":["cp","nocrits","nodmgspread","uncletopia"],"game_id":440,"stv_port":27016,"stv_name":"Uncletopia | Seattle | 1 | All Maps | STV","players":[{"user_id":701,"name":"Hawksgamer","steam_id":76561198152405941,"connected_time":2088000000000,"state":"active","ping":44},{"user_id":683,"name":"RainboomCrash","steam_id":76561198065612273,"connected_time":4061000000000,"state":"active","ping":46},{"user_id":719,"name":"Coke Himmy","steam_id":76561198397459211,"connected_time":390000000000,"state":"active","ping":120},{"user_id":710,"name":"evil jesus 05","steam_id":76561198419315893,"connected_time":1263000000000,"state":"active","ping":84},{"user_id":715,"name":"a","steam_id":76561198074209737,"connected_time":853000000000,"state":"active","ping":89},{"user_id":670,"name":"Melly","steam_id":76561198045867175,"connected_time":4930000000000,"state":"active","ping":59},{"user_id":721,"name":"ᵀᵉᶜʰ⛧","steam_id":76561198152643740,"connected_time":155000000000,"state":"active","ping":59},{"user_id":703,"name":"Moffein","steam_id":76561198016739296,"connected_time":2071000000000,"state":"active","ping":60},{"user_id":689,"name":"Nina","steam_id":76561198875007138,"connected_time":3757000000000,"state":"active","ping":37},{"user_id":632,"name":"[TrC] Dackstrus","steam_id":76561197973518509,"connected_time":8707000000000,"state":"active","ping":52},{"user_id":718,"name":"PopcornBucketGames","steam_id":76561199089562026,"connected_time":580000000000,"state":"active","ping":40},{"user_id":705,"name":"rat who can kickflip dot com","steam_id":76561198073620027,"connected_time":2005000000000,"state":"active","ping":44},{"user_id":699,"name":"ghor","steam_id":76561197994547132,"connected_time":2607000000000,"state":"active","ping":30},{"user_id":707,"name":"Mocha Josie","steam_id":76561198066452726,"connected_time":1870000000000,"state":"active","ping":70},{"user_id":665,"name":"soup","steam_id":76561198043209046,"connected_time":5013000000000,"state":"active","ping":66},{"user_id":702,"name":"Mr8bittripper","steam_id":76561198133894229,"connected_time":2086000000000,"state":"active","ping":43},{"user_id":709,"name":"Finkly","steam_id":76561198049828110,"connected_time":1325000000000,"state":"active","ping":42},{"user_id":691,"name":"Jazz2T","steam_id":76561198154418867,"connected_time":3732000000000,"state":"active","ping":137},{"user_id":627,"name":"[TrC] Nosy","steam_id":76561197978859310,"connected_time":8888000000000,"state":"active","ping":59},{"user_id":708,"name":"Sailor","steam_id":76561199081983517,"connected_time":1604000000000,"state":"active","ping":87},{"user_id":700,"name":"Tea Enthusiast","steam_id":76561198185583925,"connected_time":2561000000000,"state":"active","ping":84},{"user_id":653,"name":"Hazel The Maid Boy","steam_id":76561199247095754,"connected_time":5987000000000,"state":"active","ping":60},{"user_id":644,"name":"blinkerton city","steam_id":76561198054270410,"connected_time":7266000000000,"state":"active","ping":57}]},{"server_id":119,"name":"Uncletopia | Seattle | 2 | All Maps","name_short":"sea-2","host":"sea-1.us.uncletopia.com","port":27025,"enabled":true,"region":"us-west","cc":"us","latitude":47.608013,"longitude":-122.33517,"reserved":0,"last_update":"0001-01-01T00:00:00Z","name_a2s":"Uncletopia | Seattle | 2 | All Maps","protocol":17,"map":"koth_highpass","folder":"tf","game":"Team Fortress","app_id":440,"player_count":24,"max_players":24,"Bots":0,"server_type":"Dedicated","server_os":"Linux","password":true,"vac":true,"version":"7961495","steam_id":85568392924469998,"keywords":["cp","nocrits","nodmgspread","uncletopia"],"game_id":440,"stv_port":27026,"stv_name":"Uncletopia | Seattle | 2 | All Maps | STV","players":[{"user_id":280,"name":"TheHumanTaco119","steam_id":76561198996107520,"connected_time":779000000000,"state":"active","ping":76},{"user_id":278,"name":"duddlee","steam_id":76561198030052564,"connected_time":811000000000,"state":"active","ping":59},{"user_id":281,"name":"Antzen","steam_id":76561198041343470,"connected_time":776000000000,"state":"active","ping":71},{"user_id":279,"name":"JacobOneHundredPercentWholeWhea","steam_id":76561198045992418,"connected_time":795000000000,"state":"active","ping":55},{"user_id":282,"name":"GalaxyDoug32","steam_id":76561197997126305,"connected_time":773000000000,"state":"active","ping":57},{"user_id":239,"name":"NEBULA","steam_id":76561198086878595,"connected_time":3349000000000,"state":"active","ping":73},{"user_id":297,"name":"sil","steam_id":76561198041466580,"connected_time":122000000000,"state":"active","ping":59},{"user_id":287,"name":"epic","steam_id":76561198097321881,"connected_time":669000000000,"state":"active","ping":45},{"user_id":284,"name":"1000 Ping","steam_id":76561198098330939,"connected_time":731000000000,"state":"active","ping":89},{"user_id":265,"name":"FlexDaddy","steam_id":76561198039724086,"connected_time":1826000000000,"state":"active","ping":77},{"user_id":285,"name":"Enddramon","steam_id":76561198169461084,"connected_time":727000000000,"state":"active","ping":100},{"user_id":286,"name":"roody","steam_id":76561198066260405,"connected_time":723000000000,"state":"active","ping":45},{"user_id":288,"name":"algebraictoast","steam_id":76561198230086812,"connected_time":657000000000,"state":"active","ping":107},{"user_id":289,"name":"LyricCellar","steam_id":76561199486346132,"connected_time":580000000000,"state":"active","ping":188},{"user_id":290,"name":"[S]Mr. X [No Monitor]","steam_id":76561197963746035,"connected_time":540000000000,"state":"active","ping":67},{"user_id":291,"name":"[Smorz] HamletEspacial","steam_id":76561199084414649,"connected_time":481000000000,"state":"active","ping":84},{"user_id":295,"name":"Phyre112","steam_id":76561198064367510,"connected_time":434000000000,"state":"active","ping":73},{"user_id":292,"name":"Amazing476","steam_id":76561198103937489,"connected_time":479000000000,"state":"active","ping":74},{"user_id":293,"name":"pudge","steam_id":76561198964443904,"connected_time":457000000000,"state":"active","ping":46},{"user_id":269,"name":"dog","steam_id":76561198263873491,"connected_time":1680000000000,"state":"active","ping":92},{"user_id":272,"name":":^1 Hekken","steam_id":76561198109933577,"connected_time":1494000000000,"state":"active","ping":45},{"user_id":294,"name":"DeadLemm","steam_id":76561198107380040,"connected_time":450000000000,"state":"active","ping":107},{"user_id":237,"name":"Doctor™","steam_id":76561198134309750,"connected_time":3590000000000,"state":"active","ping":99},{"user_id":296,"name":"mega","steam_id":76561198089520959,"connected_time":274000000000,"state":"active","ping":99}]},{"server_id":406,"name":"Uncletopia | Seattle | 3 | Stopwatch","name_short":"sea-3","host":"sea-1.us.uncletopia.com","port":27035,"enabled":true,"region":"us-west","cc":"us","latitude":47.608013,"longitude":-122.33517,"reserved":0,"last_update":"0001-01-01T00:00:00Z","name_a2s":"Uncletopia | Seattle | 3 | Stopwatch","protocol":17,"map":"workshop/koth_ashville_final.ugc2130459942","folder":"tf","game":"Team Fortress","app_id":440,"player_count":0,"max_players":24,"Bots":0,"server_type":"Dedicated","server_os":"Linux","password":true,"vac":true,"version":"7961495","steam_id":85568392924515217,"keywords":["cp","nocrits","nodmgspread","uncletopia"],"game_id":440,"stv_port":27036,"stv_name":"Uncletopia | Seattle | 3 | Stopwatch | STV","players":null},{"server_id":17,"name":"Uncletopia | San Francisco | 1 | All Maps","name_short":"sfo-1","host":"sfo-1.us.uncletopia.com","port":27015,"enabled":true,"region":"us-west","cc":"us","latitude":37.77397,"longitude":-122.4313,"reserved":0,"last_update":"0001-01-01T00:00:00Z","name_a2s":"Uncletopia | San Francisco | 1 | All Maps","protocol":17,"map":"pl_frontier_final","folder":"tf","game":"Team Fortress","app_id":440,"player_count":24,"max_players":24,"Bots":0,"server_type":"Dedicated","server_os":"Linux","password":true,"vac":true,"version":"7961495","steam_id":85568392924469999,"keywords":["nocrits","nodmgspread","payload","uncletopia"],"game_id":440,"stv_port":27016,"stv_name":"Uncletopia | San Francisco | 1 | All Maps | STV","players":[{"user_id":200,"name":"Artic_Ryuu","steam_id":76561198182194918,"connected_time":871000000000,"state":"active","ping":46},{"user_id":212,"name":"Drapph","steam_id":76561199384213314,"connected_time":192000000000,"state":"active","ping":97},{"user_id":160,"name":"Seanvich","steam_id":76561198065805500,"connected_time":6637000000000,"state":"active","ping":104},{"user_id":186,"name":"gatorbelt","steam_id":76561198145784505,"connected_time":3280000000000,"state":"active","ping":48},{"user_id":179,"name":"nat","steam_id":76561198179923093,"connected_time":4349000000000,"state":"active","ping":64},{"user_id":201,"name":"HanakoToast","steam_id":76561198045233131,"connected_time":848000000000,"state":"active","ping":67},{"user_id":210,"name":"SneekiCheekiQbone","steam_id":76561198045077980,"connected_time":341000000000,"state":"active","ping":55},{"user_id":208,"name":"nop","steam_id":76561199119420455,"connected_time":490000000000,"state":"active","ping":60},{"user_id":113,"name":"Baron Davis","steam_id":76561198012411292,"connected_time":10767000000000,"state":"active","ping":54},{"user_id":202,"name":"CaiGaming","steam_id":76561198313023508,"connected_time":838000000000,"state":"active","ping":47},{"user_id":209,"name":"tax_evasion","steam_id":76561198094818557,"connected_time":460000000000,"state":"active","ping":45},{"user_id":211,"name":"Skip Hop Doo Bop","steam_id":76561199161571849,"connected_time":338000000000,"state":"active","ping":47},{"user_id":184,"name":"dewey","steam_id":76561198132791511,"connected_time":3580000000000,"state":"active","ping":50},{"user_id":198,"name":"Gojira19","steam_id":76561198206384351,"connected_time":887000000000,"state":"active","ping":93},{"user_id":190,"name":"Catgirl Explise","steam_id":76561198044413891,"connected_time":2808000000000,"state":"active","ping":68},{"user_id":195,"name":"› We Are You.j2","steam_id":76561197995242200,"connected_time":1965000000000,"state":"active","ping":43},{"user_id":203,"name":"Wedge Antilles","steam_id":76561198005023811,"connected_time":810000000000,"state":"active","ping":62},{"user_id":204,"name":"Adderall Admiral","steam_id":76561198034212160,"connected_time":807000000000,"state":"active","ping":61},{"user_id":69,"name":"-={o.W.n.}=- Dark Murkrow 3","steam_id":76561198174432643,"connected_time":14395000000000,"state":"active","ping":59},{"user_id":205,"name":"Puskinti","steam_id":76561198032120688,"connected_time":791000000000,"state":"active","ping":67},{"user_id":206,"name":"c6racing","steam_id":76561198114603745,"connected_time":661000000000,"state":"active","ping":59},{"user_id":161,"name":"Alcohol Hominid","steam_id":76561198320313950,"connected_time":6624000000000,"state":"active","ping":81},{"user_id":181,"name":"bleh","steam_id":76561198104517253,"connected_time":4305000000000,"state":"active","ping":64},{"user_id":147,"name":"Wick","steam_id":76561198062996360,"connected_time":8874000000000,"state":"active","ping":58}]},{"server_id":18,"name":"Uncletopia | San Francisco | 2 | All Maps","name_short":"sfo-2","host":"sfo-1.us.uncletopia.com","port":27025,"enabled":true,"region":"us-west","cc":"us","latitude":37.77397,"longitude":-122.4313,"reserved":0,"last_update":"0001-01-01T00:00:00Z","name_a2s":"Uncletopia | San Francisco | 2 | All Maps","protocol":17,"map":"cp_altitude","folder":"tf","game":"Team Fortress","app_id":440,"player_count":0,"max_players":24,"Bots":0,"server_type":"Dedicated","server_os":"Linux","password":true,"vac":true,"version":"7961495","steam_id":85568392924470000,"keywords":["cp","nocrits","nodmgspread","uncletopia"],"game_id":440,"stv_port":27026,"stv_name":"Uncletopia | San Francisco | 2 | All Maps | STV","players":null},{"server_id":19,"name":"Uncletopia | San Francisco | 3 | Stopwatch","name_short":"sfo-3","host":"sfo-1.us.uncletopia.com","port":27035,"enabled":true,"region":"us-west","cc":"us","latitude":37.77397,"longitude":-122.4313,"reserved":0,"last_update":"0001-01-01T00:00:00Z","name_a2s":"Uncletopia | San Francisco | 3 | Stopwatch","protocol":17,"map":"workshop/koth_jamram_rc1a.ugc2964065613","folder":"tf","game":"Team Fortress","app_id":440,"player_count":0,"max_players":24,"Bots":0,"server_type":"Dedicated","server_os":"Linux","password":true,"vac":true,"version":"7961495","steam_id":85568392924742824,"keywords":["cp","nocrits","nodmgspread","uncletopia"],"game_id":440,"stv_port":27036,"stv_name":"Uncletopia | San Francisco | 3 | Stopwatch | STV","players":null},{"server_id":20,"name":"Uncletopia | San Francisco | 4 | Community","name_short":"sfo-4","host":"sfo-1.us.uncletopia.com","port":27045,"enabled":true,"region":"us-west","cc":"us","latitude":37.77397,"longitude":-122.4313,"reserved":0,"last_update":"0001-01-01T00:00:00Z","name_a2s":"Uncletopia | San Francisco | 4 | Community","protocol":17,"map":"workshop/pl_cactuscanyon_redux_final2.ugc2579644293","folder":"tf","game":"Team Fortress","app_id":440,"player_count":0,"max_players":24,"Bots":0,"server_type":"Dedicated","server_os":"Linux","password":true,"vac":true,"version":"7961495","steam_id":85568392924742826,"keywords":["nocrits","nodmgspread","payload","uncletopia"],"game_id":440,"stv_port":27046,"stv_name":"Uncletopia | San Francisco | 4 | Community | STV","players":null},{"server_id":141,"name":"Uncletopia | Sydney | 1 | All Maps","name_short":"syd-1","host":"syd-1.au.uncletopia.com","port":27015,"enabled":true,"region":"au","cc":"au","latitude":-33.865143,"longitude":151.2099,"reserved":0,"last_update":"0001-01-01T00:00:00Z","name_a2s":"Uncletopia | Sydney | 1 | All Maps","protocol":17,"map":"pl_pier","folder":"tf","game":"Team Fortress","app_id":440,"player_count":24,"max_players":24,"Bots":0,"server_type":"Dedicated","server_os":"Linux","password":true,"vac":true,"version":"7961495","steam_id":85568392924470001,"keywords":["nocrits","nodmgspread","payload","uncletopia"],"game_id":440,"stv_port":27016,"stv_name":"Uncletopia | Sydney | 1 | All Maps | STV","players":[{"user_id":81,"name":"Livid","steam_id":76561198060024585,"connected_time":2221000000000,"state":"active","ping":34},{"user_id":54,"name":"Qwertles","steam_id":76561198033779273,"connected_time":3858000000000,"state":"active","ping":44},{"user_id":97,"name":"Chooka","steam_id":76561197992307814,"connected_time":817000000000,"state":"active","ping":60},{"user_id":79,"name":"Mikey","steam_id":76561198438203131,"connected_time":2291000000000,"state":"active","ping":61},{"user_id":83,"name":"Matt","steam_id":76561198009757360,"connected_time":1928000000000,"state":"active","ping":59},{"user_id":63,"name":"Distilledrain41","steam_id":76561198272717119,"connected_time":2851000000000,"state":"active","ping":46},{"user_id":27,"name":"BIG BUTTUS BASHIUM","steam_id":76561198031293430,"connected_time":5025000000000,"state":"active","ping":82},{"user_id":82,"name":"man","steam_id":76561198094041769,"connected_time":2141000000000,"state":"active","ping":30},{"user_id":86,"name":"fat tits haver","steam_id":76561198081681647,"connected_time":1422000000000,"state":"active","ping":74},{"user_id":57,"name":"no ones none","steam_id":76561198038536815,"connected_time":3526000000000,"state":"active","ping":55},{"user_id":94,"name":"LightningBlock","steam_id":76561198289997742,"connected_time":849000000000,"state":"active","ping":31},{"user_id":103,"name":"COLLINSct","steam_id":76561198045395403,"connected_time":95000000000,"state":"active","ping":54},{"user_id":85,"name":"StevenGreenOnline64","steam_id":76561198058512735,"connected_time":1453000000000,"state":"active","ping":39},{"user_id":62,"name":"homes inc","steam_id":76561198170188198,"connected_time":3071000000000,"state":"active","ping":58},{"user_id":78,"name":"akmon753","steam_id":76561199507989067,"connected_time":2465000000000,"state":"active","ping":63},{"user_id":67,"name":"Swell","steam_id":76561198219336768,"connected_time":2803000000000,"state":"active","ping":49},{"user_id":73,"name":"SECT","steam_id":76561199122367855,"connected_time":2678000000000,"state":"active","ping":151},{"user_id":40,"name":"Tantei Rotana","steam_id":76561198041204323,"connected_time":4451000000000,"state":"active","ping":63},{"user_id":60,"name":"Pompadouraus","steam_id":76561198327530525,"connected_time":3388000000000,"state":"active","ping":75},{"user_id":71,"name":"yaero","steam_id":76561198047462865,"connected_time":2705000000000,"state":"active","ping":46},{"user_id":101,"name":"_ChickenSpringRoll","steam_id":76561198860546559,"connected_time":125000000000,"state":"active","ping":61},{"user_id":68,"name":"Trex988","steam_id":76561198147725676,"connected_time":2791000000000,"state":"active","ping":60},{"user_id":89,"name":"UncleManBun","steam_id":76561199235832391,"connected_time":1143000000000,"state":"active","ping":49},{"user_id":96,"name":"Crucial","steam_id":76561198992582454,"connected_time":830000000000,"state":"active","ping":32}]},{"server_id":123,"name":"Uncletopia | Sydney | 2 | All Maps","name_short":"syd-2","host":"syd-1.au.uncletopia.com","port":27025,"enabled":true,"region":"au","cc":"au","latitude":-33.865143,"longitude":151.2099,"reserved":0,"last_update":"0001-01-01T00:00:00Z","name_a2s":"Uncletopia | Sydney | 2 | All Maps","protocol":17,"map":"pl_snowycoast","folder":"tf","game":"Team Fortress","app_id":440,"player_count":0,"max_players":24,"Bots":0,"server_type":"Dedicated","server_os":"Linux","password":true,"vac":true,"version":"7961495","steam_id":85568392924470002,"keywords":["nocrits","nodmgspread","payload","uncletopia"],"game_id":440,"stv_port":27026,"stv_name":"Uncletopia | Sydney | 2 | All Maps | STV","players":null},{"server_id":395,"name":"Uncletopia | Sydney | 3 | All Maps","name_short":"syd-3","host":"syd-1.au.uncletopia.com","port":27035,"enabled":true,"region":"au","cc":"au","latitude":-33.865143,"longitude":151.2099,"reserved":0,"last_update":"0001-01-01T00:00:00Z","name_a2s":"Uncletopia | Sydney | 3 | All Maps","protocol":17,"map":"cp_metalworks","folder":"tf","game":"Team Fortress","app_id":440,"player_count":0,"max_players":24,"Bots":0,"server_type":"Dedicated","server_os":"Linux","password":true,"vac":true,"version":"7961495","steam_id":85568392925194467,"keywords":["cp","nocrits","nodmgspread","uncletopia"],"game_id":440,"stv_port":27036,"stv_name":"Uncletopia | Sydney | 3 | All Maps | STV","players":null},{"server_id":396,"name":"Uncletopia | Sydney | 4 | All Maps","name_short":"syd-4","host":"syd-1.au.uncletopia.com","port":27045,"enabled":true,"region":"au","cc":"au","latitude":-33.865143,"longitude":151.2099,"reserved":0,"last_update":"0001-01-01T00:00:00Z","name_a2s":"Uncletopia | Sydney | 4 | All Maps","protocol":17,"map":"koth_cascade","folder":"tf","game":"Team Fortress","app_id":440,"player_count":0,"max_players":24,"Bots":0,"server_type":"Dedicated","server_os":"Linux","password":true,"vac":true,"version":"7961495","steam_id":85568392925397958,"keywords":["cp","nocrits","nodmgspread","uncletopia"],"game_id":440,"stv_port":27046,"stv_name":"Uncletopia | Sydney | 4 | All Maps | STV","players":null},{"server_id":58,"name":"Uncletopia | Sydney | 5 | Stopwatch","name_short":"syd-5","host":"syd-1.au.uncletopia.com","port":27055,"enabled":true,"region":"au","cc":"au","latitude":-33.865143,"longitude":151.2099,"reserved":0,"last_update":"0001-01-01T00:00:00Z","name_a2s":"Uncletopia | Sydney | 5 | Stopwatch","protocol":17,"map":"workshop/koth_product_final.ugc454272353","folder":"tf","game":"Team Fortress","app_id":440,"player_count":0,"max_players":24,"Bots":0,"server_type":"Dedicated","server_os":"Linux","password":true,"vac":true,"version":"7961495","steam_id":85568392925397959,"keywords":["cp","nocrits","nodmgspread","uncletopia"],"game_id":440,"stv_port":27056,"stv_name":"Uncletopia | Sydney | 5 | Stopwatch | STV","players":null},{"server_id":59,"name":"Uncletopia | Sydney | 6 | Community","name_short":"syd-6","host":"syd-1.au.uncletopia.com","port":27065,"enabled":true,"region":"au","cc":"au","latitude":-33.865143,"longitude":151.2099,"reserved":0,"last_update":"0001-01-01T00:00:00Z","name_a2s":"Uncletopia | Sydney | 6 | Community","protocol":17,"map":"workshop/koth_trenchfoot_ab1.ugc731436616","folder":"tf","game":"Team Fortress","app_id":440,"player_count":0,"max_players":24,"Bots":0,"server_type":"Dedicated","server_os":"Linux","password":true,"vac":true,"version":"7961495","steam_id":85568392925397960,"keywords":["cp","nocrits","nodmgspread","uncletopia"],"game_id":440,"stv_port":27066,"stv_name":"Uncletopia | Sydney | 6 | Community | STV","players":null},{"server_id":49,"name":"Uncletopia | Warsaw | 1 | One Thousand Uncles","name_short":"waw-1","host":"waw-1.pl.uncletopia.com","port":27015,"enabled":true,"region":"eu","cc":"pl","latitude":52.2297,"longitude":21.017532,"reserved":0,"last_update":"0001-01-01T00:00:00Z","name_a2s":"Uncletopia | Warsaw | 1 | One Thousand Uncles","protocol":17,"map":"cp_mercenarypark","folder":"tf","game":"Team Fortress","app_id":440,"player_count":0,"max_players":32,"Bots":0,"server_type":"Dedicated","server_os":"Linux","password":true,"vac":true,"version":"7961495","steam_id":85568392925397850,"keywords":["alltalk","cp","danepve","increased_maxplayers","norespawntime","uncletopia"],"game_id":440,"stv_port":0,"stv_name":"","players":null},{"server_id":50,"name":"Uncletopia | Warsaw | 2 | One Thousand Uncles","name_short":"waw-2","host":"waw-1.pl.uncletopia.com","port":27025,"enabled":true,"region":"eu","cc":"pl","latitude":52.2297,"longitude":21.017532,"reserved":0,"last_update":"0001-01-01T00:00:00Z","name_a2s":"Uncletopia | Warsaw | 2 | One Thousand Uncles","protocol":17,"map":"cp_egypt_final","folder":"tf","game":"Team Fortress","app_id":440,"player_count":0,"max_players":32,"Bots":0,"server_type":"Dedicated","server_os":"Linux","password":true,"vac":true,"version":"7961495","steam_id":85568392925397851,"keywords":["alltalk","cp","danepve","increased_maxplayers","norespawntime","uncletopia"],"game_id":440,"stv_port":0,"stv_name":"","players":null},{"server_id":51,"name":"Uncletopia | Warsaw | 3 | All Maps","name_short":"waw-3","host":"waw-1.pl.uncletopia.com","port":27035,"enabled":true,"region":"eu","cc":"pl","latitude":52.2297,"longitude":21.017532,"reserved":0,"last_update":"0001-01-01T00:00:00Z","name_a2s":"Uncletopia | Warsaw | 3 | All Maps","protocol":17,"map":"pl_snowycoast","folder":"tf","game":"Team Fortress","app_id":440,"player_count":0,"max_players":24,"Bots":0,"server_type":"Dedicated","server_os":"Linux","password":true,"vac":true,"version":"7961495","steam_id":85568392925397852,"keywords":["nocrits","nodmgspread","payload","uncletopia"],"game_id":440,"stv_port":27036,"stv_name":"Uncletopia | Warsaw | 3 | All Maps | STV","players":null},{"server_id":52,"name":"Uncletopia | Warsaw | 4 | All Maps","name_short":"waw-4","host":"waw-1.pl.uncletopia.com","port":27045,"enabled":true,"region":"eu","cc":"pl","latitude":52.2297,"longitude":21.017532,"reserved":0,"last_update":"0001-01-01T00:00:00Z","name_a2s":"Uncletopia | Warsaw | 4 | All Maps","protocol":17,"map":"cp_fastlane","folder":"tf","game":"Team Fortress","app_id":440,"player_count":0,"max_players":24,"Bots":0,"server_type":"Dedicated","server_os":"Linux","password":true,"vac":true,"version":"7961495","steam_id":85568392925397853,"keywords":["cp","nocrits","nodmgspread","uncletopia"],"game_id":440,"stv_port":27046,"stv_name":"Uncletopia | Warsaw | 4 | All Maps | STV","players":null},{"server_id":53,"name":"Uncletopia | Warsaw | 5 | Stopwatch","name_short":"waw-5","host":"waw-1.pl.uncletopia.com","port":27055,"enabled":true,"region":"eu","cc":"pl","latitude":52.2297,"longitude":21.017532,"reserved":0,"last_update":"0001-01-01T00:00:00Z","name_a2s":"Uncletopia | Warsaw | 5 | Stopwatch","protocol":17,"map":"cp_gullywash_final1","folder":"tf","game":"Team Fortress","app_id":440,"player_count":0,"max_players":24,"Bots":0,"server_type":"Dedicated","server_os":"Linux","password":true,"vac":true,"version":"7961495","steam_id":85568392925397854,"keywords":["cp","nocrits","nodmgspread","uncletopia"],"game_id":440,"stv_port":27056,"stv_name":"Uncletopia | Warsaw | 5 | Stopwatch | STV","players":null},{"server_id":54,"name":"Uncletopia | Warsaw | 6 | Community","name_short":"waw-6","host":"waw-1.pl.uncletopia.com","port":27065,"enabled":true,"region":"eu","cc":"pl","latitude":52.2297,"longitude":21.017532,"reserved":0,"last_update":"0001-01-01T00:00:00Z","name_a2s":"Uncletopia | Warsaw | 6 | Community","protocol":17,"map":"workshop/cp_fulgur_rc2a.ugc2068252300","folder":"tf","game":"Team Fortress","app_id":440,"player_count":0,"max_players":24,"Bots":0,"server_type":"Dedicated","server_os":"Linux","password":true,"vac":true,"version":"7961495","steam_id":85568392925397856,"keywords":["cp","nocrits","nodmgspread","uncletopia"],"game_id":440,"stv_port":27066,"stv_name":"Uncletopia | Warsaw | 6 | Community | STV","players":null}]}