{"status":true,"message":"","result":[{"server_id":9,"name":"Uncletopia | Atlanta | 1 | All Maps","name_short":"atl-1","host":"atl-1.us.uncletopia.com","port":27015,"enabled":true,"region":"us-east","cc":"us","latitude":33.753746,"longitude":-84.38633,"reserved":0,"last_update":"0001-01-01T00:00:00Z","name_a2s":"Uncletopia | Atlanta | 1 | All Maps","protocol":17,"map":"pl_pier","folder":"tf","game":"Team Fortress","app_id":440,"player_count":24,"max_players":24,"Bots":0,"server_type":"Dedicated","server_os":"Linux","password":true,"vac":true,"version":"7961495","steam_id":85568392924469982,"keywords":["nocrits","nodmgspread","payload","uncletopia"],"game_id":440,"stv_port":27016,"stv_name":"Uncletopia | Atlanta | 1 | All Maps | STV","players":[{"user_id":433,"name":"paetho YT","steam_id":76561198152690003,"connected_time":3080000000000,"state":"active","ping":45},{"user_id":454,"name":"ATL1 | Woke Bush","steam_id":76561198047994501,"connected_time":1773000000000,"state":"active","ping":74},{"user_id":404,"name":"Chernov","steam_id":76561198014463424,"connected_time":4707000000000,"state":"active","ping":60},{"user_id":432,"name":"Sinta","steam_id":76561198098398841,"connected_time":3557000000000,"state":"active","ping":61},{"user_id":461,"name":"Im High","steam_id":76561198049954886,"connected_time":863000000000,"state":"active","ping":74},{"user_id":427,"name":"eish","steam_id":76561198089463603,"connected_time":3654000000000,"state":"active","ping":122},{"user_id":437,"name":"Obelisk","steam_id":76561198049416866,"connected_time":3024000000000,"state":"active","ping":122},{"user_id":443,"name":"Jabawakai","steam_id":76561198088881254,"connected_time":2329000000000,"state":"active","ping":83},{"user_id":445,"name":"hkiller","steam_id":76561198029265697,"connected_time":2005000000000,"state":"active","ping":88},{"user_id":453,"name":"ATL1 | to4st","steam_id":76561198981009008,"connected_time":1972000000000,"state":"active","ping":72},{"user_id":374,"name":"barfunkle","steam_id":76561198927517471,"connected_time":7020000000000,"state":"active","ping":57},{"user_id":460,"name":"lu","steam_id":76561198080731872,"connected_time":1016000000000,"state":"active","ping":91},{"user_id":462,"name":"Professional Femboy","steam_id":76561198162303472,"connected_time":538000000000,"state":"active","ping":59},{"user_id":426,"name":"Sophie","steam_id":76561198170408057,"connected_time":3678000000000,"state":"active","ping":53},{"user_id":458,"name":"catgirlkawaii22","steam_id":76561199015827567,"connected_time":1374000000000,"state":"active","ping":94},{"user_id":447,"name":"/\\","steam_id":76561198045522596,"connected_time":2003000000000,"state":"active","ping":73},{"user_id":463,"name":"The New Jersey Devils","steam_id":76561198970380577,"connected_time":535000000000,"state":"active","ping":90},{"user_id":449,"name":"why","steam_id":76561199059732212,"connected_time":1993000000000,"state":"active","ping":59},{"user_id":396,"name":"DeezNoodlez","steam_id":76561198246700372,"connected_time":5285000000000,"state":"active","ping":62},{"user_id":464,"name":"loot","steam_id":76561198069954956,"connected_time":512000000000,"state":"active","ping":56},{"user_id":320,"name":"Heathcliff","steam_id":76561198044288534,"connected_time":12067000000000,"state":"active","ping":85},{"user_id":440,"name":"freyja","steam_id":76561198249206656,"connected_time":2705000000000,"state":"active","ping":90},{"user_id":379,"name":"Notsocreative","steam_id":76561198236372202,"connected_time":6390000000000,"state":"active","ping":95},{"user_id":451,"name":"ATL1 | cola","steam_id":76561198374390458,"connected_time":1988000000000,"state":"active","ping":78}]},{"server_id":104,"name":"Uncletopia | Atlanta | 2 | All Maps","name_short":"atl-2","host":"atl-1.us.uncletopia.com","port":27025,"enabled":true,"region":"us-east","cc":"us","latitude":33.753746,"longitude":-84.38633,"reserved":0,"last_update":"0001-01-01T00:00:00Z","name_a2s":"Uncletopia | Atlanta | 2 | All Maps","protocol":17,"map":"cp_steel","folder":"tf","game":"Team Fortress","app_id":440,"player_count":24,"max_players":24,"Bots":0,"server_type":"Dedicated","server_os":"Linux","password":true,"vac":true,"version":"7961495","steam_id":85568392924469983,"keywords":["cp","nocrits","nodmgspread","uncletopia"],"game_id":440,"stv_port":27026,"stv_name":"Uncletopia | Atlanta | 2 | All Maps | STV","players":[{"user_id":269,"name":"Bennet","steam_id":76561198194582382,"connected_time":928000000000,"state":"active","ping":58},{"user_id":264,"name":"Wheat","steam_id":76561198106270789,"connected_time":1400000000000,"state":"active","ping":54},{"user_id":273,"name":"No.21 - Feral Scent","steam_id":76561198045844070,"connected_time":768000000000,"state":"active","ping":75},{"user_id":262,"name":"Jeiyo","steam_id":76561199070161957,"connected_time":1475000000000,"state":"active","ping":63},{"user_id":178,"name":"noelle","steam_id":76561198098107584,"connected_time":7563000000000,"state":"active","ping":73},{"user_id":267,"name":"Yeahboiiii","steam_id":76561198390325068,"connected_time":1216000000000,"state":"active","ping":85},{"user_id":272,"name":"doop","steam_id":76561198370487545,"connected_time":785000000000,"state":"active","ping":79},{"user_id":271,"name":"Sewer Wizard","steam_id":76561199061404496,"connected_time":896000000000,"state":"active","ping":77},{"user_id":259,"name":"Brown_Dream","steam_id":76561198975766145,"connected_time":1839000000000,"state":"active","ping":82},{"user_id":274,"name":"BreakfastTacos","steam_id":76561198847620442,"connected_time":764000000000,"state":"active","ping":97},{"user_id":252,"name":"Lifial","steam_id":76561198271885819,"connected_time":2469000000000,"state":"active","ping":84},{"user_id":285,"name":"!cav","steam_id":76561198041535102,"connected_time":223000000000,"state":"active","ping":81},{"user_id":282,"name":"incredirocks","steam_id":76561198061079993,"connected_time":530000000000,"state":"active","ping":75},{"user_id":268,"name":"Yoshimelon","steam_id":76561198253054325,"connected_time":1133000000000,"state":"active","ping":61},{"user_id":143,"name":"ParanormalSmuggler","steam_id":76561198102529363,"connected_time":10370000000000,"state":"active","ping":93},{"user_id":257,"name":"Woody","steam_id":76561198020308956,"connected_time":2210000000000,"state":"active","ping":56},{"user_id":277,"name":"mollusk_obliteration","steam_id":76561198085388962,"connected_time":724000000000,"state":"active","ping":80},{"user_id":281,"name":"veen","steam_id":76561198084334538,"connected_time":589000000000,"state":"active","ping":83},{"user_id":263,"name":"TheSecretNewbie","steam_id":76561198194671218,"connected_time":1458000000000,"state":"active","ping":43},{"user_id":202,"name":"joyeuxnoelle","steam_id":76561198062423120,"connected_time":6402000000000,"state":"active","ping":74},{"user_id":280,"name":"ast_ra","steam_id":76561198041032459,"connected_time":688000000000,"state":"active","ping":60},{"user_id":284,"name":"Some_Arse","steam_id":76561198039095394,"connected_time":329000000000,"state":"active","ping":81},{"user_id":242,"name":"the keebler","steam_id":76561199486326945,"connected_time":3285000000000,"state":"active","ping":64},{"user_id":236,"name":"Monkey Mode","steam_id":76561197961267543,"connected_time":3801000000000,"state":"active","ping":70}]},{"server_id":400,"name":"Uncletopia | Atlanta | 3 | Stopwatch","name_short":"atl-3","host":"atl-1.us.uncletopia.com","port":27035,"enabled":true,"region":"us-east","cc":"us","latitude":33.753746,"longitude":-84.38633,"reserved":0,"last_update":"0001-01-01T00:00:00Z","name_a2s":"Uncletopia | Atlanta | 3 | Stopwatch","protocol":17,"map":"cp_gullywash_final1","folder":"tf","game":"Team Fortress","app_id":440,"player_count":12,"max_players":24,"Bots":0,"server_type":"Dedicated","server_os":"Linux","password":true,"vac":true,"version":"7961495","steam_id":85568392924515187,"keywords":["cp","nocrits","nodmgspread","uncletopia"],"game_id":440,"stv_port":27036,"stv_name":"Uncletopia | Atlanta | 3 | Stopwatch | STV","players":[{"user_id":304,"name":"The Assistant Regional Manager","steam_id":76561199221484936,"connected_time":519000000000,"state":"active","ping":127},{"user_id":305,"name":"\u003e:3 Muiramme Œµ—ó–∑","steam_id":76561197994458543,"connected_time":443000000000,"state":"active","ping":105},{"user_id":306,"name":"Munky","steam_id":76561197993491054,"connected_time":305000000000,"state":"active","ping":121},{"user_id":307,"name":"Armpit!","steam_id":76561197978095727,"connected_time":217000000000,"state":"active","ping":124},{"user_id":308,"name":"Asanez3","steam_id":76561198037381436,"connected_time":217000000000,"state":"active","ping":74},{"user_id":292,"name":"ŒûBrwni","steam_id":76561199031828153,"connected_time":1168000000000,"state":"active","ping":104},{"user_id":309,"name":"All Tomorrow's Parties","steam_id":76561197995936212,"connected_time":179000000000,"state":"active","ping":60},{"user_id":310,"name":"custodian","steam_id":76561198058793778,"connected_time":70000000000,"state":"active","ping":74},{"user_id":311,"name":"Que-sus-dilla","steam_id":76561198125712564,"connected_time":67000000000,"state":"active","ping":124},{"user_id":256,"name":"team fortress","steam_id":76561198801207748,"connected_time":3268000000000,"state":"active","ping":36},{"user_id":253,"name":"Liver stealer","steam_id":76561199029954287,"connected_time":3397000000000,"state":"active","ping":128},{"user_id":282,"name":"Gustavo Fring","steam_id":76561198132807405,"connected_time":1942000000000,"state":"active","ping":93}]},{"server_id":401,"name":"Uncletopia | Atlanta | 4 | Community","name_short":"atl-4","host":"atl-1.us.uncletopia.com","port":27045,"enabled":true,"region":"us-east","cc":"us","latitude":33.753746,"longitude":-84.38633,"reserved":0,"last_update":"0001-01-01T00:00:00Z","name_a2s":"Uncletopia | Atlanta | 4 | Community","protocol":17,"map":"workshop/koth_slaughter_rc1.ugc1712845210","folder":"tf","game":"Team Fortress","app_id":440,"player_count":1,"max_players":24,"Bots":0,"server_type":"Dedicated","server_os":"Linux","password":true,"vac":true,"version":"7961495","steam_id":85568392924515188,"keywords":["cp","nocrits","nodmgspread","uncletopia"],"game_id":440,"stv_port":27046,"stv_name":"Uncletopia | Atlanta | 4 | Community | STV","players":[{"user_id":4215,"name":"R@cing74m","steam_id":76561199036177043,"connected_time":0,"state":"connecting","ping":0}]},{"server_id":2,"name":"Uncletopia | Chicago | 1 | All Maps","name_short":"chi-1","host":"chi-1.us.uncletopia.com","port":27015,"enabled":true,"region":"us-central","cc":"us","latitude":41.881832,"longitude":-87.62318,"reserved":0,"last_update":"0001-01-01T00:00:00Z","name_a2s":"Uncletopia | Chicago | 1 | All Maps","protocol":17,"map":"pl_upward","folder":"tf","game":"Team Fortress","app_id":440,"player_count":24,"max_players":24,"Bots":0,"server_type":"Dedicated","server_os":"Linux","password":true,"vac":true,"version":"7961495","steam_id":85568392924469984,"keywords":["nocrits","nodmgspread","payload","uncletopia"],"game_id":440,"stv_port":27016,"stv_name":"Uncletopia | Chicago | 1 | All Maps | STV","players":[{"user_id":648,"name":"Snom","steam_id":76561198333827920,"connected_time":4017000000000,"state":"active","ping":168},{"user_id":688,"name":"Hertz","steam_id":76561198310927351,"connected_time":738000000000,"state":"active","ping":144},{"user_id":687,"name":"TheHarmacist","steam_id":76561198068249096,"connected_time":751000000000,"state":"active","ping":63},{"user_id":698,"name":"(¬¥ÔΩ°‚Ä¢ œâ ‚Ä¢ÔΩ°`) ‚ô°","steam_id":76561198120326983,"connected_time":524000000000,"state":"active","ping":59},{"user_id":664,"name":"Balerion the Black Dread","steam_id":76561198003728369,"connected_time":3395000000000,"state":"active","ping":62},{"user_id":685,"name":"Yakul","steam_id":76561198100040013,"connected_time":1005000000000,"state":"active","ping":86},{"user_id":690,"name":"Yoyo","steam_id":76561199000583700,"connected_time":727000000000,"state":"active","ping":74},{"user_id":673,"name":"muffin","steam_id":76561198145099865,"connected_time":2131000000000,"state":"active","ping":70},{"user_id":695,"name":"asakujakuuu","steam_id":76561198875745616,"connected_time":618000000000,"state":"active","ping":82},{"user_id":628,"name":"Maxpowi","steam_id":76561198095558036,"connected_time":6020000000000,"state":"active","ping":54},{"user_id":671,"name":"big steve","steam_id":76561199037050183,"connected_time":2392000000000,"state":"active","ping":98},{"user_id":686,"name":"kite","steam_id":76561198346516392,"connected_time":1005000000000,"state":"active","ping":65},{"user_id":668,"name":"fuckterry","steam_id":76561198271957738,"connected_time":2856000000000,"state":"active","ping":61},{"user_id":691,"name":"Master Lemons","steam_id":76561198272406084,"connected_time":723000000000,"state":"active","ping":79},{"user_id":696,"name":"PoisonIvy","steam_id":76561198072384574,"connected_time":613000000000,"state":"active","ping":60},{"user_id":692,"name":"Swifgz","steam_id":76561198162875756,"connected_time":720000000000,"state":"active","ping":63},{"user_id":639,"name":"Praise_to_the_Flashlight!","steam_id":76561199001728789,"connected_time":4668000000000,"state":"active","ping":61},{"user_id":697,"name":"Rudy","steam_id":76561198013456828,"connected_time":575000000000,"state":"active","ping":70},{"user_id":645,"name":"87987974","steam_id":76561198046948758,"connected_time":4365000000000,"state":"active","ping":52},{"user_id":612,"name":"zoomzoomzoom","steam_id":76561198079215612,"connected_time":6654000000000,"state":"active","ping":41},{"user_id":622,"name":"HOMIE","steam_id":76561198057325155,"connected_time":6132000000000,"state":"active","ping":63},{"user_id":666,"name":"Two-Ton Heavy Thing","steam_id":76561198201724274,"connected_time":3205000000000,"state":"active","ping":88},{"user_id":699,"name":"Howard Hamlin","steam_id":76561198881039861,"connected_time":501000000000,"state":"active","ping":54},{"user_id":672,"name":"What day is it?","steam_id":76561199056736682,"connected_time":2375000000000,"state":"active","ping":67}]},{"server_id":106,"name":"Uncletopia | Chicago | 2 | All Maps","name_short":"chi-2","host":"chi-1.us.uncletopia.com","port":27025,"enabled":true,"region":"us-central","cc":"us","latitude":41.881832,"longitude":-87.62318,"reserved":0,"last_update":"0001-01-01T00:00:00Z","name_a2s":"Uncletopia | Chicago | 2 | All Maps","protocol":17,"map":"pl_badwater","folder":"tf","game":"Team Fortress","app_id":440,"player_count":24,"max_players":24,"Bots":0,"server_type":"Dedicated","server_os":"Linux","password":true,"vac":true,"version":"7961495","steam_id":85568392924469985,"keywords":["nocrits","nodmgspread","payload","uncletopia"],"game_id":440,"stv_port":27026,"stv_name":"Uncletopia | Chicago | 2 | All Maps | STV","players":[{"user_id":350,"name":"Donnie Blasto","steam_id":76561198043432005,"connected_time":2733000000000,"state":"active","ping":52},{"user_id":383,"name":"PAPA ZAZA","steam_id":76561198071828689,"connected_time":588000000000,"state":"active","ping":68},{"user_id":357,"name":"Murchant","steam_id":76561198087744946,"connected_time":2282000000000,"state":"active","ping":72},{"user_id":333,"name":"stupid ape","steam_id":76561198350027075,"connected_time":3347000000000,"state":"active","ping":59},{"user_id":358,"name":"Griffin_Jr","steam_id":76561198421953311,"connected_time":2279000000000,"state":"active","ping":70},{"user_id":375,"name":"totally not a pile of beans","steam_id":76561198119851931,"connected_time":1191000000000,"state":"active","ping":82},{"user_id":359,"name":"Amari","steam_id":76561198272446730,"connected_time":2239000000000,"state":"active","ping":60},{"user_id":324,"name":"loser","steam_id":76561198259380127,"connected_time":3756000000000,"state":"active","ping":55},{"user_id":366,"name":"Amoxicilina","steam_id":76561198168486429,"connected_time":2028000000000,"state":"active","ping":123},{"user_id":384,"name":"Capt.Swag","steam_id":76561198088340994,"connected_time":249000000000,"state":"active","ping":77},{"user_id":385,"name":"Ripafart","steam_id":76561198012211405,"connected_time":249000000000,"state":"active","ping":102},{"user_id":353,"name":"Spygie","steam_id":76561198218573049,"connected_time":2679000000000,"state":"active","ping":87},{"user_id":338,"name":"{ null }","steam_id":76561197960366877,"connected_time":3160000000000,"state":"active","ping":46},{"user_id":367,"name":"Wolfking450","steam_id":76561198399975373,"connected_time":1858000000000,"state":"active","ping":84},{"user_id":388,"name":"PK","steam_id":76561198368722500,"connected_time":5000000000,"state":"spawning","ping":57},{"user_id":360,"name":"Cooper27","steam_id":76561198112567303,"connected_time":2179000000000,"state":"active","ping":183},{"user_id":361,"name":"SiltyStar85","steam_id":76561198309175923,"connected_time":2177000000000,"state":"active","ping":91},{"user_id":381,"name":"-TheMute-","steam_id":76561198107320072,"connected_time":674000000000,"state":"active","ping":60},{"user_id":354,"name":"hollowlilies","steam_id":76561198075315443,"connected_time":2676000000000,"state":"active","ping":79},{"user_id":378,"name":"nao","steam_id":76561198073982533,"connected_time":916000000000,"state":"active","ping":103},{"user_id":387,"name":"HappySmiles1010","steam_id":76561199202300463,"connected_time":222000000000,"state":"active","ping":130},{"user_id":382,"name":"Johnny Lawrence #JohnnyMaxxing","steam_id":76561199367141671,"connected_time":669000000000,"state":"active","ping":62},{"user_id":368,"name":"ZYNTERLINKED","steam_id":76561198241948526,"connected_time":1607000000000,"state":"active","ping":66},{"user_id":379,"name":"My Aim Is Bad!","steam_id":76561198223603960,"connected_time":708000000000,"state":"active","ping":135}]},{"server_id":402,"name":"Uncletopia | Chicago | 3 | All Maps","name_short":"chi-3","host":"chi-1.us.uncletopia.com","port":27035,"enabled":true,"region":"us-central","cc":"us","latitude":41.881832,"longitude":-87.62318,"reserved":0,"last_update":"0001-01-01T00:00:00Z","name_a2s":"Uncletopia | Chicago | 3 | All Maps","protocol":17,"map":"pl_badwater","folder":"tf","game":"Team Fortress","app_id":440,"player_count":23,"max_players":24,"Bots":0,"server_type":"Dedicated","server_os":"Linux","password":true,"vac":true,"version":"7961495","steam_id":85568392924515191,"keywords":["nocrits","nodmgspread","payload","uncletopia"],"game_id":440,"stv_port":27036,"stv_name":"Uncletopia | Chicago | 3 | All Maps | STV","players":[{"user_id":616,"name":"boyfail","steam_id":76561198033499175,"connected_time":1090000000000,"state":"active","ping":66},{"user_id":581,"name":"DerpyNate","steam_id":76561198100249037,"connected_time":5014000000000,"state":"active","ping":38},{"user_id":617,"name":"Brendan","steam_id":76561198041079914,"connected_time":1077000000000,"state":"active","ping":70},{"user_id":567,"name":"Buckler","steam_id":76561197969421355,"connected_time":5541000000000,"state":"active","ping":53},{"user_id":613,"name":"KTB","steam_id":76561197990744614,"connected_time":1578000000000,"state":"active","ping":52},{"user_id":614,"name":"the age of consent is 18","steam_id":76561198831996918,"connected_time":1213000000000,"state":"active","ping":50},{"user_id":618,"name":"Miramar","steam_id":76561198022057653,"connected_time":1041000000000,"state":"active","ping":55},{"user_id":579,"name":"MedRed‚Ñ¢ #IATAH","steam_id":76561198002962970,"connected_time":5029000000000,"state":"active","ping":90},{"user_id":580,"name":"Hazeyboi","steam_id":76561198130687838,"connected_time":5023000000000,"state":"active","ping":43},{"user_id":607,"name":"hatchetax","steam_id":76561199013337543,"connected_time":2546000000000,"state":"active","ping":69},{"user_id":573,"name":"SaltyManok","steam_id":76561198160082948,"connected_time":5353000000000,"state":"active","ping":48},{"user_id":552,"name":"King Cotton","steam_id":76561198292444376,"connected_time":6664000000000,"state":"active","ping":85},{"user_id":595,"name":"for the king","steam_id":76561197973488858,"connected_time":3539000000000,"state":"active","ping":59},{"user_id":624,"name":"clara","steam_id":76561198419619684,"connected_time":105000000000,"state":"active","ping":78},{"user_id":584,"name":"Maximum Flame","steam_id":76561198073682529,"connected_time":4833000000000,"state":"active","ping":41},{"user_id":610,"name":"gaza","steam_id":76561199056091914,"connected_time":1671000000000,"state":"active","ping":76},{"user_id":596,"name":"Generator","steam_id":76561198011762257,"connected_time":3487000000000,"state":"active","ping":115},{"user_id":543,"name":"Terror-Billy #SaveTF2","steam_id":76561198328141870,"connected_time":7671000000000,"state":"active","ping":65},{"user_id":609,"name":"enhanced with disney's FastPlay","steam_id":76561198164134387,"connected_time":1794000000000,"state":"active","ping":110},{"user_id":559,"name":"Hipster_Giraffe","steam_id":76561198069701092,"connected_time":6279000000000,"state":"active","ping":90},{"user_id":565,"name":"swagaholic","steam_id":76561199014715203,"connected_time":5767000000000,"state":"active","ping":115},{"user_id":622,"name":"autism","steam_id":76561198143526292,"connected_time":825000000000,"state":"active","ping":67},{"user_id":590,"name":"Dieu-Sama","steam_id":76561198002075862,"connected_time":4062000000000,"state":"active","ping":84}]},{"server_id":403,"name":"Uncletopia | Chicago | 4 | All Maps","name_short":"chi-4","host":"chi-1.us.uncletopia.com","port":27045,"enabled":true,"region":"us-central","cc":"us","latitude":41.881832,"longitude":-87.62318,"reserved":0,"last_update":"0001-01-01T00:00:00Z","name_a2s":"Uncletopia | Chicago | 4 | All Maps","protocol":17,"map":"pl_borneo","folder":"tf","game":"Team Fortress","app_id":440,"player_count":24,"max_players":24,"Bots":0,"server_type":"Dedicated","server_os":"Linux","password":true,"vac":true,"version":"7961495","steam_id":85568392924515193,"keywords":["nocrits","nodmgspread","payload","uncletopia"],"game_id":440,"stv_port":27046,"stv_name":"Uncletopia | Chicago | 4 | All Maps | STV","players":[{"user_id":503,"name":"Shoeshocker","steam_id":76561198174302467,"connected_time":269000000000,"state":"active","ping":261},{"user_id":504,"name":"Couriadore","steam_id":76561198055814008,"connected_time":68000000000,"state":"active","ping":61},{"user_id":488,"name":"your fwiend","steam_id":76561198154773643,"connected_time":1385000000000,"state":"active","ping":67},{"user_id":493,"name":"Misha","steam_id":76561198066174041,"connected_time":1141000000000,"state":"active","ping":58},{"user_id":458,"name":"ghostofartist","steam_id":76561198881434725,"connected_time":3449000000000,"state":"active","ping":54},{"user_id":412,"name":"Scoot the Burbs","steam_id":76561198079507179,"connected_time":7363000000000,"state":"active","ping":73},{"user_id":390,"name":"ItsThatBear","steam_id":76561198169617659,"connected_time":9770000000000,"state":"active","ping":89},{"user_id":480,"name":"New Reno","steam_id":76561198156522866,"connected_time":1700000000000,"state":"active","ping":93},{"user_id":469,"name":"Headshotsnake","steam_id":76561198067130248,"connected_time":2754000000000,"state":"active","ping":60},{"user_id":472,"name":"Ceiling Man","steam_id":76561198003959902,"connected_time":2323000000000,"state":"active","ping":59},{"user_id":461,"name":"slep.py","steam_id":76561197988287144,"connected_time":3216000000000,"state":"active","ping":54},{"user_id":497,"name":"NerdyEnforcement","steam_id":76561198437710820,"connected_time":993000000000,"state":"active","ping":71},{"user_id":494,"name":" ï‚Ä¢·¥•‚Ä¢ î the bear","steam_id":76561197989591976,"connected_time":1115000000000,"state":"active","ping":75},{"user_id":474,"name":"Marky92","steam_id":76561198044796178,"connected_time":2242000000000,"state":"active","ping":63},{"user_id":496,"name":"lil EGG","steam_id":76561198361321253,"connected_time":1056000000000,"state":"active","ping":83},{"user_id":481,"name":"dota player 74712","steam_id":76561198193746389,"connected_time":1694000000000,"state":"active","ping":85},{"user_id":498,"name":"YOU JUST LOST THE GAME","steam_id":76561198012126625,"connected_time":982000000000,"state":"active","ping":72},{"user_id":499,"name":"Shorty","steam_id":76561198044873248,"connected_time":836000000000,"state":"active","ping":46},{"user_id":449,"name":"Eviking","steam_id":76561198055973343,"connected_time":4007000000000,"state":"active","ping":101},{"user_id":391,"name":"AL SPUGNAR","steam_id":76561199020253203,"connected_time":9721000000000,"state":"active","ping":121},{"user_id":500,"name":"BlubBlubMaster DownloadRam.com","steam_id":76561198070529775,"connected_time":537000000000,"state":"active","ping":48},{"user_id":491,"name":"Waffle","steam_id":76561199000034608,"connected_time":1182000000000,"state":"active","ping":66},{"user_id":502,"name":"Granola","steam_id":76561198312513800,"connected_time":445000000000,"state":"active","ping":46},{"user_id":478,"name":"Billyjoe3000","steam_id":76561198306524388,"connected_time":2160000000000,"state":"active","ping":68}]},{"server_id":36,"name":"Uncletopia | Chicago | 5 | All Maps","name_short":"chi-5","host":"chi-2.us.uncletopia.com","port":27015,"enabled":true,"region":"us-central","cc":"us","latitude":41.881832,"longitude":-87.62318,"reserved":0,"last_update":"0001-01-01T00:00:00Z","name_a2s":"Uncletopia | Chicago | 5 | All Maps","protocol":17,"map":"pl_barnblitz","folder":"tf","game":"Team Fortress","app_id":440,"player_count":24,"max_players":24,"Bots":0,"server_type":"Dedicated","server_os":"Linux","password":true,"vac":true,"version":"7961495","steam_id":85568392924866362,"keywords":["nocrits","nodmgspread","payload","uncletopia"],"game_id":440,"stv_port":27016,"stv_name":"Uncletopia | Chicago | 5 | All Maps | STV","players":[{"user_id":219,"name":"Rachi","steam_id":76561198083826053,"connected_time":5853000000000,"state":"active","ping":70},{"user_id":268,"name":"agless","steam_id":76561198045248344,"connected_time":1084000000000,"state":"active","ping":55},{"user_id":202,"name":"Sickduck Mcgee","steam_id":76561198028577159,"connected_time":6524000000000,"state":"active","ping":77},{"user_id":247,"name":"ther","steam_id":76561199191376935,"connected_time":3120000000000,"state":"active","ping":85},{"user_id":270,"name":"‚ôÇ I R O N ‚ôÇ M I K E ‚ôÇ","steam_id":76561199405378993,"connected_time":352000000000,"state":"active","ping":62},{"user_id":264,"name":"canakblasteran","steam_id":76561199472518822,"connected_time":1620000000000,"state":"active","ping":108},{"user_id":222,"name":"Rock Kickass","steam_id":76561198450510841,"connected_time":5773000000000,"state":"active","ping":123},{"user_id":271,"name":"Firedust19","steam_id":76561198153238631,"connected_time":348000000000,"state":"active","ping":112},{"user_id":249,"name":"BinLobbin","steam_id":76561199258402877,"connected_time":3109000000000,"state":"active","ping":84},{"user_id":265,"name":"bob","steam_id":76561198274522348,"connected_time":1616000000000,"state":"active","ping":61},{"user_id":227,"name":"thatguy_luigi","steam_id":76561198968055462,"connected_time":4580000000000,"state":"active","ping":150},{"user_id":266,"name":"Fostrel","steam_id":76561198152160601,"connected_time":1614000000000,"state":"active","ping":81},{"user_id":274,"name":"nickyboy","steam_id":76561198055205332,"connected_time":105000000000,"state":"active","ping":91},{"user_id":251,"name":"boffo","steam_id":76561198096978718,"connected_time":3101000000000,"state":"active","ping":90},{"user_id":275,"name":"Q47","steam_id":76561198087128341,"connected_time":91000000000,"state":"active","ping":126},{"user_id":272,"name":"Dogemetri","steam_id":76561198274982830,"connected_time":337000000000,"state":"active","ping":61},{"user_id":252,"name":"Space‚≠êTaffy","steam_id":76561198002271720,"connected_time":3091000000000,"state":"active","ping":73},{"user_id":256,"name":"Wet Deer","steam_id":76561198145045927,"connected_time":2825000000000,"state":"active","ping":57},{"user_id":257,"name":"a hairdryer","steam_id":76561197998390764,"connected_time":2586000000000,"state":"active","ping":120},{"user_id":267,"name":"Streetwise","steam_id":76561197971684268,"connected_time":1606000000000,"state":"active","ping":86},{"user_id":234,"name":"car crash compilation #34","steam_id":76561198042773724,"connected_time":4495000000000,"state":"active","ping":102},{"user_id":273,"name":"lily","steam_id":76561198420237035,"connected_time":297000000000,"state":"active","ping":130},{"user_id":254,"name":"Jar Jar Kinks","steam_id":76561199087748803,"connected_time":3052000000000,"state":"active","ping":76},{"user_id":269,"name":"Lord Aben","steam_id":76561198135266770,"connected_time":415000000000,"state":"active","ping":38}]},{"server_id":37,"name":"Uncletopia | Chicago | 6 | All Maps","name_short":"chi-6","host":"chi-2.us.uncletopia.com","port":27025,"enabled":true,"region":"us-central","cc":"us","latitude":41.881832,"longitude":-87.62318,"reserved":0,"last_update":"0001-01-01T00:00:00Z","name_a2s":"Uncletopia | Chicago | 6 | All Maps","protocol":17,"map":"pl_swiftwater_final1","folder":"tf","game":"Team Fortress","app_id":440,"player_count":20,"max_players":24,"Bots":0,"server_type":"Dedicated","server_os":"Linux","password":true,"vac":true,"version":"7961495","steam_id":85568392924866363,"keywords":["nocrits","nodmgspread","payload","uncletopia"],"game_id":440,"stv_port":27026,"stv_name":"Uncletopia | Chicago | 6 | All Maps | STV","players":[{"user_id":153,"name":"Carpet enthusiast","steam_id":76561198024040142,"connected_time":10984000000000,"state":"active","ping":97},{"user_id":252,"name":"a fuddruckers","steam_id":76561198092656099,"connected_time":3583000000000,"state":"active","ping":30},{"user_id":263,"name":"Aster","steam_id":76561198037920420,"connected_time":2942000000000,"state":"active","ping":74},{"user_id":283,"name":"Maurdakar","steam_id":76561197983420976,"connected_time":1042000000000,"state":"active","ping":81},{"user_id":302,"name":"Gram Tokers Count Doinkula","steam_id":76561198112811565,"connected_time":167000000000,"state":"active","ping":63},{"user_id":293,"name":"Dredd‚Ñ¢","steam_id":76561197998495764,"connected_time":706000000000,"state":"active","ping":71},{"user_id":304,"name":"Barmy","steam_id":76561198111626352,"connected_time":9000000000,"state":"spawning","ping":77},{"user_id":279,"name":"bumrusherz","steam_id":76561198440658195,"connected_time":1165000000000,"state":"active","ping":79},{"user_id":286,"name":"too funky ·óúÀ¨·óú","steam_id":76561199120399776,"connected_time":957000000000,"state":"spawning","ping":75},{"user_id":294,"name":"Lv3 Kobold Shadow Sorcerer","steam_id":76561198042068995,"connected_time":457000000000,"state":"active","ping":71},{"user_id":301,"name":"Alx","steam_id":76561198080854314,"connected_time":250000000000,"state":"active","ping":55},{"user_id":278,"name":"Arbiter","steam_id":76561198072605849,"connected_time":2022000000000,"state":"active","ping":59},{"user_id":281,"name":"THE ULTIMATE JOHN","steam_id":76561199082758073,"connected_time":1064000000000,"state":"active","ping":51},{"user_id":248,"name":"Pilot","steam_id":76561198242227952,"connected_time":4943000000000,"state":"active","ping":68},{"user_id":300,"name":"Randumb","steam_id":76561199083286636,"connected_time":295000000000,"state":"active","ping":70},{"user_id":297,"name":"Freyja","steam_id":76561198207412177,"connected_time":368000000000,"state":"active","ping":69},{"user_id":261,"name":"cavalry#453245134","steam_id":76561198044856349,"connected_time":2981000000000,"state":"active","ping":59},{"user_id":270,"name":"Judge Judy and executioner","steam_id":76561198015235881,"connected_time":2808000000000,"state":"active","ping":74},{"user_id":282,"name":"Cat","steam_id":76561198328159094,"connected_time":1061000000000,"state":"active","ping":142},{"user_id":298,"name":"Feds taught me how to","steam_id":76561198011675372,"connected_time":349000000000,"state":"active","ping":103}]},{"server_id":38,"name":"Uncletopia | Chicago | 7 | Stopwatch","name_short":"chi-7","host":"chi-2.us.uncletopia.com","port":27035,"enabled":true,"region":"us-central","cc":"us","latitude":41.881832,"longitude":-87.62318,"reserved":0,"last_update":"0001-01-01T00:00:00Z","name_a2s":"Uncletopia | Chicago | 7 | Stopwatch","protocol":17,"map":"koth_lakeside_final","folder":"tf","game":"Team Fortress","app_id":440,"player_count":0,"max_players":24,"Bots":0,"server_type":"Dedicated","server_os":"Linux","password":true,"vac":true,"version":"7961495","steam_id":85568392924866364,"keywords":["cp","nocrits","nodmgspread","uncletopia"],"game_id":440,"stv_port":27036,"stv_name":"Uncletopia | Chicago | 7 | Stopwatch | STV","players":null},{"server_id":39,"name":"Uncletopia | Chicago | 8 | Community","name_short":"chi-8","host":"chi-2.us.uncletopia.com","port":27045,"enabled":true,"region":"us-central","cc":"us","latitude":41.881832,"longitude":-87.62318,"reserved":0,"last_update":"0001-01-01T00:00:00Z","name_a2s":"Uncletopia | Chicago | 8 | Community","protocol":17,"map":"workshop/koth_ramjam_rc1.ugc459778887","folder":"tf","game":"Team Fortress","app_id":440,"player_count":0,"max_players":24,"Bots":0,"server_type":"Dedicated","server_os":"Linux","password":true,"vac":true,"version":"7961495","steam_id":85568392924866365,"keywords":["cp","nocrits","nodmgspread","uncletopia"],"game_id":440,"stv_port":27046,"stv_name":"Uncletopia | Chicago | 8 | Community | STV","players":null},{"server_id":8,"name":"Uncletopia | Dallas | 1 | All Maps","name_short":"dal-1","host":"dal-1.us.uncletopia.com","port":27015,"enabled":true,"region":"us-central","cc":"us","latitude":32.779167,"longitude":-96.80889,"reserved":0,"last_update":"0001-01-01T00:00:00Z","name_a2s":"Uncletopia | Dallas | 1 | All Maps","protocol":17,"map":"pl_barnblitz","folder":"tf","game":"Team Fortress","app_id":440,"player_count":24,"max_players":24,"Bots":0,"server_type":"Dedicated","server_os":"Linux","password":true,"vac":true,"version":"7961495","steam_id":85568392924469986,"keywords":["nocrits","nodmgspread","payload","uncletopia"],"game_id":440,"stv_port":27016,"stv_name":"Uncletopia | Dallas | 1 | All Maps | STV","players":[{"user_id":414,"name":"scrundlebundle","steam_id":76561199209883822,"connected_time":2491000000000,"state":"active","ping":99},{"user_id":459,"name":"dave","steam_id":76561198135961731,"connected_time":233000000000,"state":"active","ping":61},{"user_id":358,"name":"Mellou","steam_id":76561198212048740,"connected_time":6495000000000,"state":"active","ping":48},{"user_id":444,"name":"TOKENLIZARD","steam_id":76561198218765205,"connected_time":1054000000000,"state":"active","ping":64},{"user_id":413,"name":"V. G. Sunderland","steam_id":76561198161839980,"connected_time":2504000000000,"state":"active","ping":84},{"user_id":449,"name":"Imrgrim","steam_id":76561198135866481,"connected_time":795000000000,"state":"active","ping":71},{"user_id":452,"name":"Babushka Lady","steam_id":76561198153280053,"connected_time":752000000000,"state":"active","ping":123},{"user_id":370,"name":"biggamehntr887","steam_id":76561198999431215,"connected_time":4987000000000,"state":"active","ping":78},{"user_id":436,"name":"Casey Seaman","steam_id":76561198267658555,"connected_time":1578000000000,"state":"active","ping":62},{"user_id":460,"name":"Wahaha hee","steam_id":76561198098017157,"connected_time":185000000000,"state":"active","ping":62},{"user_id":463,"name":"nonagon infinity","steam_id":76561198397662124,"connected_time":9000000000,"state":"active","ping":76},{"user_id":458,"name":"BatMatt","steam_id":76561198045910433,"connected_time":364000000000,"state":"active","ping":49},{"user_id":430,"name":"chud smoker","steam_id":76561198120973162,"connected_time":1978000000000,"state":"active","ping":99},{"user_id":462,"name":"Ronnie Pickering!","steam_id":76561198041842118,"connected_time":77000000000,"state":"active","ping":82},{"user_id":373,"name":"Deluxe_Taco34","steam_id":76561199037653437,"connected_time":4957000000000,"state":"active","ping":130},{"user_id":427,"name":"The Sydney Sleeper Itself","steam_id":76561198180251763,"connected_time":2135000000000,"state":"active","ping":59},{"user_id":429,"name":"breathing meat donut","steam_id":76561198123566649,"connected_time":2051000000000,"state":"active","ping":59},{"user_id":447,"name":"Squigly","steam_id":76561198084811625,"connected_time":929000000000,"state":"active","ping":74},{"user_id":450,"name":"Jack \"Hee Ho\" Frost","steam_id":76561198353395198,"connected_time":790000000000,"state":"active","ping":84},{"user_id":423,"name":"Alchemist","steam_id":76561198094238189,"connected_time":2431000000000,"state":"active","ping":71},{"user_id":273,"name":"Fu Qian Qian","steam_id":76561199081837220,"connected_time":12639000000000,"state":"active","ping":74},{"user_id":433,"name":"EvilPi99let","steam_id":76561197987243470,"connected_time":1763000000000,"state":"active","ping":79},{"user_id":451,"name":"Engineer2650","steam_id":76561198121410799,"connected_time":769000000000,"state":"active","ping":63},{"user_id":457,"name":"Harufloofer","steam_id":76561199084506827,"connected_time":547000000000,"state":"active","ping":47}]},{"server_id":108,"name":"Uncletopia | Dallas | 2 | All Maps","name_short":"dal-2","host":"dal-1.us.uncletopia.com","port":27025,"enabled":true,"region":"us-central","cc":"us","latitude":32.779167,"longitude":-96.80889,"reserved":0,"last_update":"0001-01-01T00:00:00Z","name_a2s":"Uncletopia | Dallas | 2 | All Maps","protocol":17,"map":"cp_altitude","folder":"tf","game":"Team Fortress","app_id":440,"player_count":22,"max_players":24,"Bots":0,"server_type":"Dedicated","server_os":"Linux","password":true,"vac":true,"version":"7961495","steam_id":85568392924469988,"keywords":["cp","nocrits","nodmgspread","uncletopia"],"game_id":440,"stv_port":27026,"stv_name":"Uncletopia | Dallas | 2 | All Maps | STV","players":[{"user_id":491,"name":"KYLE KYLESON","steam_id":76561198021920887,"connected_time":1317000000000,"state":"active","ping":70},{"user_id":475,"name":"Moonflower ‚ú¶","steam_id":76561198191782483,"connected_time":2079000000000,"state":"active","ping":48},{"user_id":501,"name":"Comfy Monkey","steam_id":76561197998434936,"connected_time":465000000000,"state":"active","ping":71},{"user_id":493,"name":"Sup m8","steam_id":76561198081659121,"connected_time":1185000000000,"state":"active","ping":42},{"user_id":496,"name":"FiddyFoMike","steam_id":76561198057072581,"connected_time":984000000000,"state":"active","ping":83},{"user_id":497,"name":"TacoMan4Life","steam_id":76561198832562728,"connected_time":783000000000,"state":"active","ping":93},{"user_id":499,"name":"MINI CRIT!999","steam_id":76561198027649268,"connected_time":691000000000,"state":"active","ping":71},{"user_id":453,"name":"women in suits #transrights","steam_id":76561198103901723,"connected_time":3255000000000,"state":"active","ping":73},{"user_id":409,"name":"HUESO","steam_id":76561198276383681,"connected_time":7277000000000,"state":"active","ping":89},{"user_id":468,"name":"corviraptor (bison sweep)","steam_id":76561198058284392,"connected_time":2554000000000,"state":"active","ping":53},{"user_id":494,"name":"Lefty [Gentlemen of Leisure]","steam_id":76561197980825914,"connected_time":1128000000000,"state":"active","ping":63},{"user_id":481,"name":"lament","steam_id":76561198408747483,"connected_time":1489000000000,"state":"active","ping":54},{"user_id":429,"name":"1998 Mazda b2500","steam_id":76561198883172857,"connected_time":4731000000000,"state":"active","ping":95},{"user_id":457,"name":"Dreysidel","steam_id":76561198056496183,"connected_time":3171000000000,"state":"active","ping":97},{"user_id":470,"name":"Deeply","steam_id":76561199000786530,"connected_time":2371000000000,"state":"active","ping":67},{"user_id":498,"name":"OniSlays","steam_id":76561198043875292,"connected_time":777000000000,"state":"active","ping":86},{"user_id":443,"name":"A Shiny Meat Bicycle","steam_id":76561198358757709,"connected_time":4262000000000,"state":"active","ping":87},{"user_id":466,"name":"Phos","steam_id":76561198122339506,"connected_time":2639000000000,"state":"active","ping":74},{"user_id":489,"name":"lyra","steam_id":76561198200002859,"connected_time":1391000000000,"state":"active","ping":67},{"user_id":490,"name":"üçíbutaüçí","steam_id":76561198135538212,"connected_time":1377000000000,"state":"active","ping":75},{"user_id":495,"name":"Word To Your Mothership","steam_id":76561198034329138,"connected_time":1072000000000,"state":"active","ping":87},{"user_id":477,"name":"Burpingtaco","steam_id":76561198081207098,"connected_time":1712000000000,"state":"active","ping":82}]},{"server_id":404,"name":"Uncletopia | Dallas | 3 | All Maps","name_short":"dal-3","host":"dal-1.us.uncletopia.com","port":27035,"enabled":true,"region":"us-central","cc":"us","latitude":32.779167,"longitude":-96.80889,"reserved":0,"last_update":"0001-01-01T00:00:00Z","name_a2s":"Uncletopia | Dallas | 3 | All Maps","protocol":17,"map":"koth_harvest_final","folder":"tf","game":"Team Fortress","app_id":440,"player_count":23,"max_players":24,"Bots":0,"server_type":"Dedicated","server_os":"Linux","password":true,"vac":true,"version":"7961495","steam_id":85568392924515219,"keywords":["cp","nocrits","nodmgspread","uncletopia"],"game_id":440,"stv_port":27036,"stv_name":"Uncletopia | Dallas | 3 | All Maps | STV","players":[{"user_id":580,"name":"elephantofdoom","steam_id":76561198062436835,"connected_time":197000000000,"state":"active","ping":76},{"user_id":529,"name":"rice","steam_id":76561198119326733,"connected_time":4346000000000,"state":"active","ping":77},{"user_id":558,"name":"Beta Fish","steam_id":76561198073504861,"connected_time":3176000000000,"state":"active","ping":61},{"user_id":572,"name":"SleepySinny","steam_id":76561198210764240,"connected_time":1695000000000,"state":"active","ping":80},{"user_id":479,"name":"mbell1199","steam_id":76561198827517736,"connected_time":8452000000000,"state":"active","ping":61},{"user_id":511,"name":"Burny Sanders","steam_id":76561197961879048,"connected_time":5807000000000,"state":"active","ping":32},{"user_id":581,"name":"Baannaannaa","steam_id":76561198042895194,"connected_time":194000000000,"state":"active","ping":49},{"user_id":535,"name":"Crabby Patty","steam_id":76561198071150936,"connected_time":3990000000000,"state":"active","ping":72},{"user_id":582,"name":"Biscipline","steam_id":76561198019206178,"connected_time":183000000000,"state":"active","ping":75},{"user_id":583,"name":"yeeye","steam_id":76561198094306054,"connected_time":177000000000,"state":"active","ping":60},{"user_id":569,"name":"SCRAPTRAP1001","steam_id":76561199417627762,"connected_time":1886000000000,"state":"active","ping":66},{"user_id":584,"name":"Deck","steam_id":76561198153129589,"connected_time":164000000000,"state":"active","ping":104},{"user_id":579,"name":"Toasterduds","steam_id":76561198163477584,"connected_time":269000000000,"state":"active","ping":86},{"user_id":571,"name":"Oviraptor Supreme","steam_id":76561198044262534,"connected_time":1741000000000,"state":"active","ping":54},{"user_id":585,"name":"Professional Retard","steam_id":76561199105386998,"connected_time":69000000000,"state":"active","ping":53},{"user_id":586,"name":"Chauncey von Snuffles III","steam_id":76561198021784746,"connected_time":55000000000,"state":"active","ping":67},{"user_id":567,"name":"LordKirby","steam_id":76561198006938286,"connected_time":1988000000000,"state":"active","ping":99},{"user_id":557,"name":"chesterwnimitz","steam_id":76561198062664377,"connected_time":3220000000000,"state":"active","ping":85},{"user_id":578,"name":"???","steam_id":76561198200155343,"connected_time":1136000000000,"state":"active","ping":43},{"user_id":525,"name":"Pyro Jay","steam_id":76561198082331364,"connected_time":4398000000000,"state":"active","ping":88},{"user_id":588,"name":"moe","steam_id":76561198929586245,"connected_time":38000000000,"state":"active","ping":88},{"user_id":577,"name":"DistantJragon","steam_id":76561198117563641,"connected_time":1440000000000,"state":"active","ping":66},{"user_id":589,"name":"its boiled","steam_id":76561198042600523,"connected_time":38000000000,"state":"active","ping":50}]},{"server_id":405,"name":"Uncletopia | Dallas | 4 | Community","name_short":"dal-4","host":"dal-1.us.uncletopia.com","port":27045,"enabled":true,"region":"us-central","cc":"us","latitude":32.779167,"longitude":-96.80889,"reserved":0,"last_update":"0001-01-01T00:00:00Z","name_a2s":"Uncletopia | Dallas | 4 | Community","protocol":17,"map":"workshop/pl_corrode_rc2.ugc546577989","folder":"tf","game":"Team Fortress","app_id":440,"player_count":0,"max_players":24,"Bots":0,"server_type":"Dedicated","server_os":"Linux","password":true,"vac":true,"version":"7961495","steam_id":85568392924515220,"keywords":["nocrits","nodmgspread","payload","uncletopia"],"game_id":440,"stv_port":27046,"stv_name":"Uncletopia | Dallas | 4 | Community | STV","players":null},{"server_id":5,"name":"Uncletopia | Frankfurt | 1 | All Maps","name_short":"frk-1","host":"frk-1.de.uncletopia.com","port":27015,"enabled":true,"region":"eu","cc":"de","latitude":50.110924,"longitude":8.682127,"reserved":0,"last_update":"0001-01-01T00:00:00Z","name_a2s":"Uncletopia | Frankfurt | 1 | All Maps","protocol":17,"map":"pl_frontier_final","folder":"tf","game":"Team Fortress","app_id":440,"player_count":0,"max_players":24,"Bots":0,"server_type":"Dedicated","server_os":"Linux","password":true,"vac":true,"version":"7961495","steam_id":85568392924469989,"keywords":["nocrits","nodmgspread","payload","uncletopia"],"game_id":440,"stv_port":27016,"stv_name":"Uncletopia | Frankfurt | 1 | All Maps | STV","players":null},{"server_id":110,"name":"Uncletopia | Frankfurt | 2 | All Maps","name_short":"frk-2","host":"frk-1.de.uncletopia.com","port":27025,"enabled":true,"region":"eu","cc":"de","latitude":50.110924,"longitude":8.682127,"reserved":0,"last_update":"0001-01-01T00:00:00Z","name_a2s":"Uncletopia | Frankfurt | 2 | All Maps","protocol":17,"map":"koth_viaduct","folder":"tf","game":"Team Fortress","app_id":440,"player_count":0,"max_players":24,"Bots":0,"server_type":"Dedicated","server_os":"Linux","password":true,"vac":true,"version":"7961495","steam_id":85568392924469990,"keywords":["cp","nocrits","nodmgspread","uncletopia"],"game_id":440,"stv_port":27026,"stv_name":"Uncletopia | Frankfurt | 2 | All Maps | STV","players":null},{"server_id":308,"name":"Uncletopia | Frankfurt | 3 | All Maps","name_short":"frk-3","host":"frk-1.de.uncletopia.com","port":27035,"enabled":true,"region":"eu","cc":"de","latitude":50.110924,"longitude":8.682127,"reserved":0,"last_update":"0001-01-01T00:00:00Z","name_a2s":"Uncletopia | Frankfurt | 3 | All Maps","protocol":17,"map":"koth_lakeside_final","folder":"tf","game":"Team Fortress","app_id":440,"player_count":0,"max_players":24,"Bots":0,"server_type":"Dedicated","server_os":"Linux","password":true,"vac":true,"version":"7961495","steam_id":85568392924504274,"keywords":["cp","nocrits","nodmgspread","uncletopia"],"game_id":440,"stv_port":27036,"stv_name":"Uncletopia | Frankfurt | 3 | All Maps | STV","players":null},{"server_id":309,"name":"Uncletopia | Frankfurt | 4 | All Maps","name_short":"frk-4","host":"frk-1.de.uncletopia.com","port":27045,"enabled":true,"region":"eu","cc":"de","latitude":50.110924,"longitude":8.682127,"reserved":0,"last_update":"0001-01-01T00:00:00Z","name_a2s":"Uncletopia | Frankfurt | 4 | All Maps","protocol":17,"map":"koth_highpass","folder":"tf","game":"Team Fortress","app_id":440,"player_count":0,"max_players":24,"Bots":0,"server_type":"Dedicated","server_os":"Linux","password":true,"vac":true,"version":"7961495","steam_id":85568392924504275,"keywords":["cp","nocrits","nodmgspread","uncletopia"],"game_id":440,"stv_port":27046,"stv_name":"Uncletopia | Frankfurt | 4 | All Maps | STV","players":null},{"server_id":310,"name":"Uncletopia | Frankfurt | 5 | All Maps","name_short":"frk-5","host":"frk-1.de.uncletopia.com","port":27055,"enabled":true,"region":"eu","cc":"de","latitude":50.110924,"longitude":8.682127,"reserved":0,"last_update":"0001-01-01T00:00:00Z","name_a2s":"Uncletopia | Frankfurt | 5 | All Maps","protocol":17,"map":"pl_swiftwater_final1","folder":"tf","game":"Team Fortress","app_id":440,"player_count":0,"max_players":24,"Bots":0,"server_type":"Dedicated","server_os":"Linux","password":true,"vac":true,"version":"7961495","steam_id":85568392924504277,"keywords":["nocrits","nodmgspread","payload","uncletopia"],"game_id":440,"stv_port":27056,"stv_name":"Uncletopia | Frankfurt | 5 | All Maps | STV","players":null},{"server_id":311,"name":"Uncletopia | Frankfurt | 6 | All Maps","name_short":"frk-6","host":"frk-1.de.uncletopia.com","port":27065,"enabled":true,"region":"eu","cc":"de","latitude":50.110924,"longitude":8.682127,"reserved":0,"last_update":"0001-01-01T00:00:00Z","name_a2s":"Uncletopia | Frankfurt | 6 | All Maps","protocol":17,"map":"pl_frontier_final","folder":"tf","game":"Team Fortress","app_id":440,"player_count":0,"max_players":24,"Bots":0,"server_type":"Dedicated","server_os":"Linux","password":true,"vac":true,"version":"7961495","steam_id":85568392924504278,"keywords":["nocrits","nodmgspread","payload","uncletopia"],"game_id":440,"stv_port":27066,"stv_name":"Uncletopia | Frankfurt | 6 | All Maps | STV","players":null},{"server_id":23,"name":"Uncletopia | Frankfurt | 7 | Stopwatch","name_short":"frk-7","host":"frk-1.de.uncletopia.com","port":27075,"enabled":true,"region":"eu","cc":"de","latitude":50.110924,"longitude":8.682127,"reserved":0,"last_update":"0001-01-01T00:00:00Z","name_a2s":"Uncletopia | Frankfurt | 7 | Stopwatch","protocol":17,"map":"workshop/pl_vigil_rc10.ugc1266210012","folder":"tf","game":"Team Fortress","app_id":440,"player_count":0,"max_players":24,"Bots":0,"server_type":"Dedicated","server_os":"Linux","password":true,"vac":true,"version":"7961495","steam_id":85568392924742827,"keywords":["nocrits","nodmgspread","payload","uncletopia"],"game_id":440,"stv_port":27076,"stv_name":"Uncletopia | Frankfurt | 7 | Stopwatch | STV","players":null},{"server_id":24,"name":"Uncletopia | Frankfurt | 8 | Community","name_short":"frk-8","host":"frk-1.de.uncletopia.com","port":27085,"enabled":true,"region":"eu","cc":"de","latitude":50.110924,"longitude":8.682127,"reserved":0,"last_update":"0001-01-01T00:00:00Z","name_a2s":"Uncletopia | Frankfurt | 8 | Community","protocol":17,"map":"workshop/cp_caldera_rc3.ugc2834196889","folder":"tf","game":"Team Fortress","app_id":440,"player_count":0,"max_players":24,"Bots":0,"server_type":"Dedicated","server_os":"Linux","password":true,"vac":true,"version":"7961495","steam_id":85568392924742828,"keywords":["cp","nocrits","nodmgspread","uncletopia"],"game_id":440,"stv_port":27086,"stv_name":"Uncletopia | Frankfurt | 8 | Community | STV","players":null},{"server_id":202,"name":"Uncletopia | Hong Kong | 1 | All Maps","name_short":"hgk-1","host":"hgk-1.hk.uncletopia.com","port":27015,"enabled":true,"region":"asia","cc":"hk","latitude":22.302711,"longitude":114.177216,"reserved":0,"last_update":"0001-01-01T00:00:00Z","name_a2s":"Uncletopia | Hong Kong | 1 | All Maps","protocol":17,"map":"koth_lakeside_final","folder":"tf","game":"Team Fortress","app_id":440,"player_count":3,"max_players":24,"Bots":0,"server_type":"Dedicated","server_os":"Linux","password":true,"vac":true,"version":"7961495","steam_id":85568392924494504,"keywords":["cp","nocrits","nodmgspread","uncletopia"],"game_id":440,"stv_port":27016,"stv_name":"Uncletopia | Hong Kong | 1 | All Maps | STV","players":[{"user_id":11,"name":"BabyPupa","steam_id":76561198442467591,"connected_time":832000000000,"state":"active","ping":171},{"user_id":13,"name":"derek.patriarca30","steam_id":76561199427230206,"connected_time":326000000000,"state":"active","ping":57},{"user_id":14,"name":"‚òÖaÃ≤cÃ≤aÃ≤tÃ≤","steam_id":76561198334099003,"connected_time":203000000000,"state":"active","ping":123}]},{"server_id":1,"name":"Uncletopia | Los Angeles | 1 | All Maps","name_short":"lax-1","host":"lax-1.us.uncletopia.com","port":27015,"enabled":true,"region":"us-west","cc":"us","latitude":33.94279,"longitude":-118.41004,"reserved":0,"last_update":"0001-01-01T00:00:00Z","name_a2s":"Uncletopia | Los Angeles | 1 | All Maps","protocol":17,"map":"pl_frontier_final","folder":"tf","game":"Team Fortress","app_id":440,"player_count":24,"max_players":24,"Bots":0,"server_type":"Dedicated","server_os":"Linux","password":true,"vac":true,"version":"7961495","steam_id":85568392924469991,"keywords":["nocrits","nodmgspread","payload","uncletopia"],"game_id":440,"stv_port":27016,"stv_name":"Uncletopia | Los Angeles | 1 | All Maps | STV","players":[{"user_id":195,"name":"supcupman","steam_id":76561198051513866,"connected_time":569000000000,"state":"active","ping":66},{"user_id":192,"name":"Whiskey","steam_id":76561198858154667,"connected_time":991000000000,"state":"active","ping":44},{"user_id":111,"name":"cwnz2","steam_id":76561198418170535,"connected_time":6360000000000,"state":"active","ping":134},{"user_id":205,"name":"tiredfisherman69","steam_id":76561199228963816,"connected_time":30000000000,"state":"active","ping":73},{"user_id":142,"name":"‚ù§ Ashley ‚ù§","steam_id":76561198056428303,"connected_time":4318000000000,"state":"active","ping":45},{"user_id":124,"name":"VPratt","steam_id":76561198351195424,"connected_time":6067000000000,"state":"active","ping":94},{"user_id":197,"name":"drank baby","steam_id":76561199483723843,"connected_time":566000000000,"state":"active","ping":57},{"user_id":203,"name":"Ethanol Buttchugger","steam_id":76561199127590316,"connected_time":142000000000,"state":"active","ping":56},{"user_id":189,"name":"Dongus","steam_id":76561197979056451,"connected_time":1237000000000,"state":"active","ping":75},{"user_id":177,"name":"Spread Joy, Not Hate","steam_id":76561198053117503,"connected_time":1931000000000,"state":"active","ping":90},{"user_id":109,"name":"LACTAID","steam_id":76561198276585202,"connected_time":6393000000000,"state":"active","ping":51},{"user_id":168,"name":"Zeyzo","steam_id":76561198997687268,"connected_time":2791000000000,"state":"active","ping":103},{"user_id":198,"name":"bluelazerneon","steam_id":76561199013426640,"connected_time":547000000000,"state":"active","ping":69},{"user_id":182,"name":"self sufficient kitten","steam_id":76561197960592612,"connected_time":1696000000000,"state":"active","ping":75},{"user_id":196,"name":"Grassman (Cc)","steam_id":76561198026488532,"connected_time":567000000000,"state":"active","ping":49},{"user_id":194,"name":"online","steam_id":76561198192531745,"connected_time":658000000000,"state":"active","ping":61},{"user_id":193,"name":"shakoiwa","steam_id":76561199059441773,"connected_time":668000000000,"state":"active","ping":106},{"user_id":117,"name":"Overmeme","steam_id":76561199455124144,"connected_time":6300000000000,"state":"active","ping":88},{"user_id":204,"name":"Zenire","steam_id":76561199087298510,"connected_time":114000000000,"state":"active","ping":91},{"user_id":185,"name":"cenote","steam_id":76561198099843841,"connected_time":1635000000000,"state":"active","ping":46},{"user_id":131,"name":"korkskrou","steam_id":76561198422156430,"connected_time":5681000000000,"state":"active","ping":74},{"user_id":201,"name":"doombot","steam_id":76561198035778187,"connected_time":449000000000,"state":"active","ping":72},{"user_id":87,"name":"awe","steam_id":76561198338739253,"connected_time":7267000000000,"state":"active","ping":58},{"user_id":154,"name":"El hombre","steam_id":76561199144196748,"connected_time":3470000000000,"state":"active","ping":88}]},{"server_id":112,"name":"Uncletopia | Los Angeles | 2 | All Maps","name_short":"lax-2","host":"lax-1.us.uncletopia.com","port":27025,"enabled":true,"region":"us-west","cc":"us","latitude":33.94279,"longitude":-118.41004,"reserved":0,"last_update":"0001-01-01T00:00:00Z","name_a2s":"Uncletopia | Los Angeles | 2 | All Maps","protocol":17,"map":"pl_thundermountain","folder":"tf","game":"Team Fortress","app_id":440,"player_count":24,"max_players":24,"Bots":0,"server_type":"Dedicated","server_os":"Linux","password":true,"vac":true,"version":"7961495","steam_id":85568392924469992,"keywords":["nocrits","nodmgspread","payload","uncletopia"],"game_id":440,"stv_port":27026,"stv_name":"Uncletopia | Los Angeles | 2 | All Maps | STV","players":[{"user_id":248,"name":"ELLIOT‚Ñ¢","steam_id":76561199257746634,"connected_time":103000000000,"state":"active","ping":70},{"user_id":238,"name":"[‚òØ] randomshagz*","steam_id":76561197968666646,"connected_time":873000000000,"state":"active","ping":59},{"user_id":202,"name":"DEAD OR ALIVE","steam_id":76561198265633146,"connected_time":2901000000000,"state":"active","ping":61},{"user_id":232,"name":"BitPieStudios","steam_id":76561198059216393,"connected_time":1241000000000,"state":"active","ping":54},{"user_id":231,"name":"KingSteve42","steam_id":76561198409455888,"connected_time":1242000000000,"state":"active","ping":113},{"user_id":185,"name":"UnusualTofu","steam_id":76561198060103750,"connected_time":4849000000000,"state":"active","ping":60},{"user_id":218,"name":"a_lilypup","steam_id":76561198163640324,"connected_time":1968000000000,"state":"active","ping":48},{"user_id":241,"name":"Smells","steam_id":76561197985297402,"connected_time":597000000000,"state":"active","ping":69},{"user_id":245,"name":"ena - d","steam_id":76561198072329335,"connected_time":177000000000,"state":"active","ping":95},{"user_id":142,"name":"MintHaggis","steam_id":76561198006674825,"connected_time":7955000000000,"state":"active","ping":119},{"user_id":249,"name":"cjetson","steam_id":76561198074482272,"connected_time":69000000000,"state":"active","ping":59},{"user_id":242,"name":"4 life","steam_id":76561198175961598,"connected_time":523000000000,"state":"active","ping":62},{"user_id":219,"name":"mime girl","steam_id":76561198337705174,"connected_time":1858000000000,"state":"active","ping":75},{"user_id":208,"name":"type \"bad med\" to kick","steam_id":76561198076402476,"connected_time":2663000000000,"state":"active","ping":67},{"user_id":147,"name":"Choctoling","steam_id":76561198351622498,"connected_time":7624000000000,"state":"active","ping":47},{"user_id":234,"name":"Zer0","steam_id":76561199059014781,"connected_time":1229000000000,"state":"active","ping":146},{"user_id":214,"name":"Velika, Necro Master","steam_id":76561198063445881,"connected_time":2238000000000,"state":"active","ping":88},{"user_id":224,"name":"Green eggs and ham","steam_id":76561198043507340,"connected_time":1622000000000,"state":"active","ping":92},{"user_id":247,"name":"Little Shuriken","steam_id":76561199020477560,"connected_time":110000000000,"state":"active","ping":42},{"user_id":243,"name":"Mac Tonight enjoyer","steam_id":76561198877229371,"connected_time":396000000000,"state":"active","ping":146},{"user_id":235,"name":"Reem0h","steam_id":76561198169848690,"connected_time":1228000000000,"state":"active","ping":128},{"user_id":225,"name":"Ian","steam_id":76561198159334435,"connected_time":1456000000000,"state":"active","ping":176},{"user_id":212,"name":"your local dipshit","steam_id":76561198291984726,"connected_time":2619000000000,"state":"active","ping":120},{"user_id":236,"name":"Divinitas","steam_id":76561199079034911,"connected_time":1218000000000,"state":"active","ping":113}]},{"server_id":324,"name":"Uncletopia | Los Angeles | 3 | All Maps","name_short":"lax-3","host":"lax-1.us.uncletopia.com","port":27035,"enabled":true,"region":"us-west","cc":"us","latitude":33.94279,"longitude":-118.41004,"reserved":0,"last_update":"0001-01-01T00:00:00Z","name_a2s":"Uncletopia | Los Angeles | 3 | All Maps","protocol":17,"map":"pl_snowycoast","folder":"tf","game":"Team Fortress","app_id":440,"player_count":24,"max_players":24,"Bots":0,"server_type":"Dedicated","server_os":"Linux","password":true,"vac":true,"version":"7961495","steam_id":85568392924510198,"keywords":["nocrits","nodmgspread","payload","uncletopia"],"game_id":440,"stv_port":27036,"stv_name":"Uncletopia | Los Angeles | 3 | All Maps | STV","players":[{"user_id":163,"name":"Mat-Shades","steam_id":76561198013998031,"connected_time":623000000000,"state":"active","ping":118},{"user_id":120,"name":"Pablo","steam_id":76561199003655066,"connected_time":4530000000000,"state":"active","ping":44},{"user_id":166,"name":"[S]Mr. X [No Monitor]","steam_id":76561197963746035,"connected_time":564000000000,"state":"active","ping":102},{"user_id":164,"name":"Starfruit66","steam_id":76561198069917277,"connected_time":596000000000,"state":"active","ping":47},{"user_id":156,"name":"The Caretaker","steam_id":76561198125241411,"connected_time":1336000000000,"state":"active","ping":69},{"user_id":158,"name":"Sweater-Fan","steam_id":76561199389567214,"connected_time":1285000000000,"state":"active","ping":102},{"user_id":142,"name":"wugmup","steam_id":76561199096287734,"connected_time":2070000000000,"state":"active","ping":67},{"user_id":122,"name":"Rylix","steam_id":76561198136157816,"connected_time":4516000000000,"state":"active","ping":51},{"user_id":33,"name":"Billy Mays","steam_id":76561197998876324,"connected_time":9041000000000,"state":"active","ping":64},{"user_id":139,"name":"oog","steam_id":76561199089730744,"connected_time":2123000000000,"state":"active","ping":65},{"user_id":165,"name":"Scorpianswag","steam_id":76561198260651036,"connected_time":596000000000,"state":"active","ping":32},{"user_id":153,"name":"i cant aim","steam_id":76561198065873462,"connected_time":1562000000000,"state":"active","ping":49},{"user_id":167,"name":"Reef","steam_id":76561199130187039,"connected_time":558000000000,"state":"active","ping":67},{"user_id":155,"name":"frank n furter","steam_id":76561198308883028,"connected_time":1381000000000,"state":"active","ping":56},{"user_id":138,"name":"Gerbias","steam_id":76561198001002427,"connected_time":2166000000000,"state":"active","ping":72},{"user_id":152,"name":"Soupy Meal","steam_id":76561199056842761,"connected_time":1651000000000,"state":"active","ping":50},{"user_id":157,"name":"flyk","steam_id":76561198164601475,"connected_time":1335000000000,"state":"active","ping":58},{"user_id":168,"name":"dodecadron","steam_id":76561198027397222,"connected_time":553000000000,"state":"active","ping":89},{"user_id":170,"name":"coffee","steam_id":76561198141061142,"connected_time":533000000000,"state":"active","ping":102},{"user_id":160,"name":"Gundam Guy","steam_id":76561198178453993,"connected_time":1260000000000,"state":"active","ping":73},{"user_id":149,"name":"WorkadayDelite","steam_id":76561198125890089,"connected_time":1880000000000,"state":"active","ping":73},{"user_id":171,"name":"SHANE","steam_id":76561198113500520,"connected_time":440000000000,"state":"active","ping":69},{"user_id":172,"name":"Celeritas","steam_id":76561198133414847,"connected_time":180000000000,"state":"active","ping":66},{"user_id":141,"name":"exx","steam_id":76561198090552145,"connected_time":2118000000000,"state":"active","ping":47}]},{"server_id":25,"name":"Uncletopia | Los Angeles | 4 | Stopwatch","name_short":"lax-4","host":"lax-1.us.uncletopia.com","port":27045,"enabled":true,"region":"us-west","cc":"us","latitude":33.94279,"longitude":-118.41004,"reserved":0,"last_update":"0001-01-01T00:00:00Z","name_a2s":"Uncletopia | Los Angeles | 4 | Stopwatch","protocol":17,"map":"cp_granary","folder":"tf","game":"Team Fortress","app_id":440,"player_count":0,"max_players":24,"Bots":0,"server_type":"Dedicated","server_os":"Linux","password":true,"vac":true,"version":"7961495","steam_id":85568392924510199,"keywords":["cp","nocrits","nodmgspread","uncletopia"],"game_id":440,"stv_port":27046,"stv_name":"Uncletopia | Los Angeles | 4 | Stopwatch | STV","players":null},{"server_id":11,"name":"Uncletopia | London | 1 | All Maps","name_short":"lon-1","host":"lon-1.uk.uncletopia.com","port":27015,"enabled":true,"region":"eu","cc":"gb","latitude":51.509865,"longitude":-0.118092,"reserved":0,"last_update":"0001-01-01T00:00:00Z","name_a2s":"Uncletopia | London | 1 | All Maps","protocol":17,"map":"pl_swiftwater_final1","folder":"tf","game":"Team Fortress","app_id":440,"player_count":24,"max_players":24,"Bots":0,"server_type":"Dedicated","server_os":"Linux","password":true,"vac":true,"version":"7961495","steam_id":85568392924367362,"keywords":["nocrits","nodmgspread","payload","uncletopia"],"game_id":440,"stv_port":27016,"stv_name":"Uncletopia | London | 1 | All Maps | STV","players":[{"user_id":849,"name":"jihad time","steam_id":76561198231966088,"connected_time":3523000000000,"state":"active","ping":46},{"user_id":870,"name":"Visphiric","steam_id":76561198071938027,"connected_time":2008000000000,"state":"active","ping":41},{"user_id":876,"name":"triplepunk","steam_id":76561198119449463,"connected_time":1468000000000,"state":"active","ping":53},{"user_id":874,"name":"h1tlex","steam_id":76561198129781465,"connected_time":1582000000000,"state":"active","ping":53},{"user_id":885,"name":"Not Sussy Tanuki","steam_id":76561198137289375,"connected_time":780000000000,"state":"active","ping":106},{"user_id":789,"name":"Nittugai","steam_id":76561198067366462,"connected_time":8641000000000,"state":"active","ping":60},{"user_id":882,"name":"erenom09","steam_id":76561199017383513,"connected_time":1082000000000,"state":"active","ping":101},{"user_id":877,"name":"Qdarks","steam_id":76561198013391340,"connected_time":1459000000000,"state":"active","ping":140},{"user_id":850,"name":"goblin","steam_id":76561198170334258,"connected_time":3429000000000,"state":"active","ping":75},{"user_id":889,"name":"oh my god he's LOADED","steam_id":76561198263236403,"connected_time":504000000000,"state":"active","ping":52},{"user_id":883,"name":"Captain Carcrash","steam_id":76561198075154943,"connected_time":804000000000,"state":"active","ping":48},{"user_id":846,"name":"noseb","steam_id":76561199480942903,"connected_time":4049000000000,"state":"active","ping":74},{"user_id":871,"name":"slothm442","steam_id":76561199487265826,"connected_time":1961000000000,"state":"active","ping":116},{"user_id":819,"name":"Bubsy 3D","steam_id":76561197988942314,"connected_time":5896000000000,"state":"active","ping":41},{"user_id":866,"name":"B R O W N","steam_id":76561198020773690,"connected_time":2549000000000,"state":"active","ping":82},{"user_id":879,"name":"lawn","steam_id":76561198001243486,"connected_time":1451000000000,"state":"active","ping":44},{"user_id":860,"name":"whip","steam_id":76561198177059485,"connected_time":2999000000000,"state":"active","ping":63},{"user_id":880,"name":"jones","steam_id":76561198044434971,"connected_time":1440000000000,"state":"active","ping":66},{"user_id":872,"name":"shakebell","steam_id":76561197970795094,"connected_time":1924000000000,"state":"active","ping":79},{"user_id":890,"name":"‚™¢Play Like Leo‚™°","steam_id":76561198358471569,"connected_time":466000000000,"state":"active","ping":74},{"user_id":858,"name":"DJThunderHeart","steam_id":76561198274197575,"connected_time":3071000000000,"state":"active","ping":117},{"user_id":861,"name":"jjkun786","steam_id":76561199438517484,"connected_time":2965000000000,"state":"active","ping":80},{"user_id":875,"name":"Arkainiel Silver","steam_id":76561198188302519,"connected_time":1476000000000,"state":"active","ping":60},{"user_id":782,"name":"Dangerous Andrew","steam_id":76561198067218981,"connected_time":9247000000000,"state":"active","ping":59}]},{"server_id":114,"name":"Uncletopia | London | 2 | All Maps","name_short":"lon-2","host":"lon-1.uk.uncletopia.com","port":27025,"enabled":true,"region":"eu","cc":"gb","latitude":51.509865,"longitude":-0.118092,"reserved":0,"last_update":"0001-01-01T00:00:00Z","name_a2s":"Uncletopia | London | 2 | All Maps","protocol":17,"map":"pl_upward","folder":"tf","game":"Team Fortress","app_id":440,"player_count":15,"max_players":24,"Bots":0,"server_type":"Dedicated","server_os":"Linux","password":true,"vac":true,"version":"7961495","steam_id":85568392924470941,"keywords":["nocrits","nodmgspread","payload","uncletopia"],"game_id":440,"stv_port":27026,"stv_name":"Uncletopia | London | 2 | All Maps | STV","players":[{"user_id":1135,"name":"Wondering","steam_id":76561198359577974,"connected_time":79000000000,"state":"active","ping":67},{"user_id":1113,"name":"One Confused Proton","steam_id":76561199372053610,"connected_time":1964000000000,"state":"active","ping":149},{"user_id":1132,"name":"Literally me","steam_id":76561198096826094,"connected_time":365000000000,"state":"active","ping":57},{"user_id":1118,"name":"J2PWN","steam_id":76561198409287854,"connected_time":1493000000000,"state":"active","ping":266},{"user_id":1121,"name":"sepi98","steam_id":76561198203764635,"connected_time":971000000000,"state":"active","ping":93},{"user_id":1104,"name":"Endzee","steam_id":76561199151945817,"connected_time":3327000000000,"state":"active","ping":81},{"user_id":1122,"name":"ion luca caragiale","steam_id":76561198132025408,"connected_time":927000000000,"state":"active","ping":50},{"user_id":1123,"name":"squirrel - Allkeyshop","steam_id":76561199380974466,"connected_time":848000000000,"state":"active","ping":84},{"user_id":1125,"name":"Feels Good","steam_id":76561198058030054,"connected_time":786000000000,"state":"active","ping":114},{"user_id":1130,"name":"1 in a Trillion Football Moment","steam_id":76561199075279565,"connected_time":457000000000,"state":"active","ping":149},{"user_id":1127,"name":"TweetTweet17","steam_id":76561198994956859,"connected_time":743000000000,"state":"active","ping":135},{"user_id":1131,"name":"carbuzz","steam_id":76561198129361580,"connected_time":441000000000,"state":"active","ping":100},{"user_id":1133,"name":"Kirbay","steam_id":76561198050535201,"connected_time":107000000000,"state":"active","ping":158},{"user_id":1134,"name":"chill frog","steam_id":76561199471943472,"connected_time":99000000000,"state":"active","ping":183},{"user_id":1136,"name":"Fus in Boots","steam_id":76561198053897722,"connected_time":77000000000,"state":"active","ping":53}]},{"server_id":320,"name":"Uncletopia | London | 3 | All Maps","name_short":"lon-3","host":"lon-1.uk.uncletopia.com","port":27035,"enabled":true,"region":"eu","cc":"gb","latitude":51.509865,"longitude":-0.118092,"reserved":0,"last_update":"0001-01-01T00:00:00Z","name_a2s":"Uncletopia | London | 3 | All Maps","protocol":17,"map":"koth_viaduct","folder":"tf","game":"Team Fortress","app_id":440,"player_count":0,"max_players":24,"Bots":0,"server_type":"Dedicated","server_os":"Linux","password":true,"vac":true,"version":"7961495","steam_id":85568392924510192,"keywords":["cp","nocrits","nodmgspread","uncletopia"],"game_id":440,"stv_port":27036,"stv_name":"Uncletopia | London | 3 | All Maps | STV","players":null},{"server_id":321,"name":"Uncletopia | London | 4 | All Maps","name_short":"lon-4","host":"lon-1.uk.uncletopia.com","port":27045,"enabled":true,"region":"eu","cc":"gb","latitude":51.509865,"longitude":-0.118092,"reserved":0,"last_update":"0001-01-01T00:00:00Z","name_a2s":"Uncletopia | London | 4 | All Maps","protocol":17,"map":"pl_snowycoast","folder":"tf","game":"Team Fortress","app_id":440,"player_count":0,"max_players":24,"Bots":0,"server_type":"Dedicated","server_os":"Linux","password":true,"vac":true,"version":"7961495","steam_id":85568392924510193,"keywords":["nocrits","nodmgspread","payload","uncletopia"],"game_id":440,"stv_port":27046,"stv_name":"Uncletopia | London | 4 | All Maps | STV","players":null},{"server_id":21,"name":"Uncletopia | London | 5 | All Maps","name_short":"lon-5","host":"lon-1.uk.uncletopia.com","port":27055,"enabled":true,"region":"eu","cc":"gb","latitude":51.509865,"longitude":-0.118092,"reserved":0,"last_update":"0001-01-01T00:00:00Z","name_a2s":"Uncletopia | London | 5 | All Maps","protocol":17,"map":"koth_cascade","folder":"tf","game":"Team Fortress","app_id":440,"player_count":0,"max_players":24,"Bots":0,"server_type":"Dedicated","server_os":"Linux","password":true,"vac":true,"version":"7961495","steam_id":85568392924742829,"keywords":["cp","nocrits","nodmgspread","uncletopia"],"game_id":440,"stv_port":27056,"stv_name":"Uncletopia | London | 5 | All Maps | STV","players":null},{"server_id":22,"name":"Uncletopia | London | 6 | All Maps","name_short":"lon-6","host":"lon-1.uk.uncletopia.com","port":27065,"enabled":true,"region":"eu","cc":"gb","latitude":51.509865,"longitude":-0.118092,"reserved":0,"last_update":"0001-01-01T00:00:00Z","name_a2s":"Uncletopia | London | 6 | All Maps","protocol":17,"map":"plr_nightfall_final","folder":"tf","game":"Team Fortress","app_id":440,"player_count":0,"max_players":24,"Bots":0,"server_type":"Dedicated","server_os":"Linux","password":true,"vac":true,"version":"7961495","steam_id":85568392924742830,"keywords":["nocrits","nodmgspread","payload","uncletopia"],"game_id":440,"stv_port":27066,"stv_name":"Uncletopia | London | 6 | All Maps | STV","players":null},{"server_id":40,"name":"Uncletopia | London | 7 | Stopwatch","name_short":"lon-7","host":"lon-1.uk.uncletopia.com","port":27075,"enabled":true,"region":"eu","cc":"gb","latitude":51.509865,"longitude":-0.118092,"reserved":0,"last_update":"0001-01-01T00:00:00Z","name_a2s":"Uncletopia | London | 7 | Stopwatch","protocol":17,"map":"workshop/koth_clearcut_b15.ugc2107050255","folder":"tf","game":"Team Fortress","app_id":440,"player_count":0,"max_players":24,"Bots":0,"server_type":"Dedicated","server_os":"Linux","password":true,"vac":true,"version":"7961495","steam_id":85568392924964314,"keywords":["cp","nocrits","nodmgspread","uncletopia"],"game_id":440,"stv_port":27076,"stv_name":"Uncletopia | London | 7 | Stopwatch | STV","players":null},{"server_id":41,"name":"Uncletopia | London | 8 | Community","name_short":"lon-8","host":"lon-1.uk.uncletopia.com","port":27085,"enabled":true,"region":"eu","cc":"gb","latitude":51.509865,"longitude":-0.118092,"reserved":0,"last_update":"0001-01-01T00:00:00Z","name_a2s":"Uncletopia | London | 8 | Community","protocol":17,"map":"workshop/pl_highwood_b13.ugc1769496557","folder":"tf","game":"Team Fortress","app_id":440,"player_count":0,"max_players":24,"Bots":0,"server_type":"Dedicated","server_os":"Linux","password":true,"vac":true,"version":"7961495","steam_id":85568392924964315,"keywords":["nocrits","nodmgspread","payload","uncletopia"],"game_id":440,"stv_port":27086,"stv_name":"Uncletopia | London | 8 | Community | STV","players":null},{"server_id":300,"name":"Uncletopia | Montr√©al | 1 | One Thousand Uncles","name_short":"mtl-1","host":"mtl-1.ca.uncletopia.com","port":27015,"enabled":true,"region":"us-east","cc":"ca","latitude":45.50889,"longitude":-73.56167,"reserved":0,"last_update":"0001-01-01T00:00:00Z","name_a2s":"","protocol":0,"map":"","folder":"","game":"","app_id":0,"player_count":13,"max_players":0,"Bots":0,"server_type":"","server_os":"","password":false,"vac":false,"version":"","steam_id":0,"keywords":null,"game_id":0,"stv_port":0,"stv_name":"","players":[{"user_id":601,"name":"Colonel","steam_id":76561199180293852,"connected_time":2866000000000,"state":"active","ping":47},{"user_id":471,"name":"DoggyDogWhirl","steam_id":76561198042841344,"connected_time":10912000000000,"state":"active","ping":57},{"user_id":638,"name":"Hobo With a Shotgun","steam_id":76561198021366284,"connected_time":494000000000,"state":"active","ping":162},{"user_id":625,"name":"Oden Derg","steam_id":76561198881543434,"connected_time":1821000000000,"state":"active","ping":120},{"user_id":626,"name":"Lots0","steam_id":76561198043143145,"connected_time":1663000000000,"state":"active","ping":78},{"user_id":627,"name":"Brehmstorm","steam_id":76561198127975825,"connected_time":1627000000000,"state":"active","ping":96},{"user_id":628,"name":"JimCGoodfellas","steam_id":76561198353568076,"connected_time":1599000000000,"state":"active","ping":72},{"user_id":629,"name":"Asscrack Moisturizer","steam_id":76561198080876842,"connected_time":1561000000000,"state":"active","ping":110},{"user_id":589,"name":"UNKNOWNGallery","steam_id":76561198051960557,"connected_time":4192000000000,"state":"active","ping":55},{"user_id":635,"name":"alset333","steam_id":76561198405345260,"connected_time":866000000000,"state":"active","ping":51},{"user_id":632,"name":"ROGUE-PLANET","steam_id":76561198116023052,"connected_time":1363000000000,"state":"active","ping":91},{"user_id":596,"name":"generic blue proto","steam_id":76561199000149623,"connected_time":3668000000000,"state":"active","ping":94},{"user_id":637,"name":"NightEmerald","steam_id":76561198878856805,"connected_time":775000000000,"state":"active","ping":51}]},{"server_id":301,"name":"Uncletopia | Montr√©al | 2 | One Thousand Uncles","name_short":"mtl-2","host":"mtl-1.ca.uncletopia.com","port":27025,"enabled":true,"region":"us-east","cc":"ca","latitude":45.50889,"longitude":-73.56167,"reserved":0,"last_update":"0001-01-01T00:00:00Z","name_a2s":"","protocol":0,"map":"","folder":"","game":"","app_id":0,"player_count":8,"max_players":0,"Bots":0,"server_type":"","server_os":"","password":false,"vac":false,"version":"","steam_id":0,"keywords":null,"game_id":0,"stv_port":0,"stv_name":"","players":[{"user_id":164,"name":"sheep","steam_id":76561198172943006,"connected_time":5745000000000,"state":"active","ping":62},{"user_id":165,"name":"ODDLOG","steam_id":76561198397624578,"connected_time":5732000000000,"state":"active","ping":62},{"user_id":182,"name":"Skeptical","steam_id":76561198038261789,"connected_time":5706000000000,"state":"active","ping":115},{"user_id":224,"name":"Holiday Fartcruise","steam_id":76561198043851584,"connected_time":886000000000,"state":"active","ping":128},{"user_id":223,"name":"Featherless Biped","steam_id":76561198034171721,"connected_time":1639000000000,"state":"active","ping":86},{"user_id":227,"name":"Cash","steam_id":76561198218897541,"connected_time":423000000000,"state":"active","ping":57},{"user_id":226,"name":"Vaun","steam_id":76561198034075317,"connected_time":623000000000,"state":"active","ping":91},{"user_id":228,"name":"walterfishing_17","steam_id":76561198976904099,"connected_time":389000000000,"state":"active","ping":91}]},{"server_id":302,"name":"Uncletopia | Montr√©al | 3 | One Thousand Uncles","name_short":"mtl-3","host":"mtl-1.ca.uncletopia.com","port":27035,"enabled":true,"region":"us-east","cc":"ca","latitude":45.50889,"longitude":-73.56167,"reserved":0,"last_update":"0001-01-01T00:00:00Z","name_a2s":"","protocol":0,"map":"","folder":"","game":"","app_id":0,"player_count":0,"max_players":0,"Bots":0,"server_type":"","server_os":"","password":false,"vac":false,"version":"","steam_id":0,"keywords":null,"game_id":0,"stv_port":0,"stv_name":"","players":null},{"server_id":13,"name":"Uncletopia | New York City | 1 | All Maps","name_short":"nyc-1","host":"nyc-1.us.uncletopia.com","port":27015,"enabled":true,"region":"us-east","cc":"us","latitude":40.73061,"longitude":-73.93524,"reserved":0,"last_update":"0001-01-01T00:00:00Z","name_a2s":"Uncletopia | New York City | 1 | All Maps","protocol":17,"map":"cp_dustbowl","folder":"tf","game":"Team Fortress","app_id":440,"player_count":24,"max_players":24,"Bots":0,"server_type":"Dedicated","server_os":"Linux","password":true,"vac":true,"version":"7961495","steam_id":85568392924469993,"keywords":["cp","nocrits","nodmgspread","uncletopia"],"game_id":440,"stv_port":27016,"stv_name":"Uncletopia | New York City | 1 | All Maps | STV","players":[{"user_id":414,"name":"All Monsters Are Real","steam_id":76561198026986192,"connected_time":2307000000000,"state":"active","ping":79},{"user_id":380,"name":"·óúÀ¨·óú","steam_id":76561198049076233,"connected_time":4393000000000,"state":"active","ping":45},{"user_id":453,"name":"Dr. Feelgood (Ph.D, MD)","steam_id":76561198040611061,"connected_time":183000000000,"state":"active","ping":51},{"user_id":443,"name":"Comfy!","steam_id":76561198008818346,"connected_time":974000000000,"state":"active","ping":45},{"user_id":400,"name":"happyman442","steam_id":76561198007494744,"connected_time":3762000000000,"state":"active","ping":120},{"user_id":385,"name":"cyberas","steam_id":76561198257092290,"connected_time":4350000000000,"state":"active","ping":56},{"user_id":446,"name":"The shy guy_049","steam_id":76561199234647090,"connected_time":843000000000,"state":"active","ping":94},{"user_id":418,"name":"GummybearKillr","steam_id":76561198031235750,"connected_time":2176000000000,"state":"active","ping":55},{"user_id":412,"name":"Classy","steam_id":76561198128415840,"connected_time":2374000000000,"state":"active","ping":51},{"user_id":450,"name":"Jawbreaker","steam_id":76561198079846971,"connected_time":225000000000,"state":"active","ping":59},{"user_id":454,"name":"ndvr","steam_id":76561199379200102,"connected_time":74000000000,"state":"active","ping":43},{"user_id":438,"name":"AverageRundownJoe","steam_id":76561198059359620,"connected_time":1296000000000,"state":"active","ping":74},{"user_id":432,"name":"Minion Bob","steam_id":76561198023938170,"connected_time":1511000000000,"state":"active","ping":56},{"user_id":433,"name":"VeloCity","steam_id":76561198148688626,"connected_time":1504000000000,"state":"active","ping":66},{"user_id":444,"name":"24auto","steam_id":76561198198578754,"connected_time":899000000000,"state":"active","ping":59},{"user_id":424,"name":"Shallaska","steam_id":76561198019030896,"connected_time":1883000000000,"state":"active","ping":115},{"user_id":436,"name":"Terry Crews from Brooklyn 99","steam_id":76561198357806819,"connected_time":1486000000000,"state":"active","ping":72},{"user_id":451,"name":"darkelaine227","steam_id":76561198097330521,"connected_time":209000000000,"state":"active","ping":156},{"user_id":448,"name":"the pest","steam_id":76561198826298849,"connected_time":350000000000,"state":"active","ping":93},{"user_id":439,"name":"Leroy","steam_id":76561199013064727,"connected_time":1292000000000,"state":"active","ping":105},{"user_id":427,"name":"AMistake","steam_id":76561199379196708,"connected_time":1787000000000,"state":"active","ping":51},{"user_id":420,"name":"rattlin' bog","steam_id":76561198224551028,"connected_time":2154000000000,"state":"active","ping":55},{"user_id":452,"name":"wise","steam_id":76561198030066204,"connected_time":200000000000,"state":"active","ping":43},{"user_id":417,"name":"FLOOB","steam_id":76561198333094092,"connected_time":2237000000000,"state":"active","ping":85}]},{"server_id":14,"name":"Uncletopia | New York City | 2 | All Maps","name_short":"nyc-2","host":"nyc-1.us.uncletopia.com","port":27025,"enabled":true,"region":"us-east","cc":"us","latitude":40.73061,"longitude":-73.93524,"reserved":0,"last_update":"0001-01-01T00:00:00Z","name_a2s":"Uncletopia | New York City | 2 | All Maps","protocol":17,"map":"pl_borneo","folder":"tf","game":"Team Fortress","app_id":440,"player_count":24,"max_players":24,"Bots":0,"server_type":"Dedicated","server_os":"Linux","password":true,"vac":true,"version":"7961495","steam_id":85568392924469994,"keywords":["nocrits","nodmgspread","payload","uncletopia"],"game_id":440,"stv_port":27026,"stv_name":"Uncletopia | New York City | 2 | All Maps | STV","players":[{"user_id":444,"name":"sam","steam_id":76561198217362968,"connected_time":474000000000,"state":"active","ping":74},{"user_id":409,"name":"Andybrick95","steam_id":76561198218884143,"connected_time":2948000000000,"state":"active","ping":73},{"user_id":399,"name":"taigaxx","steam_id":76561198202669250,"connected_time":3351000000000,"state":"active","ping":70},{"user_id":439,"name":"bhop","steam_id":76561198064885639,"connected_time":900000000000,"state":"active","ping":69},{"user_id":440,"name":"U œâ U","steam_id":76561198118802562,"connected_time":600000000000,"state":"active","ping":120},{"user_id":350,"name":"Gentoo Linux Gaming","steam_id":76561197999657118,"connected_time":6470000000000,"state":"active","ping":65},{"user_id":411,"name":"Chechens Spotted","steam_id":76561199028910893,"connected_time":2844000000000,"state":"active","ping":80},{"user_id":432,"name":"remanedur","steam_id":76561198059459507,"connected_time":1235000000000,"state":"active","ping":63},{"user_id":380,"name":"zerwee [Full EP]","steam_id":76561198294013916,"connected_time":4505000000000,"state":"active","ping":45},{"user_id":421,"name":"Moistie!!","steam_id":76561198989752113,"connected_time":2155000000000,"state":"active","ping":123},{"user_id":425,"name":"De_Synched","steam_id":76561198104466293,"connected_time":1860000000000,"state":"active","ping":63},{"user_id":348,"name":"googa","steam_id":76561198133130452,"connected_time":6511000000000,"state":"active","ping":49},{"user_id":429,"name":"jumpingjacks","steam_id":76561197964839440,"connected_time":1380000000000,"state":"active","ping":45},{"user_id":417,"name":"BB Dirt Block","steam_id":76561198273008469,"connected_time":2601000000000,"state":"active","ping":81},{"user_id":428,"name":"bread","steam_id":76561198232007876,"connected_time":1530000000000,"state":"active","ping":59},{"user_id":435,"name":"Snoopy","steam_id":76561198273735974,"connected_time":1122000000000,"state":"active","ping":117},{"user_id":414,"name":"The One True Luke","steam_id":76561198180891187,"connected_time":2811000000000,"state":"active","ping":59},{"user_id":445,"name":"Macandchess","steam_id":76561198255783176,"connected_time":384000000000,"state":"active","ping":72},{"user_id":442,"name":"Wey","steam_id":76561198089235065,"connected_time":579000000000,"state":"active","ping":83},{"user_id":431,"name":"Samrizo el Chorizo","steam_id":76561198009838162,"connected_time":1260000000000,"state":"active","ping":51},{"user_id":416,"name":"BB Lorexav","steam_id":76561198207565988,"connected_time":2800000000000,"state":"active","ping":81},{"user_id":446,"name":"Herdez Hot Salsa","steam_id":76561197991740906,"connected_time":312000000000,"state":"active","ping":69},{"user_id":443,"name":"Insectoid","steam_id":76561198122677314,"connected_time":550000000000,"state":"active","ping":65},{"user_id":447,"name":"goodbye","steam_id":76561198868600487,"connected_time":300000000000,"state":"active","ping":167}]},{"server_id":15,"name":"Uncletopia | New York City | 3 | Stopwatch","name_short":"nyc-3","host":"nyc-1.us.uncletopia.com","port":27035,"enabled":true,"region":"us-east","cc":"us","latitude":40.73061,"longitude":-73.93524,"reserved":0,"last_update":"0001-01-01T00:00:00Z","name_a2s":"Uncletopia | New York City | 3 | Stopwatch","protocol":17,"map":"pl_borneo","folder":"tf","game":"Team Fortress","app_id":440,"player_count":0,"max_players":24,"Bots":0,"server_type":"Dedicated","server_os":"Linux","password":true,"vac":true,"version":"7961495","steam_id":85568392924742820,"keywords":["nocrits","nodmgspread","payload","uncletopia"],"game_id":440,"stv_port":27036,"stv_name":"Uncletopia | New York City | 3 | Stopwatch | STV","players":null},{"server_id":16,"name":"Uncletopia | New York City | 4 | Community","name_short":"nyc-4","host":"nyc-1.us.uncletopia.com","port":27045,"enabled":true,"region":"us-east","cc":"us","latitude":40.73061,"longitude":-73.93524,"reserved":0,"last_update":"0001-01-01T00:00:00Z","name_a2s":"Uncletopia | New York City | 4 | Community","protocol":17,"map":"workshop/koth_ramjam_rc1.ugc459778887","folder":"tf","game":"Team Fortress","app_id":440,"player_count":0,"max_players":24,"Bots":0,"server_type":"Dedicated","server_os":"Linux","password":true,"vac":true,"version":"7961495","steam_id":85568392924742821,"keywords":["cp","nocrits","nodmgspread","uncletopia"],"game_id":440,"stv_port":27046,"stv_name":"Uncletopia | New York City | 4 | Community | STV","players":null},{"server_id":142,"name":"Uncletopia | S√£o Paulo | 1 | All Maps","name_short":"sao-1","host":"sao-1.br.uncletopia.com","port":27015,"enabled":true,"region":"sa","cc":"br","latitude":-23.533773,"longitude":-46.62529,"reserved":0,"last_update":"0001-01-01T00:00:00Z","name_a2s":"Uncletopia | S√£o Paulo | 1 | All Maps","protocol":17,"map":"cp_snakewater_final1","folder":"tf","game":"Team Fortress","app_id":440,"player_count":3,"max_players":24,"Bots":0,"server_type":"Dedicated","server_os":"Linux","password":true,"vac":true,"version":"7961495","steam_id":85568392924469996,"keywords":["cp","nocrits","nodmgspread","uncletopia"],"game_id":440,"stv_port":27016,"stv_name":"Uncletopia | S√£o Paulo | 1 | All Maps | STV","players":[{"user_id":62,"name":"MEDIC????","steam_id":76561198999839080,"connected_time":1655000000000,"state":"active","ping":33},{"user_id":63,"name":"Bellesi","steam_id":76561198056750369,"connected_time":24000000000,"state":"active","ping":49},{"user_id":61,"name":"Medic Gaming","steam_id":76561199171770587,"connected_time":2788000000000,"state":"active","ping":162}]},{"server_id":143,"name":"Uncletopia | S√£o Paulo | 2 | Community","name_short":"sao-2","host":"sao-2.br.uncletopia.com","port":27015,"enabled":true,"region":"sa","cc":"br","latitude":-23.533773,"longitude":-46.62529,"reserved":0,"last_update":"0001-01-01T00:00:00Z","name_a2s":"Uncletopia | S√£o Paulo | 2 | Community","protocol":17,"map":"workshop/koth_product_final.ugc454272353","folder":"tf","game":"Team Fortress","app_id":440,"player_count":0,"max_players":24,"Bots":0,"server_type":"Dedicated","server_os":"Linux","password":true,"vac":true,"version":"7961495","steam_id":85568392924485349,"keywords":["cp","nocrits","nodmgspread","uncletopia"],"game_id":440,"stv_port":27016,"stv_name":"Uncletopia | S√£o Paulo | 2 | Community | STV","players":null},{"server_id":7,"name":"Uncletopia | Seattle | 1 | All Maps","name_short":"sea-1","host":"sea-1.us.uncletopia.com","port":27015,"enabled":true,"region":"us-west","cc":"us","latitude":47.608013,"longitude":-122.33517,"reserved":0,"last_update":"0001-01-01T00:00:00Z","name_a2s":"Uncletopia | Seattle | 1 | All Maps","protocol":17,"map":"pl_pier","folder":"tf","game":"Team Fortress","app_id":440,"player_count":23,"max_players":24,"Bots":0,"server_type":"Dedicated","server_os":"Linux","password":true,"vac":true,"version":"7961495","steam_id":85568392924469997,"keywords":["nocrits","nodmgspread","payload","uncletopia"],"game_id":440,"stv_port":27016,"stv_name":"Uncletopia | Seattle | 1 | All Maps | STV","players":[{"user_id":379,"name":"smeasly","steam_id":76561198028718812,"connected_time":7996000000000,"state":"active","ping":44},{"user_id":438,"name":"Ayayayayayahuasca","steam_id":76561199002906056,"connected_time":2119000000000,"state":"active","ping":46},{"user_id":459,"name":"Warlock","steam_id":76561199033164093,"connected_time":175000000000,"state":"active","ping":39},{"user_id":453,"name":"laboriouslobster36","steam_id":76561198871003321,"connected_time":1024000000000,"state":"active","ping":91},{"user_id":411,"name":"rushy :))","steam_id":76561198065825165,"connected_time":4910000000000,"state":"active","ping":95},{"user_id":443,"name":"Defeat","steam_id":76561198065203818,"connected_time":1270000000000,"state":"active","ping":35},{"user_id":390,"name":"SHADOW WIZARD MONEY GANG","steam_id":76561198060846419,"connected_time":6951000000000,"state":"active","ping":46},{"user_id":460,"name":"William P. Ennis","steam_id":76561198073464877,"connected_time":157000000000,"state":"active","ping":90},{"user_id":442,"name":"MrYadaization","steam_id":76561198050770818,"connected_time":1301000000000,"state":"active","ping":55},{"user_id":454,"name":"duddlee","steam_id":76561198030052564,"connected_time":650000000000,"state":"active","ping":54},{"user_id":439,"name":"roody","steam_id":76561198066260405,"connected_time":2089000000000,"state":"active","ping":45},{"user_id":452,"name":"reiidaya","steam_id":76561198325306660,"connected_time":1080000000000,"state":"active","ping":58},{"user_id":455,"name":"thats crazy","steam_id":76561198095480838,"connected_time":531000000000,"state":"active","ping":45},{"user_id":441,"name":"mrow","steam_id":76561198171840525,"connected_time":2046000000000,"state":"active","ping":59},{"user_id":348,"name":"a familiar cat","steam_id":76561198080046542,"connected_time":10342000000000,"state":"active","ping":45},{"user_id":301,"name":"woodpigeon","steam_id":76561199488457138,"connected_time":14444000000000,"state":"active","ping":59},{"user_id":456,"name":"Daz","steam_id":76561198041431938,"connected_time":380000000000,"state":"active","ping":54},{"user_id":430,"name":"The Shaq Attack","steam_id":76561198075285534,"connected_time":3050000000000,"state":"active","ping":38},{"user_id":368,"name":"ilun","steam_id":76561198042913843,"connected_time":9070000000000,"state":"active","ping":60},{"user_id":431,"name":"Skabbety","steam_id":76561198168044257,"connected_time":2915000000000,"state":"active","ping":45},{"user_id":402,"name":"NEBULA","steam_id":76561198086878595,"connected_time":6075000000000,"state":"active","ping":75},{"user_id":433,"name":"Shrimps","steam_id":76561198983016709,"connected_time":2703000000000,"state":"active","ping":62},{"user_id":457,"name":"Dog","steam_id":76561198041841128,"connected_time":347000000000,"state":"active","ping":88}]},{"server_id":119,"name":"Uncletopia | Seattle | 2 | All Maps","name_short":"sea-2","host":"sea-1.us.uncletopia.com","port":27025,"enabled":true,"region":"us-west","cc":"us","latitude":47.608013,"longitude":-122.33517,"reserved":0,"last_update":"0001-01-01T00:00:00Z","name_a2s":"Uncletopia | Seattle | 2 | All Maps","protocol":17,"map":"pl_swiftwater_final1","folder":"tf","game":"Team Fortress","app_id":440,"player_count":24,"max_players":24,"Bots":0,"server_type":"Dedicated","server_os":"Linux","password":true,"vac":true,"version":"7961495","steam_id":85568392924469998,"keywords":["nocrits","nodmgspread","payload","uncletopia"],"game_id":440,"stv_port":27026,"stv_name":"Uncletopia | Seattle | 2 | All Maps | STV","players":[{"user_id":236,"name":"gender fluid IV","steam_id":76561198065662025,"connected_time":875000000000,"state":"active","ping":69},{"user_id":235,"name":"EnragedWaters","steam_id":76561198317135757,"connected_time":894000000000,"state":"active","ping":75},{"user_id":223,"name":"wrench","steam_id":76561198137242573,"connected_time":1717000000000,"state":"active","ping":55},{"user_id":216,"name":"Blitzoetic","steam_id":76561198053239412,"connected_time":2195000000000,"state":"active","ping":77},{"user_id":206,"name":"the beast","steam_id":76561198088131563,"connected_time":3815000000000,"state":"active","ping":98},{"user_id":237,"name":"rhinorun","steam_id":76561198043324837,"connected_time":869000000000,"state":"active","ping":60},{"user_id":172,"name":"you just got dyked on","steam_id":76561198018977723,"connected_time":6961000000000,"state":"active","ping":50},{"user_id":238,"name":"Arctem","steam_id":76561198012937871,"connected_time":861000000000,"state":"active","ping":123},{"user_id":246,"name":"chocky","steam_id":76561198057491296,"connected_time":140000000000,"state":"active","ping":48},{"user_id":245,"name":"Deathkillsme","steam_id":76561198059468746,"connected_time":577000000000,"state":"active","ping":50},{"user_id":244,"name":"goofy goober","steam_id":76561199024079388,"connected_time":666000000000,"state":"active","ping":48},{"user_id":185,"name":"Supersonic","steam_id":76561198042167127,"connected_time":4942000000000,"state":"active","ping":58},{"user_id":234,"name":"Moffein","steam_id":76561198016739296,"connected_time":938000000000,"state":"active","ping":60},{"user_id":195,"name":"NickoDeeBz","steam_id":76561198294657867,"connected_time":4191000000000,"state":"active","ping":86},{"user_id":240,"name":"SomeRandomBetaFish","steam_id":76561198827731399,"connected_time":849000000000,"state":"active","ping":48},{"user_id":233,"name":"Ginnunga","steam_id":76561198000320083,"connected_time":1122000000000,"state":"active","ping":89},{"user_id":194,"name":"ghor","steam_id":76561197994547132,"connected_time":4206000000000,"state":"active","ping":37},{"user_id":247,"name":"Bcinc","steam_id":76561198145286262,"connected_time":52000000000,"state":"active","ping":73},{"user_id":229,"name":"slushie","steam_id":76561199031270716,"connected_time":1276000000000,"state":"active","ping":91},{"user_id":242,"name":"mub","steam_id":76561197961943948,"connected_time":826000000000,"state":"active","ping":48},{"user_id":227,"name":"Indefiable","steam_id":76561198219238953,"connected_time":1303000000000,"state":"active","ping":46},{"user_id":225,"name":"hosewater","steam_id":76561198023383126,"connected_time":1344000000000,"state":"active","ping":57},{"user_id":228,"name":"clanker","steam_id":76561198880773196,"connected_time":1294000000000,"state":"active","ping":61},{"user_id":230,"name":"=Silver=","steam_id":76561198292307127,"connected_time":1274000000000,"state":"active","ping":70}]},{"server_id":406,"name":"Uncletopia | Seattle | 3 | Stopwatch","name_short":"sea-3","host":"sea-1.us.uncletopia.com","port":27035,"enabled":true,"region":"us-west","cc":"us","latitude":47.608013,"longitude":-122.33517,"reserved":0,"last_update":"0001-01-01T00:00:00Z","name_a2s":"Uncletopia | Seattle | 3 | Stopwatch","protocol":17,"map":"workshop/koth_ashville_final.ugc2130459942","folder":"tf","game":"Team Fortress","app_id":440,"player_count":0,"max_players":24,"Bots":0,"server_type":"Dedicated","server_os":"Linux","password":true,"vac":true,"version":"7961495","steam_id":85568392924515217,"keywords":["cp","nocrits","nodmgspread","uncletopia"],"game_id":440,"stv_port":27036,"stv_name":"Uncletopia | Seattle | 3 | Stopwatch | STV","players":null},{"server_id":17,"name":"Uncletopia | San Francisco | 1 | All Maps","name_short":"sfo-1","host":"sfo-1.us.uncletopia.com","port":27015,"enabled":true,"region":"us-west","cc":"us","latitude":37.77397,"longitude":-122.4313,"reserved":0,"last_update":"0001-01-01T00:00:00Z","name_a2s":"Uncletopia | San Francisco | 1 | All Maps","protocol":17,"map":"pl_barnblitz","folder":"tf","game":"Team Fortress","app_id":440,"player_count":0,"max_players":24,"Bots":0,"server_type":"Dedicated","server_os":"Linux","password":true,"vac":true,"version":"7961495","steam_id":85568392924469999,"keywords":["nocrits","nodmgspread","payload","uncletopia"],"game_id":440,"stv_port":27016,"stv_name":"Uncletopia | San Francisco | 1 | All Maps | STV","players":null},{"server_id":18,"name":"Uncletopia | San Francisco | 2 | All Maps","name_short":"sfo-2","host":"sfo-1.us.uncletopia.com","port":27025,"enabled":true,"region":"us-west","cc":"us","latitude":37.77397,"longitude":-122.4313,"reserved":0,"last_update":"0001-01-01T00:00:00Z","name_a2s":"Uncletopia | San Francisco | 2 | All Maps","protocol":17,"map":"koth_viaduct","folder":"tf","game":"Team Fortress","app_id":440,"player_count":0,"max_players":24,"Bots":0,"server_type":"Dedicated","server_os":"Linux","password":true,"vac":true,"version":"7961495","steam_id":85568392924470000,"keywords":["cp","nocrits","nodmgspread","uncletopia"],"game_id":440,"stv_port":27026,"stv_name":"Uncletopia | San Francisco | 2 | All Maps | STV","players":null},{"server_id":19,"name":"Uncletopia | San Francisco | 3 | Stopwatch","name_short":"sfo-3","host":"sfo-1.us.uncletopia.com","port":27035,"enabled":true,"region":"us-west","cc":"us","latitude":37.77397,"longitude":-122.4313,"reserved":0,"last_update":"0001-01-01T00:00:00Z","name_a2s":"Uncletopia | San Francisco | 3 | Stopwatch","protocol":17,"map":"workshop/pl_barnblitz_pro7.ugc582280235","folder":"tf","game":"Team Fortress","app_id":440,"player_count":0,"max_players":24,"Bots":0,"server_type":"Dedicated","server_os":"Linux","password":true,"vac":true,"version":"7961495","steam_id":85568392924742824,"keywords":["nocrits","nodmgspread","payload","uncletopia"],"game_id":440,"stv_port":27036,"stv_name":"Uncletopia | San Francisco | 3 | Stopwatch | STV","players":null},{"server_id":20,"name":"Uncletopia | San Francisco | 4 | Community","name_short":"sfo-4","host":"sfo-1.us.uncletopia.com","port":27045,"enabled":true,"region":"us-west","cc":"us","latitude":37.77397,"longitude":-122.4313,"reserved":0,"last_update":"0001-01-01T00:00:00Z","name_a2s":"Uncletopia | San Francisco | 4 | Community","protocol":17,"map":"workshop/pl_cactuscanyon_redux_final2.ugc2579644293","folder":"tf","game":"Team Fortress","app_id":440,"player_count":24,"max_players":24,"Bots":0,"server_type":"Dedicated","server_os":"Linux","password":true,"vac":true,"version":"7961495","steam_id":85568392924742826,"keywords":["nocrits","nodmgspread","payload","uncletopia"],"game_id":440,"stv_port":27046,"stv_name":"Uncletopia | San Francisco | 4 | Community | STV","players":[{"user_id":44,"name":"oh god i'm gonna CHUM","steam_id":76561198019210187,"connected_time":875000000000,"state":"active","ping":89},{"user_id":53,"name":"Seshreb","steam_id":76561198846614634,"connected_time":297000000000,"state":"active","ping":74},{"user_id":47,"name":"copper","steam_id":76561198146250533,"connected_time":493000000000,"state":"active","ping":59},{"user_id":48,"name":"jackin626","steam_id":76561198269277735,"connected_time":437000000000,"state":"active","ping":74},{"user_id":60,"name":"awful","steam_id":76561198277979851,"connected_time":112000000000,"state":"active","ping":118},{"user_id":55,"name":"Joey Lemons","steam_id":76561198068104187,"connected_time":248000000000,"state":"active","ping":90},{"user_id":56,"name":"green bean","steam_id":76561198113099204,"connected_time":246000000000,"state":"active","ping":37},{"user_id":12,"name":"asm_ghost","steam_id":76561199205363547,"connected_time":3551000000000,"state":"active","ping":85},{"user_id":49,"name":"vertice","steam_id":76561199117182718,"connected_time":422000000000,"state":"active","ping":58},{"user_id":39,"name":"slug units","steam_id":76561198028658527,"connected_time":1654000000000,"state":"active","ping":55},{"user_id":27,"name":"Gramseal","steam_id":76561198181906333,"connected_time":2182000000000,"state":"active","ping":55},{"user_id":62,"name":"Res","steam_id":76561198167207112,"connected_time":70000000000,"state":"active","ping":84},{"user_id":28,"name":"funkeymonkey15","steam_id":76561198930961042,"connected_time":2165000000000,"state":"active","ping":88},{"user_id":57,"name":"McDonald","steam_id":76561199028533497,"connected_time":221000000000,"state":"active","ping":63},{"user_id":51,"name":"Manny Heffley","steam_id":76561198135137213,"connected_time":373000000000,"state":"active","ping":87},{"user_id":30,"name":"Dr. Bob","steam_id":76561198020215410,"connected_time":2060000000000,"state":"active","ping":58},{"user_id":31,"name":"cameltoe joe","steam_id":76561198100779419,"connected_time":2028000000000,"state":"active","ping":57},{"user_id":52,"name":"pool shark","steam_id":76561198130191179,"connected_time":365000000000,"state":"active","ping":101},{"user_id":61,"name":"Joey Lemons                    ","steam_id":76561198048925904,"connected_time":104000000000,"state":"active","ping":71},{"user_id":59,"name":"moomin","steam_id":76561198336244269,"connected_time":205000000000,"state":"active","ping":70},{"user_id":35,"name":"Buswolley","steam_id":76561197995205571,"connected_time":1888000000000,"state":"active","ping":55},{"user_id":36,"name":"Oktayey","steam_id":76561198143213426,"connected_time":1867000000000,"state":"active","ping":48},{"user_id":43,"name":"9/11 Airlines","steam_id":76561198096306325,"connected_time":1226000000000,"state":"active","ping":127},{"user_id":38,"name":"Paperclip","steam_id":76561198057076337,"connected_time":1773000000000,"state":"active","ping":77}]},{"server_id":141,"name":"Uncletopia | Sydney | 1 | All Maps","name_short":"syd-1","host":"syd-1.au.uncletopia.com","port":27015,"enabled":true,"region":"au","cc":"au","latitude":-33.865143,"longitude":151.2099,"reserved":0,"last_update":"0001-01-01T00:00:00Z","name_a2s":"Uncletopia | Sydney | 1 | All Maps","protocol":17,"map":"koth_viaduct","folder":"tf","game":"Team Fortress","app_id":440,"player_count":1,"max_players":24,"Bots":0,"server_type":"Dedicated","server_os":"Linux","password":true,"vac":true,"version":"7961495","steam_id":85568392924470001,"keywords":["cp","nocrits","nodmgspread","uncletopia"],"game_id":440,"stv_port":27016,"stv_name":"Uncletopia | Sydney | 1 | All Maps | STV","players":[{"user_id":7,"name":"jaade","steam_id":76561198839059907,"connected_time":95000000000,"state":"active","ping":50}]},{"server_id":123,"name":"Uncletopia | Sydney | 2 | All Maps","name_short":"syd-2","host":"syd-1.au.uncletopia.com","port":27025,"enabled":true,"region":"au","cc":"au","latitude":-33.865143,"longitude":151.2099,"reserved":0,"last_update":"0001-01-01T00:00:00Z","name_a2s":"Uncletopia | Sydney | 2 | All Maps","protocol":17,"map":"koth_lakeside_final","folder":"tf","game":"Team Fortress","app_id":440,"player_count":0,"max_players":24,"Bots":0,"server_type":"Dedicated","server_os":"Linux","password":true,"vac":true,"version":"7961495","steam_id":85568392924470002,"keywords":["cp","nocrits","nodmgspread","uncletopia"],"game_id":440,"stv_port":27026,"stv_name":"Uncletopia | Sydney | 2 | All Maps | STV","players":null},{"server_id":395,"name":"Uncletopia | Sydney | 3 | All Maps","name_short":"syd-3","host":"syd-1.au.uncletopia.com","port":27035,"enabled":true,"region":"au","cc":"au","latitude":-33.865143,"longitude":151.2099,"reserved":0,"last_update":"0001-01-01T00:00:00Z","name_a2s":"Uncletopia | Sydney | 3 | All Maps","protocol":17,"map":"cp_dustbowl","folder":"tf","game":"Team Fortress","app_id":440,"player_count":0,"max_players":24,"Bots":0,"server_type":"Dedicated","server_os":"Linux","password":true,"vac":true,"version":"7961495","steam_id":85568392925194467,"keywords":["cp","nocrits","nodmgspread","uncletopia"],"game_id":440,"stv_port":27036,"stv_name":"Uncletopia | Sydney | 3 | All Maps | STV","players":null},{"server_id":396,"name":"Uncletopia | Sydney | 4 | All Maps","name_short":"syd-4","host":"syd-1.au.uncletopia.com","port":27045,"enabled":true,"region":"au","cc":"au","latitude":-33.865143,"longitude":151.2099,"reserved":0,"last_update":"0001-01-01T00:00:00Z","name_a2s":"Uncletopia | Sydney | 4 | All Maps","protocol":17,"map":"koth_highpass","folder":"tf","game":"Team Fortress","app_id":440,"player_count":0,"max_players":24,"Bots":0,"server_type":"Dedicated","server_os":"Linux","password":true,"vac":true,"version":"7961495","steam_id":85568392925397958,"keywords":["cp","nocrits","nodmgspread","uncletopia"],"game_id":440,"stv_port":27046,"stv_name":"Uncletopia | Sydney | 4 | All Maps | STV","players":null},{"server_id":58,"name":"Uncletopia | Sydney | 5 | Stopwatch","name_short":"syd-5","host":"syd-1.au.uncletopia.com","port":27055,"enabled":true,"region":"au","cc":"au","latitude":-33.865143,"longitude":151.2099,"reserved":0,"last_update":"0001-01-01T00:00:00Z","name_a2s":"Uncletopia | Sydney | 5 | Stopwatch","protocol":17,"map":"pl_frontier_final","folder":"tf","game":"Team Fortress","app_id":440,"player_count":0,"max_players":24,"Bots":0,"server_type":"Dedicated","server_os":"Linux","password":true,"vac":true,"version":"7961495","steam_id":85568392925397959,"keywords":["nocrits","nodmgspread","payload","uncletopia"],"game_id":440,"stv_port":27056,"stv_name":"Uncletopia | Sydney | 5 | Stopwatch | STV","players":null},{"server_id":59,"name":"Uncletopia | Sydney | 6 | Community","name_short":"syd-6","host":"syd-1.au.uncletopia.com","port":27065,"enabled":true,"region":"au","cc":"au","latitude":-33.865143,"longitude":151.2099,"reserved":0,"last_update":"0001-01-01T00:00:00Z","name_a2s":"Uncletopia | Sydney | 6 | Community","protocol":17,"map":"cp_sunshine","folder":"tf","game":"Team Fortress","app_id":440,"player_count":0,"max_players":24,"Bots":0,"server_type":"Dedicated","server_os":"Linux","password":true,"vac":true,"version":"7961495","steam_id":85568392925397960,"keywords":["cp","nocrits","nodmgspread","uncletopia"],"game_id":440,"stv_port":27066,"stv_name":"Uncletopia | Sydney | 6 | Community | STV","players":null},{"server_id":49,"name":"Uncletopia | Warsaw | 1 | One Thousand Uncles","name_short":"waw-1","host":"waw-1.pl.uncletopia.com","port":27015,"enabled":true,"region":"eu","cc":"pl","latitude":52.2297,"longitude":21.017532,"reserved":0,"last_update":"0001-01-01T00:00:00Z","name_a2s":"Uncletopia | Warsaw | 1 | One Thousand Uncles","protocol":17,"map":"pl_chilly","folder":"tf","game":"Team Fortress","app_id":440,"player_count":0,"max_players":32,"Bots":0,"server_type":"Dedicated","server_os":"Linux","password":true,"vac":true,"version":"7961495","steam_id":85568392925397850,"keywords":["alltalk","danepve","increased_maxplayers","nocrits","norespawntime","payload","uncletopia"],"game_id":440,"stv_port":0,"stv_name":"","players":null},{"server_id":50,"name":"Uncletopia | Warsaw | 2 | One Thousand Uncles","name_short":"waw-2","host":"waw-1.pl.uncletopia.com","port":27025,"enabled":true,"region":"eu","cc":"pl","latitude":52.2297,"longitude":21.017532,"reserved":0,"last_update":"0001-01-01T00:00:00Z","name_a2s":"Uncletopia | Warsaw | 2 | One Thousand Uncles","protocol":17,"map":"cp_dustbowl","folder":"tf","game":"Team Fortress","app_id":440,"player_count":0,"max_players":32,"Bots":0,"server_type":"Dedicated","server_os":"Linux","password":true,"vac":true,"version":"7961495","steam_id":85568392925397851,"keywords":["alltalk","cp","danepve","increased_maxplayers","nocrits","norespawntime","uncletopia"],"game_id":440,"stv_port":0,"stv_name":"","players":null},{"server_id":51,"name":"Uncletopia | Warsaw | 3 | All Maps","name_short":"waw-3","host":"waw-1.pl.uncletopia.com","port":27035,"enabled":true,"region":"eu","cc":"pl","latitude":52.2297,"longitude":21.017532,"reserved":0,"last_update":"0001-01-01T00:00:00Z","name_a2s":"Uncletopia | Warsaw | 3 | All Maps","protocol":17,"map":"koth_highpass","folder":"tf","game":"Team Fortress","app_id":440,"player_count":0,"max_players":24,"Bots":0,"server_type":"Dedicated","server_os":"Linux","password":true,"vac":true,"version":"7961495","steam_id":85568392925397852,"keywords":["cp","nocrits","nodmgspread","uncletopia"],"game_id":440,"stv_port":27036,"stv_name":"Uncletopia | Warsaw | 3 | All Maps | STV","players":null},{"server_id":52,"name":"Uncletopia | Warsaw | 4 | All Maps","name_short":"waw-4","host":"waw-1.pl.uncletopia.com","port":27045,"enabled":true,"region":"eu","cc":"pl","latitude":52.2297,"longitude":21.017532,"reserved":0,"last_update":"0001-01-01T00:00:00Z","name_a2s":"Uncletopia | Warsaw | 4 | All Maps","protocol":17,"map":"koth_lakeside_final","folder":"tf","game":"Team Fortress","app_id":440,"player_count":0,"max_players":24,"Bots":0,"server_type":"Dedicated","server_os":"Linux","password":true,"vac":true,"version":"7961495","steam_id":85568392925397853,"keywords":["cp","nocrits","nodmgspread","uncletopia"],"game_id":440,"stv_port":27046,"stv_name":"Uncletopia | Warsaw | 4 | All Maps | STV","players":null},{"server_id":53,"name":"Uncletopia | Warsaw | 5 | Stopwatch","name_short":"waw-5","host":"waw-1.pl.uncletopia.com","port":27055,"enabled":true,"region":"eu","cc":"pl","latitude":52.2297,"longitude":21.017532,"reserved":0,"last_update":"0001-01-01T00:00:00Z","name_a2s":"Uncletopia | Warsaw | 5 | Stopwatch","protocol":17,"map":"koth_lakeside_final","folder":"tf","game":"Team Fortress","app_id":440,"player_count":0,"max_players":24,"Bots":0,"server_type":"Dedicated","server_os":"Linux","password":true,"vac":true,"version":"7961495","steam_id":85568392925397854,"keywords":["cp","nocrits","nodmgspread","uncletopia"],"game_id":440,"stv_port":27056,"stv_name":"Uncletopia | Warsaw | 5 | Stopwatch | STV","players":null},{"server_id":54,"name":"Uncletopia | Warsaw | 6 | Community","name_short":"waw-6","host":"waw-1.pl.uncletopia.com","port":27065,"enabled":true,"region":"eu","cc":"pl","latitude":52.2297,"longitude":21.017532,"reserved":0,"last_update":"0001-01-01T00:00:00Z","name_a2s":"Uncletopia | Warsaw | 6 | Community","protocol":17,"map":"workshop/rd_asteroid_redux_b1.ugc2154902912","folder":"tf","game":"Team Fortress","app_id":440,"player_count":0,"max_players":24,"Bots":0,"server_type":"Dedicated","server_os":"Linux","password":true,"vac":true,"version":"7961495","steam_id":85568392925397856,"keywords":["beta","nocrits","nodmgspread","rd","uncletopia"],"game_id":440,"stv_port":27066,"stv_name":"Uncletopia | Warsaw | 6 | Community | STV","players":null}]}