{"status":true,"message":"","result":[{"server_id":9,"name":"Uncletopia | Atlanta | 1 | All Maps","name_short":"atl-1","host":"atl-1.us.uncletopia.com","port":27015,"enabled":true,"region":"us-east","cc":"us","latitude":33.753746,"longitude":-84.38633,"reserved":0,"last_update":"0001-01-01T00:00:00Z","name_a2s":"Uncletopia | Atlanta | 1 | All Maps","protocol":17,"map":"pl_upward","folder":"tf","game":"Team Fortress","app_id":440,"player_count":24,"max_players":24,"Bots":0,"server_type":"Dedicated","server_os":"Linux","password":true,"vac":true,"version":"7708610","steam_id":85568392924469982,"keywords":["nocrits","nodmgspread","payload","uncletopia"],"game_id":440,"stv_port":27016,"stv_name":"Uncletopia | Atlanta | 1 | All Maps | STV","players":[{"user_id":338,"name":"SE X","steam_id":76561198094525829,"connected_time":3046000000000,"state":"active","ping":72},{"user_id":349,"name":"Nyle","steam_id":76561198045652639,"connected_time":1361000000000,"state":"active","ping":118},{"user_id":363,"name":"AALINI","steam_id":76561199135108952,"connected_time":388000000000,"state":"active","ping":120},{"user_id":307,"name":"Ether","steam_id":76561198054806528,"connected_time":6030000000000,"state":"active","ping":69},{"user_id":356,"name":"VerSaKa","steam_id":76561198052392540,"connected_time":806000000000,"state":"active","ping":79},{"user_id":266,"name":"GlassesMann","steam_id":76561198970055773,"connected_time":7172000000000,"state":"active","ping":48},{"user_id":333,"name":"D:\u003c","steam_id":76561198017121314,"connected_time":3642000000000,"state":"active","ping":95},{"user_id":353,"name":"el pepe","steam_id":76561199245873183,"connected_time":947000000000,"state":"active","ping":166},{"user_id":328,"name":"ATL1 | Dec the halls","steam_id":76561199045608372,"connected_time":3980000000000,"state":"active","ping":72},{"user_id":358,"name":"peachy","steam_id":76561198026664629,"connected_time":710000000000,"state":"active","ping":59},{"user_id":354,"name":"ATL1 | Phestive Phango","steam_id":76561198069811545,"connected_time":924000000000,"state":"active","ping":45},{"user_id":351,"name":"Kine¬≤","steam_id":76561198061505962,"connected_time":1007000000000,"state":"active","ping":45},{"user_id":335,"name":"BERBBLES","steam_id":76561198815107994,"connected_time":3478000000000,"state":"active","ping":73},{"user_id":320,"name":"[slug]","steam_id":76561197989592178,"connected_time":4601000000000,"state":"active","ping":88},{"user_id":352,"name":"blob","steam_id":76561198122375328,"connected_time":1004000000000,"state":"active","ping":61},{"user_id":339,"name":"mbs","steam_id":76561198013079739,"connected_time":2894000000000,"state":"active","ping":62},{"user_id":345,"name":"Jin","steam_id":76561198119873148,"connected_time":2602000000000,"state":"active","ping":66},{"user_id":313,"name":"Aniz","steam_id":76561199226665024,"connected_time":5534000000000,"state":"active","ping":167},{"user_id":357,"name":"Ziath","steam_id":76561198094009164,"connected_time":761000000000,"state":"active","ping":77},{"user_id":359,"name":"REAL MF THUG! FUCK 12","steam_id":76561198825658971,"connected_time":642000000000,"state":"active","ping":105},{"user_id":323,"name":"carrion goat","steam_id":76561198262064871,"connected_time":4284000000000,"state":"active","ping":62},{"user_id":297,"name":"cola","steam_id":76561198374390458,"connected_time":6306000000000,"state":"active","ping":59},{"user_id":344,"name":"[ ¬£≈∏,ƒê ] Not AirmanBlueJay","steam_id":76561198030901346,"connected_time":2659000000000,"state":"active","ping":88},{"user_id":366,"name":"HarryjusttHarry","steam_id":76561198982810452,"connected_time":48000000000,"state":"active","ping":81}]},{"server_id":400,"name":"Uncletopia | Atlanta | 3 | All Maps","name_short":"atl-3","host":"atl-1.us.uncletopia.com","port":27035,"enabled":true,"region":"us-east","cc":"us","latitude":33.753746,"longitude":-84.38633,"reserved":0,"last_update":"0001-01-01T00:00:00Z","name_a2s":"Uncletopia | Atlanta | 3 | All Maps","protocol":17,"map":"cp_snakewater_final1","folder":"tf","game":"Team Fortress","app_id":440,"player_count":0,"max_players":24,"Bots":0,"server_type":"Dedicated","server_os":"Linux","password":true,"vac":true,"version":"7708610","steam_id":85568392924515187,"keywords":["cp","nocrits","nodmgspread","uncletopia"],"game_id":440,"stv_port":27036,"stv_name":"Uncletopia | Atlanta | 3 | All Maps | STV","players":null},{"server_id":401,"name":"Uncletopia | Atlanta | 4 | No Payload","name_short":"atl-4","host":"atl-1.us.uncletopia.com","port":27045,"enabled":true,"region":"us-east","cc":"us","latitude":33.753746,"longitude":-84.38633,"reserved":0,"last_update":"0001-01-01T00:00:00Z","name_a2s":"Uncletopia | Atlanta | 4 | No Payload","protocol":17,"map":"pl_snowycoast","folder":"tf","game":"Team Fortress","app_id":440,"player_count":0,"max_players":24,"Bots":0,"server_type":"Dedicated","server_os":"Linux","password":true,"vac":true,"version":"7708610","steam_id":85568392924515188,"keywords":["nocrits","nodmgspread","payload","uncletopia"],"game_id":440,"stv_port":27046,"stv_name":"Uncletopia | Atlanta | 4 | No Payload | STV","players":null},{"server_id":2,"name":"Uncletopia | Chicago | 1 | All Maps","name_short":"chi-1","host":"chi-1.us.uncletopia.com","port":27015,"enabled":true,"region":"us-central","cc":"us","latitude":41.881832,"longitude":-87.62318,"reserved":0,"last_update":"0001-01-01T00:00:00Z","name_a2s":"Uncletopia | Chicago | 1 | All Maps","protocol":17,"map":"koth_harvest_final","folder":"tf","game":"Team Fortress","app_id":440,"player_count":24,"max_players":24,"Bots":0,"server_type":"Dedicated","server_os":"Linux","password":true,"vac":true,"version":"7708610","steam_id":85568392924469984,"keywords":["cp","nocrits","nodmgspread","uncletopia"],"game_id":440,"stv_port":27016,"stv_name":"Uncletopia | Chicago | 1 | All Maps | STV","players":[{"user_id":193,"name":"mechiimi","steam_id":76561198321627268,"connected_time":3439000000000,"state":"active","ping":145},{"user_id":198,"name":"swooce","steam_id":76561198156232484,"connected_time":3129000000000,"state":"active","ping":66},{"user_id":224,"name":"God of bread","steam_id":76561198373688035,"connected_time":649000000000,"state":"active","ping":59},{"user_id":200,"name":"Iggy","steam_id":76561198059602545,"connected_time":2753000000000,"state":"active","ping":47},{"user_id":187,"name":"StarManMatt","steam_id":76561198125513574,"connected_time":3500000000000,"state":"active","ping":85},{"user_id":156,"name":"IGotTheLettuce","steam_id":76561198062473897,"connected_time":5249000000000,"state":"active","ping":75},{"user_id":225,"name":"Lemur","steam_id":76561198065300466,"connected_time":486000000000,"state":"active","ping":76},{"user_id":168,"name":"Jeffenthropus","steam_id":76561198134204248,"connected_time":4530000000000,"state":"active","ping":61},{"user_id":226,"name":"Crunchy Pancake","steam_id":76561198002555973,"connected_time":190000000000,"state":"active","ping":65},{"user_id":194,"name":"Kawflynn","steam_id":76561198029885678,"connected_time":3266000000000,"state":"active","ping":92},{"user_id":175,"name":"Le0901","steam_id":76561198372891244,"connected_time":4247000000000,"state":"active","ping":65},{"user_id":212,"name":"Donk","steam_id":76561198131722927,"connected_time":2037000000000,"state":"active","ping":74},{"user_id":231,"name":"Malevo","steam_id":76561198148606522,"connected_time":44000000000,"state":"spawning","ping":84},{"user_id":206,"name":"Dragon_Spiced","steam_id":76561198097517957,"connected_time":2450000000000,"state":"active","ping":75},{"user_id":214,"name":"roln","steam_id":76561198041066271,"connected_time":1525000000000,"state":"active","ping":78},{"user_id":227,"name":"Nesstones","steam_id":76561198376944585,"connected_time":141000000000,"state":"active","ping":85},{"user_id":223,"name":"Caught a Thundah","steam_id":76561198054495572,"connected_time":693000000000,"state":"active","ping":73},{"user_id":211,"name":"Rusty","steam_id":76561198055585129,"connected_time":2053000000000,"state":"active","ping":92},{"user_id":228,"name":"Hylic","steam_id":76561199051314589,"connected_time":97000000000,"state":"active","ping":63},{"user_id":229,"name":"Impresio","steam_id":76561198129127347,"connected_time":74000000000,"state":"active","ping":58},{"user_id":230,"name":"Terium","steam_id":76561198331234327,"connected_time":64000000000,"state":"active","ping":53},{"user_id":191,"name":"Scorpsy","steam_id":76561198024477688,"connected_time":3463000000000,"state":"active","ping":62},{"user_id":204,"name":"Birdbern","steam_id":76561198122383177,"connected_time":2625000000000,"state":"active","ping":65},{"user_id":144,"name":"Sulfolobus solfataricus","steam_id":76561197990989868,"connected_time":5898000000000,"state":"active","ping":71}]},{"server_id":106,"name":"Uncletopia | Chicago | 2 | All Maps","name_short":"chi-2","host":"chi-1.us.uncletopia.com","port":27025,"enabled":true,"region":"us-central","cc":"us","latitude":41.881832,"longitude":-87.62318,"reserved":0,"last_update":"0001-01-01T00:00:00Z","name_a2s":"Uncletopia | Chicago | 2 | All Maps","protocol":17,"map":"cp_sunshine","folder":"tf","game":"Team Fortress","app_id":440,"player_count":24,"max_players":24,"Bots":0,"server_type":"Dedicated","server_os":"Linux","password":true,"vac":true,"version":"7708610","steam_id":85568392924469985,"keywords":["cp","nocrits","nodmgspread","uncletopia"],"game_id":440,"stv_port":27026,"stv_name":"Uncletopia | Chicago | 2 | All Maps | STV","players":[{"user_id":282,"name":"xenolith","steam_id":76561198041496496,"connected_time":1199000000000,"state":"active","ping":66},{"user_id":259,"name":"Kuyumiester","steam_id":76561198126835302,"connected_time":1716000000000,"state":"active","ping":68},{"user_id":166,"name":"Spain Without The N","steam_id":76561198851536991,"connected_time":3506000000000,"state":"active","ping":109},{"user_id":99,"name":"Dictatorial Karelian","steam_id":76561198196736457,"connected_time":5013000000000,"state":"active","ping":158},{"user_id":307,"name":"jrmadmallard","steam_id":76561198275994616,"connected_time":98000000000,"state":"active","ping":118},{"user_id":256,"name":"Chimpish","steam_id":76561199263493270,"connected_time":1745000000000,"state":"active","ping":92},{"user_id":228,"name":"Tactical Glizzy","steam_id":76561198153297302,"connected_time":2302000000000,"state":"active","ping":59},{"user_id":59,"name":"McNamJam","steam_id":76561198028128686,"connected_time":7619000000000,"state":"active","ping":105},{"user_id":253,"name":"Dr. WAH","steam_id":76561198297778149,"connected_time":1771000000000,"state":"active","ping":184},{"user_id":257,"name":"craxytavi","steam_id":76561198050192689,"connected_time":1745000000000,"state":"active","ping":104},{"user_id":258,"name":"a crazy hobo","steam_id":76561198289650060,"connected_time":1732000000000,"state":"active","ping":82},{"user_id":247,"name":"katryna","steam_id":76561198023440304,"connected_time":1812000000000,"state":"active","ping":56},{"user_id":283,"name":"DiscoTraveler","steam_id":76561199240168088,"connected_time":1187000000000,"state":"active","ping":60},{"user_id":261,"name":"kris736","steam_id":76561198038208255,"connected_time":1714000000000,"state":"active","ping":56},{"user_id":262,"name":"·πΩ‚ßâ cookie","steam_id":76561197998884823,"connected_time":1707000000000,"state":"active","ping":61},{"user_id":161,"name":"‡πá","steam_id":76561199372405984,"connected_time":3654000000000,"state":"active","ping":100},{"user_id":271,"name":"Batman","steam_id":76561198202427509,"connected_time":1600000000000,"state":"active","ping":109},{"user_id":231,"name":"Blink","steam_id":76561197986181277,"connected_time":2225000000000,"state":"active","ping":74},{"user_id":310,"name":"Daft Tigers","steam_id":76561198081871942,"connected_time":22000000000,"state":"spawning","ping":133},{"user_id":175,"name":"frid","steam_id":76561198005806915,"connected_time":3448000000000,"state":"active","ping":60},{"user_id":294,"name":"The Great Eagle Scourge of 1822","steam_id":76561198325086209,"connected_time":870000000000,"state":"active","ping":113},{"user_id":299,"name":"radicalising santa's elves","steam_id":76561198063064857,"connected_time":693000000000,"state":"active","ping":69},{"user_id":224,"name":"robbob","steam_id":76561198137375391,"connected_time":2422000000000,"state":"active","ping":165},{"user_id":248,"name":"remedu","steam_id":76561198005152587,"connected_time":1812000000000,"state":"active","ping":68}]},{"server_id":402,"name":"Uncletopia | Chicago | 3 | All Maps","name_short":"chi-3","host":"chi-1.us.uncletopia.com","port":27035,"enabled":true,"region":"us-central","cc":"us","latitude":41.881832,"longitude":-87.62318,"reserved":0,"last_update":"0001-01-01T00:00:00Z","name_a2s":"Uncletopia | Chicago | 3 | All Maps","protocol":17,"map":"pl_swiftwater_final1","folder":"tf","game":"Team Fortress","app_id":440,"player_count":24,"max_players":24,"Bots":0,"server_type":"Dedicated","server_os":"Linux","password":true,"vac":true,"version":"7708610","steam_id":85568392924515191,"keywords":["nocrits","nodmgspread","payload","uncletopia"],"game_id":440,"stv_port":27036,"stv_name":"Uncletopia | Chicago | 3 | All Maps | STV","players":[{"user_id":418,"name":"Fergus","steam_id":76561199069691223,"connected_time":372000000000,"state":"active","ping":164},{"user_id":400,"name":"Scorpie Doodle","steam_id":76561198021845763,"connected_time":1514000000000,"state":"active","ping":49},{"user_id":398,"name":"bajanga.co","steam_id":76561199122049654,"connected_time":1563000000000,"state":"active","ping":81},{"user_id":416,"name":"DropBear","steam_id":76561197964435496,"connected_time":534000000000,"state":"active","ping":60},{"user_id":377,"name":"Ifrit","steam_id":76561198044730782,"connected_time":3367000000000,"state":"active","ping":92},{"user_id":381,"name":"BOTBOT","steam_id":76561198271928618,"connected_time":3107000000000,"state":"active","ping":92},{"user_id":411,"name":"Bashirider","steam_id":76561198260522253,"connected_time":694000000000,"state":"active","ping":64},{"user_id":399,"name":"Dagsdaf","steam_id":76561198055317112,"connected_time":1562000000000,"state":"active","ping":71},{"user_id":420,"name":"NoBoreGaming","steam_id":76561198044244547,"connected_time":47000000000,"state":"active","ping":69},{"user_id":419,"name":"Corbe","steam_id":76561198353893927,"connected_time":207000000000,"state":"active","ping":45},{"user_id":404,"name":"Pow","steam_id":76561198417295769,"connected_time":1398000000000,"state":"active","ping":60},{"user_id":413,"name":"PrinceGrotle","steam_id":76561198206131603,"connected_time":662000000000,"state":"active","ping":68},{"user_id":330,"name":"battle clown","steam_id":76561198045788371,"connected_time":7697000000000,"state":"active","ping":63},{"user_id":410,"name":"Doey Jiaz","steam_id":76561198286695275,"connected_time":828000000000,"state":"active","ping":63},{"user_id":414,"name":"ThePirateKenway","steam_id":76561198115156181,"connected_time":616000000000,"state":"active","ping":72},{"user_id":384,"name":"oo","steam_id":76561198119626492,"connected_time":3059000000000,"state":"active","ping":134},{"user_id":385,"name":"Humanity? BAHAHAHAHHAHAH","steam_id":76561198209881263,"connected_time":3055000000000,"state":"active","ping":100},{"user_id":392,"name":"KhorneBread Ô∏ª„Éá ‰∏Ä","steam_id":76561198097069958,"connected_time":2373000000000,"state":"active","ping":78},{"user_id":415,"name":"Riboflavin","steam_id":76561198077328593,"connected_time":606000000000,"state":"active","ping":91},{"user_id":386,"name":"sioti","steam_id":76561198128796649,"connected_time":3044000000000,"state":"active","ping":67},{"user_id":354,"name":"Snake Handler","steam_id":76561198027198306,"connected_time":5644000000000,"state":"active","ping":53},{"user_id":417,"name":"A tree","steam_id":76561198309065247,"connected_time":454000000000,"state":"active","ping":51},{"user_id":407,"name":"Brown_Dream","steam_id":76561198975766145,"connected_time":1376000000000,"state":"active","ping":72}]},{"server_id":403,"name":"Uncletopia | Chicago | 4 | All Maps","name_short":"chi-4","host":"chi-1.us.uncletopia.com","port":27045,"enabled":true,"region":"us-central","cc":"us","latitude":41.881832,"longitude":-87.62318,"reserved":0,"last_update":"0001-01-01T00:00:00Z","name_a2s":"Uncletopia | Chicago | 4 | All Maps","protocol":17,"map":"cp_sunshine","folder":"tf","game":"Team Fortress","app_id":440,"player_count":24,"max_players":24,"Bots":0,"server_type":"Dedicated","server_os":"Linux","password":true,"vac":true,"version":"7708610","steam_id":85568392924515193,"keywords":["cp","nocrits","nodmgspread","uncletopia"],"game_id":440,"stv_port":27046,"stv_name":"Uncletopia | Chicago | 4 | All Maps | STV","players":[{"user_id":93,"name":"Hugh G Rection","steam_id":76561198117404218,"connected_time":735000000000,"state":"active","ping":77},{"user_id":111,"name":"Grammer","steam_id":76561197977007845,"connected_time":364000000000,"state":"active","ping":99},{"user_id":82,"name":"The Gremlin","steam_id":76561198419066993,"connected_time":1800000000000,"state":"active","ping":104},{"user_id":77,"name":"evil (commits crimes)","steam_id":76561198198984282,"connected_time":3134000000000,"state":"active","ping":64},{"user_id":16,"name":"neptune","steam_id":76561198383404869,"connected_time":9313000000000,"state":"active","ping":122},{"user_id":102,"name":"majorbobfunction","steam_id":76561198042464632,"connected_time":488000000000,"state":"active","ping":56},{"user_id":84,"name":"sentient soup","steam_id":76561198887503216,"connected_time":1222000000000,"state":"active","ping":64},{"user_id":85,"name":"Mom","steam_id":76561198207936000,"connected_time":1129000000000,"state":"active","ping":103},{"user_id":87,"name":"silver","steam_id":76561198081906712,"connected_time":987000000000,"state":"active","ping":38},{"user_id":89,"name":"ChubbinsMothYT","steam_id":76561198999215730,"connected_time":813000000000,"state":"active","ping":76},{"user_id":90,"name":"Aster","steam_id":76561198037920420,"connected_time":812000000000,"state":"active","ping":117},{"user_id":91,"name":"LegoKatt","steam_id":76561198064536870,"connected_time":811000000000,"state":"active","ping":161},{"user_id":98,"name":"Everything but sugar, spice, an","steam_id":76561198081971317,"connected_time":664000000000,"state":"active","ping":58},{"user_id":94,"name":"vandeer","steam_id":76561198120124007,"connected_time":733000000000,"state":"active","ping":83},{"user_id":95,"name":"Discount","steam_id":76561198228825336,"connected_time":730000000000,"state":"active","ping":90},{"user_id":96,"name":"'LaxAttack","steam_id":76561198044129346,"connected_time":703000000000,"state":"active","ping":73},{"user_id":99,"name":"Zhenaj","steam_id":76561199209016136,"connected_time":604000000000,"state":"active","ping":57},{"user_id":109,"name":"Pigzilla","steam_id":76561198373968267,"connected_time":394000000000,"state":"active","ping":62},{"user_id":104,"name":"JesterJasper","steam_id":76561198025338925,"connected_time":478000000000,"state":"active","ping":90},{"user_id":105,"name":"strawberry","steam_id":76561198101926397,"connected_time":477000000000,"state":"active","ping":51},{"user_id":106,"name":"SuperJagops","steam_id":76561198034689716,"connected_time":472000000000,"state":"active","ping":64},{"user_id":107,"name":"gordon freeman christmas","steam_id":76561198367735460,"connected_time":416000000000,"state":"active","ping":77},{"user_id":108,"name":"Bogg","steam_id":76561198111417325,"connected_time":402000000000,"state":"active","ping":63},{"user_id":110,"name":"spin = team agar.io","steam_id":76561198133360797,"connected_time":385000000000,"state":"active","ping":112}]},{"server_id":36,"name":"Uncletopia | Chicago | 5 | All Maps","name_short":"chi-5","host":"chi-2.us.uncletopia.com","port":27015,"enabled":true,"region":"us-central","cc":"us","latitude":41.881832,"longitude":-87.62318,"reserved":0,"last_update":"0001-01-01T00:00:00Z","name_a2s":"Uncletopia | Chicago | 5 | All Maps","protocol":17,"map":"koth_cascade","folder":"tf","game":"Team Fortress","app_id":440,"player_count":0,"max_players":24,"Bots":0,"server_type":"Dedicated","server_os":"Linux","password":true,"vac":true,"version":"7708610","steam_id":85568392924866362,"keywords":["cp","nocrits","nodmgspread","uncletopia"],"game_id":440,"stv_port":27016,"stv_name":"Uncletopia | Chicago | 5 | All Maps | STV","players":null},{"server_id":37,"name":"Uncletopia | Chicago | 6 | All Maps","name_short":"chi-6","host":"chi-2.us.uncletopia.com","port":27025,"enabled":true,"region":"us-central","cc":"us","latitude":41.881832,"longitude":-87.62318,"reserved":0,"last_update":"0001-01-01T00:00:00Z","name_a2s":"Uncletopia | Chicago | 6 | All Maps","protocol":17,"map":"koth_viaduct","folder":"tf","game":"Team Fortress","app_id":440,"player_count":0,"max_players":24,"Bots":0,"server_type":"Dedicated","server_os":"Linux","password":true,"vac":true,"version":"7708610","steam_id":85568392924866363,"keywords":["cp","nocrits","nodmgspread","uncletopia"],"game_id":440,"stv_port":27026,"stv_name":"Uncletopia | Chicago | 6 | All Maps | STV","players":null},{"server_id":38,"name":"Uncletopia | Chicago | 7 | Stopwatch (test)","name_short":"chi-7","host":"chi-2.us.uncletopia.com","port":27035,"enabled":true,"region":"us-central","cc":"us","latitude":41.881832,"longitude":-87.62318,"reserved":0,"last_update":"0001-01-01T00:00:00Z","name_a2s":"Uncletopia | Chicago | 7 | Stopwatch (test)","protocol":17,"map":"pl_swiftwater_final1","folder":"tf","game":"Team Fortress","app_id":440,"player_count":0,"max_players":24,"Bots":0,"server_type":"Dedicated","server_os":"Linux","password":true,"vac":true,"version":"7708610","steam_id":85568392924866364,"keywords":["nocrits","nodmgspread","payload","uncletopia"],"game_id":440,"stv_port":27036,"stv_name":"Uncletopia | Chicago | 7 | Stopwatch (test) | STV","players":null},{"server_id":39,"name":"Uncletopia | Chicago | 8 | Community","name_short":"chi-8","host":"chi-2.us.uncletopia.com","port":27045,"enabled":true,"region":"us-central","cc":"us","latitude":41.881832,"longitude":-87.62318,"reserved":0,"last_update":"0001-01-01T00:00:00Z","name_a2s":"Uncletopia | Chicago | 8 | Community","protocol":17,"map":"pl_barnblitz","folder":"tf","game":"Team Fortress","app_id":440,"player_count":0,"max_players":24,"Bots":0,"server_type":"Dedicated","server_os":"Linux","password":true,"vac":true,"version":"7708610","steam_id":85568392924866365,"keywords":["nocrits","nodmgspread","payload","uncletopia"],"game_id":440,"stv_port":27046,"stv_name":"Uncletopia | Chicago | 8 | Community | STV","players":null},{"server_id":8,"name":"Uncletopia | Dallas | 1 | All Maps","name_short":"dal-1","host":"dal-1.us.uncletopia.com","port":27015,"enabled":true,"region":"us-central","cc":"us","latitude":32.779167,"longitude":-96.80889,"reserved":0,"last_update":"0001-01-01T00:00:00Z","name_a2s":"Uncletopia | Dallas | 1 | All Maps","protocol":17,"map":"koth_viaduct","folder":"tf","game":"Team Fortress","app_id":440,"player_count":0,"max_players":24,"Bots":0,"server_type":"Dedicated","server_os":"Linux","password":true,"vac":true,"version":"7708610","steam_id":85568392924469986,"keywords":["cp","nocrits","nodmgspread","uncletopia"],"game_id":440,"stv_port":27016,"stv_name":"Uncletopia | Dallas | 1 | All Maps | STV","players":null},{"server_id":108,"name":"Uncletopia | Dallas | 2 | All Maps","name_short":"dal-2","host":"dal-1.us.uncletopia.com","port":27025,"enabled":true,"region":"us-central","cc":"us","latitude":32.779167,"longitude":-96.80889,"reserved":0,"last_update":"0001-01-01T00:00:00Z","name_a2s":"Uncletopia | Dallas | 2 | All Maps","protocol":17,"map":"koth_highpass","folder":"tf","game":"Team Fortress","app_id":440,"player_count":0,"max_players":24,"Bots":0,"server_type":"Dedicated","server_os":"Linux","password":true,"vac":true,"version":"7708610","steam_id":85568392924469988,"keywords":["cp","nocrits","nodmgspread","uncletopia"],"game_id":440,"stv_port":27026,"stv_name":"Uncletopia | Dallas | 2 | All Maps | STV","players":null},{"server_id":5,"name":"Uncletopia | Frankfurt | 1 | All Maps","name_short":"frk-1","host":"frk-1.de.uncletopia.com","port":27015,"enabled":true,"region":"eu","cc":"de","latitude":50.110924,"longitude":8.682127,"reserved":0,"last_update":"0001-01-01T00:00:00Z","name_a2s":"Uncletopia | Frankfurt | 1 | All Maps","protocol":17,"map":"cp_sunshine","folder":"tf","game":"Team Fortress","app_id":440,"player_count":24,"max_players":24,"Bots":0,"server_type":"Dedicated","server_os":"Linux","password":true,"vac":true,"version":"7708610","steam_id":85568392924469989,"keywords":["cp","nocrits","nodmgspread","uncletopia"],"game_id":440,"stv_port":27016,"stv_name":"Uncletopia | Frankfurt | 1 | All Maps | STV","players":[{"user_id":439,"name":"DuckGod","steam_id":76561198333027986,"connected_time":1501000000000,"state":"active","ping":55},{"user_id":459,"name":"hwalton830","steam_id":76561199439061363,"connected_time":17000000000,"state":"active","ping":199},{"user_id":404,"name":"TSx* Osa__PL","steam_id":76561198027016799,"connected_time":4046000000000,"state":"active","ping":74},{"user_id":441,"name":"masterleave","steam_id":76561198080535018,"connected_time":1474000000000,"state":"active","ping":109},{"user_id":452,"name":"caber_main","steam_id":76561199012488416,"connected_time":873000000000,"state":"active","ping":74},{"user_id":394,"name":"DeepBlue","steam_id":76561198140075795,"connected_time":5134000000000,"state":"active","ping":58},{"user_id":429,"name":"Jag √§r ett anka","steam_id":76561198059978438,"connected_time":2805000000000,"state":"active","ping":65},{"user_id":451,"name":"KLAMA  ‚ù§","steam_id":76561198351549661,"connected_time":881000000000,"state":"active","ping":71},{"user_id":454,"name":"Bob Salami","steam_id":76561198150681340,"connected_time":856000000000,"state":"active","ping":77},{"user_id":442,"name":"frogsrop","steam_id":76561198350570571,"connected_time":1436000000000,"state":"active","ping":92},{"user_id":402,"name":"anian","steam_id":76561198061874598,"connected_time":4063000000000,"state":"active","ping":58},{"user_id":456,"name":"FliggerFlitt","steam_id":76561198147711035,"connected_time":752000000000,"state":"active","ping":76},{"user_id":415,"name":"Carl","steam_id":76561198045638738,"connected_time":3741000000000,"state":"active","ping":77},{"user_id":426,"name":"üåüüéÑ‚ùÑFestive MEGOS‚ùÑüéÑ","steam_id":76561198172740637,"connected_time":3059000000000,"state":"active","ping":57},{"user_id":406,"name":"TSx* Naxer","steam_id":76561198011986779,"connected_time":4023000000000,"state":"active","ping":68},{"user_id":444,"name":"Chill Spirit","steam_id":76561198845001725,"connected_time":1329000000000,"state":"active","ping":45},{"user_id":460,"name":"ivanmixo","steam_id":76561198160213989,"connected_time":2000000000,"state":"spawning","ping":81},{"user_id":446,"name":"jtnrif8dVITifirD8","steam_id":76561198057833760,"connected_time":1320000000000,"state":"active","ping":85},{"user_id":434,"name":"Estamie","steam_id":76561198058527691,"connected_time":2339000000000,"state":"active","ping":70},{"user_id":455,"name":"Alfred2.2","steam_id":76561198339314744,"connected_time":850000000000,"state":"active","ping":61},{"user_id":453,"name":"Mza28","steam_id":76561198873993324,"connected_time":866000000000,"state":"active","ping":79},{"user_id":416,"name":"cheriberry","steam_id":76561198093577036,"connected_time":3686000000000,"state":"active","ping":54},{"user_id":458,"name":"=OKB= P4NTH3R","steam_id":76561197999204603,"connected_time":724000000000,"state":"active","ping":60},{"user_id":438,"name":"Jedi Knight","steam_id":76561198039030709,"connected_time":1682000000000,"state":"active","ping":60}]},{"server_id":110,"name":"Uncletopia | Frankfurt | 2 | All Maps","name_short":"frk-2","host":"frk-1.de.uncletopia.com","port":27025,"enabled":true,"region":"eu","cc":"de","latitude":50.110924,"longitude":8.682127,"reserved":0,"last_update":"0001-01-01T00:00:00Z","name_a2s":"Uncletopia | Frankfurt | 2 | All Maps","protocol":17,"map":"pl_barnblitz","folder":"tf","game":"Team Fortress","app_id":440,"player_count":24,"max_players":24,"Bots":0,"server_type":"Dedicated","server_os":"Linux","password":true,"vac":true,"version":"7708610","steam_id":85568392924469990,"keywords":["nocrits","nodmgspread","payload","uncletopia"],"game_id":440,"stv_port":27026,"stv_name":"Uncletopia | Frankfurt | 2 | All Maps | STV","players":[{"user_id":86,"name":"E_WM","steam_id":76561198283432737,"connected_time":1817000000000,"state":"active","ping":95},{"user_id":89,"name":"Ged The Bombad General","steam_id":76561198079288943,"connected_time":1781000000000,"state":"active","ping":126},{"user_id":69,"name":"NikodemosPL","steam_id":76561198271226975,"connected_time":2370000000000,"state":"active","ping":98},{"user_id":27,"name":"[Insert Oneshot refrence]","steam_id":76561198951206047,"connected_time":3932000000000,"state":"active","ping":82},{"user_id":29,"name":"(can't chat)mafutbolero","steam_id":76561199233664005,"connected_time":3641000000000,"state":"active","ping":67},{"user_id":93,"name":"dipigcookie","steam_id":76561198394235929,"connected_time":1425000000000,"state":"active","ping":90},{"user_id":90,"name":"Official_Bananakin_Ita","steam_id":76561199208682492,"connected_time":1739000000000,"state":"active","ping":63},{"user_id":100,"name":"NiNY√É","steam_id":76561197995685294,"connected_time":99000000000,"state":"active","ping":60},{"user_id":98,"name":"ThatTFguy","steam_id":76561198056794321,"connected_time":588000000000,"state":"active","ping":63},{"user_id":73,"name":"Megapuncher","steam_id":76561198023536780,"connected_time":2105000000000,"state":"active","ping":52},{"user_id":88,"name":"Shynii","steam_id":76561198194682105,"connected_time":1801000000000,"state":"active","ping":67},{"user_id":99,"name":"Swift","steam_id":76561197998799889,"connected_time":434000000000,"state":"active","ping":61},{"user_id":77,"name":"james","steam_id":76561198067913295,"connected_time":2097000000000,"state":"active","ping":81},{"user_id":40,"name":"dingledong","steam_id":76561198287096215,"connected_time":3205000000000,"state":"active","ping":81},{"user_id":97,"name":"hawkblob","steam_id":76561198803720565,"connected_time":908000000000,"state":"active","ping":72},{"user_id":42,"name":"JIJI","steam_id":76561198137597283,"connected_time":3201000000000,"state":"active","ping":100},{"user_id":43,"name":"robindarozzer","steam_id":76561198118198074,"connected_time":3199000000000,"state":"active","ping":69},{"user_id":101,"name":"supermariogrows","steam_id":76561198200238915,"connected_time":21000000000,"state":"spawning","ping":82},{"user_id":67,"name":"leaf eater","steam_id":76561198083359604,"connected_time":2722000000000,"state":"active","ping":50},{"user_id":92,"name":"gonzo","steam_id":76561198067051953,"connected_time":1653000000000,"state":"active","ping":67},{"user_id":80,"name":"para","steam_id":76561197989877167,"connected_time":2059000000000,"state":"active","ping":60},{"user_id":51,"name":"Bottom 1 Johnnii","steam_id":76561198012841225,"connected_time":2952000000000,"state":"active","ping":68},{"user_id":66,"name":"Sweetcheesus","steam_id":76561198022299033,"connected_time":2760000000000,"state":"active","ping":60},{"user_id":85,"name":"Dzan50","steam_id":76561198059758591,"connected_time":1901000000000,"state":"active","ping":78}]},{"server_id":308,"name":"Uncletopia | Frankfurt | 3 | All Maps","name_short":"frk-3","host":"frk-1.de.uncletopia.com","port":27035,"enabled":true,"region":"eu","cc":"de","latitude":50.110924,"longitude":8.682127,"reserved":0,"last_update":"0001-01-01T00:00:00Z","name_a2s":"Uncletopia | Frankfurt | 3 | All Maps","protocol":17,"map":"pl_thundermountain","folder":"tf","game":"Team Fortress","app_id":440,"player_count":21,"max_players":24,"Bots":0,"server_type":"Dedicated","server_os":"Linux","password":true,"vac":true,"version":"7708610","steam_id":85568392924504274,"keywords":["nocrits","nodmgspread","payload","uncletopia"],"game_id":440,"stv_port":27036,"stv_name":"Uncletopia | Frankfurt | 3 | All Maps | STV","players":[{"user_id":271,"name":"hatac","steam_id":76561198204281927,"connected_time":2382000000000,"state":"active","ping":49},{"user_id":308,"name":"kuqkk88","steam_id":76561199427949758,"connected_time":34000000000,"state":"active","ping":121},{"user_id":289,"name":"Watereater","steam_id":76561198833220967,"connected_time":1482000000000,"state":"active","ping":69},{"user_id":297,"name":"Ar|es","steam_id":76561198819160313,"connected_time":1060000000000,"state":"active","ping":76},{"user_id":295,"name":"it just ain't fair","steam_id":76561198418538887,"connected_time":1220000000000,"state":"active","ping":93},{"user_id":307,"name":"Kaek","steam_id":76561197960283484,"connected_time":181000000000,"state":"active","ping":81},{"user_id":300,"name":"Sylbar","steam_id":76561198065379590,"connected_time":856000000000,"state":"active","ping":57},{"user_id":280,"name":"soul devourer","steam_id":76561198863811794,"connected_time":2043000000000,"state":"active","ping":64},{"user_id":259,"name":"lol917Den","steam_id":76561198434273418,"connected_time":2760000000000,"state":"active","ping":77},{"user_id":302,"name":"Nugget","steam_id":76561198338916407,"connected_time":680000000000,"state":"active","ping":73},{"user_id":305,"name":"gmem","steam_id":76561198070006725,"connected_time":581000000000,"state":"active","ping":61},{"user_id":286,"name":"Egap","steam_id":76561199070653454,"connected_time":1707000000000,"state":"active","ping":91},{"user_id":266,"name":"Milten","steam_id":76561198191768569,"connected_time":2545000000000,"state":"active","ping":74},{"user_id":287,"name":"The Family Guy","steam_id":76561198891999531,"connected_time":1697000000000,"state":"active","ping":75},{"user_id":209,"name":"Sweat Plantation","steam_id":76561198025086883,"connected_time":6181000000000,"state":"active","ping":81},{"user_id":294,"name":"the joy of recycling","steam_id":76561198415564349,"connected_time":1291000000000,"state":"active","ping":61},{"user_id":207,"name":"Lord of the Lockerroom","steam_id":76561198080619697,"connected_time":6385000000000,"state":"active","ping":90},{"user_id":273,"name":"Don Juan","steam_id":76561198264353568,"connected_time":2357000000000,"state":"active","ping":95},{"user_id":306,"name":"nedilya","steam_id":76561198039692077,"connected_time":532000000000,"state":"active","ping":51},{"user_id":288,"name":"tone","steam_id":76561197975301462,"connected_time":1506000000000,"state":"active","ping":69},{"user_id":285,"name":"JujuBalu","steam_id":76561198207253071,"connected_time":1861000000000,"state":"active","ping":53}]},{"server_id":309,"name":"Uncletopia | Frankfurt | 4 | All Maps","name_short":"frk-4","host":"frk-1.de.uncletopia.com","port":27045,"enabled":true,"region":"eu","cc":"de","latitude":50.110924,"longitude":8.682127,"reserved":0,"last_update":"0001-01-01T00:00:00Z","name_a2s":"Uncletopia | Frankfurt | 4 | All Maps","protocol":17,"map":"koth_lakeside_final","folder":"tf","game":"Team Fortress","app_id":440,"player_count":23,"max_players":24,"Bots":0,"server_type":"Dedicated","server_os":"Linux","password":true,"vac":true,"version":"7708610","steam_id":85568392924504275,"keywords":["cp","nocrits","nodmgspread","uncletopia"],"game_id":440,"stv_port":27046,"stv_name":"Uncletopia | Frankfurt | 4 | All Maps | STV","players":[{"user_id":287,"name":"goblin","steam_id":76561199010825303,"connected_time":824000000000,"state":"active","ping":72},{"user_id":280,"name":"ArekanPL","steam_id":76561198306811916,"connected_time":1204000000000,"state":"active","ping":67},{"user_id":262,"name":"Somewhat of a travesty","steam_id":76561199105739319,"connected_time":1965000000000,"state":"active","ping":58},{"user_id":285,"name":"Spr","steam_id":76561198314316664,"connected_time":941000000000,"state":"active","ping":138},{"user_id":281,"name":"deno_","steam_id":76561198316520968,"connected_time":1200000000000,"state":"active","ping":54},{"user_id":298,"name":"DropShot","steam_id":76561198042476724,"connected_time":54000000000,"state":"active","ping":77},{"user_id":296,"name":"Vince","steam_id":76561199103000131,"connected_time":215000000000,"state":"active","ping":60},{"user_id":283,"name":"Pruff","steam_id":76561198377084417,"connected_time":1045000000000,"state":"active","ping":60},{"user_id":269,"name":"Trash Bandicoot","steam_id":76561198127596400,"connected_time":1815000000000,"state":"active","ping":58},{"user_id":288,"name":"Bonjour","steam_id":76561198186063665,"connected_time":765000000000,"state":"active","ping":67},{"user_id":289,"name":"rosepinkyfuzz","steam_id":76561198018546334,"connected_time":724000000000,"state":"active","ping":69},{"user_id":290,"name":"Deadly Queen","steam_id":76561198352144873,"connected_time":649000000000,"state":"active","ping":62},{"user_id":271,"name":"pl_plohajavoda","steam_id":76561198300211898,"connected_time":1804000000000,"state":"active","ping":77},{"user_id":291,"name":"Adam Sandler","steam_id":76561198310408309,"connected_time":572000000000,"state":"active","ping":77},{"user_id":276,"name":"junior","steam_id":76561198869806001,"connected_time":1698000000000,"state":"active","ping":45},{"user_id":295,"name":"crolee","steam_id":76561198865817316,"connected_time":262000000000,"state":"active","ping":51},{"user_id":272,"name":"kebabvendor","steam_id":76561197991107072,"connected_time":1803000000000,"state":"active","ping":44},{"user_id":273,"name":"RainmakerX","steam_id":76561197996843824,"connected_time":1770000000000,"state":"active","ping":61},{"user_id":292,"name":"Sebiromanes (Spookm√°ster)","steam_id":76561198112800408,"connected_time":385000000000,"state":"active","ping":144},{"user_id":277,"name":"Atlas","steam_id":76561198081791735,"connected_time":1617000000000,"state":"active","ping":84},{"user_id":274,"name":"Harvaa","steam_id":76561198173292590,"connected_time":1765000000000,"state":"active","ping":80},{"user_id":275,"name":"mondo","steam_id":76561199144165384,"connected_time":1756000000000,"state":"active","ping":68},{"user_id":257,"name":"dustwrld","steam_id":76561198152576682,"connected_time":2249000000000,"state":"active","ping":73}]},{"server_id":310,"name":"Uncletopia | Frankfurt | 5 | All Maps","name_short":"frk-5","host":"frk-1.de.uncletopia.com","port":27055,"enabled":true,"region":"eu","cc":"de","latitude":50.110924,"longitude":8.682127,"reserved":0,"last_update":"0001-01-01T00:00:00Z","name_a2s":"Uncletopia | Frankfurt | 5 | All Maps","protocol":17,"map":"cp_dustbowl","folder":"tf","game":"Team Fortress","app_id":440,"player_count":15,"max_players":24,"Bots":0,"server_type":"Dedicated","server_os":"Linux","password":true,"vac":true,"version":"7708610","steam_id":85568392924504277,"keywords":["cp","nocrits","nodmgspread","uncletopia"],"game_id":440,"stv_port":27056,"stv_name":"Uncletopia | Frankfurt | 5 | All Maps | STV","players":[{"user_id":197,"name":"pkp86","steam_id":76561198259581671,"connected_time":2470000000000,"state":"active","ping":84},{"user_id":207,"name":"BenteBent","steam_id":76561198297920637,"connected_time":1225000000000,"state":"active","ping":66},{"user_id":218,"name":"Sex defender","steam_id":76561198348896492,"connected_time":119000000000,"state":"active","ping":75},{"user_id":213,"name":"Frazzles","steam_id":76561199228009586,"connected_time":531000000000,"state":"active","ping":57},{"user_id":203,"name":"Ab0nis","steam_id":76561197977179613,"connected_time":1895000000000,"state":"active","ping":69},{"user_id":212,"name":"Drunk Master","steam_id":76561198204143508,"connected_time":739000000000,"state":"active","ping":55},{"user_id":214,"name":"ck","steam_id":76561197984084920,"connected_time":523000000000,"state":"active","ping":66},{"user_id":178,"name":"Avsky","steam_id":76561198048870734,"connected_time":3670000000000,"state":"active","ping":68},{"user_id":189,"name":"Below Average","steam_id":76561198133784080,"connected_time":3022000000000,"state":"active","ping":50},{"user_id":179,"name":"Terror Monkey","steam_id":76561198070211478,"connected_time":3661000000000,"state":"active","ping":166},{"user_id":139,"name":"pawcio2091","steam_id":76561198262515197,"connected_time":5913000000000,"state":"active","ping":93},{"user_id":181,"name":"Raivop","steam_id":76561197980854307,"connected_time":3600000000000,"state":"active","ping":98},{"user_id":182,"name":"Cereal Killer","steam_id":76561199084186097,"connected_time":3561000000000,"state":"active","ping":67},{"user_id":148,"name":"Scary Perry","steam_id":76561198237464516,"connected_time":5585000000000,"state":"active","ping":47},{"user_id":216,"name":"VIN WEASEL","steam_id":76561198014387066,"connected_time":228000000000,"state":"active","ping":55}]},{"server_id":311,"name":"Uncletopia | Frankfurt | 6 | All Maps","name_short":"frk-6","host":"frk-1.de.uncletopia.com","port":27065,"enabled":true,"region":"eu","cc":"de","latitude":50.110924,"longitude":8.682127,"reserved":0,"last_update":"0001-01-01T00:00:00Z","name_a2s":"Uncletopia | Frankfurt | 6 | All Maps","protocol":17,"map":"pl_badwater","folder":"tf","game":"Team Fortress","app_id":440,"player_count":24,"max_players":24,"Bots":0,"server_type":"Dedicated","server_os":"Linux","password":true,"vac":true,"version":"7708610","steam_id":85568392924504278,"keywords":["nocrits","nodmgspread","payload","uncletopia"],"game_id":440,"stv_port":27066,"stv_name":"Uncletopia | Frankfurt | 6 | All Maps | STV","players":[{"user_id":261,"name":"Implywood (they/them)","steam_id":76561198096762648,"connected_time":2401000000000,"state":"active","ping":71},{"user_id":254,"name":"average Streamsniper","steam_id":76561198295868113,"connected_time":2837000000000,"state":"active","ping":50},{"user_id":269,"name":"Frank","steam_id":76561198086672774,"connected_time":1419000000000,"state":"active","ping":59},{"user_id":279,"name":"mangoface","steam_id":76561199028760996,"connected_time":12000000000,"state":"spawning","ping":50},{"user_id":270,"name":"stun","steam_id":76561198276681691,"connected_time":1037000000000,"state":"active","ping":58},{"user_id":271,"name":"Mogwai","steam_id":76561198078832314,"connected_time":889000000000,"state":"active","ping":75},{"user_id":276,"name":"Mari Christmas","steam_id":76561197997020707,"connected_time":584000000000,"state":"active","ping":72},{"user_id":272,"name":"Krokinet","steam_id":76561198985877252,"connected_time":872000000000,"state":"active","ping":105},{"user_id":243,"name":"bigwish | bmod.tf","steam_id":76561197997859723,"connected_time":3745000000000,"state":"active","ping":72},{"user_id":273,"name":"name","steam_id":76561198152620745,"connected_time":840000000000,"state":"active","ping":70},{"user_id":257,"name":"SOONMAN","steam_id":76561198060067117,"connected_time":2783000000000,"state":"active","ping":88},{"user_id":236,"name":"glyph","steam_id":76561197980736364,"connected_time":3886000000000,"state":"active","ping":78},{"user_id":215,"name":"Nick","steam_id":76561198036109469,"connected_time":5103000000000,"state":"active","ping":90},{"user_id":220,"name":"Newax","steam_id":76561198020758511,"connected_time":4811000000000,"state":"active","ping":74},{"user_id":189,"name":"Hexagon","steam_id":76561198151205758,"connected_time":6253000000000,"state":"active","ping":59},{"user_id":278,"name":"TaxEvasion","steam_id":76561198199037139,"connected_time":48000000000,"state":"active","ping":55},{"user_id":275,"name":"Cocoa","steam_id":76561198078438879,"connected_time":587000000000,"state":"active","ping":58},{"user_id":191,"name":"Mr. Mundy","steam_id":76561198132008918,"connected_time":6241000000000,"state":"active","ping":85},{"user_id":277,"name":"—Ç—É–∫–∫—É –∏—Ä–º–∞","steam_id":76561197998715016,"connected_time":564000000000,"state":"active","ping":60},{"user_id":245,"name":"TradeDown","steam_id":76561199016426691,"connected_time":3460000000000,"state":"active","ping":78},{"user_id":250,"name":"Dark Lord","steam_id":76561198047359132,"connected_time":3233000000000,"state":"active","ping":69},{"user_id":267,"name":"Artur ‚òª","steam_id":76561198264297604,"connected_time":1621000000000,"state":"active","ping":84},{"user_id":244,"name":"Pardalokatsikon","steam_id":76561198218697887,"connected_time":3684000000000,"state":"active","ping":113},{"user_id":262,"name":"r/sonofelicenellafece","steam_id":76561198262231733,"connected_time":1861000000000,"state":"active","ping":75}]},{"server_id":23,"name":"Uncletopia | Frankfurt | 7 | No Payload","name_short":"frk-7","host":"frk-1.de.uncletopia.com","port":27075,"enabled":true,"region":"eu","cc":"de","latitude":50.110924,"longitude":8.682127,"reserved":0,"last_update":"0001-01-01T00:00:00Z","name_a2s":"Uncletopia | Frankfurt | 7 | No Payload","protocol":17,"map":"koth_viaduct","folder":"tf","game":"Team Fortress","app_id":440,"player_count":0,"max_players":24,"Bots":0,"server_type":"Dedicated","server_os":"Linux","password":true,"vac":true,"version":"7708610","steam_id":85568392924742827,"keywords":["cp","nocrits","nodmgspread","uncletopia"],"game_id":440,"stv_port":27076,"stv_name":"Uncletopia | Frankfurt | 7 | No Payload | STV","players":null},{"server_id":24,"name":"Uncletopia | Frankfurt | 8 | Community","name_short":"frk-8","host":"frk-1.de.uncletopia.com","port":27085,"enabled":true,"region":"eu","cc":"de","latitude":50.110924,"longitude":8.682127,"reserved":0,"last_update":"0001-01-01T00:00:00Z","name_a2s":"Uncletopia | Frankfurt | 8 | Community","protocol":17,"map":"workshop/pl_eruption_b8c.ugc2865677281","folder":"tf","game":"Team Fortress","app_id":440,"player_count":0,"max_players":24,"Bots":0,"server_type":"Dedicated","server_os":"Linux","password":true,"vac":true,"version":"7708610","steam_id":85568392924742828,"keywords":["nocrits","nodmgspread","payload","uncletopia"],"game_id":440,"stv_port":27086,"stv_name":"Uncletopia | Frankfurt | 8 | Community | STV","players":null},{"server_id":202,"name":"Uncletopia | Hong Kong | 1 | All Maps","name_short":"hgk-1","host":"hgk-1.hk.uncletopia.com","port":27015,"enabled":true,"region":"asia","cc":"hk","latitude":22.302711,"longitude":114.177216,"reserved":0,"last_update":"0001-01-01T00:00:00Z","name_a2s":"Uncletopia | Hong Kong | 1 | All Maps","protocol":17,"map":"koth_cascade","folder":"tf","game":"Team Fortress","app_id":440,"player_count":0,"max_players":24,"Bots":0,"server_type":"Dedicated","server_os":"Linux","password":true,"vac":true,"version":"7708610","steam_id":85568392924494504,"keywords":["cp","nocrits","nodmgspread","uncletopia"],"game_id":440,"stv_port":27016,"stv_name":"Uncletopia | Hong Kong | 1 | All Maps | STV","players":null},{"server_id":1,"name":"Uncletopia | Los Angeles | 1 | All Maps","name_short":"lax-1","host":"lax-1.us.uncletopia.com","port":27015,"enabled":true,"region":"us-west","cc":"us","latitude":33.94279,"longitude":-118.41004,"reserved":0,"last_update":"0001-01-01T00:00:00Z","name_a2s":"Uncletopia | Los Angeles | 1 | All Maps","protocol":17,"map":"cp_mossrock","folder":"tf","game":"Team Fortress","app_id":440,"player_count":24,"max_players":24,"Bots":0,"server_type":"Dedicated","server_os":"Linux","password":true,"vac":true,"version":"7708610","steam_id":85568392924469991,"keywords":["cp","nocrits","nodmgspread","uncletopia"],"game_id":440,"stv_port":27016,"stv_name":"Uncletopia | Los Angeles | 1 | All Maps | STV","players":[{"user_id":194,"name":"Bowl of Soup","steam_id":76561198114255273,"connected_time":1334000000000,"state":"active","ping":82},{"user_id":136,"name":"MediScout","steam_id":76561198353371841,"connected_time":4624000000000,"state":"active","ping":99},{"user_id":196,"name":"scarfhero","steam_id":76561198257541502,"connected_time":1248000000000,"state":"active","ping":66},{"user_id":191,"name":"charcoal","steam_id":76561198356860204,"connected_time":1450000000000,"state":"active","ping":72},{"user_id":205,"name":"Daddy","steam_id":76561198093028567,"connected_time":80000000000,"state":"active","ping":109},{"user_id":185,"name":"Reem0h","steam_id":76561198169848690,"connected_time":1897000000000,"state":"active","ping":111},{"user_id":186,"name":"no vc no c","steam_id":76561197989503095,"connected_time":1895000000000,"state":"active","ping":153},{"user_id":146,"name":"incineratedbread","steam_id":76561198133619079,"connected_time":3878000000000,"state":"active","ping":84},{"user_id":163,"name":"Satori Komeiji","steam_id":76561198158211423,"connected_time":3118000000000,"state":"active","ping":34},{"user_id":193,"name":"Anthoneeee","steam_id":76561199209220671,"connected_time":1437000000000,"state":"active","ping":69},{"user_id":204,"name":"zinnk","steam_id":76561198092081825,"connected_time":165000000000,"state":"active","ping":63},{"user_id":195,"name":"JeffMate","steam_id":76561198296353007,"connected_time":1331000000000,"state":"active","ping":109},{"user_id":178,"name":"super autism girl","steam_id":76561198008908085,"connected_time":2250000000000,"state":"active","ping":40},{"user_id":200,"name":"Frank","steam_id":76561198126681511,"connected_time":1088000000000,"state":"active","ping":69},{"user_id":197,"name":"Groat","steam_id":76561199134713204,"connected_time":1236000000000,"state":"active","ping":83},{"user_id":201,"name":"PopcornNinja101","steam_id":76561198330680181,"connected_time":823000000000,"state":"active","ping":74},{"user_id":169,"name":"NotSoMewwo","steam_id":76561198130067099,"connected_time":2892000000000,"state":"active","ping":86},{"user_id":170,"name":"the weed santa","steam_id":76561198114603745,"connected_time":2887000000000,"state":"active","ping":59},{"user_id":192,"name":"wile","steam_id":76561198125261443,"connected_time":1444000000000,"state":"active","ping":82},{"user_id":171,"name":"Lil_Ghost","steam_id":76561198141892875,"connected_time":2821000000000,"state":"active","ping":120},{"user_id":179,"name":"Indigolake","steam_id":76561198202215807,"connected_time":2237000000000,"state":"active","ping":119},{"user_id":173,"name":"Camfour","steam_id":76561198083090140,"connected_time":2717000000000,"state":"active","ping":52},{"user_id":202,"name":"Branos","steam_id":76561198396414319,"connected_time":526000000000,"state":"active","ping":52},{"user_id":175,"name":"Lord_Manship","steam_id":76561198045168765,"connected_time":2607000000000,"state":"active","ping":129}]},{"server_id":112,"name":"Uncletopia | Los Angeles | 2 | All Maps","name_short":"lax-2","host":"lax-1.us.uncletopia.com","port":27025,"enabled":true,"region":"us-west","cc":"us","latitude":33.94279,"longitude":-118.41004,"reserved":0,"last_update":"0001-01-01T00:00:00Z","name_a2s":"Uncletopia | Los Angeles | 2 | All Maps","protocol":17,"map":"cp_egypt_final","folder":"tf","game":"Team Fortress","app_id":440,"player_count":0,"max_players":24,"Bots":0,"server_type":"Dedicated","server_os":"Linux","password":true,"vac":true,"version":"7708610","steam_id":85568392924469992,"keywords":["cp","nocrits","nodmgspread","uncletopia"],"game_id":440,"stv_port":27026,"stv_name":"Uncletopia | Los Angeles | 2 | All Maps | STV","players":null},{"server_id":324,"name":"Uncletopia | Los Angeles | 3 | All Maps","name_short":"lax-3","host":"lax-1.us.uncletopia.com","port":27035,"enabled":true,"region":"us-west","cc":"us","latitude":33.94279,"longitude":-118.41004,"reserved":0,"last_update":"0001-01-01T00:00:00Z","name_a2s":"Uncletopia | Los Angeles | 3 | All Maps","protocol":17,"map":"koth_viaduct","folder":"tf","game":"Team Fortress","app_id":440,"player_count":0,"max_players":24,"Bots":0,"server_type":"Dedicated","server_os":"Linux","password":true,"vac":true,"version":"7708610","steam_id":85568392924510198,"keywords":["cp","nocrits","nodmgspread","uncletopia"],"game_id":440,"stv_port":27036,"stv_name":"Uncletopia | Los Angeles | 3 | All Maps | STV","players":null},{"server_id":25,"name":"Uncletopia | Los Angeles | 4 | No Payload","name_short":"lax-4","host":"lax-1.us.uncletopia.com","port":27045,"enabled":true,"region":"us-west","cc":"us","latitude":33.94279,"longitude":-118.41004,"reserved":0,"last_update":"0001-01-01T00:00:00Z","name_a2s":"Uncletopia | Los Angeles | 4 | No Payload","protocol":17,"map":"cp_mountainlab","folder":"tf","game":"Team Fortress","app_id":440,"player_count":0,"max_players":24,"Bots":0,"server_type":"Dedicated","server_os":"Linux","password":true,"vac":true,"version":"7708610","steam_id":85568392924510199,"keywords":["cp","nocrits","nodmgspread","uncletopia"],"game_id":440,"stv_port":27046,"stv_name":"Uncletopia | Los Angeles | 4 | No Payload | STV","players":null},{"server_id":11,"name":"Uncletopia | London | 1 | All Maps","name_short":"lon-1","host":"lon-1.uk.uncletopia.com","port":27015,"enabled":true,"region":"eu","cc":"gb","latitude":51.509865,"longitude":-0.118092,"reserved":0,"last_update":"0001-01-01T00:00:00Z","name_a2s":"Uncletopia | London | 1 | All Maps","protocol":17,"map":"pl_swiftwater_final1","folder":"tf","game":"Team Fortress","app_id":440,"player_count":24,"max_players":24,"Bots":0,"server_type":"Dedicated","server_os":"Linux","password":true,"vac":true,"version":"7708610","steam_id":85568392924367362,"keywords":["nocrits","nodmgspread","payload","uncletopia"],"game_id":440,"stv_port":27016,"stv_name":"Uncletopia | London | 1 | All Maps | STV","players":[{"user_id":419,"name":"Johnny Boy","steam_id":76561197969525453,"connected_time":254000000000,"state":"active","ping":59},{"user_id":414,"name":"hi","steam_id":76561199186080291,"connected_time":478000000000,"state":"active","ping":72},{"user_id":394,"name":"VolcanicArts","steam_id":76561198063453246,"connected_time":1958000000000,"state":"active","ping":52},{"user_id":390,"name":"trite","steam_id":76561197983765323,"connected_time":3005000000000,"state":"active","ping":46},{"user_id":403,"name":"most sane Midnight barber","steam_id":76561198310095220,"connected_time":1011000000000,"state":"active","ping":36},{"user_id":308,"name":"Solid","steam_id":76561198357049292,"connected_time":8182000000000,"state":"active","ping":92},{"user_id":398,"name":"quillston","steam_id":76561198404802175,"connected_time":1889000000000,"state":"active","ping":166},{"user_id":351,"name":"Acid","steam_id":76561198102110680,"connected_time":5879000000000,"state":"active","ping":96},{"user_id":407,"name":"Festive Yuletart","steam_id":76561198023918830,"connected_time":931000000000,"state":"active","ping":45},{"user_id":386,"name":"festive jones","steam_id":76561198073975078,"connected_time":3114000000000,"state":"active","ping":49},{"user_id":412,"name":"–ò–Ω—Å–ø–µ–∫—Ç–æ—Ä –ê—Ç–∞—Å","steam_id":76561199175688390,"connected_time":798000000000,"state":"active","ping":83},{"user_id":410,"name":"casual zyzz praiser","steam_id":76561198022382969,"connected_time":861000000000,"state":"active","ping":78},{"user_id":415,"name":"xXx_Twink_Hunter_xXx","steam_id":76561198397024973,"connected_time":476000000000,"state":"active","ping":49},{"user_id":416,"name":"Hoff","steam_id":76561198138540938,"connected_time":448000000000,"state":"active","ping":101},{"user_id":404,"name":"Kahvi","steam_id":76561198723244199,"connected_time":1011000000000,"state":"active","ping":75},{"user_id":418,"name":"mimi","steam_id":76561198060648946,"connected_time":292000000000,"state":"active","ping":74},{"user_id":363,"name":"Hermitcrack","steam_id":76561198149216441,"connected_time":5182000000000,"state":"active","ping":75},{"user_id":393,"name":"G/3","steam_id":76561198234844188,"connected_time":2201000000000,"state":"active","ping":57},{"user_id":400,"name":"Maveth","steam_id":76561198315021197,"connected_time":1666000000000,"state":"active","ping":136},{"user_id":396,"name":"Wyro","steam_id":76561199176835169,"connected_time":1942000000000,"state":"active","ping":55},{"user_id":399,"name":"KFC Enjoyer","steam_id":76561198840259819,"connected_time":1888000000000,"state":"active","ping":60},{"user_id":417,"name":"Jam","steam_id":76561198090409013,"connected_time":425000000000,"state":"active","ping":90},{"user_id":413,"name":"Celtins","steam_id":76561198839837475,"connected_time":487000000000,"state":"active","ping":47},{"user_id":380,"name":"‚ú™ J","steam_id":76561198094911581,"connected_time":4016000000000,"state":"active","ping":53}]},{"server_id":114,"name":"Uncletopia | London | 2 | All Maps","name_short":"lon-2","host":"lon-1.uk.uncletopia.com","port":27025,"enabled":true,"region":"eu","cc":"gb","latitude":51.509865,"longitude":-0.118092,"reserved":0,"last_update":"0001-01-01T00:00:00Z","name_a2s":"Uncletopia | London | 2 | All Maps","protocol":17,"map":"pl_barnblitz","folder":"tf","game":"Team Fortress","app_id":440,"player_count":24,"max_players":24,"Bots":0,"server_type":"Dedicated","server_os":"Linux","password":true,"vac":true,"version":"7708610","steam_id":85568392924470941,"keywords":["nocrits","nodmgspread","payload","uncletopia"],"game_id":440,"stv_port":27026,"stv_name":"Uncletopia | London | 2 | All Maps | STV","players":[{"user_id":109,"name":"Ultrazoop","steam_id":76561198046644637,"connected_time":257000000000,"state":"active","ping":127},{"user_id":104,"name":"koningkelkont","steam_id":76561198845810880,"connected_time":495000000000,"state":"active","ping":65},{"user_id":105,"name":"Xanthippos","steam_id":76561198379266612,"connected_time":384000000000,"state":"active","ping":63},{"user_id":106,"name":"Yaire","steam_id":76561198017343510,"connected_time":377000000000,"state":"active","ping":59},{"user_id":100,"name":"Kaffelatto","steam_id":76561198073986249,"connected_time":802000000000,"state":"active","ping":93},{"user_id":114,"name":"Sin","steam_id":76561198975489819,"connected_time":221000000000,"state":"active","ping":52},{"user_id":91,"name":"rel","steam_id":76561198992148678,"connected_time":1168000000000,"state":"active","ping":44},{"user_id":107,"name":"Rotan999","steam_id":76561198896907653,"connected_time":328000000000,"state":"active","ping":57},{"user_id":108,"name":"barrystotle","steam_id":76561198044709648,"connected_time":275000000000,"state":"active","ping":45},{"user_id":93,"name":"D_Ink","steam_id":76561198267716662,"connected_time":1111000000000,"state":"active","ping":36},{"user_id":35,"name":"newbie","steam_id":76561199419533757,"connected_time":5017000000000,"state":"active","ping":86},{"user_id":110,"name":"Ledze Shuns Dope","steam_id":76561198049945010,"connected_time":256000000000,"state":"active","ping":52},{"user_id":37,"name":"Mr_Flou","steam_id":76561198021584293,"connected_time":4982000000000,"state":"active","ping":60},{"user_id":94,"name":"OutOfDucks","steam_id":76561198166376227,"connected_time":1107000000000,"state":"active","ping":60},{"user_id":84,"name":"Salesman","steam_id":76561198045527771,"connected_time":1694000000000,"state":"active","ping":60},{"user_id":122,"name":"Butter","steam_id":76561197994944148,"connected_time":65000000000,"state":"active","ping":187},{"user_id":113,"name":"MelvinIsANiceBoy","steam_id":76561198178415634,"connected_time":235000000000,"state":"active","ping":59},{"user_id":42,"name":"i am bread","steam_id":76561199180277321,"connected_time":4886000000000,"state":"active","ping":46},{"user_id":115,"name":"Zal","steam_id":76561199061086990,"connected_time":215000000000,"state":"active","ping":64},{"user_id":121,"name":"Saul Goodman in 5D","steam_id":76561198044432219,"connected_time":154000000000,"state":"active","ping":52},{"user_id":117,"name":"trickster","steam_id":76561198075665211,"connected_time":212000000000,"state":"active","ping":49},{"user_id":118,"name":"Brick Samson","steam_id":76561198019076104,"connected_time":212000000000,"state":"active","ping":105},{"user_id":102,"name":"omalver","steam_id":76561198141338684,"connected_time":548000000000,"state":"active","ping":89},{"user_id":119,"name":"jovi_","steam_id":76561198449280552,"connected_time":195000000000,"state":"active","ping":52}]},{"server_id":320,"name":"Uncletopia | London | 3 | All Maps","name_short":"lon-3","host":"lon-1.uk.uncletopia.com","port":27035,"enabled":true,"region":"eu","cc":"gb","latitude":51.509865,"longitude":-0.118092,"reserved":0,"last_update":"0001-01-01T00:00:00Z","name_a2s":"Uncletopia | London | 3 | All Maps","protocol":17,"map":"koth_harvest_final","folder":"tf","game":"Team Fortress","app_id":440,"player_count":24,"max_players":24,"Bots":0,"server_type":"Dedicated","server_os":"Linux","password":true,"vac":true,"version":"7708610","steam_id":85568392924510192,"keywords":["cp","nocrits","nodmgspread","uncletopia"],"game_id":440,"stv_port":27036,"stv_name":"Uncletopia | London | 3 | All Maps | STV","players":[{"user_id":500,"name":"Chloride","steam_id":76561198321197597,"connected_time":613000000000,"state":"active","ping":49},{"user_id":462,"name":"Saken","steam_id":76561198049075295,"connected_time":2710000000000,"state":"active","ping":66},{"user_id":514,"name":"loveless","steam_id":76561198142256651,"connected_time":204000000000,"state":"active","ping":105},{"user_id":508,"name":"lowcostfish.co.uk","steam_id":76561198126022039,"connected_time":370000000000,"state":"active","ping":50},{"user_id":465,"name":"lark","steam_id":76561198091724522,"connected_time":2619000000000,"state":"active","ping":52},{"user_id":492,"name":"macauw","steam_id":76561198010467088,"connected_time":1023000000000,"state":"active","ping":53},{"user_id":485,"name":"Omega csicska l√°ngos ad√≥ ghec","steam_id":76561198145571459,"connected_time":1530000000000,"state":"active","ping":71},{"user_id":513,"name":"dragoselle1","steam_id":76561198111506547,"connected_time":211000000000,"state":"active","ping":82},{"user_id":503,"name":"dotdotdot","steam_id":76561198057628751,"connected_time":553000000000,"state":"active","ping":61},{"user_id":509,"name":"fallingpencil","steam_id":76561199230233148,"connected_time":351000000000,"state":"active","ping":54},{"user_id":445,"name":"akeno best waifu","steam_id":76561198267167505,"connected_time":3931000000000,"state":"active","ping":74},{"user_id":495,"name":"sv_MrGibbs","steam_id":76561198114071972,"connected_time":965000000000,"state":"active","ping":43},{"user_id":473,"name":"cropping","steam_id":76561198026586456,"connected_time":2040000000000,"state":"active","ping":59},{"user_id":507,"name":"Alpaca","steam_id":76561198029839079,"connected_time":410000000000,"state":"active","ping":49},{"user_id":497,"name":"Man O' Steel","steam_id":76561198108612758,"connected_time":911000000000,"state":"active","ping":59},{"user_id":443,"name":"cow tools","steam_id":76561198216447231,"connected_time":4133000000000,"state":"active","ping":48},{"user_id":484,"name":"illum","steam_id":76561198162153038,"connected_time":1548000000000,"state":"active","ping":83},{"user_id":332,"name":"Some of you will Gry","steam_id":76561198053961616,"connected_time":10604000000000,"state":"active","ping":56},{"user_id":510,"name":"Poodle","steam_id":76561198015483504,"connected_time":329000000000,"state":"active","ping":86},{"user_id":505,"name":"pablo","steam_id":76561198089285014,"connected_time":518000000000,"state":"active","ping":65},{"user_id":470,"name":"Lovelessvaccuum","steam_id":76561198079555422,"connected_time":2103000000000,"state":"active","ping":34},{"user_id":516,"name":"Kedibaba","steam_id":76561198385531638,"connected_time":26000000000,"state":"active","ping":104},{"user_id":389,"name":"r0la","steam_id":76561198128315340,"connected_time":6778000000000,"state":"active","ping":77},{"user_id":453,"name":"ZenT","steam_id":76561198196887903,"connected_time":3720000000000,"state":"active","ping":80}]},{"server_id":321,"name":"Uncletopia | London | 4 | All Maps","name_short":"lon-4","host":"lon-1.uk.uncletopia.com","port":27045,"enabled":true,"region":"eu","cc":"gb","latitude":51.509865,"longitude":-0.118092,"reserved":0,"last_update":"0001-01-01T00:00:00Z","name_a2s":"Uncletopia | London | 4 | All Maps","protocol":17,"map":"cp_snakewater_final1","folder":"tf","game":"Team Fortress","app_id":440,"player_count":24,"max_players":24,"Bots":0,"server_type":"Dedicated","server_os":"Linux","password":true,"vac":true,"version":"7708610","steam_id":85568392924510193,"keywords":["cp","nocrits","nodmgspread","uncletopia"],"game_id":440,"stv_port":27046,"stv_name":"Uncletopia | London | 4 | All Maps | STV","players":[{"user_id":737,"name":"wungus bungus","steam_id":76561198800027041,"connected_time":1243000000000,"state":"active","ping":124},{"user_id":756,"name":"MrKampfCookie","steam_id":76561198085490175,"connected_time":274000000000,"state":"active","ping":58},{"user_id":735,"name":"NiKoRo","steam_id":76561197963686614,"connected_time":1402000000000,"state":"active","ping":82},{"user_id":751,"name":"FruteBrute","steam_id":76561198803472441,"connected_time":638000000000,"state":"active","ping":113},{"user_id":757,"name":"Tonal","steam_id":76561198174285723,"connected_time":262000000000,"state":"active","ping":58},{"user_id":693,"name":"deri100","steam_id":76561198397588574,"connected_time":3303000000000,"state":"active","ping":84},{"user_id":729,"name":"mossad sponsored intel backdoor","steam_id":76561198071882999,"connected_time":1718000000000,"state":"active","ping":65},{"user_id":746,"name":"Kvikk","steam_id":76561198063104117,"connected_time":1007000000000,"state":"active","ping":78},{"user_id":758,"name":"Economic crisis","steam_id":76561198063562843,"connected_time":252000000000,"state":"active","ping":62},{"user_id":759,"name":"Nithle","steam_id":76561198025372740,"connected_time":208000000000,"state":"active","ping":62},{"user_id":706,"name":"‚ò© Knightz ‚ò©","steam_id":76561198040936414,"connected_time":2657000000000,"state":"active","ping":105},{"user_id":755,"name":"Clitorina","steam_id":76561198077570815,"connected_time":453000000000,"state":"active","ping":44},{"user_id":696,"name":"DarthPaul8181","steam_id":76561198373050455,"connected_time":2974000000000,"state":"active","ping":51},{"user_id":727,"name":"UltimateSlayer","steam_id":76561198384109309,"connected_time":1855000000000,"state":"active","ping":70},{"user_id":744,"name":"Vershal Smershal","steam_id":76561198116223995,"connected_time":1093000000000,"state":"active","ping":56},{"user_id":734,"name":"average fungus","steam_id":76561198199993741,"connected_time":1514000000000,"state":"active","ping":75},{"user_id":641,"name":"Arizona","steam_id":76561198113748347,"connected_time":5668000000000,"state":"active","ping":170},{"user_id":686,"name":"hananamanna","steam_id":76561198006570285,"connected_time":3636000000000,"state":"active","ping":110},{"user_id":728,"name":"Cippo95","steam_id":76561198255311582,"connected_time":1854000000000,"state":"active","ping":95},{"user_id":733,"name":"El Mosquito","steam_id":76561198065347907,"connected_time":1584000000000,"state":"active","ping":77},{"user_id":745,"name":"Andy","steam_id":76561198046918834,"connected_time":1064000000000,"state":"active","ping":62},{"user_id":710,"name":"Mex","steam_id":76561198108279631,"connected_time":2597000000000,"state":"active","ping":77},{"user_id":691,"name":"Eing","steam_id":76561198253125820,"connected_time":3431000000000,"state":"active","ping":71},{"user_id":711,"name":"jo bidn' | ETLARTORM","steam_id":76561198869576262,"connected_time":2596000000000,"state":"active","ping":108}]},{"server_id":21,"name":"Uncletopia | London | 5 | All Maps","name_short":"lon-5","host":"lon-1.uk.uncletopia.com","port":27055,"enabled":true,"region":"eu","cc":"gb","latitude":51.509865,"longitude":-0.118092,"reserved":0,"last_update":"0001-01-01T00:00:00Z","name_a2s":"Uncletopia | London | 5 | All Maps","protocol":17,"map":"pl_wutville_event","folder":"tf","game":"Team Fortress","app_id":440,"player_count":21,"max_players":24,"Bots":0,"server_type":"Dedicated","server_os":"Linux","password":true,"vac":true,"version":"7708610","steam_id":85568392924742829,"keywords":["nocrits","nodmgspread","payload","uncletopia"],"game_id":440,"stv_port":27056,"stv_name":"Uncletopia | London | 5 | All Maps | STV","players":[{"user_id":668,"name":"Gardvord","steam_id":76561198120715753,"connected_time":495000000000,"state":"active","ping":62},{"user_id":669,"name":"Skyfoogle","steam_id":76561198027177883,"connected_time":447000000000,"state":"active","ping":55},{"user_id":674,"name":"shinny","steam_id":76561198196482706,"connected_time":194000000000,"state":"active","ping":77},{"user_id":672,"name":"Ben","steam_id":76561198150079417,"connected_time":244000000000,"state":"active","ping":45},{"user_id":630,"name":"chocolate flavoured femboy","steam_id":76561198819353867,"connected_time":2715000000000,"state":"active","ping":44},{"user_id":675,"name":"Raulca25","steam_id":76561199068256964,"connected_time":179000000000,"state":"active","ping":84},{"user_id":666,"name":"ALARM","steam_id":76561198120686521,"connected_time":1009000000000,"state":"active","ping":64},{"user_id":617,"name":".Aq","steam_id":76561198043376092,"connected_time":3296000000000,"state":"active","ping":114},{"user_id":650,"name":"=flashpoint=","steam_id":76561197976774456,"connected_time":1742000000000,"state":"active","ping":48},{"user_id":658,"name":"Fat Pigeon","steam_id":76561198817940142,"connected_time":1438000000000,"state":"active","ping":46},{"user_id":676,"name":"MG TF 2004!","steam_id":76561198042975907,"connected_time":177000000000,"state":"active","ping":51},{"user_id":659,"name":"FemKastely","steam_id":76561198164079439,"connected_time":1428000000000,"state":"active","ping":69},{"user_id":677,"name":"HellRaiser","steam_id":76561199051660033,"connected_time":139000000000,"state":"active","ping":155},{"user_id":649,"name":"Pumpkin","steam_id":76561198070657598,"connected_time":1804000000000,"state":"active","ping":48},{"user_id":623,"name":"Burgoo_King","steam_id":76561198133572225,"connected_time":3155000000000,"state":"active","ping":77},{"user_id":667,"name":"ghask84","steam_id":76561199117262976,"connected_time":635000000000,"state":"active","ping":44},{"user_id":644,"name":"traplord bobby","steam_id":76561198259218647,"connected_time":2101000000000,"state":"active","ping":53},{"user_id":645,"name":"Rory","steam_id":76561198354037580,"connected_time":2081000000000,"state":"active","ping":44},{"user_id":631,"name":"Shawty","steam_id":76561198256704286,"connected_time":2705000000000,"state":"active","ping":64},{"user_id":678,"name":"NickMarkick","steam_id":76561198873371834,"connected_time":72000000000,"state":"active","ping":116},{"user_id":625,"name":"syla8215","steam_id":76561199007869949,"connected_time":3121000000000,"state":"active","ping":59}]},{"server_id":22,"name":"Uncletopia | London | 6 | All Maps","name_short":"lon-6","host":"lon-1.uk.uncletopia.com","port":27065,"enabled":true,"region":"eu","cc":"gb","latitude":51.509865,"longitude":-0.118092,"reserved":0,"last_update":"0001-01-01T00:00:00Z","name_a2s":"Uncletopia | London | 6 | All Maps","protocol":17,"map":"pl_frontier_final","folder":"tf","game":"Team Fortress","app_id":440,"player_count":0,"max_players":24,"Bots":0,"server_type":"Dedicated","server_os":"Linux","password":true,"vac":true,"version":"7708610","steam_id":85568392924742830,"keywords":["nocrits","nodmgspread","payload","uncletopia"],"game_id":440,"stv_port":27066,"stv_name":"Uncletopia | London | 6 | All Maps | STV","players":null},{"server_id":40,"name":"Uncletopia | London | 7 | No Payload","name_short":"lon-7","host":"lon-1.uk.uncletopia.com","port":27075,"enabled":true,"region":"eu","cc":"gb","latitude":51.509865,"longitude":-0.118092,"reserved":0,"last_update":"0001-01-01T00:00:00Z","name_a2s":"Uncletopia | London | 7 | No Payload","protocol":17,"map":"koth_lakeside_final","folder":"tf","game":"Team Fortress","app_id":440,"player_count":0,"max_players":24,"Bots":0,"server_type":"Dedicated","server_os":"Linux","password":true,"vac":true,"version":"7708610","steam_id":85568392924964314,"keywords":["cp","nocrits","nodmgspread","uncletopia"],"game_id":440,"stv_port":27076,"stv_name":"Uncletopia | London | 7 | No Payload | STV","players":null},{"server_id":41,"name":"Uncletopia | London | 8 | Community","name_short":"lon-8","host":"lon-1.uk.uncletopia.com","port":27085,"enabled":true,"region":"eu","cc":"gb","latitude":51.509865,"longitude":-0.118092,"reserved":0,"last_update":"0001-01-01T00:00:00Z","name_a2s":"Uncletopia | London | 8 | Community","protocol":17,"map":"workshop/koth_ashville_final.ugc2130459942","folder":"tf","game":"Team Fortress","app_id":440,"player_count":0,"max_players":24,"Bots":0,"server_type":"Dedicated","server_os":"Linux","password":true,"vac":true,"version":"7708610","steam_id":85568392924964315,"keywords":["cp","nocrits","nodmgspread","uncletopia"],"game_id":440,"stv_port":27086,"stv_name":"Uncletopia | London | 8 | Community | STV","players":null},{"server_id":300,"name":"Uncletopia | Montr√©al | 1 | All Maps","name_short":"mtl-1","host":"mtl-1.ca.uncletopia.com","port":27015,"enabled":true,"region":"us-east","cc":"ca","latitude":45.50889,"longitude":-73.56167,"reserved":0,"last_update":"0001-01-01T00:00:00Z","name_a2s":"Uncletopia | Montr√©al | 1 | All Maps","protocol":17,"map":"pl_frontier_final","folder":"tf","game":"Team Fortress","app_id":440,"player_count":0,"max_players":24,"Bots":0,"server_type":"Dedicated","server_os":"Linux","password":true,"vac":true,"version":"7708610","steam_id":85568392924500087,"keywords":["nocrits","nodmgspread","payload","uncletopia"],"game_id":440,"stv_port":27016,"stv_name":"Uncletopia | Montr√©al | 1 | All Maps | STV","players":null},{"server_id":301,"name":"Uncletopia | Montr√©al | 2 | All Maps","name_short":"mtl-2","host":"mtl-1.ca.uncletopia.com","port":27025,"enabled":true,"region":"us-east","cc":"ca","latitude":45.50889,"longitude":-73.56167,"reserved":0,"last_update":"0001-01-01T00:00:00Z","name_a2s":"Uncletopia | Montr√©al | 2 | All Maps","protocol":17,"map":"pl_borneo","folder":"tf","game":"Team Fortress","app_id":440,"player_count":0,"max_players":24,"Bots":0,"server_type":"Dedicated","server_os":"Linux","password":true,"vac":true,"version":"7708610","steam_id":85568392924500088,"keywords":["nocrits","nodmgspread","payload","uncletopia"],"game_id":440,"stv_port":27026,"stv_name":"Uncletopia | Montr√©al | 2 | All Maps | STV","players":null},{"server_id":302,"name":"Uncletopia | Montr√©al | 3 | All Maps","name_short":"mtl-3","host":"mtl-1.ca.uncletopia.com","port":27035,"enabled":true,"region":"us-east","cc":"ca","latitude":45.50889,"longitude":-73.56167,"reserved":0,"last_update":"0001-01-01T00:00:00Z","name_a2s":"Uncletopia | Montr√©al | 3 | All Maps","protocol":17,"map":"cp_snakewater_final1","folder":"tf","game":"Team Fortress","app_id":440,"player_count":0,"max_players":24,"Bots":0,"server_type":"Dedicated","server_os":"Linux","password":true,"vac":true,"version":"7708610","steam_id":85568392924500089,"keywords":["cp","nocrits","nodmgspread","uncletopia"],"game_id":440,"stv_port":27036,"stv_name":"Uncletopia | Montr√©al | 3 | All Maps | STV","players":null},{"server_id":303,"name":"Uncletopia | Montr√©al | 4 | No Payload","name_short":"mtl-4","host":"mtl-1.ca.uncletopia.com","port":27045,"enabled":true,"region":"us-east","cc":"ca","latitude":45.50889,"longitude":-73.56167,"reserved":0,"last_update":"0001-01-01T00:00:00Z","name_a2s":"Uncletopia | Montr√©al | 4 | No Payload","protocol":17,"map":"cp_snakewater_final1","folder":"tf","game":"Team Fortress","app_id":440,"player_count":0,"max_players":24,"Bots":0,"server_type":"Dedicated","server_os":"Linux","password":true,"vac":true,"version":"7708610","steam_id":85568392924500090,"keywords":["cp","nocrits","nodmgspread","uncletopia"],"game_id":440,"stv_port":27046,"stv_name":"Uncletopia | Montr√©al | 4 | No Payload | STV","players":null},{"server_id":13,"name":"Uncletopia | New York City | 1 | All Maps","name_short":"nyc-1","host":"nyc-1.us.uncletopia.com","port":27015,"enabled":true,"region":"us-east","cc":"us","latitude":40.73061,"longitude":-73.93524,"reserved":0,"last_update":"0001-01-01T00:00:00Z","name_a2s":"Uncletopia | New York City | 1 | All Maps","protocol":17,"map":"cp_process_final","folder":"tf","game":"Team Fortress","app_id":440,"player_count":0,"max_players":24,"Bots":0,"server_type":"Dedicated","server_os":"Linux","password":true,"vac":true,"version":"7708610","steam_id":85568392924469993,"keywords":["cp","nocrits","nodmgspread","uncletopia"],"game_id":440,"stv_port":27016,"stv_name":"Uncletopia | New York City | 1 | All Maps | STV","players":null},{"server_id":14,"name":"Uncletopia | New York City | 2 | All Maps","name_short":"nyc-2","host":"nyc-1.us.uncletopia.com","port":27025,"enabled":true,"region":"us-east","cc":"us","latitude":40.73061,"longitude":-73.93524,"reserved":0,"last_update":"0001-01-01T00:00:00Z","name_a2s":"Uncletopia | New York City | 2 | All Maps","protocol":17,"map":"pl_swiftwater_final1","folder":"tf","game":"Team Fortress","app_id":440,"player_count":13,"max_players":24,"Bots":0,"server_type":"Dedicated","server_os":"Linux","password":true,"vac":true,"version":"7708610","steam_id":85568392924469994,"keywords":["nocrits","nodmgspread","payload","uncletopia"],"game_id":440,"stv_port":27026,"stv_name":"Uncletopia | New York City | 2 | All Maps | STV","players":[{"user_id":17,"name":"LooseJuice","steam_id":76561198042181014,"connected_time":1058000000000,"state":"active","ping":119},{"user_id":18,"name":"tulpa","steam_id":76561198013253513,"connected_time":1019000000000,"state":"active","ping":63},{"user_id":19,"name":"QuickToTheBatCave","steam_id":76561198060762959,"connected_time":1011000000000,"state":"active","ping":50},{"user_id":11,"name":"The One True Pineapple #SaveTF2","steam_id":76561198083157236,"connected_time":2072000000000,"state":"active","ping":90},{"user_id":13,"name":"Questking1","steam_id":76561198328107634,"connected_time":1813000000000,"state":"active","ping":66},{"user_id":22,"name":"nack_swam","steam_id":76561198446423541,"connected_time":579000000000,"state":"active","ping":54},{"user_id":28,"name":"ATL1 | p4ka","steam_id":76561198315291317,"connected_time":268000000000,"state":"active","ping":52},{"user_id":24,"name":"xZoroarkgaming","steam_id":76561199199302865,"connected_time":444000000000,"state":"active","ping":121},{"user_id":30,"name":"KLSG","steam_id":76561198055471793,"connected_time":133000000000,"state":"active","ping":137},{"user_id":26,"name":"Walmart Employee","steam_id":76561198840373909,"connected_time":357000000000,"state":"active","ping":92},{"user_id":27,"name":"imcringe","steam_id":76561199434878956,"connected_time":329000000000,"state":"active","ping":71},{"user_id":32,"name":"IEatFemboys","steam_id":76561198872008890,"connected_time":67000000000,"state":"active","ping":76},{"user_id":33,"name":"killerbell51","steam_id":76561199150463048,"connected_time":18000000000,"state":"active","ping":266}]},{"server_id":15,"name":"Uncletopia | New York City | 3 | All Maps","name_short":"nyc-3","host":"nyc-1.us.uncletopia.com","port":27035,"enabled":true,"region":"us-east","cc":"us","latitude":40.73061,"longitude":-73.93524,"reserved":0,"last_update":"0001-01-01T00:00:00Z","name_a2s":"Uncletopia | New York City | 3 | All Maps","protocol":17,"map":"pl_frontier_final","folder":"tf","game":"Team Fortress","app_id":440,"player_count":0,"max_players":24,"Bots":0,"server_type":"Dedicated","server_os":"Linux","password":true,"vac":true,"version":"7708610","steam_id":85568392924742820,"keywords":["nocrits","nodmgspread","payload","uncletopia"],"game_id":440,"stv_port":27036,"stv_name":"Uncletopia | New York City | 3 | All Maps | STV","players":null},{"server_id":16,"name":"Uncletopia | New York City | 4 | Community","name_short":"nyc-4","host":"nyc-1.us.uncletopia.com","port":27045,"enabled":true,"region":"us-east","cc":"us","latitude":40.73061,"longitude":-73.93524,"reserved":0,"last_update":"0001-01-01T00:00:00Z","name_a2s":"Uncletopia | New York City | 4 | Community","protocol":17,"map":"pl_barnblitz","folder":"tf","game":"Team Fortress","app_id":440,"player_count":0,"max_players":24,"Bots":0,"server_type":"Dedicated","server_os":"Linux","password":true,"vac":true,"version":"7708610","steam_id":85568392924742821,"keywords":["nocrits","nodmgspread","payload","uncletopia"],"game_id":440,"stv_port":27046,"stv_name":"Uncletopia | New York City | 4 | Community | STV","players":null},{"server_id":142,"name":"Uncletopia | S√£o Paulo | 1 | All Maps","name_short":"sao-1","host":"sao-1.br.uncletopia.com","port":27015,"enabled":true,"region":"sa","cc":"br","latitude":-23.533773,"longitude":-46.62529,"reserved":0,"last_update":"0001-01-01T00:00:00Z","name_a2s":"Uncletopia | S√£o Paulo | 1 | All Maps","protocol":17,"map":"cp_process_final","folder":"tf","game":"Team Fortress","app_id":440,"player_count":17,"max_players":24,"Bots":0,"server_type":"Dedicated","server_os":"Linux","password":true,"vac":true,"version":"7708610","steam_id":85568392924469996,"keywords":["cp","nocrits","nodmgspread","uncletopia"],"game_id":440,"stv_port":27016,"stv_name":"Uncletopia | S√£o Paulo | 1 | All Maps | STV","players":[{"user_id":156,"name":"jao","steam_id":76561198408082822,"connected_time":0,"state":"spawning","ping":15},{"user_id":46,"name":"Sublime157","steam_id":76561198202847430,"connected_time":9717000000000,"state":"active","ping":74},{"user_id":66,"name":"siirtyaoliveira","steam_id":76561199176805537,"connected_time":7540000000000,"state":"active","ping":47},{"user_id":149,"name":"rockbye no meu timeüò¥üò¥","steam_id":76561198414067922,"connected_time":459000000000,"state":"active","ping":39},{"user_id":133,"name":"Mikael_01","steam_id":76561199080253129,"connected_time":1404000000000,"state":"active","ping":46},{"user_id":152,"name":"MajorDemoPY","steam_id":76561198369119913,"connected_time":263000000000,"state":"active","ping":90},{"user_id":132,"name":"Neferious Acts Enjoyer","steam_id":76561198354898457,"connected_time":1465000000000,"state":"active","ping":46},{"user_id":145,"name":"Thompy","steam_id":76561199409024712,"connected_time":670000000000,"state":"active","ping":50},{"user_id":154,"name":"f3_bc03","steam_id":76561199211376269,"connected_time":214000000000,"state":"active","ping":58},{"user_id":146,"name":"Blepy","steam_id":76561198199455773,"connected_time":565000000000,"state":"active","ping":78},{"user_id":147,"name":"AY | Tenente Player 2","steam_id":76561198213180131,"connected_time":547000000000,"state":"active","ping":104},{"user_id":150,"name":"Sebasga12","steam_id":76561198327624071,"connected_time":381000000000,"state":"active","ping":145},{"user_id":125,"name":"balls hunter","steam_id":76561198311610096,"connected_time":1660000000000,"state":"active","ping":45},{"user_id":124,"name":"b1doof","steam_id":76561198078934921,"connected_time":1737000000000,"state":"active","ping":45},{"user_id":151,"name":"tionico11","steam_id":76561199403771030,"connected_time":358000000000,"state":"active","ping":91},{"user_id":126,"name":"Matheus Alves(Youtube)","steam_id":76561198163920834,"connected_time":1593000000000,"state":"active","ping":54},{"user_id":127,"name":"Vic Rattlehead","steam_id":76561199232899925,"connected_time":1590000000000,"state":"active","ping":50}]},{"server_id":143,"name":"Uncletopia | S√£o Paulo | 2 | All Maps","name_short":"sao-2","host":"sao-2.br.uncletopia.com","port":27015,"enabled":true,"region":"sa","cc":"br","latitude":-23.533773,"longitude":-46.62529,"reserved":0,"last_update":"0001-01-01T00:00:00Z","name_a2s":"Uncletopia | S√£o Paulo | 2 | All Maps","protocol":17,"map":"cp_mountainlab","folder":"tf","game":"Team Fortress","app_id":440,"player_count":0,"max_players":24,"Bots":0,"server_type":"Dedicated","server_os":"Linux","password":true,"vac":true,"version":"7708610","steam_id":85568392924485349,"keywords":["cp","nocrits","nodmgspread","uncletopia"],"game_id":440,"stv_port":27016,"stv_name":"Uncletopia | S√£o Paulo | 2 | All Maps | STV","players":null},{"server_id":7,"name":"Uncletopia | Seattle | 1 | All Maps","name_short":"sea-1","host":"sea-1.us.uncletopia.com","port":27015,"enabled":true,"region":"us-west","cc":"us","latitude":47.608013,"longitude":-122.33517,"reserved":0,"last_update":"0001-01-01T00:00:00Z","name_a2s":"Uncletopia | Seattle | 1 | All Maps","protocol":17,"map":"koth_lakeside_final","folder":"tf","game":"Team Fortress","app_id":440,"player_count":0,"max_players":24,"Bots":0,"server_type":"Dedicated","server_os":"Linux","password":true,"vac":true,"version":"7708610","steam_id":85568392924469997,"keywords":["cp","nocrits","nodmgspread","uncletopia"],"game_id":440,"stv_port":27016,"stv_name":"Uncletopia | Seattle | 1 | All Maps | STV","players":null},{"server_id":119,"name":"Uncletopia | Seattle | 2 | All Maps","name_short":"sea-2","host":"sea-1.us.uncletopia.com","port":27025,"enabled":true,"region":"us-west","cc":"us","latitude":47.608013,"longitude":-122.33517,"reserved":0,"last_update":"0001-01-01T00:00:00Z","name_a2s":"Uncletopia | Seattle | 2 | All Maps","protocol":17,"map":"pl_barnblitz","folder":"tf","game":"Team Fortress","app_id":440,"player_count":0,"max_players":24,"Bots":0,"server_type":"Dedicated","server_os":"Linux","password":true,"vac":true,"version":"7708610","steam_id":85568392924469998,"keywords":["nocrits","nodmgspread","payload","uncletopia"],"game_id":440,"stv_port":27026,"stv_name":"Uncletopia | Seattle | 2 | All Maps | STV","players":null},{"server_id":17,"name":"Uncletopia | San Francisco | 1 | All Maps","name_short":"sfo-1","host":"sfo-1.us.uncletopia.com","port":27015,"enabled":true,"region":"us-west","cc":"us","latitude":37.77397,"longitude":-122.4313,"reserved":0,"last_update":"0001-01-01T00:00:00Z","name_a2s":"Uncletopia | San Francisco | 1 | All Maps","protocol":17,"map":"pl_barnblitz","folder":"tf","game":"Team Fortress","app_id":440,"player_count":0,"max_players":24,"Bots":0,"server_type":"Dedicated","server_os":"Linux","password":true,"vac":true,"version":"7708610","steam_id":85568392924469999,"keywords":["nocrits","nodmgspread","payload","uncletopia"],"game_id":440,"stv_port":27016,"stv_name":"Uncletopia | San Francisco | 1 | All Maps | STV","players":null},{"server_id":18,"name":"Uncletopia | San Francisco | 2 | All Maps","name_short":"sfo-2","host":"sfo-1.us.uncletopia.com","port":27025,"enabled":true,"region":"us-west","cc":"us","latitude":37.77397,"longitude":-122.4313,"reserved":0,"last_update":"0001-01-01T00:00:00Z","name_a2s":"Uncletopia | San Francisco | 2 | All Maps","protocol":17,"map":"pl_snowycoast","folder":"tf","game":"Team Fortress","app_id":440,"player_count":0,"max_players":24,"Bots":0,"server_type":"Dedicated","server_os":"Linux","password":true,"vac":true,"version":"7708610","steam_id":85568392924470000,"keywords":["nocrits","nodmgspread","payload","uncletopia"],"game_id":440,"stv_port":27026,"stv_name":"Uncletopia | San Francisco | 2 | All Maps | STV","players":null},{"server_id":19,"name":"Uncletopia | San Francisco | 3 | No Payload","name_short":"sfo-3","host":"sfo-1.us.uncletopia.com","port":27035,"enabled":true,"region":"us-west","cc":"us","latitude":37.77397,"longitude":-122.4313,"reserved":0,"last_update":"0001-01-01T00:00:00Z","name_a2s":"Uncletopia | San Francisco | 3 | No Payload","protocol":17,"map":"pl_borneo","folder":"tf","game":"Team Fortress","app_id":440,"player_count":0,"max_players":24,"Bots":0,"server_type":"Dedicated","server_os":"Linux","password":true,"vac":true,"version":"7708610","steam_id":85568392924742824,"keywords":["nocrits","nodmgspread","payload","uncletopia"],"game_id":440,"stv_port":27036,"stv_name":"Uncletopia | San Francisco | 3 | No Payload | STV","players":null},{"server_id":20,"name":"Uncletopia | San Francisco | 4 | Community","name_short":"sfo-4","host":"sfo-1.us.uncletopia.com","port":27045,"enabled":true,"region":"us-west","cc":"us","latitude":37.77397,"longitude":-122.4313,"reserved":0,"last_update":"0001-01-01T00:00:00Z","name_a2s":"Uncletopia | San Francisco | 4 | Community","protocol":17,"map":"pl_frontier_final","folder":"tf","game":"Team Fortress","app_id":440,"player_count":0,"max_players":24,"Bots":0,"server_type":"Dedicated","server_os":"Linux","password":true,"vac":true,"version":"7708610","steam_id":85568392924742826,"keywords":["nocrits","nodmgspread","payload","uncletopia"],"game_id":440,"stv_port":27046,"stv_name":"Uncletopia | San Francisco | 4 | Community | STV","players":null},{"server_id":141,"name":"Uncletopia | Sydney | 1 | All Maps","name_short":"syd-1","host":"syd-1.au.uncletopia.com","port":27015,"enabled":true,"region":"au","cc":"au","latitude":-33.865143,"longitude":151.2099,"reserved":0,"last_update":"0001-01-01T00:00:00Z","name_a2s":"Uncletopia | Sydney | 1 | All Maps","protocol":17,"map":"koth_lakeside_final","folder":"tf","game":"Team Fortress","app_id":440,"player_count":0,"max_players":24,"Bots":0,"server_type":"Dedicated","server_os":"Linux","password":true,"vac":true,"version":"7708610","steam_id":85568392924470001,"keywords":["cp","nocrits","nodmgspread","uncletopia"],"game_id":440,"stv_port":27016,"stv_name":"Uncletopia | Sydney | 1 | All Maps | STV","players":null},{"server_id":123,"name":"Uncletopia | Sydney | 2 | All Maps","name_short":"syd-2","host":"syd-1.au.uncletopia.com","port":27025,"enabled":true,"region":"au","cc":"au","latitude":-33.865143,"longitude":151.2099,"reserved":0,"last_update":"0001-01-01T00:00:00Z","name_a2s":"Uncletopia | Sydney | 2 | All Maps","protocol":17,"map":"pl_barnblitz","folder":"tf","game":"Team Fortress","app_id":440,"player_count":0,"max_players":24,"Bots":0,"server_type":"Dedicated","server_os":"Linux","password":true,"vac":true,"version":"7708610","steam_id":85568392924470002,"keywords":["nocrits","nodmgspread","payload","uncletopia"],"game_id":440,"stv_port":27026,"stv_name":"Uncletopia | Sydney | 2 | All Maps | STV","players":null},{"server_id":395,"name":"Uncletopia | Sydney | 3 | All Maps","name_short":"syd-3","host":"syd-1.au.uncletopia.com","port":27035,"enabled":true,"region":"au","cc":"au","latitude":-33.865143,"longitude":151.2099,"reserved":0,"last_update":"0001-01-01T00:00:00Z","name_a2s":"Uncletopia | Sydney | 3 | All Maps","protocol":17,"map":"koth_viaduct","folder":"tf","game":"Team Fortress","app_id":440,"player_count":0,"max_players":24,"Bots":0,"server_type":"Dedicated","server_os":"Linux","password":true,"vac":true,"version":"7708610","steam_id":85568392925194467,"keywords":["cp","nocrits","nodmgspread","uncletopia"],"game_id":440,"stv_port":27036,"stv_name":"Uncletopia | Sydney | 3 | All Maps | STV","players":null},{"server_id":396,"name":"Uncletopia | Sydney | 4 | All Maps","name_short":"syd-4","host":"syd-1.au.uncletopia.com","port":27045,"enabled":true,"region":"au","cc":"au","latitude":-33.865143,"longitude":151.2099,"reserved":0,"last_update":"0001-01-01T00:00:00Z","name_a2s":"Uncletopia | Sydney | 4 | All Maps","protocol":17,"map":"pl_frontier_final","folder":"tf","game":"Team Fortress","app_id":440,"player_count":0,"max_players":24,"Bots":0,"server_type":"Dedicated","server_os":"Linux","password":true,"vac":true,"version":"7708610","steam_id":85568392925397958,"keywords":["nocrits","nodmgspread","payload","uncletopia"],"game_id":440,"stv_port":27046,"stv_name":"Uncletopia | Sydney | 4 | All Maps | STV","players":null},{"server_id":58,"name":"Uncletopia | Sydney | 5 | No Payload","name_short":"syd-5","host":"syd-1.au.uncletopia.com","port":27055,"enabled":true,"region":"au","cc":"au","latitude":-33.865143,"longitude":151.2099,"reserved":0,"last_update":"0001-01-01T00:00:00Z","name_a2s":"Uncletopia | Sydney | 5 | No Payload","protocol":17,"map":"pl_pier","folder":"tf","game":"Team Fortress","app_id":440,"player_count":0,"max_players":24,"Bots":0,"server_type":"Dedicated","server_os":"Linux","password":true,"vac":true,"version":"7708610","steam_id":85568392925397959,"keywords":["nocrits","nodmgspread","payload","uncletopia"],"game_id":440,"stv_port":27056,"stv_name":"Uncletopia | Sydney | 5 | No Payload | STV","players":null},{"server_id":59,"name":"Uncletopia | Sydney | 6 | Community","name_short":"syd-6","host":"syd-1.au.uncletopia.com","port":27065,"enabled":true,"region":"au","cc":"au","latitude":-33.865143,"longitude":151.2099,"reserved":0,"last_update":"0001-01-01T00:00:00Z","name_a2s":"Uncletopia | Sydney | 6 | Community","protocol":17,"map":"pl_badwater","folder":"tf","game":"Team Fortress","app_id":440,"player_count":0,"max_players":24,"Bots":0,"server_type":"Dedicated","server_os":"Linux","password":true,"vac":true,"version":"7708610","steam_id":85568392925397960,"keywords":["nocrits","nodmgspread","payload","uncletopia"],"game_id":440,"stv_port":27066,"stv_name":"Uncletopia | Sydney | 6 | Community | STV","players":null},{"server_id":49,"name":"Uncletopia | Warsaw | 1 | All Maps","name_short":"waw-1","host":"waw-1.pl.uncletopia.com","port":27015,"enabled":true,"region":"eu","cc":"pl","latitude":52.2297,"longitude":21.017532,"reserved":0,"last_update":"0001-01-01T00:00:00Z","name_a2s":"Uncletopia | Warsaw | 1 | All Maps","protocol":17,"map":"pl_badwater","folder":"tf","game":"Team Fortress","app_id":440,"player_count":2,"max_players":24,"Bots":0,"server_type":"Dedicated","server_os":"Linux","password":true,"vac":true,"version":"7708610","steam_id":85568392925397850,"keywords":["nocrits","nodmgspread","payload","uncletopia"],"game_id":440,"stv_port":27016,"stv_name":"Uncletopia | Warsaw | 1 | All Maps | STV","players":[{"user_id":25,"name":"AnonyKliker","steam_id":76561198171152111,"connected_time":464000000000,"state":"active","ping":33},{"user_id":26,"name":"Asee","steam_id":76561198799939764,"connected_time":298000000000,"state":"active","ping":64}]},{"server_id":50,"name":"Uncletopia | Warsaw | 2 | All Maps","name_short":"waw-2","host":"waw-1.pl.uncletopia.com","port":27025,"enabled":true,"region":"eu","cc":"pl","latitude":52.2297,"longitude":21.017532,"reserved":0,"last_update":"0001-01-01T00:00:00Z","name_a2s":"Uncletopia | Warsaw | 2 | All Maps","protocol":17,"map":"koth_cascade","folder":"tf","game":"Team Fortress","app_id":440,"player_count":0,"max_players":24,"Bots":0,"server_type":"Dedicated","server_os":"Linux","password":true,"vac":true,"version":"7708610","steam_id":85568392925397851,"keywords":["cp","nocrits","nodmgspread","uncletopia"],"game_id":440,"stv_port":27026,"stv_name":"Uncletopia | Warsaw | 2 | All Maps | STV","players":null},{"server_id":51,"name":"Uncletopia | Warsaw | 3 | All Maps","name_short":"waw-3","host":"waw-1.pl.uncletopia.com","port":27035,"enabled":true,"region":"eu","cc":"pl","latitude":52.2297,"longitude":21.017532,"reserved":0,"last_update":"0001-01-01T00:00:00Z","name_a2s":"Uncletopia | Warsaw | 3 | All Maps","protocol":17,"map":"koth_highpass","folder":"tf","game":"Team Fortress","app_id":440,"player_count":0,"max_players":24,"Bots":0,"server_type":"Dedicated","server_os":"Linux","password":true,"vac":true,"version":"7708610","steam_id":85568392925397852,"keywords":["cp","nocrits","nodmgspread","uncletopia"],"game_id":440,"stv_port":27036,"stv_name":"Uncletopia | Warsaw | 3 | All Maps | STV","players":null},{"server_id":52,"name":"Uncletopia | Warsaw | 4 | All Maps","name_short":"waw-4","host":"waw-1.pl.uncletopia.com","port":27045,"enabled":true,"region":"eu","cc":"pl","latitude":52.2297,"longitude":21.017532,"reserved":0,"last_update":"0001-01-01T00:00:00Z","name_a2s":"Uncletopia | Warsaw | 4 | All Maps","protocol":17,"map":"koth_cascade","folder":"tf","game":"Team Fortress","app_id":440,"player_count":0,"max_players":24,"Bots":0,"server_type":"Dedicated","server_os":"Linux","password":true,"vac":true,"version":"7708610","steam_id":85568392925397853,"keywords":["cp","nocrits","nodmgspread","uncletopia"],"game_id":440,"stv_port":27046,"stv_name":"Uncletopia | Warsaw | 4 | All Maps | STV","players":null},{"server_id":53,"name":"Uncletopia | Warsaw | 5 | No Payload","name_short":"waw-5","host":"waw-1.pl.uncletopia.com","port":27055,"enabled":true,"region":"eu","cc":"pl","latitude":52.2297,"longitude":21.017532,"reserved":0,"last_update":"0001-01-01T00:00:00Z","name_a2s":"Uncletopia | Warsaw | 5 | No Payload","protocol":17,"map":"koth_suijin","folder":"tf","game":"Team Fortress","app_id":440,"player_count":0,"max_players":24,"Bots":0,"server_type":"Dedicated","server_os":"Linux","password":true,"vac":true,"version":"7708610","steam_id":85568392925397854,"keywords":["cp","nocrits","nodmgspread","uncletopia"],"game_id":440,"stv_port":27056,"stv_name":"Uncletopia | Warsaw | 5 | No Payload | STV","players":null},{"server_id":54,"name":"Uncletopia | Warsaw | 6 | Community","name_short":"waw-6","host":"waw-1.pl.uncletopia.com","port":27065,"enabled":true,"region":"eu","cc":"pl","latitude":52.2297,"longitude":21.017532,"reserved":0,"last_update":"0001-01-01T00:00:00Z","name_a2s":"Uncletopia | Warsaw | 6 | Community","protocol":17,"map":"pl_swiftwater_final1","folder":"tf","game":"Team Fortress","app_id":440,"player_count":0,"max_players":24,"Bots":0,"server_type":"Dedicated","server_os":"Linux","password":true,"vac":true,"version":"7708610","steam_id":85568392925397856,"keywords":["nocrits","nodmgspread","payload","uncletopia"],"game_id":440,"stv_port":27066,"stv_name":"Uncletopia | Warsaw | 6 | Community | STV","players":null}]}