{"status":true,"message":"","result":[{"server_id":9,"name":"Uncletopia | Atlanta | 1 | All Maps","name_short":"atl-1","host":"atl-1.us.uncletopia.com","port":27015,"enabled":true,"region":"us-east","cc":"us","latitude":33.753746,"longitude":-84.38633,"reserved":0,"last_update":"0001-01-01T00:00:00Z","name_a2s":"Uncletopia | Atlanta | 1 | All Maps","protocol":17,"map":"cp_snakewater_final1","folder":"tf","game":"Team Fortress","app_id":440,"player_count":0,"max_players":24,"Bots":0,"server_type":"Dedicated","server_os":"Linux","password":false,"vac":true,"version":"7961495","steam_id":85568392924469982,"keywords":["cp","nocrits","nodmgspread","uncletopia"],"game_id":440,"stv_port":27016,"stv_name":"Uncletopia | Atlanta | 1 | All Maps | STV","players":null},{"server_id":104,"name":"Uncletopia | Atlanta | 2 | All Maps","name_short":"atl-2","host":"atl-1.us.uncletopia.com","port":27025,"enabled":true,"region":"us-east","cc":"us","latitude":33.753746,"longitude":-84.38633,"reserved":0,"last_update":"0001-01-01T00:00:00Z","name_a2s":"Uncletopia | Atlanta | 2 | All Maps","protocol":17,"map":"cp_mountainlab","folder":"tf","game":"Team Fortress","app_id":440,"player_count":0,"max_players":24,"Bots":0,"server_type":"Dedicated","server_os":"Linux","password":false,"vac":true,"version":"7961495","steam_id":85568392924469983,"keywords":["cp","nocrits","nodmgspread","uncletopia"],"game_id":440,"stv_port":27026,"stv_name":"Uncletopia | Atlanta | 2 | All Maps | STV","players":null},{"server_id":400,"name":"Uncletopia | Atlanta | 3 | All Maps","name_short":"atl-3","host":"atl-1.us.uncletopia.com","port":27035,"enabled":true,"region":"us-east","cc":"us","latitude":33.753746,"longitude":-84.38633,"reserved":0,"last_update":"0001-01-01T00:00:00Z","name_a2s":"Uncletopia | Atlanta | 3 | All Maps","protocol":17,"map":"cp_process_final","folder":"tf","game":"Team Fortress","app_id":440,"player_count":0,"max_players":24,"Bots":0,"server_type":"Dedicated","server_os":"Linux","password":false,"vac":true,"version":"7961495","steam_id":85568392924515187,"keywords":["cp","nocrits","nodmgspread","uncletopia"],"game_id":440,"stv_port":27036,"stv_name":"Uncletopia | Atlanta | 3 | All Maps | STV","players":null},{"server_id":401,"name":"Uncletopia | Atlanta | 4 | Community","name_short":"atl-4","host":"atl-1.us.uncletopia.com","port":27045,"enabled":true,"region":"us-east","cc":"us","latitude":33.753746,"longitude":-84.38633,"reserved":0,"last_update":"0001-01-01T00:00:00Z","name_a2s":"Uncletopia | Atlanta | 4 | Community","protocol":17,"map":"koth_lakeside_final","folder":"tf","game":"Team Fortress","app_id":440,"player_count":0,"max_players":24,"Bots":0,"server_type":"Dedicated","server_os":"Linux","password":false,"vac":true,"version":"7961495","steam_id":85568392924515188,"keywords":["cp","nocrits","nodmgspread","uncletopia"],"game_id":440,"stv_port":27046,"stv_name":"Uncletopia | Atlanta | 4 | Community | STV","players":null},{"server_id":2,"name":"Uncletopia | Chicago | 1 | All Maps","name_short":"chi-1","host":"chi-1.us.uncletopia.com","port":27015,"enabled":true,"region":"us-central","cc":"us","latitude":41.881832,"longitude":-87.62318,"reserved":0,"last_update":"0001-01-01T00:00:00Z","name_a2s":"Uncletopia | Chicago | 1 | All Maps","protocol":17,"map":"pl_badwater","folder":"tf","game":"Team Fortress","app_id":440,"player_count":0,"max_players":24,"Bots":0,"server_type":"Dedicated","server_os":"Linux","password":true,"vac":true,"version":"7961495","steam_id":85568392924469984,"keywords":["nocrits","nodmgspread","payload","uncletopia"],"game_id":440,"stv_port":27016,"stv_name":"Uncletopia | Chicago | 1 | All Maps | STV","players":null},{"server_id":106,"name":"Uncletopia | Chicago | 2 | All Maps","name_short":"chi-2","host":"chi-1.us.uncletopia.com","port":27025,"enabled":true,"region":"us-central","cc":"us","latitude":41.881832,"longitude":-87.62318,"reserved":0,"last_update":"0001-01-01T00:00:00Z","name_a2s":"Uncletopia | Chicago | 2 | All Maps","protocol":17,"map":"pl_pier","folder":"tf","game":"Team Fortress","app_id":440,"player_count":24,"max_players":24,"Bots":0,"server_type":"Dedicated","server_os":"Linux","password":true,"vac":true,"version":"7961495","steam_id":85568392924469985,"keywords":["nocrits","nodmgspread","payload","uncletopia"],"game_id":440,"stv_port":27026,"stv_name":"Uncletopia | Chicago | 2 | All Maps | STV","players":[{"user_id":78,"name":"DarthEthanBoy","steam_id":76561198441643581,"connected_time":1865000000000,"state":"active","ping":62},{"user_id":58,"name":"[SpaceVillain]","steam_id":76561198091162429,"connected_time":3220000000000,"state":"active","ping":70},{"user_id":77,"name":"Hylic","steam_id":76561199051314589,"connected_time":1909000000000,"state":"active","ping":67},{"user_id":102,"name":"meatballfreak","steam_id":76561198374236066,"connected_time":420000000000,"state":"active","ping":57},{"user_id":54,"name":"Katy","steam_id":76561198079395814,"connected_time":3406000000000,"state":"active","ping":59},{"user_id":98,"name":"Waffle Wannabe","steam_id":76561198064510650,"connected_time":822000000000,"state":"active","ping":64},{"user_id":97,"name":"ungr8t うんぐれいと","steam_id":76561198063521721,"connected_time":838000000000,"state":"active","ping":76},{"user_id":90,"name":"gaming unit","steam_id":76561198148059714,"connected_time":1486000000000,"state":"active","ping":59},{"user_id":93,"name":"lili","steam_id":76561199391478575,"connected_time":924000000000,"state":"active","ping":113},{"user_id":82,"name":"ShofaX","steam_id":76561198199768014,"connected_time":1699000000000,"state":"active","ping":74},{"user_id":106,"name":"JC","steam_id":76561198135307995,"connected_time":387000000000,"state":"active","ping":71},{"user_id":101,"name":"Braspooky","steam_id":76561198275170070,"connected_time":432000000000,"state":"active","ping":70},{"user_id":92,"name":"Crab","steam_id":76561198271186633,"connected_time":1351000000000,"state":"active","ping":53},{"user_id":68,"name":".JIFF","steam_id":76561198045181760,"connected_time":2359000000000,"state":"active","ping":60},{"user_id":103,"name":"kinky n stinky","steam_id":76561198145366579,"connected_time":406000000000,"state":"active","ping":79},{"user_id":109,"name":"floppy muppet","steam_id":76561198003076261,"connected_time":123000000000,"state":"active","ping":90},{"user_id":110,"name":"Drew P. Sack","steam_id":76561198036201738,"connected_time":90000000000,"state":"active","ping":55},{"user_id":88,"name":"Acquiescence","steam_id":76561198127915191,"connected_time":1582000000000,"state":"active","ping":76},{"user_id":113,"name":"Aurora","steam_id":76561198271981179,"connected_time":56000000000,"state":"active","ping":60},{"user_id":43,"name":"dr peppah chug!","steam_id":76561198068835693,"connected_time":3634000000000,"state":"active","ping":87},{"user_id":95,"name":"i love digging shit out my ass","steam_id":76561198159339442,"connected_time":879000000000,"state":"active","ping":71},{"user_id":112,"name":"Chaos","steam_id":76561199068325065,"connected_time":82000000000,"state":"active","ping":94},{"user_id":49,"name":"John CounterStrike","steam_id":76561198129346110,"connected_time":3561000000000,"state":"active","ping":76},{"user_id":70,"name":"Noodle Princess [Dexgod]","steam_id":76561198017130786,"connected_time":2293000000000,"state":"active","ping":72}]},{"server_id":402,"name":"Uncletopia | Chicago | 3 | All Maps","name_short":"chi-3","host":"chi-1.us.uncletopia.com","port":27035,"enabled":true,"region":"us-central","cc":"us","latitude":41.881832,"longitude":-87.62318,"reserved":0,"last_update":"0001-01-01T00:00:00Z","name_a2s":"Uncletopia | Chicago | 3 | All Maps","protocol":17,"map":"koth_viaduct","folder":"tf","game":"Team Fortress","app_id":440,"player_count":24,"max_players":24,"Bots":0,"server_type":"Dedicated","server_os":"Linux","password":true,"vac":true,"version":"7961495","steam_id":85568392924515191,"keywords":["cp","nocrits","nodmgspread","uncletopia"],"game_id":440,"stv_port":27036,"stv_name":"Uncletopia | Chicago | 3 | All Maps | STV","players":[{"user_id":303,"name":"Nivi!","steam_id":76561198097857418,"connected_time":3518000000000,"state":"active","ping":88},{"user_id":337,"name":"a bullet","steam_id":76561198809248362,"connected_time":478000000000,"state":"active","ping":159},{"user_id":257,"name":"Ashes!","steam_id":76561197998475441,"connected_time":8082000000000,"state":"active","ping":91},{"user_id":250,"name":"PackingPeanutt :]","steam_id":76561199053229413,"connected_time":8378000000000,"state":"active","ping":85},{"user_id":317,"name":"i46","steam_id":76561198031675881,"connected_time":2628000000000,"state":"active","ping":40},{"user_id":341,"name":"Bigjon300","steam_id":76561198137902441,"connected_time":225000000000,"state":"active","ping":81},{"user_id":309,"name":"Lylith","steam_id":76561198386687546,"connected_time":3433000000000,"state":"active","ping":62},{"user_id":305,"name":"Jerry Bondle","steam_id":76561198337512213,"connected_time":3444000000000,"state":"active","ping":71},{"user_id":315,"name":"swat","steam_id":76561198803159110,"connected_time":2638000000000,"state":"active","ping":73},{"user_id":333,"name":"Jav","steam_id":76561198073633513,"connected_time":682000000000,"state":"active","ping":60},{"user_id":334,"name":"Pyrovision Distributor","steam_id":76561198242118240,"connected_time":678000000000,"state":"active","ping":53},{"user_id":342,"name":"Xatheys","steam_id":76561198082458255,"connected_time":115000000000,"state":"active","ping":54},{"user_id":313,"name":"dak","steam_id":76561198076596506,"connected_time":2822000000000,"state":"active","ping":60},{"user_id":335,"name":"b","steam_id":76561198118211523,"connected_time":632000000000,"state":"active","ping":51},{"user_id":320,"name":"FoxyTheFish","steam_id":76561199074190919,"connected_time":1825000000000,"state":"active","ping":137},{"user_id":287,"name":"Drachma","steam_id":76561198007310514,"connected_time":5249000000000,"state":"active","ping":56},{"user_id":322,"name":"bushy472","steam_id":76561198259074051,"connected_time":1244000000000,"state":"active","ping":69},{"user_id":321,"name":"sand","steam_id":76561198086193212,"connected_time":1719000000000,"state":"active","ping":60},{"user_id":296,"name":"hank","steam_id":76561197977182378,"connected_time":3977000000000,"state":"active","ping":48},{"user_id":264,"name":"Cloud","steam_id":76561198954987128,"connected_time":7316000000000,"state":"active","ping":74},{"user_id":285,"name":"turd ferguson","steam_id":76561198071620782,"connected_time":5416000000000,"state":"active","ping":85},{"user_id":245,"name":"Rat God","steam_id":76561198066161598,"connected_time":8879000000000,"state":"active","ping":60},{"user_id":330,"name":"Buckeye Crusader","steam_id":76561198126115279,"connected_time":869000000000,"state":"active","ping":78},{"user_id":324,"name":"Eating Toast","steam_id":76561199168711796,"connected_time":1187000000000,"state":"active","ping":70}]},{"server_id":403,"name":"Uncletopia | Chicago | 4 | All Maps","name_short":"chi-4","host":"chi-1.us.uncletopia.com","port":27045,"enabled":true,"region":"us-central","cc":"us","latitude":41.881832,"longitude":-87.62318,"reserved":0,"last_update":"0001-01-01T00:00:00Z","name_a2s":"Uncletopia | Chicago | 4 | All Maps","protocol":17,"map":"pl_frontier_final","folder":"tf","game":"Team Fortress","app_id":440,"player_count":24,"max_players":24,"Bots":0,"server_type":"Dedicated","server_os":"Linux","password":true,"vac":true,"version":"7961495","steam_id":85568392924515193,"keywords":["nocrits","nodmgspread","payload","uncletopia"],"game_id":440,"stv_port":27046,"stv_name":"Uncletopia | Chicago | 4 | All Maps | STV","players":[{"user_id":239,"name":"Thotimus Begonimus","steam_id":76561197970275938,"connected_time":1090000000000,"state":"active","ping":58},{"user_id":172,"name":"Speedy","steam_id":76561198080761661,"connected_time":2278000000000,"state":"active","ping":83},{"user_id":236,"name":"Dr. Freeday, E.I.M.B","steam_id":76561198046870291,"connected_time":1116000000000,"state":"active","ping":61},{"user_id":238,"name":"Honk","steam_id":76561198076720361,"connected_time":1093000000000,"state":"active","ping":58},{"user_id":281,"name":"MikeLovesRabbit","steam_id":76561197997742625,"connected_time":660000000000,"state":"active","ping":62},{"user_id":134,"name":"phantom","steam_id":76561197963860777,"connected_time":2814000000000,"state":"active","ping":58},{"user_id":124,"name":"Rornir","steam_id":76561198081829615,"connected_time":3584000000000,"state":"active","ping":42},{"user_id":226,"name":"earthbound393","steam_id":76561199444276547,"connected_time":1329000000000,"state":"active","ping":116},{"user_id":188,"name":"Pussy Slambasket","steam_id":76561198093694322,"connected_time":1966000000000,"state":"active","ping":48},{"user_id":271,"name":"some tree","steam_id":76561198166093346,"connected_time":824000000000,"state":"active","ping":54},{"user_id":240,"name":"Mint Jelly","steam_id":76561197991286751,"connected_time":1074000000000,"state":"active","ping":46},{"user_id":231,"name":"Epifiny","steam_id":76561198027958086,"connected_time":1259000000000,"state":"active","ping":67},{"user_id":202,"name":"Marksito14","steam_id":76561199132272437,"connected_time":1633000000000,"state":"active","ping":213},{"user_id":68,"name":"chanoc","steam_id":76561198026734746,"connected_time":7962000000000,"state":"active","ping":100},{"user_id":278,"name":"based peter griffin","steam_id":76561197962921313,"connected_time":696000000000,"state":"active","ping":70},{"user_id":272,"name":"Swedish Crowbar","steam_id":76561199105488936,"connected_time":817000000000,"state":"active","ping":147},{"user_id":273,"name":"je1i","steam_id":76561198268951743,"connected_time":809000000000,"state":"active","ping":56},{"user_id":234,"name":"Organ Harvester","steam_id":76561198069948353,"connected_time":1205000000000,"state":"active","ping":79},{"user_id":274,"name":"POSTERBOYOFGOODBOYS","steam_id":76561198199344313,"connected_time":793000000000,"state":"active","ping":116},{"user_id":275,"name":"Young Sanity","steam_id":76561198395766307,"connected_time":754000000000,"state":"active","ping":50},{"user_id":242,"name":"Sideways Whoopi Goldberg","steam_id":76561198003736560,"connected_time":1061000000000,"state":"active","ping":54},{"user_id":309,"name":"Admiral Catradora","steam_id":76561198017271944,"connected_time":149000000000,"state":"active","ping":75},{"user_id":123,"name":"mytoyo2k2","steam_id":76561199486326945,"connected_time":3777000000000,"state":"active","ping":79},{"user_id":131,"name":"Cerabond","steam_id":76561199230915333,"connected_time":3367000000000,"state":"active","ping":85}]},{"server_id":36,"name":"Uncletopia | Chicago | 5 | All Maps","name_short":"chi-5","host":"chi-2.us.uncletopia.com","port":27015,"enabled":true,"region":"us-central","cc":"us","latitude":41.881832,"longitude":-87.62318,"reserved":0,"last_update":"0001-01-01T00:00:00Z","name_a2s":"Uncletopia | Chicago | 5 | All Maps","protocol":17,"map":"koth_cascade","folder":"tf","game":"Team Fortress","app_id":440,"player_count":1,"max_players":24,"Bots":0,"server_type":"Dedicated","server_os":"Linux","password":true,"vac":true,"version":"7961495","steam_id":85568392924866362,"keywords":["cp","nocrits","nodmgspread","uncletopia"],"game_id":440,"stv_port":27016,"stv_name":"Uncletopia | Chicago | 5 | All Maps | STV","players":[{"user_id":5,"name":"ThePatheticMedic","steam_id":76561198873083105,"connected_time":126000000000,"state":"active","ping":50}]},{"server_id":37,"name":"Uncletopia | Chicago | 6 | All Maps","name_short":"chi-6","host":"chi-2.us.uncletopia.com","port":27025,"enabled":true,"region":"us-central","cc":"us","latitude":41.881832,"longitude":-87.62318,"reserved":0,"last_update":"0001-01-01T00:00:00Z","name_a2s":"Uncletopia | Chicago | 6 | All Maps","protocol":17,"map":"pl_borneo","folder":"tf","game":"Team Fortress","app_id":440,"player_count":0,"max_players":24,"Bots":0,"server_type":"Dedicated","server_os":"Linux","password":true,"vac":true,"version":"7961495","steam_id":85568392924866363,"keywords":["nocrits","nodmgspread","payload","uncletopia"],"game_id":440,"stv_port":27026,"stv_name":"Uncletopia | Chicago | 6 | All Maps | STV","players":null},{"server_id":38,"name":"Uncletopia | Chicago | 7 | Stopwatch Beta","name_short":"chi-7","host":"chi-2.us.uncletopia.com","port":27035,"enabled":true,"region":"us-central","cc":"us","latitude":41.881832,"longitude":-87.62318,"reserved":0,"last_update":"0001-01-01T00:00:00Z","name_a2s":"Uncletopia | Chicago | 7 | Stopwatch Beta","protocol":17,"map":"pl_badwater","folder":"tf","game":"Team Fortress","app_id":440,"player_count":0,"max_players":24,"Bots":0,"server_type":"Dedicated","server_os":"Linux","password":true,"vac":true,"version":"7961495","steam_id":85568392924866364,"keywords":["nocrits","nodmgspread","payload","uncletopia"],"game_id":440,"stv_port":27036,"stv_name":"Uncletopia | Chicago | 7 | Stopwatch Beta | STV","players":null},{"server_id":39,"name":"Uncletopia | Chicago | 8 | Community","name_short":"chi-8","host":"chi-2.us.uncletopia.com","port":27045,"enabled":true,"region":"us-central","cc":"us","latitude":41.881832,"longitude":-87.62318,"reserved":0,"last_update":"0001-01-01T00:00:00Z","name_a2s":"Uncletopia | Chicago | 8 | Community","protocol":17,"map":"koth_cascade","folder":"tf","game":"Team Fortress","app_id":440,"player_count":0,"max_players":24,"Bots":0,"server_type":"Dedicated","server_os":"Linux","password":true,"vac":true,"version":"7961495","steam_id":85568392924866365,"keywords":["cp","nocrits","nodmgspread","uncletopia"],"game_id":440,"stv_port":27046,"stv_name":"Uncletopia | Chicago | 8 | Community | STV","players":null},{"server_id":8,"name":"Uncletopia | Dallas | 1 | All Maps","name_short":"dal-1","host":"dal-1.us.uncletopia.com","port":27015,"enabled":true,"region":"us-central","cc":"us","latitude":32.779167,"longitude":-96.80889,"reserved":0,"last_update":"0001-01-01T00:00:00Z","name_a2s":"Uncletopia | Dallas | 1 | All Maps","protocol":17,"map":"cp_steel","folder":"tf","game":"Team Fortress","app_id":440,"player_count":23,"max_players":24,"Bots":0,"server_type":"Dedicated","server_os":"Linux","password":true,"vac":true,"version":"7961495","steam_id":85568392924469986,"keywords":["cp","nocrits","nodmgspread","uncletopia"],"game_id":440,"stv_port":27016,"stv_name":"Uncletopia | Dallas | 1 | All Maps | STV","players":[{"user_id":268,"name":"JoeFalco","steam_id":76561198064005012,"connected_time":66000000000,"state":"active","ping":81},{"user_id":219,"name":"HeadOfB.O.XNews","steam_id":76561198823322405,"connected_time":4017000000000,"state":"active","ping":51},{"user_id":258,"name":"Rue","steam_id":76561198013135993,"connected_time":953000000000,"state":"active","ping":70},{"user_id":193,"name":"the pizza","steam_id":76561198221331476,"connected_time":6985000000000,"state":"active","ping":73},{"user_id":217,"name":"The Second Jimmy","steam_id":76561198409907417,"connected_time":4404000000000,"state":"active","ping":89},{"user_id":264,"name":"tooru_hagakure, exhibitionism","steam_id":76561198097330521,"connected_time":479000000000,"state":"active","ping":143},{"user_id":154,"name":"Yummy Kabobz","steam_id":76561198067661705,"connected_time":11188000000000,"state":"active","ping":70},{"user_id":252,"name":"socializedCryptid","steam_id":76561198991665007,"connected_time":1546000000000,"state":"active","ping":82},{"user_id":237,"name":"DragonFluffy","steam_id":76561198077511010,"connected_time":2143000000000,"state":"active","ping":66},{"user_id":260,"name":"magnanimity","steam_id":76561198242842394,"connected_time":891000000000,"state":"active","ping":49},{"user_id":225,"name":"Engideer","steam_id":76561198145733164,"connected_time":3146000000000,"state":"active","ping":40},{"user_id":234,"name":"muffinoos","steam_id":76561199063285268,"connected_time":2570000000000,"state":"active","ping":89},{"user_id":244,"name":"Skinny pete","steam_id":76561198801608576,"connected_time":1899000000000,"state":"active","ping":49},{"user_id":253,"name":"im ultrakill (official)","steam_id":76561198415528114,"connected_time":1525000000000,"state":"active","ping":187},{"user_id":263,"name":"Jango","steam_id":76561198084589742,"connected_time":485000000000,"state":"active","ping":74},{"user_id":227,"name":"Borgir","steam_id":76561198325390265,"connected_time":3129000000000,"state":"active","ping":69},{"user_id":266,"name":"Lord Garrard","steam_id":76561198212184303,"connected_time":112000000000,"state":"active","ping":55},{"user_id":269,"name":"FIREPOW","steam_id":76561198111259720,"connected_time":3000000000,"state":"spawning","ping":81},{"user_id":256,"name":"poopshitter9000","steam_id":76561198074624639,"connected_time":1255000000000,"state":"active","ping":87},{"user_id":246,"name":"Ocelot","steam_id":76561198043176782,"connected_time":1866000000000,"state":"active","ping":111},{"user_id":267,"name":"Quomples","steam_id":76561198140996628,"connected_time":107000000000,"state":"active","ping":55},{"user_id":45,"name":"The One Bad Cheatboxer","steam_id":76561198303948269,"connected_time":19746000000000,"state":"active","ping":111},{"user_id":127,"name":"Jimmy","steam_id":76561198857959855,"connected_time":12829000000000,"state":"active","ping":71}]},{"server_id":108,"name":"Uncletopia | Dallas | 2 | All Maps","name_short":"dal-2","host":"dal-1.us.uncletopia.com","port":27025,"enabled":true,"region":"us-central","cc":"us","latitude":32.779167,"longitude":-96.80889,"reserved":0,"last_update":"0001-01-01T00:00:00Z","name_a2s":"Uncletopia | Dallas | 2 | All Maps","protocol":17,"map":"pl_pier","folder":"tf","game":"Team Fortress","app_id":440,"player_count":24,"max_players":24,"Bots":0,"server_type":"Dedicated","server_os":"Linux","password":true,"vac":true,"version":"7961495","steam_id":85568392924469988,"keywords":["nocrits","nodmgspread","payload","uncletopia"],"game_id":440,"stv_port":27026,"stv_name":"Uncletopia | Dallas | 2 | All Maps | STV","players":[{"user_id":214,"name":"Kirby.exe","steam_id":76561198242714582,"connected_time":3622000000000,"state":"active","ping":46},{"user_id":172,"name":"Sup m8","steam_id":76561198081659121,"connected_time":6147000000000,"state":"active","ping":44},{"user_id":203,"name":"HardlyEthical","steam_id":76561198044535087,"connected_time":4286000000000,"state":"active","ping":113},{"user_id":216,"name":"Wan Shi Tong","steam_id":76561198076441225,"connected_time":3206000000000,"state":"active","ping":88},{"user_id":234,"name":"☆Doggirl Genius☆","steam_id":76561198083243888,"connected_time":1751000000000,"state":"active","ping":91},{"user_id":213,"name":"Provocator","steam_id":76561197961830410,"connected_time":3916000000000,"state":"active","ping":93},{"user_id":226,"name":"MeMyBongusAndTheGreatOutdoors","steam_id":76561198097708978,"connected_time":2248000000000,"state":"active","ping":49},{"user_id":237,"name":"JayRawgTV","steam_id":76561198044402840,"connected_time":1426000000000,"state":"active","ping":46},{"user_id":153,"name":"Big Yoshi","steam_id":76561199160576376,"connected_time":8074000000000,"state":"active","ping":101},{"user_id":243,"name":"Modstin","steam_id":76561198080081255,"connected_time":379000000000,"state":"active","ping":98},{"user_id":169,"name":"Svepport","steam_id":76561198071373137,"connected_time":6902000000000,"state":"active","ping":59},{"user_id":190,"name":"Doctor Emerald(real)","steam_id":76561199123003872,"connected_time":5414000000000,"state":"active","ping":93},{"user_id":231,"name":"yes daddy","steam_id":76561198166100997,"connected_time":2163000000000,"state":"active","ping":75},{"user_id":224,"name":"Alkimia","steam_id":76561198385763137,"connected_time":2287000000000,"state":"active","ping":127},{"user_id":211,"name":"MrMeeph","steam_id":76561197997146185,"connected_time":4089000000000,"state":"active","ping":77},{"user_id":205,"name":"Jennifer Aniston's Nipples","steam_id":76561198086107548,"connected_time":4263000000000,"state":"active","ping":46},{"user_id":230,"name":"Jesse Bear","steam_id":76561198217075305,"connected_time":2203000000000,"state":"active","ping":100},{"user_id":228,"name":"Freyja","steam_id":76561198207412177,"connected_time":2226000000000,"state":"active","ping":73},{"user_id":248,"name":"greg club","steam_id":76561198370506193,"connected_time":125000000000,"state":"active","ping":58},{"user_id":245,"name":"Acro","steam_id":76561198092451804,"connected_time":298000000000,"state":"active","ping":73},{"user_id":242,"name":"western bacon cheeseburger","steam_id":76561198145320480,"connected_time":415000000000,"state":"active","ping":87},{"user_id":246,"name":"bunger bunger bunger bunger","steam_id":76561198175955138,"connected_time":264000000000,"state":"active","ping":97},{"user_id":247,"name":"Lt Lushen","steam_id":76561198124083273,"connected_time":250000000000,"state":"active","ping":99},{"user_id":250,"name":"lynt","steam_id":76561198988333976,"connected_time":73000000000,"state":"active","ping":64}]},{"server_id":404,"name":"Uncletopia | Dallas | 3 | All Maps","name_short":"dal-3","host":"dal-1.us.uncletopia.com","port":27035,"enabled":true,"region":"us-central","cc":"us","latitude":32.779167,"longitude":-96.80889,"reserved":0,"last_update":"0001-01-01T00:00:00Z","name_a2s":"Uncletopia | Dallas | 3 | All Maps","protocol":17,"map":"pl_swiftwater_final1","folder":"tf","game":"Team Fortress","app_id":440,"player_count":24,"max_players":24,"Bots":0,"server_type":"Dedicated","server_os":"Linux","password":true,"vac":true,"version":"7961495","steam_id":85568392924515219,"keywords":["nocrits","nodmgspread","payload","uncletopia"],"game_id":440,"stv_port":27036,"stv_name":"Uncletopia | Dallas | 3 | All Maps | STV","players":[{"user_id":6,"name":"shitass | troutsupply.net","steam_id":76561198210572481,"connected_time":2970000000000,"state":"active","ping":59},{"user_id":49,"name":"joe","steam_id":76561198968576397,"connected_time":505000000000,"state":"active","ping":152},{"user_id":16,"name":"Hovg9000.TV","steam_id":76561199191556710,"connected_time":1486000000000,"state":"active","ping":84},{"user_id":43,"name":"Solly","steam_id":76561198157466077,"connected_time":577000000000,"state":"active","ping":60},{"user_id":11,"name":"Lolxdloldx","steam_id":76561198136887125,"connected_time":2389000000000,"state":"active","ping":109},{"user_id":41,"name":"你好","steam_id":76561198873043242,"connected_time":652000000000,"state":"active","ping":131},{"user_id":26,"name":"TJGSASQUATCH","steam_id":76561198077806921,"connected_time":1104000000000,"state":"active","ping":100},{"user_id":21,"name":"wet cement with handprint ","steam_id":76561198066566813,"connected_time":1223000000000,"state":"active","ping":112},{"user_id":25,"name":"FanGirl Troutsupply.net","steam_id":76561199140940650,"connected_time":1170000000000,"state":"active","ping":60},{"user_id":23,"name":"Bob the Builder","steam_id":76561198338333591,"connected_time":1201000000000,"state":"active","ping":55},{"user_id":27,"name":"Superman123389","steam_id":76561198267472539,"connected_time":1014000000000,"state":"active","ping":87},{"user_id":28,"name":"Adokato","steam_id":76561199077640506,"connected_time":833000000000,"state":"active","ping":92},{"user_id":29,"name":"nuclearpotatoes","steam_id":76561198197856134,"connected_time":828000000000,"state":"active","ping":69},{"user_id":44,"name":"._.","steam_id":76561198300316801,"connected_time":574000000000,"state":"active","ping":84},{"user_id":31,"name":"Cinder","steam_id":76561198380434689,"connected_time":821000000000,"state":"active","ping":122},{"user_id":52,"name":"nayonhaha","steam_id":76561198066507360,"connected_time":54000000000,"state":"spawning","ping":70},{"user_id":50,"name":"Cold shoulder","steam_id":76561198453824178,"connected_time":505000000000,"state":"active","ping":135},{"user_id":34,"name":"Kaiju","steam_id":76561198035703156,"connected_time":786000000000,"state":"active","ping":53},{"user_id":45,"name":"OldRavensFan","steam_id":76561198043919562,"connected_time":562000000000,"state":"active","ping":78},{"user_id":51,"name":"Pango","steam_id":76561198069811545,"connected_time":503000000000,"state":"active","ping":64},{"user_id":54,"name":"Creature","steam_id":76561198194585781,"connected_time":19000000000,"state":"active","ping":89},{"user_id":38,"name":"Gustavo_Banana","steam_id":76561198387866587,"connected_time":707000000000,"state":"active","ping":187},{"user_id":39,"name":"TomosconesYT","steam_id":76561198813586588,"connected_time":679000000000,"state":"active","ping":98},{"user_id":53,"name":"Ockulus","steam_id":76561199069638460,"connected_time":53000000000,"state":"active","ping":82}]},{"server_id":405,"name":"Uncletopia | Dallas | 4 | Community","name_short":"dal-4","host":"dal-1.us.uncletopia.com","port":27045,"enabled":true,"region":"us-central","cc":"us","latitude":32.779167,"longitude":-96.80889,"reserved":0,"last_update":"0001-01-01T00:00:00Z","name_a2s":"Uncletopia | Dallas | 4 | Community","protocol":17,"map":"workshop/cp_alloy_rc3.ugc592805587","folder":"tf","game":"Team Fortress","app_id":440,"player_count":3,"max_players":24,"Bots":0,"server_type":"Dedicated","server_os":"Linux","password":true,"vac":true,"version":"7961495","steam_id":85568392924515220,"keywords":["cp","nocrits","nodmgspread","uncletopia"],"game_id":440,"stv_port":27046,"stv_name":"Uncletopia | Dallas | 4 | Community | STV","players":[{"user_id":3,"name":"jairo","steam_id":76561199006124613,"connected_time":2358000000000,"state":"active","ping":113},{"user_id":18,"name":"Wajliii","steam_id":76561199002865510,"connected_time":148000000000,"state":"active","ping":194},{"user_id":6,"name":"Ajsa CFBI","steam_id":76561199235907971,"connected_time":2148000000000,"state":"active","ping":112}]},{"server_id":5,"name":"Uncletopia | Frankfurt | 1 | All Maps","name_short":"frk-1","host":"frk-1.de.uncletopia.com","port":27015,"enabled":true,"region":"eu","cc":"de","latitude":50.110924,"longitude":8.682127,"reserved":0,"last_update":"0001-01-01T00:00:00Z","name_a2s":"Uncletopia | Frankfurt | 1 | All Maps","protocol":17,"map":"pl_badwater","folder":"tf","game":"Team Fortress","app_id":440,"player_count":25,"max_players":24,"Bots":0,"server_type":"Dedicated","server_os":"Linux","password":true,"vac":true,"version":"7961495","steam_id":85568392924469989,"keywords":["nocrits","nodmgspread","payload","uncletopia"],"game_id":440,"stv_port":27016,"stv_name":"Uncletopia | Frankfurt | 1 | All Maps | STV","players":[{"user_id":8,"name":"Falcon","steam_id":76561198211463916,"connected_time":964000000000,"state":"active","ping":99},{"user_id":11,"name":"Savv","steam_id":76561197992892379,"connected_time":916000000000,"state":"active","ping":87},{"user_id":10,"name":"SoulSeek","steam_id":76561198023805987,"connected_time":929000000000,"state":"active","ping":75},{"user_id":12,"name":"[IVe/LO]Jadore_les_Currywurst","steam_id":76561198005084382,"connected_time":882000000000,"state":"active","ping":93},{"user_id":39,"name":"♉ LEIGULAS ♉","steam_id":76561198006815007,"connected_time":250000000000,"state":"active","ping":83},{"user_id":14,"name":"Barry Bee Benson","steam_id":76561198115199225,"connected_time":833000000000,"state":"active","ping":63},{"user_id":15,"name":"blurst of times","steam_id":76561197972325640,"connected_time":798000000000,"state":"active","ping":52},{"user_id":16,"name":"Durin sein Vater","steam_id":76561198021246713,"connected_time":789000000000,"state":"active","ping":45},{"user_id":41,"name":"fgustav","steam_id":76561197996939661,"connected_time":135000000000,"state":"active","ping":86},{"user_id":38,"name":"leminsc8","steam_id":76561198825084995,"connected_time":292000000000,"state":"active","ping":39},{"user_id":28,"name":"puuksu_mees7","steam_id":76561198022616643,"connected_time":629000000000,"state":"active","ping":76},{"user_id":20,"name":"ogsdu","steam_id":76561197994849019,"connected_time":709000000000,"state":"active","ping":96},{"user_id":21,"name":"randompixel","steam_id":76561198003941207,"connected_time":707000000000,"state":"active","ping":77},{"user_id":22,"name":"spwky","steam_id":76561198235739036,"connected_time":694000000000,"state":"active","ping":72},{"user_id":23,"name":"Hey, I´m Andy!","steam_id":76561198060337777,"connected_time":693000000000,"state":"active","ping":72},{"user_id":24,"name":"jimq","steam_id":76561198394653715,"connected_time":669000000000,"state":"active","ping":68},{"user_id":40,"name":"spruce","steam_id":76561198353290368,"connected_time":249000000000,"state":"active","ping":61},{"user_id":26,"name":"vurtun","steam_id":76561198857395274,"connected_time":634000000000,"state":"active","ping":53},{"user_id":27,"name":"−•−• •− −","steam_id":76561198139398425,"connected_time":631000000000,"state":"active","ping":81},{"user_id":29,"name":"Poop_toast","steam_id":76561199251933053,"connected_time":625000000000,"state":"active","ping":172},{"user_id":30,"name":"FoOzTV","steam_id":76561197998636728,"connected_time":592000000000,"state":"active","ping":76},{"user_id":31,"name":"Rask","steam_id":76561198052934944,"connected_time":588000000000,"state":"active","ping":100},{"user_id":42,"name":"2BCD","steam_id":76561198178254946,"connected_time":73000000000,"state":"active","ping":72},{"user_id":34,"name":"buddy","steam_id":76561197988733568,"connected_time":554000000000,"state":"active","ping":62},{"user_id":43,"name":"ouchie wouchies","steam_id":76561198105443986,"connected_time":71000000000,"state":"active","ping":84}]},{"server_id":110,"name":"Uncletopia | Frankfurt | 2 | All Maps","name_short":"frk-2","host":"frk-1.de.uncletopia.com","port":27025,"enabled":true,"region":"eu","cc":"de","latitude":50.110924,"longitude":8.682127,"reserved":0,"last_update":"0001-01-01T00:00:00Z","name_a2s":"Uncletopia | Frankfurt | 2 | All Maps","protocol":17,"map":"pl_borneo","folder":"tf","game":"Team Fortress","app_id":440,"player_count":4,"max_players":24,"Bots":0,"server_type":"Dedicated","server_os":"Linux","password":true,"vac":true,"version":"7961495","steam_id":85568392924469990,"keywords":["nocrits","nodmgspread","payload","uncletopia"],"game_id":440,"stv_port":27026,"stv_name":"Uncletopia | Frankfurt | 2 | All Maps | STV","players":[{"user_id":13,"name":"Dat one medic","steam_id":76561198212794525,"connected_time":140000000000,"state":"active","ping":164},{"user_id":7,"name":"Chainfire","steam_id":76561198120774329,"connected_time":499000000000,"state":"active","ping":124},{"user_id":10,"name":"Rocadinis","steam_id":76561198095910616,"connected_time":257000000000,"state":"active","ping":89},{"user_id":11,"name":"JM\u003c3","steam_id":76561199123978696,"connected_time":212000000000,"state":"active","ping":100}]},{"server_id":308,"name":"Uncletopia | Frankfurt | 3 | All Maps","name_short":"frk-3","host":"frk-1.de.uncletopia.com","port":27035,"enabled":true,"region":"eu","cc":"de","latitude":50.110924,"longitude":8.682127,"reserved":0,"last_update":"0001-01-01T00:00:00Z","name_a2s":"Uncletopia | Frankfurt | 3 | All Maps","protocol":17,"map":"pl_barnblitz","folder":"tf","game":"Team Fortress","app_id":440,"player_count":22,"max_players":24,"Bots":0,"server_type":"Dedicated","server_os":"Linux","password":true,"vac":true,"version":"7961495","steam_id":85568392924504274,"keywords":["nocrits","nodmgspread","payload","uncletopia"],"game_id":440,"stv_port":27036,"stv_name":"Uncletopia | Frankfurt | 3 | All Maps | STV","players":[{"user_id":21,"name":"db","steam_id":76561198377533237,"connected_time":1343000000000,"state":"active","ping":71},{"user_id":65,"name":"Tomfool","steam_id":76561197993256481,"connected_time":24000000000,"state":"active","ping":71},{"user_id":49,"name":"Shlyk","steam_id":76561198333387103,"connected_time":292000000000,"state":"active","ping":90},{"user_id":50,"name":"Maddox","steam_id":76561198026419869,"connected_time":289000000000,"state":"active","ping":69},{"user_id":14,"name":"Street Carp","steam_id":76561198202175138,"connected_time":1675000000000,"state":"active","ping":104},{"user_id":67,"name":"kluri","steam_id":76561198084518962,"connected_time":14000000000,"state":"active","ping":78},{"user_id":52,"name":"GorkaMorka","steam_id":76561198323830346,"connected_time":176000000000,"state":"active","ping":74},{"user_id":13,"name":"the one who grips","steam_id":76561198381106289,"connected_time":1792000000000,"state":"active","ping":76},{"user_id":54,"name":"willem dafoe fan","steam_id":76561198795590054,"connected_time":162000000000,"state":"active","ping":87},{"user_id":57,"name":"Remyie","steam_id":76561198131031404,"connected_time":95000000000,"state":"active","ping":96},{"user_id":18,"name":"Rengii76","steam_id":76561198869802076,"connected_time":1478000000000,"state":"active","ping":63},{"user_id":66,"name":"Spotmonkey","steam_id":76561198003994092,"connected_time":24000000000,"state":"active","ping":120},{"user_id":51,"name":"GodOfBeefy","steam_id":76561198796420092,"connected_time":256000000000,"state":"active","ping":70},{"user_id":60,"name":"Pohnut","steam_id":76561198087831690,"connected_time":61000000000,"state":"active","ping":62},{"user_id":26,"name":"gaming gamer","steam_id":76561198212488780,"connected_time":1289000000000,"state":"active","ping":59},{"user_id":48,"name":"fish","steam_id":76561198092096689,"connected_time":335000000000,"state":"active","ping":58},{"user_id":53,"name":"frosty","steam_id":76561198094560834,"connected_time":168000000000,"state":"active","ping":62},{"user_id":30,"name":"Coja","steam_id":76561198083974982,"connected_time":1241000000000,"state":"active","ping":73},{"user_id":62,"name":"Jobless and Angry","steam_id":76561198160523608,"connected_time":37000000000,"state":"active","ping":71},{"user_id":32,"name":"Happy Cat","steam_id":76561198405359788,"connected_time":1239000000000,"state":"active","ping":97},{"user_id":59,"name":"m909","steam_id":76561198279621400,"connected_time":80000000000,"state":"active","ping":93},{"user_id":41,"name":"Not A Fake Uncletopia Server","steam_id":76561198152871288,"connected_time":1158000000000,"state":"active","ping":64}]},{"server_id":309,"name":"Uncletopia | Frankfurt | 4 | All Maps","name_short":"frk-4","host":"frk-1.de.uncletopia.com","port":27045,"enabled":true,"region":"eu","cc":"de","latitude":50.110924,"longitude":8.682127,"reserved":0,"last_update":"0001-01-01T00:00:00Z","name_a2s":"Uncletopia | Frankfurt | 4 | All Maps","protocol":17,"map":"cp_altitude","folder":"tf","game":"Team Fortress","app_id":440,"player_count":0,"max_players":24,"Bots":0,"server_type":"Dedicated","server_os":"Linux","password":true,"vac":true,"version":"7961495","steam_id":85568392924504275,"keywords":["cp","nocrits","nodmgspread","uncletopia"],"game_id":440,"stv_port":27046,"stv_name":"Uncletopia | Frankfurt | 4 | All Maps | STV","players":null},{"server_id":310,"name":"Uncletopia | Frankfurt | 5 | All Maps","name_short":"frk-5","host":"frk-1.de.uncletopia.com","port":27055,"enabled":true,"region":"eu","cc":"de","latitude":50.110924,"longitude":8.682127,"reserved":0,"last_update":"0001-01-01T00:00:00Z","name_a2s":"Uncletopia | Frankfurt | 5 | All Maps","protocol":17,"map":"cp_process_final","folder":"tf","game":"Team Fortress","app_id":440,"player_count":0,"max_players":24,"Bots":0,"server_type":"Dedicated","server_os":"Linux","password":true,"vac":true,"version":"7961495","steam_id":85568392924504277,"keywords":["cp","nocrits","nodmgspread","uncletopia"],"game_id":440,"stv_port":27056,"stv_name":"Uncletopia | Frankfurt | 5 | All Maps | STV","players":null},{"server_id":311,"name":"Uncletopia | Frankfurt | 6 | All Maps","name_short":"frk-6","host":"frk-1.de.uncletopia.com","port":27065,"enabled":true,"region":"eu","cc":"de","latitude":50.110924,"longitude":8.682127,"reserved":0,"last_update":"0001-01-01T00:00:00Z","name_a2s":"Uncletopia | Frankfurt | 6 | All Maps","protocol":17,"map":"pl_barnblitz","folder":"tf","game":"Team Fortress","app_id":440,"player_count":3,"max_players":24,"Bots":0,"server_type":"Dedicated","server_os":"Linux","password":true,"vac":true,"version":"7961495","steam_id":85568392924504278,"keywords":["nocrits","nodmgspread","payload","uncletopia"],"game_id":440,"stv_port":27066,"stv_name":"Uncletopia | Frankfurt | 6 | All Maps | STV","players":[{"user_id":9,"name":"Bagingi","steam_id":76561198052197810,"connected_time":275000000000,"state":"active","ping":99},{"user_id":10,"name":"Liberos","steam_id":76561198050029082,"connected_time":217000000000,"state":"active","ping":84},{"user_id":11,"name":"Rynowm","steam_id":76561198136379860,"connected_time":192000000000,"state":"active","ping":72}]},{"server_id":23,"name":"Uncletopia | Frankfurt | 7 | Stopwatch Beta","name_short":"frk-7","host":"frk-1.de.uncletopia.com","port":27075,"enabled":true,"region":"eu","cc":"de","latitude":50.110924,"longitude":8.682127,"reserved":0,"last_update":"0001-01-01T00:00:00Z","name_a2s":"Uncletopia | Frankfurt | 7 | Stopwatch Beta","protocol":17,"map":"koth_cascade","folder":"tf","game":"Team Fortress","app_id":440,"player_count":0,"max_players":24,"Bots":0,"server_type":"Dedicated","server_os":"Linux","password":true,"vac":true,"version":"7961495","steam_id":85568392924742827,"keywords":["cp","nocrits","nodmgspread","uncletopia"],"game_id":440,"stv_port":27076,"stv_name":"Uncletopia | Frankfurt | 7 | Stopwatch Beta | STV","players":null},{"server_id":24,"name":"Uncletopia | Frankfurt | 8 | Community","name_short":"frk-8","host":"frk-1.de.uncletopia.com","port":27085,"enabled":true,"region":"eu","cc":"de","latitude":50.110924,"longitude":8.682127,"reserved":0,"last_update":"0001-01-01T00:00:00Z","name_a2s":"Uncletopia | Frankfurt | 8 | Community","protocol":17,"map":"cp_dustbowl","folder":"tf","game":"Team Fortress","app_id":440,"player_count":0,"max_players":24,"Bots":0,"server_type":"Dedicated","server_os":"Linux","password":true,"vac":true,"version":"7961495","steam_id":85568392924742828,"keywords":["cp","nocrits","nodmgspread","uncletopia"],"game_id":440,"stv_port":27086,"stv_name":"Uncletopia | Frankfurt | 8 | Community | STV","players":null},{"server_id":202,"name":"Uncletopia | Hong Kong | 1 | All Maps","name_short":"hgk-1","host":"hgk-1.hk.uncletopia.com","port":27015,"enabled":true,"region":"asia","cc":"hk","latitude":22.302711,"longitude":114.177216,"reserved":0,"last_update":"0001-01-01T00:00:00Z","name_a2s":"Uncletopia | Hong Kong | 1 | All Maps","protocol":17,"map":"koth_highpass","folder":"tf","game":"Team Fortress","app_id":440,"player_count":0,"max_players":24,"Bots":0,"server_type":"Dedicated","server_os":"Linux","password":true,"vac":true,"version":"7961495","steam_id":85568392924494504,"keywords":["cp","nocrits","nodmgspread","uncletopia"],"game_id":440,"stv_port":27016,"stv_name":"Uncletopia | Hong Kong | 1 | All Maps | STV","players":null},{"server_id":1,"name":"Uncletopia | Los Angeles | 1 | All Maps","name_short":"lax-1","host":"lax-1.us.uncletopia.com","port":27015,"enabled":true,"region":"us-west","cc":"us","latitude":33.94279,"longitude":-118.41004,"reserved":0,"last_update":"0001-01-01T00:00:00Z","name_a2s":"Uncletopia | Los Angeles | 1 | All Maps","protocol":17,"map":"cp_mountainlab","folder":"tf","game":"Team Fortress","app_id":440,"player_count":0,"max_players":24,"Bots":0,"server_type":"Dedicated","server_os":"Linux","password":true,"vac":true,"version":"7961495","steam_id":85568392924469991,"keywords":["cp","nocrits","nodmgspread","uncletopia"],"game_id":440,"stv_port":27016,"stv_name":"Uncletopia | Los Angeles | 1 | All Maps | STV","players":null},{"server_id":112,"name":"Uncletopia | Los Angeles | 2 | All Maps","name_short":"lax-2","host":"lax-1.us.uncletopia.com","port":27025,"enabled":true,"region":"us-west","cc":"us","latitude":33.94279,"longitude":-118.41004,"reserved":0,"last_update":"0001-01-01T00:00:00Z","name_a2s":"Uncletopia | Los Angeles | 2 | All Maps","protocol":17,"map":"pl_borneo","folder":"tf","game":"Team Fortress","app_id":440,"player_count":0,"max_players":24,"Bots":0,"server_type":"Dedicated","server_os":"Linux","password":true,"vac":true,"version":"7961495","steam_id":85568392924469992,"keywords":["nocrits","nodmgspread","payload","uncletopia"],"game_id":440,"stv_port":27026,"stv_name":"Uncletopia | Los Angeles | 2 | All Maps | STV","players":null},{"server_id":324,"name":"Uncletopia | Los Angeles | 3 | All Maps","name_short":"lax-3","host":"lax-1.us.uncletopia.com","port":27035,"enabled":true,"region":"us-west","cc":"us","latitude":33.94279,"longitude":-118.41004,"reserved":0,"last_update":"0001-01-01T00:00:00Z","name_a2s":"Uncletopia | Los Angeles | 3 | All Maps","protocol":17,"map":"cp_process_final","folder":"tf","game":"Team Fortress","app_id":440,"player_count":0,"max_players":24,"Bots":0,"server_type":"Dedicated","server_os":"Linux","password":true,"vac":true,"version":"7961495","steam_id":85568392924510198,"keywords":["cp","nocrits","nodmgspread","uncletopia"],"game_id":440,"stv_port":27036,"stv_name":"Uncletopia | Los Angeles | 3 | All Maps | STV","players":null},{"server_id":25,"name":"Uncletopia | Los Angeles | 4 | Stopwatch Beta","name_short":"lax-4","host":"lax-1.us.uncletopia.com","port":27045,"enabled":true,"region":"us-west","cc":"us","latitude":33.94279,"longitude":-118.41004,"reserved":0,"last_update":"0001-01-01T00:00:00Z","name_a2s":"Uncletopia | Los Angeles | 4 | Stopwatch Beta","protocol":17,"map":"pl_upward","folder":"tf","game":"Team Fortress","app_id":440,"player_count":0,"max_players":24,"Bots":0,"server_type":"Dedicated","server_os":"Linux","password":true,"vac":true,"version":"7961495","steam_id":85568392924510199,"keywords":["nocrits","nodmgspread","payload","uncletopia"],"game_id":440,"stv_port":27046,"stv_name":"Uncletopia | Los Angeles | 4 | Stopwatch Beta | STV","players":null},{"server_id":11,"name":"Uncletopia | London | 1 | All Maps","name_short":"lon-1","host":"lon-1.uk.uncletopia.com","port":27015,"enabled":true,"region":"eu","cc":"gb","latitude":51.509865,"longitude":-0.118092,"reserved":0,"last_update":"0001-01-01T00:00:00Z","name_a2s":"Uncletopia | London | 1 | All Maps","protocol":17,"map":"pl_pier","folder":"tf","game":"Team Fortress","app_id":440,"player_count":24,"max_players":24,"Bots":0,"server_type":"Dedicated","server_os":"Linux","password":true,"vac":true,"version":"7961495","steam_id":85568392924367362,"keywords":["nocrits","nodmgspread","payload","uncletopia"],"game_id":440,"stv_port":27016,"stv_name":"Uncletopia | London | 1 | All Maps | STV","players":[{"user_id":319,"name":"ambiwalentna","steam_id":76561199010825303,"connected_time":2529000000000,"state":"active","ping":85},{"user_id":311,"name":"✪ Danny","steam_id":76561198104483241,"connected_time":2859000000000,"state":"active","ping":48},{"user_id":356,"name":"png.png","steam_id":76561198444446521,"connected_time":958000000000,"state":"active","ping":105},{"user_id":355,"name":"outlaw","steam_id":76561198323805289,"connected_time":969000000000,"state":"active","ping":35},{"user_id":352,"name":"God shivers when I sticky spam","steam_id":76561198983900735,"connected_time":1110000000000,"state":"active","ping":73},{"user_id":357,"name":"pokemonsuper9","steam_id":76561198120530545,"connected_time":944000000000,"state":"active","ping":70},{"user_id":372,"name":"FlukeY","steam_id":76561198026137327,"connected_time":238000000000,"state":"active","ping":64},{"user_id":338,"name":"Nessieling","steam_id":76561198083556891,"connected_time":1800000000000,"state":"active","ping":76},{"user_id":363,"name":"glyph","steam_id":76561197980736364,"connected_time":879000000000,"state":"active","ping":91},{"user_id":354,"name":"kreeekz","steam_id":76561198014431602,"connected_time":1027000000000,"state":"active","ping":107},{"user_id":350,"name":"ein'd","steam_id":76561198152162834,"connected_time":1156000000000,"state":"active","ping":101},{"user_id":329,"name":"najed","steam_id":76561198107767664,"connected_time":2091000000000,"state":"active","ping":49},{"user_id":334,"name":"generic alias","steam_id":76561198271607226,"connected_time":1899000000000,"state":"active","ping":96},{"user_id":374,"name":"Asfreild","steam_id":76561198055901120,"connected_time":46000000000,"state":"active","ping":80},{"user_id":283,"name":"howabe","steam_id":76561197996486818,"connected_time":4264000000000,"state":"active","ping":67},{"user_id":324,"name":"rosepinkyfuzz","steam_id":76561198018546334,"connected_time":2443000000000,"state":"active","ping":86},{"user_id":353,"name":"Piox","steam_id":76561198125689157,"connected_time":1040000000000,"state":"active","ping":82},{"user_id":360,"name":"Oxer","steam_id":76561198055942412,"connected_time":904000000000,"state":"active","ping":85},{"user_id":351,"name":"Atomiccorn","steam_id":76561198298316720,"connected_time":1138000000000,"state":"active","ping":66},{"user_id":373,"name":"alien","steam_id":76561197968892194,"connected_time":191000000000,"state":"active","ping":48},{"user_id":361,"name":"Kepler_62f","steam_id":76561199005732555,"connected_time":904000000000,"state":"active","ping":74},{"user_id":314,"name":"halow","steam_id":76561198061505163,"connected_time":2753000000000,"state":"active","ping":109},{"user_id":364,"name":"jù xiē","steam_id":76561198096189399,"connected_time":868000000000,"state":"active","ping":74},{"user_id":371,"name":"-rikeOo-","steam_id":76561198303995379,"connected_time":399000000000,"state":"active","ping":80}]},{"server_id":114,"name":"Uncletopia | London | 2 | All Maps","name_short":"lon-2","host":"lon-1.uk.uncletopia.com","port":27025,"enabled":true,"region":"eu","cc":"gb","latitude":51.509865,"longitude":-0.118092,"reserved":0,"last_update":"0001-01-01T00:00:00Z","name_a2s":"Uncletopia | London | 2 | All Maps","protocol":17,"map":"pl_borneo","folder":"tf","game":"Team Fortress","app_id":440,"player_count":24,"max_players":24,"Bots":0,"server_type":"Dedicated","server_os":"Linux","password":true,"vac":true,"version":"7961495","steam_id":85568392924470941,"keywords":["nocrits","nodmgspread","payload","uncletopia"],"game_id":440,"stv_port":27026,"stv_name":"Uncletopia | London | 2 | All Maps | STV","players":[{"user_id":225,"name":"benjaminmarkMLP","steam_id":76561198920361202,"connected_time":1750000000000,"state":"active","ping":131},{"user_id":219,"name":"Cosmic Gamer","steam_id":76561198027357981,"connected_time":1813000000000,"state":"active","ping":110},{"user_id":195,"name":"Solus","steam_id":76561199486493777,"connected_time":2687000000000,"state":"active","ping":52},{"user_id":231,"name":"F4.exe","steam_id":76561198278822807,"connected_time":1096000000000,"state":"active","ping":72},{"user_id":227,"name":"Abbplutt","steam_id":76561198121678429,"connected_time":1565000000000,"state":"active","ping":86},{"user_id":235,"name":"Tea","steam_id":76561198799243030,"connected_time":773000000000,"state":"active","ping":66},{"user_id":179,"name":"Mr.Duck","steam_id":76561197983710667,"connected_time":3240000000000,"state":"active","ping":93},{"user_id":220,"name":"Mr. Enjoy da money","steam_id":76561198152681460,"connected_time":1794000000000,"state":"active","ping":75},{"user_id":205,"name":"Zhong Xina","steam_id":76561198048157121,"connected_time":2186000000000,"state":"active","ping":134},{"user_id":159,"name":"Puss in Boots","steam_id":76561198211599767,"connected_time":3774000000000,"state":"active","ping":55},{"user_id":160,"name":"A Javelin Pro Tank missile","steam_id":76561198133780954,"connected_time":3732000000000,"state":"active","ping":68},{"user_id":202,"name":"KsawiDemon","steam_id":76561198855789287,"connected_time":2333000000000,"state":"active","ping":75},{"user_id":221,"name":"fernandobmwm355555","steam_id":76561198086609447,"connected_time":1793000000000,"state":"active","ping":61},{"user_id":209,"name":"insane, deranged possibly menta","steam_id":76561198139729249,"connected_time":2112000000000,"state":"active","ping":104},{"user_id":183,"name":"ROX","steam_id":76561198272289320,"connected_time":3086000000000,"state":"active","ping":62},{"user_id":167,"name":"xTheDarkLight","steam_id":76561198239128298,"connected_time":3548000000000,"state":"active","ping":61},{"user_id":234,"name":"Zrazik","steam_id":76561198084112189,"connected_time":796000000000,"state":"active","ping":85},{"user_id":184,"name":"Berdly","steam_id":76561199029872533,"connected_time":3086000000000,"state":"active","ping":45},{"user_id":190,"name":"Zerfesh","steam_id":76561198117534358,"connected_time":2961000000000,"state":"active","ping":110},{"user_id":232,"name":"elmstJP ₪ F4.exe","steam_id":76561197997909480,"connected_time":1090000000000,"state":"active","ping":78},{"user_id":213,"name":"GROSSE MOULE","steam_id":76561198137165783,"connected_time":1835000000000,"state":"active","ping":59},{"user_id":224,"name":"BD[PL]","steam_id":76561198115995871,"connected_time":1779000000000,"state":"active","ping":90},{"user_id":236,"name":"mark","steam_id":76561198309246388,"connected_time":207000000000,"state":"active","ping":60},{"user_id":233,"name":"Chikapu_Xek","steam_id":76561198428023493,"connected_time":867000000000,"state":"active","ping":65}]},{"server_id":320,"name":"Uncletopia | London | 3 | All Maps","name_short":"lon-3","host":"lon-1.uk.uncletopia.com","port":27035,"enabled":true,"region":"eu","cc":"gb","latitude":51.509865,"longitude":-0.118092,"reserved":0,"last_update":"0001-01-01T00:00:00Z","name_a2s":"Uncletopia | London | 3 | All Maps","protocol":17,"map":"pl_barnblitz","folder":"tf","game":"Team Fortress","app_id":440,"player_count":24,"max_players":24,"Bots":0,"server_type":"Dedicated","server_os":"Linux","password":true,"vac":true,"version":"7961495","steam_id":85568392924510192,"keywords":["nocrits","nodmgspread","payload","uncletopia"],"game_id":440,"stv_port":27036,"stv_name":"Uncletopia | London | 3 | All Maps | STV","players":[{"user_id":250,"name":"Boop","steam_id":76561198042167559,"connected_time":564000000000,"state":"active","ping":48},{"user_id":243,"name":"Woman (Real)","steam_id":76561199151823932,"connected_time":1531000000000,"state":"active","ping":89},{"user_id":255,"name":"Gaslight Gaming","steam_id":76561198012300440,"connected_time":426000000000,"state":"active","ping":51},{"user_id":253,"name":"rets","steam_id":76561198061551392,"connected_time":435000000000,"state":"active","ping":56},{"user_id":251,"name":"static","steam_id":76561198836825741,"connected_time":550000000000,"state":"active","ping":46},{"user_id":242,"name":"Ricey","steam_id":76561198832961307,"connected_time":1569000000000,"state":"active","ping":47},{"user_id":188,"name":"Twiggu","steam_id":76561198070853128,"connected_time":4884000000000,"state":"active","ping":85},{"user_id":142,"name":"mateusz","steam_id":76561198111599735,"connected_time":6986000000000,"state":"active","ping":71},{"user_id":233,"name":"Grillem Dafoe","steam_id":76561198306874574,"connected_time":1895000000000,"state":"active","ping":65},{"user_id":132,"name":"Grand Piano Tuna","steam_id":76561198135137213,"connected_time":7716000000000,"state":"active","ping":144},{"user_id":234,"name":"Burpman","steam_id":76561198022897937,"connected_time":1892000000000,"state":"active","ping":48},{"user_id":249,"name":"please do not the cat","steam_id":76561198089003514,"connected_time":932000000000,"state":"active","ping":60},{"user_id":248,"name":"kanka","steam_id":76561198116530769,"connected_time":938000000000,"state":"active","ping":96},{"user_id":228,"name":"Codex","steam_id":76561198068748584,"connected_time":1938000000000,"state":"active","ping":51},{"user_id":252,"name":"Plep","steam_id":76561198840259819,"connected_time":439000000000,"state":"active","ping":65},{"user_id":236,"name":"Jara.","steam_id":76561197992207165,"connected_time":1864000000000,"state":"active","ping":105},{"user_id":230,"name":"Lyncurion","steam_id":76561199260022725,"connected_time":1929000000000,"state":"active","ping":91},{"user_id":254,"name":"quickfast","steam_id":76561199438900919,"connected_time":432000000000,"state":"active","ping":48},{"user_id":134,"name":"uheggwhite","steam_id":76561199199795741,"connected_time":7699000000000,"state":"active","ping":154},{"user_id":256,"name":"Special Agent Big Smoke","steam_id":76561198154468827,"connected_time":410000000000,"state":"active","ping":71},{"user_id":215,"name":"[503. ]captain swiftfingers","steam_id":76561198043684517,"connected_time":3563000000000,"state":"active","ping":57},{"user_id":150,"name":"douio","steam_id":76561199070344811,"connected_time":6853000000000,"state":"active","ping":90},{"user_id":257,"name":"Creative","steam_id":76561198835034247,"connected_time":409000000000,"state":"active","ping":84},{"user_id":259,"name":"Bun","steam_id":76561197989239999,"connected_time":349000000000,"state":"active","ping":74}]},{"server_id":321,"name":"Uncletopia | London | 4 | All Maps","name_short":"lon-4","host":"lon-1.uk.uncletopia.com","port":27045,"enabled":true,"region":"eu","cc":"gb","latitude":51.509865,"longitude":-0.118092,"reserved":0,"last_update":"0001-01-01T00:00:00Z","name_a2s":"Uncletopia | London | 4 | All Maps","protocol":17,"map":"pl_snowycoast","folder":"tf","game":"Team Fortress","app_id":440,"player_count":24,"max_players":24,"Bots":0,"server_type":"Dedicated","server_os":"Linux","password":true,"vac":true,"version":"7961495","steam_id":85568392924510193,"keywords":["nocrits","nodmgspread","payload","uncletopia"],"game_id":440,"stv_port":27046,"stv_name":"Uncletopia | London | 4 | All Maps | STV","players":[{"user_id":278,"name":"Estamie","steam_id":76561198058527691,"connected_time":2309000000000,"state":"active","ping":77},{"user_id":227,"name":"hyvakii705","steam_id":76561198086630552,"connected_time":5675000000000,"state":"active","ping":88},{"user_id":308,"name":"lulu","steam_id":76561199147764133,"connected_time":298000000000,"state":"active","ping":82},{"user_id":237,"name":"Owlet","steam_id":76561198065613974,"connected_time":5373000000000,"state":"active","ping":74},{"user_id":294,"name":"nobodyy","steam_id":76561198027735766,"connected_time":1122000000000,"state":"active","ping":72},{"user_id":287,"name":"SuperBob103","steam_id":76561199175360012,"connected_time":1861000000000,"state":"active","ping":54},{"user_id":274,"name":"capetanunito","steam_id":76561199364524852,"connected_time":2357000000000,"state":"active","ping":102},{"user_id":282,"name":"Kamanie","steam_id":76561198135448255,"connected_time":2243000000000,"state":"active","ping":72},{"user_id":309,"name":"Lorenzo Lovers","steam_id":76561198073973581,"connected_time":272000000000,"state":"active","ping":96},{"user_id":296,"name":"fart poo penis","steam_id":76561199008015028,"connected_time":1095000000000,"state":"active","ping":46},{"user_id":304,"name":"The Green Uncle","steam_id":76561198257163156,"connected_time":435000000000,"state":"active","ping":76},{"user_id":277,"name":"crit hit!","steam_id":76561198112693639,"connected_time":2324000000000,"state":"active","ping":67},{"user_id":299,"name":"Petros","steam_id":76561198088906975,"connected_time":883000000000,"state":"active","ping":63},{"user_id":298,"name":"WinRAR™","steam_id":76561198056522270,"connected_time":936000000000,"state":"active","ping":70},{"user_id":307,"name":"lore","steam_id":76561198120984188,"connected_time":405000000000,"state":"active","ping":82},{"user_id":254,"name":"🗻🎴Hadrian Malone🎴🗻","steam_id":76561198036151103,"connected_time":3908000000000,"state":"active","ping":61},{"user_id":292,"name":"Emir","steam_id":76561198113089831,"connected_time":1188000000000,"state":"active","ping":97},{"user_id":293,"name":"Jimmi Amareno","steam_id":76561198327750625,"connected_time":1139000000000,"state":"active","ping":42},{"user_id":288,"name":"sam-","steam_id":76561198013770973,"connected_time":1628000000000,"state":"active","ping":71},{"user_id":295,"name":"Lukas","steam_id":76561198009118452,"connected_time":1108000000000,"state":"active","ping":75},{"user_id":297,"name":"Frenchie","steam_id":76561198178298931,"connected_time":1082000000000,"state":"active","ping":45},{"user_id":301,"name":"Donutella","steam_id":76561198193972491,"connected_time":464000000000,"state":"active","ping":47},{"user_id":306,"name":"azzy","steam_id":76561198061293740,"connected_time":430000000000,"state":"active","ping":80},{"user_id":311,"name":"Thing","steam_id":76561197997904403,"connected_time":87000000000,"state":"active","ping":112}]},{"server_id":21,"name":"Uncletopia | London | 5 | All Maps","name_short":"lon-5","host":"lon-1.uk.uncletopia.com","port":27055,"enabled":true,"region":"eu","cc":"gb","latitude":51.509865,"longitude":-0.118092,"reserved":0,"last_update":"0001-01-01T00:00:00Z","name_a2s":"Uncletopia | London | 5 | All Maps","protocol":17,"map":"cp_dustbowl","folder":"tf","game":"Team Fortress","app_id":440,"player_count":23,"max_players":24,"Bots":0,"server_type":"Dedicated","server_os":"Linux","password":true,"vac":true,"version":"7961495","steam_id":85568392924742829,"keywords":["cp","nocrits","nodmgspread","uncletopia"],"game_id":440,"stv_port":27056,"stv_name":"Uncletopia | London | 5 | All Maps | STV","players":[{"user_id":10,"name":"ran is running","steam_id":76561199443185667,"connected_time":4914000000000,"state":"active","ping":127},{"user_id":63,"name":"GEP Gun","steam_id":76561197981821003,"connected_time":1020000000000,"state":"active","ping":60},{"user_id":12,"name":"DeterminedXD[HUN]","steam_id":76561199469006453,"connected_time":3935000000000,"state":"active","ping":107},{"user_id":14,"name":"Mabert","steam_id":76561198436058407,"connected_time":3024000000000,"state":"active","ping":80},{"user_id":73,"name":"glorbus","steam_id":76561198969544894,"connected_time":86000000000,"state":"active","ping":45},{"user_id":69,"name":"Avitz","steam_id":76561197986150359,"connected_time":387000000000,"state":"active","ping":44},{"user_id":58,"name":"concussion gaming","steam_id":76561198425494530,"connected_time":1126000000000,"state":"active","ping":130},{"user_id":18,"name":"Lola bunny","steam_id":76561198214149431,"connected_time":2802000000000,"state":"active","ping":45},{"user_id":20,"name":"LainBizkit","steam_id":76561199200708626,"connected_time":2714000000000,"state":"active","ping":99},{"user_id":21,"name":"Alcoholic Princess","steam_id":76561198208093880,"connected_time":2712000000000,"state":"active","ping":56},{"user_id":59,"name":"O B S E R V E R","steam_id":76561198397143311,"connected_time":1078000000000,"state":"active","ping":75},{"user_id":56,"name":"AudioFall","steam_id":76561198208814216,"connected_time":1183000000000,"state":"active","ping":49},{"user_id":24,"name":"Ledo","steam_id":76561198845775668,"connected_time":2658000000000,"state":"active","ping":128},{"user_id":60,"name":"Milk","steam_id":76561198039005763,"connected_time":1060000000000,"state":"active","ping":45},{"user_id":26,"name":"Windy Windo","steam_id":76561199222931747,"connected_time":2640000000000,"state":"active","ping":162},{"user_id":74,"name":"Mobster Tortoise","steam_id":76561199036837091,"connected_time":11000000000,"state":"spawning","ping":78},{"user_id":67,"name":"❤G a n K","steam_id":76561199125995565,"connected_time":758000000000,"state":"active","ping":65},{"user_id":29,"name":"fartcollector","steam_id":76561198048304703,"connected_time":2584000000000,"state":"active","ping":58},{"user_id":45,"name":"pretty dick peso","steam_id":76561198798177799,"connected_time":1740000000000,"state":"active","ping":101},{"user_id":39,"name":"Sylvanas","steam_id":76561198154904165,"connected_time":2280000000000,"state":"active","ping":123},{"user_id":62,"name":"hondjo","steam_id":76561198119324108,"connected_time":1041000000000,"state":"active","ping":45},{"user_id":37,"name":"emag live","steam_id":76561198047164140,"connected_time":2366000000000,"state":"active","ping":63},{"user_id":65,"name":"WonderOfU","steam_id":76561199172036471,"connected_time":973000000000,"state":"active","ping":57}]},{"server_id":22,"name":"Uncletopia | London | 6 | All Maps","name_short":"lon-6","host":"lon-1.uk.uncletopia.com","port":27065,"enabled":true,"region":"eu","cc":"gb","latitude":51.509865,"longitude":-0.118092,"reserved":0,"last_update":"0001-01-01T00:00:00Z","name_a2s":"Uncletopia | London | 6 | All Maps","protocol":17,"map":"cp_steel","folder":"tf","game":"Team Fortress","app_id":440,"player_count":24,"max_players":24,"Bots":0,"server_type":"Dedicated","server_os":"Linux","password":true,"vac":true,"version":"7961495","steam_id":85568392924742830,"keywords":["cp","nocrits","nodmgspread","uncletopia"],"game_id":440,"stv_port":27066,"stv_name":"Uncletopia | London | 6 | All Maps | STV","players":[{"user_id":70,"name":"[T]aKer","steam_id":76561198001778013,"connected_time":389000000000,"state":"active","ping":50},{"user_id":73,"name":"N . E . ㊉ . N","steam_id":76561198074131777,"connected_time":104000000000,"state":"active","ping":67},{"user_id":65,"name":"fence_","steam_id":76561198150386379,"connected_time":541000000000,"state":"active","ping":47},{"user_id":30,"name":"Pan Pan","steam_id":76561199074670515,"connected_time":2012000000000,"state":"active","ping":103},{"user_id":55,"name":"RLCrazyCat3","steam_id":76561197983757878,"connected_time":1635000000000,"state":"active","ping":63},{"user_id":32,"name":"?TheEnd","steam_id":76561198055280327,"connected_time":1985000000000,"state":"active","ping":66},{"user_id":71,"name":"AftiksPL","steam_id":76561198875182686,"connected_time":293000000000,"state":"active","ping":155},{"user_id":34,"name":"Bob Sacamano","steam_id":76561198085610701,"connected_time":1957000000000,"state":"active","ping":109},{"user_id":64,"name":"Dr. Funkenstein","steam_id":76561197977816210,"connected_time":660000000000,"state":"active","ping":68},{"user_id":36,"name":"StingyLettuce","steam_id":76561199010337406,"connected_time":1942000000000,"state":"active","ping":119},{"user_id":58,"name":"The Builder","steam_id":76561198403959663,"connected_time":1119000000000,"state":"active","ping":95},{"user_id":66,"name":"BELADIT","steam_id":76561198011911501,"connected_time":539000000000,"state":"active","ping":89},{"user_id":39,"name":"ДА ТИ ЗАЇБАВ","steam_id":76561198376403194,"connected_time":1921000000000,"state":"active","ping":95},{"user_id":41,"name":"Dolph","steam_id":76561199195783247,"connected_time":1911000000000,"state":"active","ping":123},{"user_id":67,"name":"jerf(portal 3)","steam_id":76561199213901239,"connected_time":491000000000,"state":"active","ping":45},{"user_id":60,"name":"ILoveMyMom420Blaze","steam_id":76561198981016492,"connected_time":1032000000000,"state":"active","ping":75},{"user_id":72,"name":"blazeeight","steam_id":76561198159456502,"connected_time":236000000000,"state":"active","ping":55},{"user_id":47,"name":"Silvestro","steam_id":76561198021660066,"connected_time":1736000000000,"state":"active","ping":100},{"user_id":48,"name":"Amayuri","steam_id":76561198068666784,"connected_time":1729000000000,"state":"active","ping":58},{"user_id":49,"name":"Real (Real)","steam_id":76561198323425034,"connected_time":1724000000000,"state":"active","ping":84},{"user_id":63,"name":"DrExplosive","steam_id":76561198063678579,"connected_time":786000000000,"state":"active","ping":38},{"user_id":51,"name":"Arecibo","steam_id":76561198014359615,"connected_time":1703000000000,"state":"active","ping":68},{"user_id":53,"name":"Grym","steam_id":76561198119397460,"connected_time":1684000000000,"state":"active","ping":53},{"user_id":69,"name":"GlueTasty {she/her}","steam_id":76561199086480891,"connected_time":477000000000,"state":"active","ping":86}]},{"server_id":40,"name":"Uncletopia | London | 7 | No Payload","name_short":"lon-7","host":"lon-1.uk.uncletopia.com","port":27075,"enabled":true,"region":"eu","cc":"gb","latitude":51.509865,"longitude":-0.118092,"reserved":0,"last_update":"0001-01-01T00:00:00Z","name_a2s":"Uncletopia | London | 7 | No Payload","protocol":17,"map":"ctf_well","folder":"tf","game":"Team Fortress","app_id":440,"player_count":0,"max_players":24,"Bots":0,"server_type":"Dedicated","server_os":"Linux","password":true,"vac":true,"version":"7961495","steam_id":85568392924964314,"keywords":["ctf","nocrits","nodmgspread","uncletopia"],"game_id":440,"stv_port":27076,"stv_name":"Uncletopia | London | 7 | No Payload | STV","players":null},{"server_id":41,"name":"Uncletopia | London | 8 | Community","name_short":"lon-8","host":"lon-1.uk.uncletopia.com","port":27085,"enabled":true,"region":"eu","cc":"gb","latitude":51.509865,"longitude":-0.118092,"reserved":0,"last_update":"0001-01-01T00:00:00Z","name_a2s":"Uncletopia | London | 8 | Community","protocol":17,"map":"workshop/pl_cactuscanyon_redux_final2.ugc2579644293","folder":"tf","game":"Team Fortress","app_id":440,"player_count":24,"max_players":24,"Bots":0,"server_type":"Dedicated","server_os":"Linux","password":true,"vac":true,"version":"7961495","steam_id":85568392924964315,"keywords":["nocrits","nodmgspread","payload","uncletopia"],"game_id":440,"stv_port":27086,"stv_name":"Uncletopia | London | 8 | Community | STV","players":[{"user_id":165,"name":"akakez","steam_id":76561198095432821,"connected_time":7261000000000,"state":"active","ping":116},{"user_id":284,"name":"God's Goofiest Goober","steam_id":76561198103175187,"connected_time":872000000000,"state":"active","ping":78},{"user_id":243,"name":"he just like me fr fr","steam_id":76561198119372509,"connected_time":2943000000000,"state":"active","ping":81},{"user_id":275,"name":"Plop_","steam_id":76561198112567921,"connected_time":1482000000000,"state":"active","ping":42},{"user_id":276,"name":"Morbidly A Beast","steam_id":76561198251578274,"connected_time":1473000000000,"state":"active","ping":102},{"user_id":271,"name":"Aven","steam_id":76561198974343597,"connected_time":1689000000000,"state":"active","ping":86},{"user_id":270,"name":"Mc Cheezy","steam_id":76561198834780242,"connected_time":1852000000000,"state":"active","ping":107},{"user_id":285,"name":"shix","steam_id":76561198819968777,"connected_time":697000000000,"state":"active","ping":84},{"user_id":219,"name":"slug","steam_id":76561198065902089,"connected_time":4112000000000,"state":"active","ping":73},{"user_id":259,"name":"Traylie","steam_id":76561198050797796,"connected_time":2118000000000,"state":"active","ping":61},{"user_id":261,"name":"pakin157","steam_id":76561198035125667,"connected_time":2098000000000,"state":"active","ping":94},{"user_id":269,"name":"Blenderman179","steam_id":76561198091096668,"connected_time":1956000000000,"state":"active","ping":58},{"user_id":286,"name":"Penis Contortionist","steam_id":76561198073663784,"connected_time":686000000000,"state":"active","ping":39},{"user_id":278,"name":"crispy Robespierre","steam_id":76561198072881845,"connected_time":1442000000000,"state":"active","ping":74},{"user_id":263,"name":"Metalizer","steam_id":76561198099595082,"connected_time":2089000000000,"state":"active","ping":84},{"user_id":237,"name":"PEEPEEPOOPOOGOOBER JR","steam_id":76561198049687408,"connected_time":3115000000000,"state":"active","ping":40},{"user_id":291,"name":"https.oni","steam_id":76561199436728580,"connected_time":452000000000,"state":"active","ping":110},{"user_id":282,"name":"RuinLucky","steam_id":76561199481172481,"connected_time":1221000000000,"state":"active","ping":156},{"user_id":292,"name":"DragonLord","steam_id":76561198074279225,"connected_time":70000000000,"state":"active","ping":45},{"user_id":280,"name":"Krabs","steam_id":76561198161679477,"connected_time":1350000000000,"state":"active","ping":45},{"user_id":272,"name":"Sergeant_cross","steam_id":76561198148270425,"connected_time":1687000000000,"state":"active","ping":66},{"user_id":273,"name":"joachym","steam_id":76561198428579761,"connected_time":1679000000000,"state":"active","ping":75},{"user_id":290,"name":"Voxel","steam_id":76561199225333422,"connected_time":521000000000,"state":"active","ping":111},{"user_id":283,"name":"Shark","steam_id":76561198205226501,"connected_time":1221000000000,"state":"active","ping":152}]},{"server_id":300,"name":"Uncletopia | Montréal | 1 | All Maps","name_short":"mtl-1","host":"mtl-1.ca.uncletopia.com","port":27015,"enabled":true,"region":"us-east","cc":"ca","latitude":45.50889,"longitude":-73.56167,"reserved":0,"last_update":"0001-01-01T00:00:00Z","name_a2s":"Uncletopia | Montréal | 1 | All Maps","protocol":17,"map":"pl_pier","folder":"tf","game":"Team Fortress","app_id":440,"player_count":0,"max_players":24,"Bots":0,"server_type":"Dedicated","server_os":"Linux","password":true,"vac":true,"version":"7961495","steam_id":85568392924500087,"keywords":["nocrits","nodmgspread","payload","uncletopia"],"game_id":440,"stv_port":27016,"stv_name":"Uncletopia | Montréal | 1 | All Maps | STV","players":null},{"server_id":301,"name":"Uncletopia | Montréal | 2 | All Maps","name_short":"mtl-2","host":"mtl-1.ca.uncletopia.com","port":27025,"enabled":true,"region":"us-east","cc":"ca","latitude":45.50889,"longitude":-73.56167,"reserved":0,"last_update":"0001-01-01T00:00:00Z","name_a2s":"Uncletopia | Montréal | 2 | All Maps","protocol":17,"map":"pl_upward","folder":"tf","game":"Team Fortress","app_id":440,"player_count":7,"max_players":24,"Bots":0,"server_type":"Dedicated","server_os":"Linux","password":true,"vac":true,"version":"7961495","steam_id":85568392924500088,"keywords":["nocrits","nodmgspread","payload","uncletopia"],"game_id":440,"stv_port":27026,"stv_name":"Uncletopia | Montréal | 2 | All Maps | STV","players":[{"user_id":13,"name":"machine embodiment","steam_id":76561199081837220,"connected_time":148000000000,"state":"active","ping":101},{"user_id":14,"name":"test gamer please ignore","steam_id":76561198007464245,"connected_time":124000000000,"state":"active","ping":82},{"user_id":15,"name":"Game_Stormer","steam_id":76561199098016096,"connected_time":117000000000,"state":"spawning","ping":121},{"user_id":9,"name":"Bee_Pirate","steam_id":76561199000599111,"connected_time":324000000000,"state":"active","ping":50},{"user_id":16,"name":"Mr_Web (He/They)","steam_id":76561198815562258,"connected_time":5000000000,"state":"spawning","ping":74},{"user_id":11,"name":"peppino","steam_id":76561198389398163,"connected_time":227000000000,"state":"active","ping":72},{"user_id":12,"name":"Spamton Plush [At half price!]","steam_id":76561198799704762,"connected_time":193000000000,"state":"active","ping":61}]},{"server_id":302,"name":"Uncletopia | Montréal | 3 | All Maps","name_short":"mtl-3","host":"mtl-1.ca.uncletopia.com","port":27035,"enabled":true,"region":"us-east","cc":"ca","latitude":45.50889,"longitude":-73.56167,"reserved":0,"last_update":"0001-01-01T00:00:00Z","name_a2s":"Uncletopia | Montréal | 3 | All Maps","protocol":17,"map":"koth_cascade","folder":"tf","game":"Team Fortress","app_id":440,"player_count":0,"max_players":24,"Bots":0,"server_type":"Dedicated","server_os":"Linux","password":true,"vac":true,"version":"7961495","steam_id":85568392924500089,"keywords":["cp","nocrits","nodmgspread","uncletopia"],"game_id":440,"stv_port":27036,"stv_name":"Uncletopia | Montréal | 3 | All Maps | STV","players":null},{"server_id":303,"name":"Uncletopia | Montréal | 4 | No Payload","name_short":"mtl-4","host":"mtl-1.ca.uncletopia.com","port":27045,"enabled":true,"region":"us-east","cc":"ca","latitude":45.50889,"longitude":-73.56167,"reserved":0,"last_update":"0001-01-01T00:00:00Z","name_a2s":"Uncletopia | Montréal | 4 | No Payload","protocol":17,"map":"koth_lakeside_final","folder":"tf","game":"Team Fortress","app_id":440,"player_count":0,"max_players":24,"Bots":0,"server_type":"Dedicated","server_os":"Linux","password":true,"vac":true,"version":"7961495","steam_id":85568392924500090,"keywords":["cp","nocrits","nodmgspread","uncletopia"],"game_id":440,"stv_port":27046,"stv_name":"Uncletopia | Montréal | 4 | No Payload | STV","players":null},{"server_id":13,"name":"Uncletopia | New York City | 1 | All Maps","name_short":"nyc-1","host":"nyc-1.us.uncletopia.com","port":27015,"enabled":true,"region":"us-east","cc":"us","latitude":40.73061,"longitude":-73.93524,"reserved":0,"last_update":"0001-01-01T00:00:00Z","name_a2s":"Uncletopia | New York City | 1 | All Maps","protocol":17,"map":"pl_upward","folder":"tf","game":"Team Fortress","app_id":440,"player_count":0,"max_players":24,"Bots":0,"server_type":"Dedicated","server_os":"Linux","password":true,"vac":true,"version":"7961495","steam_id":85568392924469993,"keywords":["nocrits","nodmgspread","payload","uncletopia"],"game_id":440,"stv_port":27016,"stv_name":"Uncletopia | New York City | 1 | All Maps | STV","players":null},{"server_id":14,"name":"Uncletopia | New York City | 2 | All Maps","name_short":"nyc-2","host":"nyc-1.us.uncletopia.com","port":27025,"enabled":true,"region":"us-east","cc":"us","latitude":40.73061,"longitude":-73.93524,"reserved":0,"last_update":"0001-01-01T00:00:00Z","name_a2s":"Uncletopia | New York City | 2 | All Maps","protocol":17,"map":"cp_dustbowl","folder":"tf","game":"Team Fortress","app_id":440,"player_count":17,"max_players":24,"Bots":0,"server_type":"Dedicated","server_os":"Linux","password":true,"vac":true,"version":"7961495","steam_id":85568392924469994,"keywords":["cp","nocrits","nodmgspread","uncletopia"],"game_id":440,"stv_port":27026,"stv_name":"Uncletopia | New York City | 2 | All Maps | STV","players":[{"user_id":180,"name":"Unk","steam_id":76561198031717617,"connected_time":1842000000000,"state":"active","ping":30},{"user_id":153,"name":"triple_range_merge","steam_id":76561198991225026,"connected_time":4344000000000,"state":"active","ping":56},{"user_id":199,"name":"Gailus","steam_id":76561198319509387,"connected_time":524000000000,"state":"active","ping":58},{"user_id":186,"name":"fred durst (real)","steam_id":76561198202436474,"connected_time":1571000000000,"state":"active","ping":88},{"user_id":167,"name":"Brenda Delam","steam_id":76561198006983771,"connected_time":3198000000000,"state":"active","ping":66},{"user_id":116,"name":"ThatGamingKiwi","steam_id":76561199170522237,"connected_time":6995000000000,"state":"spawning","ping":37},{"user_id":178,"name":"GaiBerd","steam_id":76561198177100634,"connected_time":2083000000000,"state":"active","ping":45},{"user_id":205,"name":"[SK] Punish ♥ 牧濑红莉栖","steam_id":76561198207987376,"connected_time":98000000000,"state":"active","ping":60},{"user_id":207,"name":"flr","steam_id":76561198249327786,"connected_time":54000000000,"state":"connecting","ping":513},{"user_id":208,"name":"cppie","steam_id":76561198418564403,"connected_time":15000000000,"state":"spawning","ping":69},{"user_id":193,"name":"Blobbyfish","steam_id":76561198822962650,"connected_time":932000000000,"state":"active","ping":59},{"user_id":185,"name":"Norman","steam_id":76561198850363221,"connected_time":1581000000000,"state":"active","ping":71},{"user_id":196,"name":"Sen","steam_id":76561198038686030,"connected_time":817000000000,"state":"active","ping":67},{"user_id":203,"name":"artichoke","steam_id":76561198980994364,"connected_time":158000000000,"state":"active","ping":82},{"user_id":190,"name":"Mike","steam_id":76561198827756158,"connected_time":1549000000000,"state":"active","ping":156},{"user_id":195,"name":"tydogzilla","steam_id":76561198054254518,"connected_time":838000000000,"state":"active","ping":42},{"user_id":177,"name":"schteewpid rat","steam_id":76561199262600666,"connected_time":2294000000000,"state":"active","ping":85}]},{"server_id":15,"name":"Uncletopia | New York City | 3 | Stopwatch Beta","name_short":"nyc-3","host":"nyc-1.us.uncletopia.com","port":27035,"enabled":true,"region":"us-east","cc":"us","latitude":40.73061,"longitude":-73.93524,"reserved":0,"last_update":"0001-01-01T00:00:00Z","name_a2s":"Uncletopia | New York City | 3 | Stopwatch Beta","protocol":17,"map":"cp_sunshine","folder":"tf","game":"Team Fortress","app_id":440,"player_count":22,"max_players":24,"Bots":0,"server_type":"Dedicated","server_os":"Linux","password":true,"vac":true,"version":"7961495","steam_id":85568392924742820,"keywords":["cp","nocrits","nodmgspread","uncletopia"],"game_id":440,"stv_port":27036,"stv_name":"Uncletopia | New York City | 3 | Stopwatch Beta | STV","players":[{"user_id":15,"name":"Nice21","steam_id":76561199427548141,"connected_time":2508000000000,"state":"active","ping":74},{"user_id":6,"name":"ssjrone600","steam_id":76561199208263809,"connected_time":3221000000000,"state":"active","ping":62},{"user_id":7,"name":"yer_nerd","steam_id":76561199435454093,"connected_time":3221000000000,"state":"active","ping":53},{"user_id":57,"name":"exotic smishes","steam_id":76561199046490785,"connected_time":107000000000,"state":"active","ping":74},{"user_id":56,"name":"the.land.of.avalon","steam_id":76561198245431668,"connected_time":420000000000,"state":"active","ping":75},{"user_id":10,"name":"Muffn","steam_id":76561198797691753,"connected_time":2975000000000,"state":"active","ping":70},{"user_id":18,"name":"Make u rage","steam_id":76561198262094900,"connected_time":2344000000000,"state":"active","ping":58},{"user_id":12,"name":"keffers","steam_id":76561198202338796,"connected_time":2882000000000,"state":"active","ping":77},{"user_id":53,"name":"Scrux","steam_id":76561198129763115,"connected_time":558000000000,"state":"active","ping":128},{"user_id":16,"name":"Flyp","steam_id":76561198066104509,"connected_time":2455000000000,"state":"active","ping":55},{"user_id":58,"name":"Hilo Weredeer","steam_id":76561198288403566,"connected_time":10000000000,"state":"active","ping":209},{"user_id":43,"name":"Arcane","steam_id":76561198093439807,"connected_time":1037000000000,"state":"active","ping":73},{"user_id":44,"name":"tasty","steam_id":76561198083839061,"connected_time":953000000000,"state":"active","ping":60},{"user_id":23,"name":"Shattered Glass","steam_id":76561198116835391,"connected_time":2195000000000,"state":"active","ping":89},{"user_id":25,"name":"NewerGuy","steam_id":76561198968058652,"connected_time":2117000000000,"state":"active","ping":115},{"user_id":49,"name":"nilftb","steam_id":76561198161952186,"connected_time":776000000000,"state":"active","ping":55},{"user_id":45,"name":"jAIRO","steam_id":76561198317518864,"connected_time":914000000000,"state":"active","ping":70},{"user_id":33,"name":"Anonymous_Cletus_TTV","steam_id":76561198243740340,"connected_time":1857000000000,"state":"active","ping":73},{"user_id":54,"name":"Kapu1178","steam_id":76561198107212766,"connected_time":527000000000,"state":"active","ping":52},{"user_id":39,"name":"james may","steam_id":76561198043857339,"connected_time":1607000000000,"state":"active","ping":106},{"user_id":55,"name":"GuyGoom","steam_id":76561198254522178,"connected_time":462000000000,"state":"active","ping":71},{"user_id":47,"name":"IanTheAwsm","steam_id":76561198093031738,"connected_time":892000000000,"state":"active","ping":118}]},{"server_id":16,"name":"Uncletopia | New York City | 4 | Community","name_short":"nyc-4","host":"nyc-1.us.uncletopia.com","port":27045,"enabled":true,"region":"us-east","cc":"us","latitude":40.73061,"longitude":-73.93524,"reserved":0,"last_update":"0001-01-01T00:00:00Z","name_a2s":"Uncletopia | New York City | 4 | Community","protocol":17,"map":"koth_lakeside_final","folder":"tf","game":"Team Fortress","app_id":440,"player_count":0,"max_players":24,"Bots":0,"server_type":"Dedicated","server_os":"Linux","password":true,"vac":true,"version":"7961495","steam_id":85568392924742821,"keywords":["cp","nocrits","nodmgspread","uncletopia"],"game_id":440,"stv_port":27046,"stv_name":"Uncletopia | New York City | 4 | Community | STV","players":null},{"server_id":142,"name":"Uncletopia | São Paulo | 1 | All Maps","name_short":"sao-1","host":"sao-1.br.uncletopia.com","port":27015,"enabled":true,"region":"sa","cc":"br","latitude":-23.533773,"longitude":-46.62529,"reserved":0,"last_update":"0001-01-01T00:00:00Z","name_a2s":"Uncletopia | São Paulo | 1 | All Maps","protocol":17,"map":"koth_highpass","folder":"tf","game":"Team Fortress","app_id":440,"player_count":0,"max_players":24,"Bots":0,"server_type":"Dedicated","server_os":"Linux","password":true,"vac":true,"version":"7961495","steam_id":85568392924469996,"keywords":["cp","nocrits","nodmgspread","uncletopia"],"game_id":440,"stv_port":27016,"stv_name":"Uncletopia | São Paulo | 1 | All Maps | STV","players":null},{"server_id":143,"name":"Uncletopia | São Paulo | 2 | Community","name_short":"sao-2","host":"sao-2.br.uncletopia.com","port":27015,"enabled":true,"region":"sa","cc":"br","latitude":-23.533773,"longitude":-46.62529,"reserved":0,"last_update":"0001-01-01T00:00:00Z","name_a2s":"Uncletopia | São Paulo | 2 | Community","protocol":17,"map":"workshop/pl_barnblitz_pro7.ugc582280235","folder":"tf","game":"Team Fortress","app_id":440,"player_count":0,"max_players":24,"Bots":0,"server_type":"Dedicated","server_os":"Linux","password":true,"vac":true,"version":"7961495","steam_id":85568392924485349,"keywords":["nocrits","nodmgspread","payload","uncletopia"],"game_id":440,"stv_port":27016,"stv_name":"Uncletopia | São Paulo | 2 | Community | STV","players":null},{"server_id":7,"name":"Uncletopia | Seattle | 1 | All Maps","name_short":"sea-1","host":"sea-1.us.uncletopia.com","port":27015,"enabled":true,"region":"us-west","cc":"us","latitude":47.608013,"longitude":-122.33517,"reserved":0,"last_update":"0001-01-01T00:00:00Z","name_a2s":"Uncletopia | Seattle | 1 | All Maps","protocol":17,"map":"cp_sunshine","folder":"tf","game":"Team Fortress","app_id":440,"player_count":24,"max_players":24,"Bots":0,"server_type":"Dedicated","server_os":"Linux","password":true,"vac":true,"version":"7961495","steam_id":85568392924469997,"keywords":["cp","nocrits","nodmgspread","uncletopia"],"game_id":440,"stv_port":27016,"stv_name":"Uncletopia | Seattle | 1 | All Maps | STV","players":[{"user_id":146,"name":"Lesbian Futa Mommy","steam_id":76561198130479030,"connected_time":2029000000000,"state":"active","ping":56},{"user_id":147,"name":"big fish","steam_id":76561198186479818,"connected_time":2007000000000,"state":"active","ping":83},{"user_id":137,"name":"cthonic cvnt","steam_id":76561198039604491,"connected_time":2773000000000,"state":"active","ping":48},{"user_id":150,"name":"Starkiller","steam_id":76561198101643120,"connected_time":1827000000000,"state":"active","ping":56},{"user_id":159,"name":"Ashanti Clan","steam_id":76561198032651105,"connected_time":1034000000000,"state":"active","ping":55},{"user_id":161,"name":"Saccaed","steam_id":76561197977151640,"connected_time":850000000000,"state":"active","ping":45},{"user_id":99,"name":"Daz","steam_id":76561198041431938,"connected_time":4043000000000,"state":"active","ping":50},{"user_id":163,"name":"blue duck the 2nd","steam_id":76561198263142765,"connected_time":738000000000,"state":"active","ping":188},{"user_id":165,"name":"Emily50AE","steam_id":76561198088619665,"connected_time":684000000000,"state":"active","ping":87},{"user_id":156,"name":"Dreamzapp","steam_id":76561199084936632,"connected_time":1400000000000,"state":"active","ping":96},{"user_id":149,"name":"De Monki","steam_id":76561198964210411,"connected_time":1887000000000,"state":"active","ping":87},{"user_id":158,"name":"Meet The Kazoo","steam_id":76561199229748300,"connected_time":1301000000000,"state":"active","ping":92},{"user_id":171,"name":"TheMagicMrWaffle","steam_id":76561198104357256,"connected_time":51000000000,"state":"active","ping":68},{"user_id":153,"name":"Meso","steam_id":76561199088153190,"connected_time":1781000000000,"state":"active","ping":63},{"user_id":170,"name":"SubWay #SaveTf2","steam_id":76561198336722096,"connected_time":478000000000,"state":"active","ping":89},{"user_id":166,"name":"Shenanigan","steam_id":76561198941203517,"connected_time":664000000000,"state":"active","ping":192},{"user_id":167,"name":"e doctor","steam_id":76561198081851446,"connected_time":639000000000,"state":"active","ping":90},{"user_id":96,"name":"Skoad","steam_id":76561198104650528,"connected_time":4696000000000,"state":"active","ping":65},{"user_id":155,"name":"Healerblade","steam_id":76561197999816472,"connected_time":1448000000000,"state":"active","ping":85},{"user_id":125,"name":"Laney","steam_id":76561199048555878,"connected_time":2984000000000,"state":"active","ping":58},{"user_id":172,"name":"ms. anthrope","steam_id":76561198063533082,"connected_time":29000000000,"state":"active","ping":38},{"user_id":164,"name":"♫ Gilgion","steam_id":76561198050297529,"connected_time":737000000000,"state":"active","ping":45},{"user_id":169,"name":"Mr. DeLarge","steam_id":76561198336820066,"connected_time":614000000000,"state":"active","ping":60},{"user_id":157,"name":"♥ President Shitfart ♥","steam_id":76561198141819053,"connected_time":1335000000000,"state":"active","ping":62}]},{"server_id":119,"name":"Uncletopia | Seattle | 2 | All Maps","name_short":"sea-2","host":"sea-1.us.uncletopia.com","port":27025,"enabled":true,"region":"us-west","cc":"us","latitude":47.608013,"longitude":-122.33517,"reserved":0,"last_update":"0001-01-01T00:00:00Z","name_a2s":"Uncletopia | Seattle | 2 | All Maps","protocol":17,"map":"cp_process_final","folder":"tf","game":"Team Fortress","app_id":440,"player_count":0,"max_players":24,"Bots":0,"server_type":"Dedicated","server_os":"Linux","password":true,"vac":true,"version":"7961495","steam_id":85568392924469998,"keywords":["cp","nocrits","nodmgspread","uncletopia"],"game_id":440,"stv_port":27026,"stv_name":"Uncletopia | Seattle | 2 | All Maps | STV","players":null},{"server_id":406,"name":"Uncletopia | Seattle | 3 | Stopwatch Beta","name_short":"sea-3","host":"sea-1.us.uncletopia.com","port":27035,"enabled":true,"region":"us-west","cc":"us","latitude":47.608013,"longitude":-122.33517,"reserved":0,"last_update":"0001-01-01T00:00:00Z","name_a2s":"Uncletopia | Seattle | 3 | Stopwatch Beta","protocol":17,"map":"koth_lakeside_final","folder":"tf","game":"Team Fortress","app_id":440,"player_count":0,"max_players":24,"Bots":0,"server_type":"Dedicated","server_os":"Linux","password":true,"vac":true,"version":"7961495","steam_id":85568392924515217,"keywords":["cp","nocrits","nodmgspread","uncletopia"],"game_id":440,"stv_port":27036,"stv_name":"Uncletopia | Seattle | 3 | Stopwatch Beta | STV","players":null},{"server_id":17,"name":"Uncletopia | San Francisco | 1 | All Maps","name_short":"sfo-1","host":"sfo-1.us.uncletopia.com","port":27015,"enabled":true,"region":"us-west","cc":"us","latitude":37.77397,"longitude":-122.4313,"reserved":0,"last_update":"0001-01-01T00:00:00Z","name_a2s":"Uncletopia | San Francisco | 1 | All Maps","protocol":17,"map":"koth_viaduct","folder":"tf","game":"Team Fortress","app_id":440,"player_count":0,"max_players":24,"Bots":0,"server_type":"Dedicated","server_os":"Linux","password":true,"vac":true,"version":"7961495","steam_id":85568392924469999,"keywords":["cp","nocrits","nodmgspread","uncletopia"],"game_id":440,"stv_port":27016,"stv_name":"Uncletopia | San Francisco | 1 | All Maps | STV","players":null},{"server_id":18,"name":"Uncletopia | San Francisco | 2 | All Maps","name_short":"sfo-2","host":"sfo-1.us.uncletopia.com","port":27025,"enabled":true,"region":"us-west","cc":"us","latitude":37.77397,"longitude":-122.4313,"reserved":0,"last_update":"0001-01-01T00:00:00Z","name_a2s":"Uncletopia | San Francisco | 2 | All Maps","protocol":17,"map":"pl_pier","folder":"tf","game":"Team Fortress","app_id":440,"player_count":0,"max_players":24,"Bots":0,"server_type":"Dedicated","server_os":"Linux","password":true,"vac":true,"version":"7961495","steam_id":85568392924470000,"keywords":["nocrits","nodmgspread","payload","uncletopia"],"game_id":440,"stv_port":27026,"stv_name":"Uncletopia | San Francisco | 2 | All Maps | STV","players":null},{"server_id":19,"name":"Uncletopia | San Francisco | 3 | Stopwatch Beta","name_short":"sfo-3","host":"sfo-1.us.uncletopia.com","port":27035,"enabled":true,"region":"us-west","cc":"us","latitude":37.77397,"longitude":-122.4313,"reserved":0,"last_update":"0001-01-01T00:00:00Z","name_a2s":"Uncletopia | San Francisco | 3 | Stopwatch Beta","protocol":17,"map":"pl_borneo","folder":"tf","game":"Team Fortress","app_id":440,"player_count":0,"max_players":24,"Bots":0,"server_type":"Dedicated","server_os":"Linux","password":true,"vac":true,"version":"7961495","steam_id":85568392924742824,"keywords":["nocrits","nodmgspread","payload","uncletopia"],"game_id":440,"stv_port":27036,"stv_name":"Uncletopia | San Francisco | 3 | Stopwatch Beta | STV","players":null},{"server_id":20,"name":"Uncletopia | San Francisco | 4 | Community","name_short":"sfo-4","host":"sfo-1.us.uncletopia.com","port":27045,"enabled":true,"region":"us-west","cc":"us","latitude":37.77397,"longitude":-122.4313,"reserved":0,"last_update":"0001-01-01T00:00:00Z","name_a2s":"Uncletopia | San Francisco | 4 | Community","protocol":17,"map":"koth_viaduct","folder":"tf","game":"Team Fortress","app_id":440,"player_count":0,"max_players":24,"Bots":0,"server_type":"Dedicated","server_os":"Linux","password":true,"vac":true,"version":"7961495","steam_id":85568392924742826,"keywords":["cp","nocrits","nodmgspread","uncletopia"],"game_id":440,"stv_port":27046,"stv_name":"Uncletopia | San Francisco | 4 | Community | STV","players":null},{"server_id":141,"name":"Uncletopia | Sydney | 1 | All Maps","name_short":"syd-1","host":"syd-1.au.uncletopia.com","port":27015,"enabled":true,"region":"au","cc":"au","latitude":-33.865143,"longitude":151.2099,"reserved":0,"last_update":"0001-01-01T00:00:00Z","name_a2s":"Uncletopia | Sydney | 1 | All Maps","protocol":17,"map":"plr_hightower","folder":"tf","game":"Team Fortress","app_id":440,"player_count":0,"max_players":24,"Bots":0,"server_type":"Dedicated","server_os":"Linux","password":true,"vac":true,"version":"7961495","steam_id":85568392924470001,"keywords":["nocrits","nodmgspread","payload","uncletopia"],"game_id":440,"stv_port":27016,"stv_name":"Uncletopia | Sydney | 1 | All Maps | STV","players":null},{"server_id":123,"name":"Uncletopia | Sydney | 2 | All Maps","name_short":"syd-2","host":"syd-1.au.uncletopia.com","port":27025,"enabled":true,"region":"au","cc":"au","latitude":-33.865143,"longitude":151.2099,"reserved":0,"last_update":"0001-01-01T00:00:00Z","name_a2s":"Uncletopia | Sydney | 2 | All Maps","protocol":17,"map":"pl_swiftwater_final1","folder":"tf","game":"Team Fortress","app_id":440,"player_count":0,"max_players":24,"Bots":0,"server_type":"Dedicated","server_os":"Linux","password":true,"vac":true,"version":"7961495","steam_id":85568392924470002,"keywords":["nocrits","nodmgspread","payload","uncletopia"],"game_id":440,"stv_port":27026,"stv_name":"Uncletopia | Sydney | 2 | All Maps | STV","players":null},{"server_id":395,"name":"Uncletopia | Sydney | 3 | All Maps","name_short":"syd-3","host":"syd-1.au.uncletopia.com","port":27035,"enabled":true,"region":"au","cc":"au","latitude":-33.865143,"longitude":151.2099,"reserved":0,"last_update":"0001-01-01T00:00:00Z","name_a2s":"Uncletopia | Sydney | 3 | All Maps","protocol":17,"map":"cp_dustbowl","folder":"tf","game":"Team Fortress","app_id":440,"player_count":0,"max_players":24,"Bots":0,"server_type":"Dedicated","server_os":"Linux","password":true,"vac":true,"version":"7961495","steam_id":85568392925194467,"keywords":["cp","nocrits","nodmgspread","uncletopia"],"game_id":440,"stv_port":27036,"stv_name":"Uncletopia | Sydney | 3 | All Maps | STV","players":null},{"server_id":396,"name":"Uncletopia | Sydney | 4 | All Maps","name_short":"syd-4","host":"syd-1.au.uncletopia.com","port":27045,"enabled":true,"region":"au","cc":"au","latitude":-33.865143,"longitude":151.2099,"reserved":0,"last_update":"0001-01-01T00:00:00Z","name_a2s":"Uncletopia | Sydney | 4 | All Maps","protocol":17,"map":"cp_mountainlab","folder":"tf","game":"Team Fortress","app_id":440,"player_count":0,"max_players":24,"Bots":0,"server_type":"Dedicated","server_os":"Linux","password":true,"vac":true,"version":"7961495","steam_id":85568392925397958,"keywords":["cp","nocrits","nodmgspread","uncletopia"],"game_id":440,"stv_port":27046,"stv_name":"Uncletopia | Sydney | 4 | All Maps | STV","players":null},{"server_id":58,"name":"Uncletopia | Sydney | 5 | Stopwatch Beta","name_short":"syd-5","host":"syd-1.au.uncletopia.com","port":27055,"enabled":true,"region":"au","cc":"au","latitude":-33.865143,"longitude":151.2099,"reserved":0,"last_update":"0001-01-01T00:00:00Z","name_a2s":"Uncletopia | Sydney | 5 | Stopwatch Beta","protocol":17,"map":"koth_viaduct","folder":"tf","game":"Team Fortress","app_id":440,"player_count":0,"max_players":24,"Bots":0,"server_type":"Dedicated","server_os":"Linux","password":true,"vac":true,"version":"7961495","steam_id":85568392925397959,"keywords":["cp","nocrits","nodmgspread","uncletopia"],"game_id":440,"stv_port":27056,"stv_name":"Uncletopia | Sydney | 5 | Stopwatch Beta | STV","players":null},{"server_id":59,"name":"Uncletopia | Sydney | 6 | Community","name_short":"syd-6","host":"syd-1.au.uncletopia.com","port":27065,"enabled":true,"region":"au","cc":"au","latitude":-33.865143,"longitude":151.2099,"reserved":0,"last_update":"0001-01-01T00:00:00Z","name_a2s":"Uncletopia | Sydney | 6 | Community","protocol":17,"map":"koth_cascade","folder":"tf","game":"Team Fortress","app_id":440,"player_count":0,"max_players":24,"Bots":0,"server_type":"Dedicated","server_os":"Linux","password":true,"vac":true,"version":"7961495","steam_id":85568392925397960,"keywords":["cp","nocrits","nodmgspread","uncletopia"],"game_id":440,"stv_port":27066,"stv_name":"Uncletopia | Sydney | 6 | Community | STV","players":null},{"server_id":49,"name":"Uncletopia | Warsaw | 1 | All Maps","name_short":"waw-1","host":"waw-1.pl.uncletopia.com","port":27015,"enabled":true,"region":"eu","cc":"pl","latitude":52.2297,"longitude":21.017532,"reserved":0,"last_update":"0001-01-01T00:00:00Z","name_a2s":"Uncletopia | Warsaw | 1 | All Maps","protocol":17,"map":"koth_highpass","folder":"tf","game":"Team Fortress","app_id":440,"player_count":0,"max_players":24,"Bots":0,"server_type":"Dedicated","server_os":"Linux","password":true,"vac":true,"version":"7961495","steam_id":85568392925397850,"keywords":["cp","nocrits","nodmgspread","uncletopia"],"game_id":440,"stv_port":27016,"stv_name":"Uncletopia | Warsaw | 1 | All Maps | STV","players":null},{"server_id":50,"name":"Uncletopia | Warsaw | 2 | All Maps","name_short":"waw-2","host":"waw-1.pl.uncletopia.com","port":27025,"enabled":true,"region":"eu","cc":"pl","latitude":52.2297,"longitude":21.017532,"reserved":0,"last_update":"0001-01-01T00:00:00Z","name_a2s":"Uncletopia | Warsaw | 2 | All Maps","protocol":17,"map":"cp_dustbowl","folder":"tf","game":"Team Fortress","app_id":440,"player_count":23,"max_players":24,"Bots":0,"server_type":"Dedicated","server_os":"Linux","password":true,"vac":true,"version":"7961495","steam_id":85568392925397851,"keywords":["cp","nocrits","nodmgspread","uncletopia"],"game_id":440,"stv_port":27026,"stv_name":"Uncletopia | Warsaw | 2 | All Maps | STV","players":[{"user_id":431,"name":"McMonty","steam_id":76561198028973788,"connected_time":607000000000,"state":"active","ping":85},{"user_id":434,"name":"c0mpaz","steam_id":76561198165292894,"connected_time":367000000000,"state":"active","ping":89},{"user_id":438,"name":"tired","steam_id":76561198046838168,"connected_time":237000000000,"state":"active","ping":61},{"user_id":278,"name":"Rambi","steam_id":76561199058078505,"connected_time":10043000000000,"state":"active","ping":127},{"user_id":448,"name":"♥ Cirno ♥","steam_id":76561198834982738,"connected_time":54000000000,"state":"active","ping":71},{"user_id":439,"name":"gup","steam_id":76561198311044984,"connected_time":224000000000,"state":"active","ping":71},{"user_id":447,"name":"DribSitoop","steam_id":76561198020597104,"connected_time":152000000000,"state":"active","ping":80},{"user_id":252,"name":"Baiterz","steam_id":76561198030815786,"connected_time":12275000000000,"state":"active","ping":75},{"user_id":426,"name":"Fiurius","steam_id":76561198151910950,"connected_time":1750000000000,"state":"active","ping":45},{"user_id":396,"name":"Nor1h_l1zard","steam_id":76561198250011918,"connected_time":3500000000000,"state":"active","ping":90},{"user_id":441,"name":"Seanstarman Phillips","steam_id":76561198059812384,"connected_time":207000000000,"state":"active","ping":94},{"user_id":387,"name":"tjeeena gubbbnnn","steam_id":76561199163884827,"connected_time":3933000000000,"state":"active","ping":112},{"user_id":429,"name":"skippy","steam_id":76561198171958773,"connected_time":1006000000000,"state":"active","ping":85},{"user_id":443,"name":"Irme","steam_id":76561198161590299,"connected_time":197000000000,"state":"active","ping":85},{"user_id":364,"name":"♂ Animan ♂ Studios ♂","steam_id":76561198308302932,"connected_time":5263000000000,"state":"active","ping":75},{"user_id":449,"name":"Number 1 BROCKHAMPTON Fan","steam_id":76561199130640658,"connected_time":19000000000,"state":"active","ping":122},{"user_id":446,"name":"RandoART","steam_id":76561198818165503,"connected_time":171000000000,"state":"active","ping":116},{"user_id":293,"name":"Ixsus\u003c3","steam_id":76561198094756869,"connected_time":9502000000000,"state":"active","ping":74},{"user_id":405,"name":"The Daniella","steam_id":76561198023075547,"connected_time":2789000000000,"state":"active","ping":76},{"user_id":430,"name":"Dawidowski","steam_id":76561199137466824,"connected_time":820000000000,"state":"active","ping":42},{"user_id":419,"name":"domek","steam_id":76561198048447632,"connected_time":2095000000000,"state":"active","ping":45},{"user_id":417,"name":"Cookies and Bakies","steam_id":76561198017442928,"connected_time":2116000000000,"state":"active","ping":88},{"user_id":423,"name":"jeezource 2","steam_id":76561198123592400,"connected_time":2055000000000,"state":"active","ping":82}]},{"server_id":51,"name":"Uncletopia | Warsaw | 3 | All Maps","name_short":"waw-3","host":"waw-1.pl.uncletopia.com","port":27035,"enabled":true,"region":"eu","cc":"pl","latitude":52.2297,"longitude":21.017532,"reserved":0,"last_update":"0001-01-01T00:00:00Z","name_a2s":"Uncletopia | Warsaw | 3 | All Maps","protocol":17,"map":"koth_viaduct","folder":"tf","game":"Team Fortress","app_id":440,"player_count":0,"max_players":24,"Bots":0,"server_type":"Dedicated","server_os":"Linux","password":true,"vac":true,"version":"7961495","steam_id":85568392925397852,"keywords":["cp","nocrits","nodmgspread","uncletopia"],"game_id":440,"stv_port":27036,"stv_name":"Uncletopia | Warsaw | 3 | All Maps | STV","players":null},{"server_id":52,"name":"Uncletopia | Warsaw | 4 | All Maps","name_short":"waw-4","host":"waw-1.pl.uncletopia.com","port":27045,"enabled":true,"region":"eu","cc":"pl","latitude":52.2297,"longitude":21.017532,"reserved":0,"last_update":"0001-01-01T00:00:00Z","name_a2s":"Uncletopia | Warsaw | 4 | All Maps","protocol":17,"map":"koth_highpass","folder":"tf","game":"Team Fortress","app_id":440,"player_count":0,"max_players":24,"Bots":0,"server_type":"Dedicated","server_os":"Linux","password":true,"vac":true,"version":"7961495","steam_id":85568392925397853,"keywords":["cp","nocrits","nodmgspread","uncletopia"],"game_id":440,"stv_port":27046,"stv_name":"Uncletopia | Warsaw | 4 | All Maps | STV","players":null},{"server_id":53,"name":"Uncletopia | Warsaw | 5 | Stopwatch Beta","name_short":"waw-5","host":"waw-1.pl.uncletopia.com","port":27055,"enabled":true,"region":"eu","cc":"pl","latitude":52.2297,"longitude":21.017532,"reserved":0,"last_update":"0001-01-01T00:00:00Z","name_a2s":"Uncletopia | Warsaw | 5 | Stopwatch Beta","protocol":17,"map":"cp_gullywash_final1","folder":"tf","game":"Team Fortress","app_id":440,"player_count":0,"max_players":24,"Bots":0,"server_type":"Dedicated","server_os":"Linux","password":true,"vac":true,"version":"7961495","steam_id":85568392925397854,"keywords":["cp","nocrits","nodmgspread","uncletopia"],"game_id":440,"stv_port":27056,"stv_name":"Uncletopia | Warsaw | 5 | Stopwatch Beta | STV","players":null},{"server_id":54,"name":"Uncletopia | Warsaw | 6 | Community","name_short":"waw-6","host":"waw-1.pl.uncletopia.com","port":27065,"enabled":true,"region":"eu","cc":"pl","latitude":52.2297,"longitude":21.017532,"reserved":0,"last_update":"0001-01-01T00:00:00Z","name_a2s":"Uncletopia | Warsaw | 6 | Community","protocol":17,"map":"workshop/pl_fifthcurve_rc1.ugc648227046","folder":"tf","game":"Team Fortress","app_id":440,"player_count":0,"max_players":24,"Bots":0,"server_type":"Dedicated","server_os":"Linux","password":true,"vac":true,"version":"7961495","steam_id":85568392925397856,"keywords":["nocrits","nodmgspread","payload","uncletopia"],"game_id":440,"stv_port":27066,"stv_name":"Uncletopia | Warsaw | 6 | Community | STV","players":null}]}