{"status":true,"message":"","result":[{"server_id":2,"name":"Uncletopia | Chicago | 1 | All Maps","name_short":"chi-1","host":"chi-1.us.uncletopia.com","port":27015,"enabled":true,"region":"us-central","cc":"us","latitude":41.881832,"longitude":-87.62318,"reserved":0,"last_update":"0001-01-01T00:00:00Z","name_a2s":"Uncletopia | Chicago | 1 | All Maps","protocol":17,"map":"pl_badwater","folder":"tf","game":"Team Fortress","app_id":440,"player_count":24,"max_players":24,"Bots":0,"server_type":"Dedicated","server_os":"Linux","password":true,"vac":true,"version":"7932396","steam_id":85568392924469984,"keywords":["nocrits","nodmgspread","payload","uncletopia"],"game_id":440,"stv_port":27016,"stv_name":"Uncletopia | Chicago | 1 | All Maps | STV","players":[{"user_id":581,"name":"Polish_Boi","steam_id":76561198387094909,"connected_time":552000000000,"state":"active","ping":74},{"user_id":570,"name":"Scorpion","steam_id":76561198325651066,"connected_time":1494000000000,"state":"active","ping":93},{"user_id":523,"name":"Touchpad User","steam_id":76561198365780517,"connected_time":6991000000000,"state":"active","ping":86},{"user_id":543,"name":"Thundermonkey (SMOKE)","steam_id":76561198017631728,"connected_time":4786000000000,"state":"active","ping":60},{"user_id":526,"name":"Jomdac","steam_id":76561198150447896,"connected_time":6553000000000,"state":"active","ping":104},{"user_id":544,"name":"triangleman","steam_id":76561198972733542,"connected_time":4637000000000,"state":"active","ping":59},{"user_id":513,"name":"EforEstrogen","steam_id":76561198086787295,"connected_time":7439000000000,"state":"active","ping":99},{"user_id":573,"name":"Oopsie Daisy ‚ùã","steam_id":76561198042144492,"connected_time":1399000000000,"state":"active","ping":70},{"user_id":572,"name":"Swiggs","steam_id":76561198135015291,"connected_time":1406000000000,"state":"active","ping":63},{"user_id":574,"name":"Stamos","steam_id":76561198036236781,"connected_time":1391000000000,"state":"active","ping":75},{"user_id":580,"name":"NotSharky","steam_id":76561198078910436,"connected_time":667000000000,"state":"active","ping":104},{"user_id":577,"name":"loser","steam_id":76561198259380127,"connected_time":957000000000,"state":"active","ping":60},{"user_id":538,"name":"AGNI Class NHP","steam_id":76561198045754085,"connected_time":5036000000000,"state":"active","ping":75},{"user_id":579,"name":"Raglo The Laminator","steam_id":76561198166494493,"connected_time":713000000000,"state":"active","ping":55},{"user_id":576,"name":"‚ô• Femboy‚ô•Ventily ‚ô•","steam_id":76561198157260335,"connected_time":1371000000000,"state":"active","ping":58},{"user_id":582,"name":"i use a 360 controller","steam_id":76561198353456379,"connected_time":499000000000,"state":"active","ping":73},{"user_id":553,"name":"Mox Nix","steam_id":76561198978778718,"connected_time":2667000000000,"state":"active","ping":145},{"user_id":583,"name":"Proxy-mo","steam_id":76561198221741428,"connected_time":74000000000,"state":"active","ping":76},{"user_id":540,"name":"DIDYMOS Class NHP","steam_id":76561198088986010,"connected_time":4972000000000,"state":"active","ping":100},{"user_id":507,"name":"pp","steam_id":76561198396247454,"connected_time":7597000000000,"state":"active","ping":47},{"user_id":568,"name":"skaska4","steam_id":76561198080606141,"connected_time":1729000000000,"state":"active","ping":68},{"user_id":549,"name":"Wizard Raccoon","steam_id":76561198072562591,"connected_time":4274000000000,"state":"active","ping":78},{"user_id":518,"name":"Snoots!","steam_id":76561198006301420,"connected_time":7261000000000,"state":"active","ping":93},{"user_id":542,"name":"lagzer","steam_id":76561198029295449,"connected_time":4929000000000,"state":"active","ping":154}]},{"server_id":106,"name":"Uncletopia | Chicago | 2 | All Maps","name_short":"chi-2","host":"chi-1.us.uncletopia.com","port":27025,"enabled":true,"region":"us-central","cc":"us","latitude":41.881832,"longitude":-87.62318,"reserved":0,"last_update":"0001-01-01T00:00:00Z","name_a2s":"Uncletopia | Chicago | 2 | All Maps","protocol":17,"map":"pl_pier","folder":"tf","game":"Team Fortress","app_id":440,"player_count":0,"max_players":24,"Bots":0,"server_type":"Dedicated","server_os":"Linux","password":true,"vac":true,"version":"7932396","steam_id":85568392924469985,"keywords":["nocrits","nodmgspread","payload","uncletopia"],"game_id":440,"stv_port":27026,"stv_name":"Uncletopia | Chicago | 2 | All Maps | STV","players":null},{"server_id":402,"name":"Uncletopia | Chicago | 3 | All Maps","name_short":"chi-3","host":"chi-1.us.uncletopia.com","port":27035,"enabled":true,"region":"us-central","cc":"us","latitude":41.881832,"longitude":-87.62318,"reserved":0,"last_update":"0001-01-01T00:00:00Z","name_a2s":"Uncletopia | Chicago | 3 | All Maps","protocol":17,"map":"pl_snowycoast","folder":"tf","game":"Team Fortress","app_id":440,"player_count":23,"max_players":24,"Bots":0,"server_type":"Dedicated","server_os":"Linux","password":true,"vac":true,"version":"7932396","steam_id":85568392924515191,"keywords":["nocrits","nodmgspread","payload","uncletopia"],"game_id":440,"stv_port":27036,"stv_name":"Uncletopia | Chicago | 3 | All Maps | STV","players":[{"user_id":454,"name":"Jel1440","steam_id":76561198179045366,"connected_time":681000000000,"state":"active","ping":48},{"user_id":390,"name":"just call me joe","steam_id":76561198043911582,"connected_time":3357000000000,"state":"active","ping":61},{"user_id":456,"name":"Mr. Chi City","steam_id":76561198131467867,"connected_time":575000000000,"state":"active","ping":78},{"user_id":430,"name":"cass","steam_id":76561198074502046,"connected_time":1990000000000,"state":"active","ping":113},{"user_id":391,"name":"phrogelf","steam_id":76561198207601548,"connected_time":3285000000000,"state":"active","ping":57},{"user_id":446,"name":"Buttercup","steam_id":76561198030816577,"connected_time":1005000000000,"state":"active","ping":84},{"user_id":392,"name":"pHsHy","steam_id":76561198013195018,"connected_time":3268000000000,"state":"active","ping":78},{"user_id":455,"name":"Mega","steam_id":76561198121258379,"connected_time":678000000000,"state":"active","ping":82},{"user_id":450,"name":"homewurk","steam_id":76561199080327081,"connected_time":813000000000,"state":"active","ping":115},{"user_id":452,"name":"Nebe0","steam_id":76561199133770186,"connected_time":718000000000,"state":"active","ping":73},{"user_id":463,"name":"Brown_Dream","steam_id":76561198975766145,"connected_time":350000000000,"state":"active","ping":78},{"user_id":451,"name":"Evolved Equinox","steam_id":76561198129832568,"connected_time":809000000000,"state":"active","ping":112},{"user_id":457,"name":"Provocator","steam_id":76561197961830410,"connected_time":513000000000,"state":"active","ping":73},{"user_id":464,"name":"Medeev","steam_id":76561198165381710,"connected_time":107000000000,"state":"active","ping":59},{"user_id":441,"name":"Phos","steam_id":76561198122339506,"connected_time":1534000000000,"state":"active","ping":71},{"user_id":440,"name":"Nathontin","steam_id":76561198263545504,"connected_time":1552000000000,"state":"active","ping":60},{"user_id":458,"name":"vulcan nightclub pon farr night","steam_id":76561197974283797,"connected_time":492000000000,"state":"active","ping":46},{"user_id":409,"name":"None of that $9.99 bullshit","steam_id":76561198116169903,"connected_time":2685000000000,"state":"active","ping":46},{"user_id":410,"name":"MagikarpEX","steam_id":76561198166172279,"connected_time":2675000000000,"state":"active","ping":69},{"user_id":459,"name":"Rukks","steam_id":76561197993918954,"connected_time":485000000000,"state":"active","ping":86},{"user_id":460,"name":"exten-z","steam_id":76561198004359190,"connected_time":477000000000,"state":"active","ping":50},{"user_id":461,"name":"Pika","steam_id":76561198080395122,"connected_time":439000000000,"state":"active","ping":101},{"user_id":462,"name":"4O4","steam_id":76561198058017411,"connected_time":420000000000,"state":"active","ping":106}]},{"server_id":403,"name":"Uncletopia | Chicago | 4 | All Maps","name_short":"chi-4","host":"chi-1.us.uncletopia.com","port":27045,"enabled":true,"region":"us-central","cc":"us","latitude":41.881832,"longitude":-87.62318,"reserved":0,"last_update":"0001-01-01T00:00:00Z","name_a2s":"Uncletopia | Chicago | 4 | All Maps","protocol":17,"map":"koth_lakeside_final","folder":"tf","game":"Team Fortress","app_id":440,"player_count":24,"max_players":24,"Bots":0,"server_type":"Dedicated","server_os":"Linux","password":true,"vac":true,"version":"7932396","steam_id":85568392924515193,"keywords":["cp","nocrits","nodmgspread","uncletopia"],"game_id":440,"stv_port":27046,"stv_name":"Uncletopia | Chicago | 4 | All Maps | STV","players":[{"user_id":586,"name":"*","steam_id":76561198173047169,"connected_time":494000000000,"state":"active","ping":58},{"user_id":575,"name":"Rambly Dambly","steam_id":76561198844496567,"connected_time":1361000000000,"state":"active","ping":50},{"user_id":580,"name":"evegioyidechadab","steam_id":76561198075991626,"connected_time":792000000000,"state":"active","ping":161},{"user_id":581,"name":"TheMediKat","steam_id":76561198858861540,"connected_time":697000000000,"state":"active","ping":112},{"user_id":524,"name":"god's drunkest driver","steam_id":76561198069407799,"connected_time":6061000000000,"state":"active","ping":75},{"user_id":574,"name":"faxxy","steam_id":76561198079621240,"connected_time":1579000000000,"state":"active","ping":62},{"user_id":557,"name":"ethanf","steam_id":76561198103930234,"connected_time":3372000000000,"state":"active","ping":52},{"user_id":595,"name":"AidenAces","steam_id":76561197999610332,"connected_time":79000000000,"state":"spawning","ping":139},{"user_id":530,"name":"Dot.","steam_id":76561198149463984,"connected_time":5858000000000,"state":"active","ping":46},{"user_id":582,"name":"Herr M√ºller","steam_id":76561198064876829,"connected_time":676000000000,"state":"active","ping":93},{"user_id":567,"name":"EmytheMage","steam_id":76561198319800202,"connected_time":2013000000000,"state":"active","ping":70},{"user_id":583,"name":"Paradox","steam_id":76561198284164847,"connected_time":671000000000,"state":"active","ping":70},{"user_id":440,"name":"Doofenshmirtz Evil Inc.","steam_id":76561198439793697,"connected_time":10196000000000,"state":"active","ping":73},{"user_id":584,"name":"Danmar33","steam_id":76561198056453091,"connected_time":665000000000,"state":"active","ping":47},{"user_id":554,"name":"lost in spaaaaace","steam_id":76561199085974120,"connected_time":3679000000000,"state":"active","ping":72},{"user_id":589,"name":"Keyblockor","steam_id":76561197997009501,"connected_time":390000000000,"state":"active","ping":112},{"user_id":585,"name":"kishi","steam_id":76561198153440058,"connected_time":634000000000,"state":"active","ping":65},{"user_id":591,"name":"Rumi_killer","steam_id":76561198077439866,"connected_time":299000000000,"state":"active","ping":86},{"user_id":562,"name":"Goober","steam_id":76561198941700660,"connected_time":2816000000000,"state":"active","ping":80},{"user_id":590,"name":"Pancakes","steam_id":76561198097983190,"connected_time":343000000000,"state":"active","ping":66},{"user_id":592,"name":"HyperBluuJay","steam_id":76561198165709523,"connected_time":288000000000,"state":"active","ping":75},{"user_id":561,"name":"dudescore","steam_id":76561199091453555,"connected_time":3211000000000,"state":"active","ping":96},{"user_id":576,"name":"FSC Fattest of Sailors","steam_id":76561198308073456,"connected_time":1178000000000,"state":"active","ping":87},{"user_id":593,"name":"p3nc1lman","steam_id":76561198069821339,"connected_time":274000000000,"state":"active","ping":74}]},{"server_id":36,"name":"Uncletopia | Chicago | 5 | All Maps","name_short":"chi-5","host":"chi-2.us.uncletopia.com","port":27015,"enabled":true,"region":"us-central","cc":"us","latitude":41.881832,"longitude":-87.62318,"reserved":0,"last_update":"0001-01-01T00:00:00Z","name_a2s":"Uncletopia | Chicago | 5 | All Maps","protocol":17,"map":"plr_hightower","folder":"tf","game":"Team Fortress","app_id":440,"player_count":24,"max_players":24,"Bots":0,"server_type":"Dedicated","server_os":"Linux","password":true,"vac":true,"version":"7932396","steam_id":85568392924866362,"keywords":["nocrits","nodmgspread","payload","uncletopia"],"game_id":440,"stv_port":27016,"stv_name":"Uncletopia | Chicago | 5 | All Maps | STV","players":[{"user_id":891,"name":"DO NOT call me BART SIMPSON!!","steam_id":76561198069113375,"connected_time":166000000000,"state":"active","ping":69},{"user_id":887,"name":"American Dad","steam_id":76561198059711448,"connected_time":298000000000,"state":"active","ping":80},{"user_id":888,"name":"Gason Homoa","steam_id":76561199000180522,"connected_time":252000000000,"state":"active","ping":84},{"user_id":885,"name":"Michaelpc1","steam_id":76561198088365519,"connected_time":577000000000,"state":"active","ping":75},{"user_id":860,"name":"FuntimeFoxy","steam_id":76561198406696103,"connected_time":2069000000000,"state":"active","ping":88},{"user_id":877,"name":"what is completely unfappable?","steam_id":76561198032259680,"connected_time":1237000000000,"state":"active","ping":76},{"user_id":878,"name":"Sunflower","steam_id":76561198081223793,"connected_time":1233000000000,"state":"active","ping":56},{"user_id":848,"name":"Ink","steam_id":76561198328781175,"connected_time":2930000000000,"state":"active","ping":115},{"user_id":820,"name":"Matches_","steam_id":76561198048925904,"connected_time":4923000000000,"state":"active","ping":110},{"user_id":871,"name":"Gaming","steam_id":76561198107080532,"connected_time":1536000000000,"state":"active","ping":64},{"user_id":889,"name":"cotton candy peon","steam_id":76561198058998371,"connected_time":239000000000,"state":"active","ping":62},{"user_id":855,"name":"Aegis","steam_id":76561198272052750,"connected_time":2253000000000,"state":"active","ping":72},{"user_id":890,"name":"OA","steam_id":76561198342691339,"connected_time":195000000000,"state":"active","ping":58},{"user_id":867,"name":"lamadre07","steam_id":76561198067337453,"connected_time":1769000000000,"state":"active","ping":88},{"user_id":857,"name":"hisoka","steam_id":76561198277979851,"connected_time":2200000000000,"state":"active","ping":85},{"user_id":882,"name":"Akornical","steam_id":76561199171025092,"connected_time":701000000000,"state":"active","ping":58},{"user_id":896,"name":"Eli","steam_id":76561198395122617,"connected_time":90000000000,"state":"active","ping":76},{"user_id":884,"name":"ryfith","steam_id":76561198878986398,"connected_time":661000000000,"state":"active","ping":71},{"user_id":893,"name":"Deacon","steam_id":76561197998532724,"connected_time":141000000000,"state":"active","ping":123},{"user_id":873,"name":"123","steam_id":76561198106308056,"connected_time":1464000000000,"state":"active","ping":130},{"user_id":874,"name":"twix","steam_id":76561198040912048,"connected_time":1428000000000,"state":"active","ping":50},{"user_id":894,"name":"OpenDown","steam_id":76561198064132688,"connected_time":135000000000,"state":"active","ping":62},{"user_id":895,"name":"Vinny_Vegimal","steam_id":76561198418361032,"connected_time":117000000000,"state":"active","ping":61},{"user_id":881,"name":"CreativeName","steam_id":76561198853344895,"connected_time":1098000000000,"state":"active","ping":105}]},{"server_id":37,"name":"Uncletopia | Chicago | 6 | All Maps","name_short":"chi-6","host":"chi-2.us.uncletopia.com","port":27025,"enabled":true,"region":"us-central","cc":"us","latitude":41.881832,"longitude":-87.62318,"reserved":0,"last_update":"0001-01-01T00:00:00Z","name_a2s":"Uncletopia | Chicago | 6 | All Maps","protocol":17,"map":"cp_dustbowl","folder":"tf","game":"Team Fortress","app_id":440,"player_count":7,"max_players":24,"Bots":0,"server_type":"Dedicated","server_os":"Linux","password":true,"vac":true,"version":"7932396","steam_id":85568392924866363,"keywords":["cp","nocrits","nodmgspread","uncletopia"],"game_id":440,"stv_port":27026,"stv_name":"Uncletopia | Chicago | 6 | All Maps | STV","players":[{"user_id":337,"name":"Rei Ayanami","steam_id":76561198853092631,"connected_time":2999000000000,"state":"active","ping":74},{"user_id":377,"name":"10 FPS Gaymer","steam_id":76561199200969139,"connected_time":433000000000,"state":"active","ping":101},{"user_id":379,"name":"Asfedia","steam_id":76561199386836351,"connected_time":204000000000,"state":"active","ping":163},{"user_id":380,"name":"Gabby the Fox","steam_id":76561199200480562,"connected_time":76000000000,"state":"active","ping":105},{"user_id":375,"name":"Engineer (REAL)","steam_id":76561199489193434,"connected_time":902000000000,"state":"active","ping":171},{"user_id":364,"name":"Techo","steam_id":76561199169405285,"connected_time":1392000000000,"state":"active","ping":99},{"user_id":356,"name":"Shinji","steam_id":76561198807649258,"connected_time":1828000000000,"state":"active","ping":76}]},{"server_id":38,"name":"Uncletopia | Chicago | 7 | Stopwatch Beta","name_short":"chi-7","host":"chi-2.us.uncletopia.com","port":27035,"enabled":true,"region":"us-central","cc":"us","latitude":41.881832,"longitude":-87.62318,"reserved":0,"last_update":"0001-01-01T00:00:00Z","name_a2s":"Uncletopia | Chicago | 7 | Stopwatch Beta","protocol":17,"map":"workshop/pl_summercoast_rc8e.ugc1761528829","folder":"tf","game":"Team Fortress","app_id":440,"player_count":0,"max_players":24,"Bots":0,"server_type":"Dedicated","server_os":"Linux","password":true,"vac":true,"version":"7932396","steam_id":85568392924866364,"keywords":["nocrits","nodmgspread","payload","uncletopia"],"game_id":440,"stv_port":27036,"stv_name":"Uncletopia | Chicago | 7 | Stopwatch Beta | STV","players":null},{"server_id":39,"name":"Uncletopia | Chicago | 8 | Community","name_short":"chi-8","host":"chi-2.us.uncletopia.com","port":27045,"enabled":true,"region":"us-central","cc":"us","latitude":41.881832,"longitude":-87.62318,"reserved":0,"last_update":"0001-01-01T00:00:00Z","name_a2s":"Uncletopia | Chicago | 8 | Community","protocol":17,"map":"workshop/koth_slaughter_rc1.ugc1712845210","folder":"tf","game":"Team Fortress","app_id":440,"player_count":0,"max_players":24,"Bots":0,"server_type":"Dedicated","server_os":"Linux","password":true,"vac":true,"version":"7932396","steam_id":85568392924866365,"keywords":["cp","nocrits","nodmgspread","uncletopia"],"game_id":440,"stv_port":27046,"stv_name":"Uncletopia | Chicago | 8 | Community | STV","players":null},{"server_id":8,"name":"Uncletopia | Dallas | 1 | All Maps","name_short":"dal-1","host":"dal-1.us.uncletopia.com","port":27015,"enabled":true,"region":"us-central","cc":"us","latitude":32.779167,"longitude":-96.80889,"reserved":0,"last_update":"0001-01-01T00:00:00Z","name_a2s":"Uncletopia | Dallas | 1 | All Maps","protocol":17,"map":"pl_snowycoast","folder":"tf","game":"Team Fortress","app_id":440,"player_count":17,"max_players":24,"Bots":0,"server_type":"Dedicated","server_os":"Linux","password":true,"vac":true,"version":"7932396","steam_id":85568392924469986,"keywords":["nocrits","nodmgspread","payload","uncletopia"],"game_id":440,"stv_port":27016,"stv_name":"Uncletopia | Dallas | 1 | All Maps | STV","players":[{"user_id":902,"name":"Clubs","steam_id":76561198271133942,"connected_time":3277000000000,"state":"active","ping":56},{"user_id":924,"name":"Bird","steam_id":76561198231624620,"connected_time":207000000000,"state":"active","ping":59},{"user_id":923,"name":"Deluxe_Taco34","steam_id":76561199037653437,"connected_time":305000000000,"state":"active","ping":134},{"user_id":898,"name":"alba","steam_id":76561198053658535,"connected_time":3885000000000,"state":"active","ping":94},{"user_id":920,"name":"Jesse","steam_id":76561198157305426,"connected_time":797000000000,"state":"active","ping":59},{"user_id":905,"name":"Rilshrink","steam_id":76561198202586792,"connected_time":3014000000000,"state":"active","ping":54},{"user_id":926,"name":"aVO","steam_id":76561198161429389,"connected_time":106000000000,"state":"active","ping":45},{"user_id":927,"name":"Tri_Hunter","steam_id":76561198108176706,"connected_time":68000000000,"state":"active","ping":85},{"user_id":928,"name":"King of Ping","steam_id":76561198278737470,"connected_time":37000000000,"state":"active","ping":89},{"user_id":929,"name":"AC3S Spade","steam_id":76561198266913930,"connected_time":17000000000,"state":"active","ping":92},{"user_id":910,"name":"AlcoholicDad454","steam_id":76561198157414556,"connected_time":2277000000000,"state":"active","ping":86},{"user_id":930,"name":"SamIam","steam_id":76561198813390673,"connected_time":11000000000,"state":"active","ping":117},{"user_id":931,"name":"GeneralKMG","steam_id":76561198239195806,"connected_time":3000000000,"state":"spawning","ping":75},{"user_id":921,"name":"andydandyrew","steam_id":76561198327138508,"connected_time":317000000000,"state":"active","ping":75},{"user_id":904,"name":"Manic","steam_id":76561198128149670,"connected_time":3049000000000,"state":"active","ping":43},{"user_id":918,"name":"skosgo -eg","steam_id":76561197996403345,"connected_time":1269000000000,"state":"active","ping":86},{"user_id":917,"name":"Bunny of Epicness","steam_id":76561198003897012,"connected_time":1565000000000,"state":"active","ping":45}]},{"server_id":108,"name":"Uncletopia | Dallas | 2 | All Maps","name_short":"dal-2","host":"dal-1.us.uncletopia.com","port":27025,"enabled":true,"region":"us-central","cc":"us","latitude":32.779167,"longitude":-96.80889,"reserved":0,"last_update":"0001-01-01T00:00:00Z","name_a2s":"Uncletopia | Dallas | 2 | All Maps","protocol":17,"map":"pl_upward","folder":"tf","game":"Team Fortress","app_id":440,"player_count":24,"max_players":24,"Bots":0,"server_type":"Dedicated","server_os":"Linux","password":true,"vac":true,"version":"7932396","steam_id":85568392924469988,"keywords":["nocrits","nodmgspread","payload","uncletopia"],"game_id":440,"stv_port":27026,"stv_name":"Uncletopia | Dallas | 2 | All Maps | STV","players":[{"user_id":562,"name":"Chimi","steam_id":76561198067800540,"connected_time":3607000000000,"state":"active","ping":46},{"user_id":601,"name":"Bormjles","steam_id":76561197999774320,"connected_time":1127000000000,"state":"active","ping":59},{"user_id":609,"name":"Terrazzle","steam_id":76561197999850393,"connected_time":235000000000,"state":"active","ping":56},{"user_id":610,"name":"Xune","steam_id":76561198010708247,"connected_time":182000000000,"state":"active","ping":83},{"user_id":557,"name":"Speedy","steam_id":76561198080761661,"connected_time":4145000000000,"state":"active","ping":99},{"user_id":574,"name":"that \"jing\" guy","steam_id":76561198097160898,"connected_time":2866000000000,"state":"active","ping":57},{"user_id":537,"name":"DocDankDandy","steam_id":76561197999440195,"connected_time":4398000000000,"state":"active","ping":75},{"user_id":580,"name":"üå∏MelWormüå∏","steam_id":76561198084145814,"connected_time":2398000000000,"state":"active","ping":65},{"user_id":588,"name":"Colonel Salt","steam_id":76561198207009563,"connected_time":1986000000000,"state":"active","ping":60},{"user_id":605,"name":"Acrimonate TTV","steam_id":76561198354012673,"connected_time":436000000000,"state":"active","ping":61},{"user_id":600,"name":"Lope","steam_id":76561198169381232,"connected_time":1142000000000,"state":"active","ping":73},{"user_id":571,"name":"trainmarine -bt","steam_id":76561198341784551,"connected_time":3023000000000,"state":"active","ping":47},{"user_id":602,"name":"periwonkle","steam_id":76561198136198600,"connected_time":1119000000000,"state":"active","ping":56},{"user_id":606,"name":"Sonic Mania 2 [100 Real Leaked","steam_id":76561198062764039,"connected_time":322000000000,"state":"active","ping":67},{"user_id":607,"name":"sand eater","steam_id":76561198215275267,"connected_time":286000000000,"state":"active","ping":62},{"user_id":584,"name":"raya","steam_id":76561198051504581,"connected_time":2262000000000,"state":"active","ping":50},{"user_id":559,"name":"Agent Q","steam_id":76561198830829003,"connected_time":4078000000000,"state":"active","ping":87},{"user_id":585,"name":"Beef Jerky32","steam_id":76561198192526325,"connected_time":2161000000000,"state":"active","ping":99},{"user_id":608,"name":"littlesack","steam_id":76561197960270526,"connected_time":283000000000,"state":"active","ping":80},{"user_id":611,"name":"Nice","steam_id":76561198195634517,"connected_time":135000000000,"state":"active","ping":63},{"user_id":572,"name":"TAMU ClariNate","steam_id":76561198452988152,"connected_time":3013000000000,"state":"active","ping":52},{"user_id":575,"name":"momb","steam_id":76561198142234038,"connected_time":2616000000000,"state":"active","ping":87},{"user_id":569,"name":"Galactamarx","steam_id":76561198028065755,"connected_time":3358000000000,"state":"active","ping":79},{"user_id":591,"name":"RogueShadow","steam_id":76561198149605648,"connected_time":1575000000000,"state":"active","ping":75}]},{"server_id":5,"name":"Uncletopia | Frankfurt | 1 | All Maps","name_short":"frk-1","host":"frk-1.de.uncletopia.com","port":27015,"enabled":true,"region":"eu","cc":"de","latitude":50.110924,"longitude":8.682127,"reserved":0,"last_update":"0001-01-01T00:00:00Z","name_a2s":"Uncletopia | Frankfurt | 1 | All Maps","protocol":17,"map":"pl_badwater","folder":"tf","game":"Team Fortress","app_id":440,"player_count":0,"max_players":24,"Bots":0,"server_type":"Dedicated","server_os":"Linux","password":true,"vac":true,"version":"7932396","steam_id":85568392924469989,"keywords":["nocrits","nodmgspread","payload","uncletopia"],"game_id":440,"stv_port":27016,"stv_name":"Uncletopia | Frankfurt | 1 | All Maps | STV","players":null},{"server_id":110,"name":"Uncletopia | Frankfurt | 2 | All Maps","name_short":"frk-2","host":"frk-1.de.uncletopia.com","port":27025,"enabled":true,"region":"eu","cc":"de","latitude":50.110924,"longitude":8.682127,"reserved":0,"last_update":"0001-01-01T00:00:00Z","name_a2s":"Uncletopia | Frankfurt | 2 | All Maps","protocol":17,"map":"pl_borneo","folder":"tf","game":"Team Fortress","app_id":440,"player_count":0,"max_players":24,"Bots":0,"server_type":"Dedicated","server_os":"Linux","password":true,"vac":true,"version":"7932396","steam_id":85568392924469990,"keywords":["nocrits","nodmgspread","payload","uncletopia"],"game_id":440,"stv_port":27026,"stv_name":"Uncletopia | Frankfurt | 2 | All Maps | STV","players":null},{"server_id":308,"name":"Uncletopia | Frankfurt | 3 | All Maps","name_short":"frk-3","host":"frk-1.de.uncletopia.com","port":27035,"enabled":true,"region":"eu","cc":"de","latitude":50.110924,"longitude":8.682127,"reserved":0,"last_update":"0001-01-01T00:00:00Z","name_a2s":"Uncletopia | Frankfurt | 3 | All Maps","protocol":17,"map":"pl_badwater","folder":"tf","game":"Team Fortress","app_id":440,"player_count":0,"max_players":24,"Bots":0,"server_type":"Dedicated","server_os":"Linux","password":true,"vac":true,"version":"7932396","steam_id":85568392924504274,"keywords":["nocrits","nodmgspread","payload","uncletopia"],"game_id":440,"stv_port":27036,"stv_name":"Uncletopia | Frankfurt | 3 | All Maps | STV","players":null},{"server_id":309,"name":"Uncletopia | Frankfurt | 4 | All Maps","name_short":"frk-4","host":"frk-1.de.uncletopia.com","port":27045,"enabled":true,"region":"eu","cc":"de","latitude":50.110924,"longitude":8.682127,"reserved":0,"last_update":"0001-01-01T00:00:00Z","name_a2s":"Uncletopia | Frankfurt | 4 | All Maps","protocol":17,"map":"pl_upward","folder":"tf","game":"Team Fortress","app_id":440,"player_count":0,"max_players":24,"Bots":0,"server_type":"Dedicated","server_os":"Linux","password":true,"vac":true,"version":"7932396","steam_id":85568392924504275,"keywords":["nocrits","nodmgspread","payload","uncletopia"],"game_id":440,"stv_port":27046,"stv_name":"Uncletopia | Frankfurt | 4 | All Maps | STV","players":null},{"server_id":310,"name":"Uncletopia | Frankfurt | 5 | All Maps","name_short":"frk-5","host":"frk-1.de.uncletopia.com","port":27055,"enabled":true,"region":"eu","cc":"de","latitude":50.110924,"longitude":8.682127,"reserved":0,"last_update":"0001-01-01T00:00:00Z","name_a2s":"Uncletopia | Frankfurt | 5 | All Maps","protocol":17,"map":"pl_badwater","folder":"tf","game":"Team Fortress","app_id":440,"player_count":0,"max_players":24,"Bots":0,"server_type":"Dedicated","server_os":"Linux","password":true,"vac":true,"version":"7932396","steam_id":85568392924504277,"keywords":["nocrits","nodmgspread","payload","uncletopia"],"game_id":440,"stv_port":27056,"stv_name":"Uncletopia | Frankfurt | 5 | All Maps | STV","players":null},{"server_id":311,"name":"Uncletopia | Frankfurt | 6 | All Maps","name_short":"frk-6","host":"frk-1.de.uncletopia.com","port":27065,"enabled":true,"region":"eu","cc":"de","latitude":50.110924,"longitude":8.682127,"reserved":0,"last_update":"0001-01-01T00:00:00Z","name_a2s":"Uncletopia | Frankfurt | 6 | All Maps","protocol":17,"map":"koth_viaduct","folder":"tf","game":"Team Fortress","app_id":440,"player_count":0,"max_players":24,"Bots":0,"server_type":"Dedicated","server_os":"Linux","password":true,"vac":true,"version":"7932396","steam_id":85568392924504278,"keywords":["cp","nocrits","nodmgspread","uncletopia"],"game_id":440,"stv_port":27066,"stv_name":"Uncletopia | Frankfurt | 6 | All Maps | STV","players":null},{"server_id":23,"name":"Uncletopia | Frankfurt | 7 | Stopwatch Beta","name_short":"frk-7","host":"frk-1.de.uncletopia.com","port":27075,"enabled":true,"region":"eu","cc":"de","latitude":50.110924,"longitude":8.682127,"reserved":0,"last_update":"0001-01-01T00:00:00Z","name_a2s":"Uncletopia | Frankfurt | 7 | Stopwatch Beta","protocol":17,"map":"pl_snowycoast","folder":"tf","game":"Team Fortress","app_id":440,"player_count":0,"max_players":24,"Bots":0,"server_type":"Dedicated","server_os":"Linux","password":true,"vac":true,"version":"7932396","steam_id":85568392924742827,"keywords":["nocrits","nodmgspread","payload","uncletopia"],"game_id":440,"stv_port":27076,"stv_name":"Uncletopia | Frankfurt | 7 | Stopwatch Beta | STV","players":null},{"server_id":24,"name":"Uncletopia | Frankfurt | 8 | Community","name_short":"frk-8","host":"frk-1.de.uncletopia.com","port":27085,"enabled":true,"region":"eu","cc":"de","latitude":50.110924,"longitude":8.682127,"reserved":0,"last_update":"0001-01-01T00:00:00Z","name_a2s":"Uncletopia | Frankfurt | 8 | Community","protocol":17,"map":"pl_barnblitz","folder":"tf","game":"Team Fortress","app_id":440,"player_count":0,"max_players":24,"Bots":0,"server_type":"Dedicated","server_os":"Linux","password":true,"vac":true,"version":"7932396","steam_id":85568392924742828,"keywords":["nocrits","nodmgspread","payload","uncletopia"],"game_id":440,"stv_port":27086,"stv_name":"Uncletopia | Frankfurt | 8 | Community | STV","players":null},{"server_id":202,"name":"Uncletopia | Hong Kong | 1 | All Maps","name_short":"hgk-1","host":"hgk-1.hk.uncletopia.com","port":27015,"enabled":true,"region":"asia","cc":"hk","latitude":22.302711,"longitude":114.177216,"reserved":0,"last_update":"0001-01-01T00:00:00Z","name_a2s":"Uncletopia | Hong Kong | 1 | All Maps","protocol":17,"map":"pl_swiftwater_final1","folder":"tf","game":"Team Fortress","app_id":440,"player_count":5,"max_players":24,"Bots":0,"server_type":"Dedicated","server_os":"Linux","password":true,"vac":true,"version":"7932396","steam_id":85568392924494504,"keywords":["nocrits","nodmgspread","payload","uncletopia"],"game_id":440,"stv_port":27016,"stv_name":"Uncletopia | Hong Kong | 1 | All Maps | STV","players":[{"user_id":7,"name":"hotgamerth","steam_id":76561199026418153,"connected_time":4367000000000,"state":"active","ping":90},{"user_id":35,"name":"Yes","steam_id":76561198854425654,"connected_time":276000000000,"state":"active","ping":302},{"user_id":33,"name":"PawmKin","steam_id":76561198344175018,"connected_time":324000000000,"state":"active","ping":105},{"user_id":15,"name":"KHMaster","steam_id":76561199198453345,"connected_time":3331000000000,"state":"active","ping":76},{"user_id":34,"name":"tr_walkway","steam_id":76561199107683007,"connected_time":309000000000,"state":"active","ping":52}]},{"server_id":1,"name":"Uncletopia | Los Angeles | 1 | All Maps","name_short":"lax-1","host":"lax-1.us.uncletopia.com","port":27015,"enabled":true,"region":"us-west","cc":"us","latitude":33.94279,"longitude":-118.41004,"reserved":0,"last_update":"0001-01-01T00:00:00Z","name_a2s":"Uncletopia | Los Angeles | 1 | All Maps","protocol":17,"map":"pl_pier","folder":"tf","game":"Team Fortress","app_id":440,"player_count":24,"max_players":24,"Bots":0,"server_type":"Dedicated","server_os":"Linux","password":true,"vac":true,"version":"7932396","steam_id":85568392924469991,"keywords":["nocrits","nodmgspread","payload","uncletopia"],"game_id":440,"stv_port":27016,"stv_name":"Uncletopia | Los Angeles | 1 | All Maps | STV","players":[{"user_id":516,"name":"Tony Tony Choppa","steam_id":76561198926443232,"connected_time":606000000000,"state":"active","ping":76},{"user_id":476,"name":"TrueGodOfBread","steam_id":76561198127577215,"connected_time":3243000000000,"state":"active","ping":50},{"user_id":465,"name":"werolat","steam_id":76561197960544784,"connected_time":3957000000000,"state":"active","ping":52},{"user_id":517,"name":"TeCon","steam_id":76561198049127236,"connected_time":605000000000,"state":"active","ping":52},{"user_id":437,"name":"vioxynteris","steam_id":76561198161428666,"connected_time":6265000000000,"state":"active","ping":29},{"user_id":500,"name":"Type Three Dabeetus","steam_id":76561198062710038,"connected_time":1796000000000,"state":"active","ping":49},{"user_id":502,"name":"Tocha","steam_id":76561198119725400,"connected_time":1729000000000,"state":"active","ping":104},{"user_id":440,"name":"HAT-WEARING‚Ñ¢ Maggot Gamer Cat","steam_id":76561197973992705,"connected_time":5539000000000,"state":"active","ping":64},{"user_id":518,"name":"Whisper!","steam_id":76561198119609795,"connected_time":602000000000,"state":"active","ping":52},{"user_id":446,"name":"Taco+Taco=Burrito","steam_id":76561198063128663,"connected_time":5134000000000,"state":"active","ping":34},{"user_id":503,"name":"HeroOfTime","steam_id":76561199096218001,"connected_time":1609000000000,"state":"active","ping":52},{"user_id":454,"name":"the hype man","steam_id":76561199052875314,"connected_time":4306000000000,"state":"active","ping":80},{"user_id":450,"name":"Hindmost","steam_id":76561199081837220,"connected_time":4850000000000,"state":"active","ping":97},{"user_id":512,"name":"Brook","steam_id":76561198066617702,"connected_time":1349000000000,"state":"active","ping":74},{"user_id":513,"name":"Craftyjumper","steam_id":76561198126421562,"connected_time":1075000000000,"state":"active","ping":118},{"user_id":497,"name":"xbox record that","steam_id":76561198150117455,"connected_time":1893000000000,"state":"active","ping":56},{"user_id":491,"name":"Painkiller","steam_id":76561198049787400,"connected_time":2315000000000,"state":"active","ping":53},{"user_id":519,"name":"usedhalfcart","steam_id":76561198072621852,"connected_time":589000000000,"state":"active","ping":84},{"user_id":507,"name":"me when the","steam_id":76561198811029386,"connected_time":1535000000000,"state":"active","ping":69},{"user_id":496,"name":"saggysage","steam_id":76561198249808678,"connected_time":1952000000000,"state":"active","ping":101},{"user_id":521,"name":"shakoiwa","steam_id":76561199059441773,"connected_time":132000000000,"state":"active","ping":59},{"user_id":484,"name":"Kat","steam_id":76561198995347084,"connected_time":2792000000000,"state":"active","ping":119},{"user_id":472,"name":"bed0tter","steam_id":76561197992298455,"connected_time":3517000000000,"state":"active","ping":51},{"user_id":509,"name":"Gundam Guy","steam_id":76561198178453993,"connected_time":1525000000000,"state":"active","ping":69}]},{"server_id":112,"name":"Uncletopia | Los Angeles | 2 | All Maps","name_short":"lax-2","host":"lax-1.us.uncletopia.com","port":27025,"enabled":true,"region":"us-west","cc":"us","latitude":33.94279,"longitude":-118.41004,"reserved":0,"last_update":"0001-01-01T00:00:00Z","name_a2s":"Uncletopia | Los Angeles | 2 | All Maps","protocol":17,"map":"cp_mountainlab","folder":"tf","game":"Team Fortress","app_id":440,"player_count":24,"max_players":24,"Bots":0,"server_type":"Dedicated","server_os":"Linux","password":true,"vac":true,"version":"7932396","steam_id":85568392924469992,"keywords":["cp","nocrits","nodmgspread","uncletopia"],"game_id":440,"stv_port":27026,"stv_name":"Uncletopia | Los Angeles | 2 | All Maps | STV","players":[{"user_id":543,"name":"Frank Accardi","steam_id":76561198017275707,"connected_time":9643000000000,"state":"active","ping":67},{"user_id":650,"name":"ozbulu","steam_id":76561198067176829,"connected_time":2190000000000,"state":"active","ping":46},{"user_id":606,"name":"The Comedian","steam_id":76561198037780226,"connected_time":5706000000000,"state":"active","ping":44},{"user_id":657,"name":"Dagoth Ur","steam_id":76561198115714484,"connected_time":1713000000000,"state":"active","ping":59},{"user_id":656,"name":"Gintoki sakata","steam_id":76561198093815304,"connected_time":1923000000000,"state":"active","ping":52},{"user_id":625,"name":"The Foolish Samurai","steam_id":76561198094494945,"connected_time":3700000000000,"state":"active","ping":74},{"user_id":640,"name":"moe","steam_id":76561198929586245,"connected_time":2595000000000,"state":"active","ping":51},{"user_id":597,"name":"sobaka","steam_id":76561198116008934,"connected_time":6906000000000,"state":"active","ping":58},{"user_id":548,"name":"DylanM345","steam_id":76561198174666786,"connected_time":9412000000000,"state":"active","ping":59},{"user_id":567,"name":"selvhat","steam_id":76561198114225509,"connected_time":8679000000000,"state":"active","ping":51},{"user_id":661,"name":"Team Fartpiss Poo","steam_id":76561199163591880,"connected_time":852000000000,"state":"active","ping":116},{"user_id":641,"name":"AimB√ºtter","steam_id":76561198060108739,"connected_time":2594000000000,"state":"active","ping":46},{"user_id":658,"name":"JohnnyGitGud","steam_id":76561198401455467,"connected_time":1545000000000,"state":"active","ping":58},{"user_id":643,"name":"bocaJ","steam_id":76561198374535092,"connected_time":2509000000000,"state":"active","ping":31},{"user_id":602,"name":"mytoyo2k2","steam_id":76561199486326945,"connected_time":6470000000000,"state":"active","ping":104},{"user_id":662,"name":"RashestHen75","steam_id":76561199229427395,"connected_time":815000000000,"state":"active","ping":65},{"user_id":580,"name":"Zaiah","steam_id":76561198377588247,"connected_time":7405000000000,"state":"active","ping":115},{"user_id":667,"name":"DefinitelyNotJoe","steam_id":76561198316157836,"connected_time":476000000000,"state":"active","ping":183},{"user_id":665,"name":"Squatter1","steam_id":76561198078987734,"connected_time":577000000000,"state":"active","ping":73},{"user_id":666,"name":"Arctic Flesh","steam_id":76561198099678868,"connected_time":497000000000,"state":"active","ping":101},{"user_id":619,"name":"Ken","steam_id":76561198190992453,"connected_time":4980000000000,"state":"active","ping":51},{"user_id":663,"name":"Drake from State Farm","steam_id":76561199069029812,"connected_time":803000000000,"state":"active","ping":244},{"user_id":633,"name":"Joe ELO From Progressive","steam_id":76561198336597038,"connected_time":3672000000000,"state":"active","ping":52},{"user_id":655,"name":"no brain","steam_id":76561198451032322,"connected_time":2094000000000,"state":"active","ping":89}]},{"server_id":324,"name":"Uncletopia | Los Angeles | 3 | All Maps","name_short":"lax-3","host":"lax-1.us.uncletopia.com","port":27035,"enabled":true,"region":"us-west","cc":"us","latitude":33.94279,"longitude":-118.41004,"reserved":0,"last_update":"0001-01-01T00:00:00Z","name_a2s":"Uncletopia | Los Angeles | 3 | All Maps","protocol":17,"map":"pl_goldrush","folder":"tf","game":"Team Fortress","app_id":440,"player_count":24,"max_players":24,"Bots":0,"server_type":"Dedicated","server_os":"Linux","password":true,"vac":true,"version":"7932396","steam_id":85568392924510198,"keywords":["nocrits","nodmgspread","payload","uncletopia"],"game_id":440,"stv_port":27036,"stv_name":"Uncletopia | Los Angeles | 3 | All Maps | STV","players":[{"user_id":351,"name":"Your Favorite Fearless Hero","steam_id":76561199127590316,"connected_time":1046000000000,"state":"active","ping":62},{"user_id":352,"name":"brando_not_lando","steam_id":76561198163197384,"connected_time":1032000000000,"state":"active","ping":59},{"user_id":294,"name":"Ice cream sandwich","steam_id":76561198172748357,"connected_time":4424000000000,"state":"active","ping":57},{"user_id":353,"name":"SkaddleMcPaddle","steam_id":76561198025755912,"connected_time":1005000000000,"state":"active","ping":120},{"user_id":343,"name":"californjoe","steam_id":76561197965047795,"connected_time":1691000000000,"state":"active","ping":49},{"user_id":345,"name":"FI LO","steam_id":76561198976530881,"connected_time":1333000000000,"state":"active","ping":32},{"user_id":328,"name":"oobner","steam_id":76561198864545608,"connected_time":2634000000000,"state":"active","ping":71},{"user_id":288,"name":"Altruisticailuridae","steam_id":76561198335295596,"connected_time":5207000000000,"state":"active","ping":56},{"user_id":364,"name":"lol","steam_id":76561198026491738,"connected_time":335000000000,"state":"active","ping":55},{"user_id":329,"name":"mitmatgames","steam_id":76561199086117151,"connected_time":2629000000000,"state":"active","ping":105},{"user_id":359,"name":"for the king","steam_id":76561197973488858,"connected_time":684000000000,"state":"active","ping":103},{"user_id":354,"name":"[loser] mpawn","steam_id":76561198115611066,"connected_time":992000000000,"state":"active","ping":84},{"user_id":303,"name":"Pukei-Pukei","steam_id":76561197992722546,"connected_time":3897000000000,"state":"active","ping":56},{"user_id":358,"name":"Boboblin:)","steam_id":76561199030131717,"connected_time":780000000000,"state":"active","ping":44},{"user_id":255,"name":"Chaptain","steam_id":76561198452725739,"connected_time":6774000000000,"state":"active","ping":69},{"user_id":356,"name":"Jeeby","steam_id":76561198080299839,"connected_time":934000000000,"state":"active","ping":110},{"user_id":278,"name":"Dog","steam_id":76561198450992953,"connected_time":5551000000000,"state":"active","ping":65},{"user_id":314,"name":"El Gato Paranoico","steam_id":76561198116567116,"connected_time":3400000000000,"state":"active","ping":90},{"user_id":363,"name":"NAUGHT A BOUGHT","steam_id":76561198066091050,"connected_time":419000000000,"state":"active","ping":77},{"user_id":291,"name":"zobro","steam_id":76561198110031579,"connected_time":5033000000000,"state":"active","ping":60},{"user_id":319,"name":"DavidTheBurrito","steam_id":76561198231940844,"connected_time":3178000000000,"state":"active","ping":45},{"user_id":339,"name":"SleepySheepy","steam_id":76561198297221249,"connected_time":1868000000000,"state":"active","ping":56},{"user_id":357,"name":"JawnyMac","steam_id":76561198179529599,"connected_time":888000000000,"state":"active","ping":68},{"user_id":340,"name":"CatGirl__","steam_id":76561198309631990,"connected_time":1864000000000,"state":"active","ping":63}]},{"server_id":25,"name":"Uncletopia | Los Angeles | 4 | Stopwatch Beta","name_short":"lax-4","host":"lax-1.us.uncletopia.com","port":27045,"enabled":true,"region":"us-west","cc":"us","latitude":33.94279,"longitude":-118.41004,"reserved":0,"last_update":"0001-01-01T00:00:00Z","name_a2s":"Uncletopia | Los Angeles | 4 | Stopwatch Beta","protocol":17,"map":"workshop/koth_clearcut_b15.ugc2107050255","folder":"tf","game":"Team Fortress","app_id":440,"player_count":0,"max_players":24,"Bots":0,"server_type":"Dedicated","server_os":"Linux","password":true,"vac":true,"version":"7932396","steam_id":85568392924510199,"keywords":["cp","nocrits","nodmgspread","uncletopia"],"game_id":440,"stv_port":27046,"stv_name":"Uncletopia | Los Angeles | 4 | Stopwatch Beta | STV","players":null},{"server_id":11,"name":"Uncletopia | London | 1 | All Maps","name_short":"lon-1","host":"lon-1.uk.uncletopia.com","port":27015,"enabled":true,"region":"eu","cc":"gb","latitude":51.509865,"longitude":-0.118092,"reserved":0,"last_update":"0001-01-01T00:00:00Z","name_a2s":"Uncletopia | London | 1 | All Maps","protocol":17,"map":"cp_snakewater_final1","folder":"tf","game":"Team Fortress","app_id":440,"player_count":0,"max_players":24,"Bots":0,"server_type":"Dedicated","server_os":"Linux","password":true,"vac":true,"version":"7932396","steam_id":85568392924367362,"keywords":["cp","nocrits","nodmgspread","uncletopia"],"game_id":440,"stv_port":27016,"stv_name":"Uncletopia | London | 1 | All Maps | STV","players":null},{"server_id":114,"name":"Uncletopia | London | 2 | All Maps","name_short":"lon-2","host":"lon-1.uk.uncletopia.com","port":27025,"enabled":true,"region":"eu","cc":"gb","latitude":51.509865,"longitude":-0.118092,"reserved":0,"last_update":"0001-01-01T00:00:00Z","name_a2s":"Uncletopia | London | 2 | All Maps","protocol":17,"map":"koth_highpass","folder":"tf","game":"Team Fortress","app_id":440,"player_count":0,"max_players":24,"Bots":0,"server_type":"Dedicated","server_os":"Linux","password":true,"vac":true,"version":"7932396","steam_id":85568392924470941,"keywords":["cp","nocrits","nodmgspread","uncletopia"],"game_id":440,"stv_port":27026,"stv_name":"Uncletopia | London | 2 | All Maps | STV","players":null},{"server_id":320,"name":"Uncletopia | London | 3 | All Maps","name_short":"lon-3","host":"lon-1.uk.uncletopia.com","port":27035,"enabled":true,"region":"eu","cc":"gb","latitude":51.509865,"longitude":-0.118092,"reserved":0,"last_update":"0001-01-01T00:00:00Z","name_a2s":"Uncletopia | London | 3 | All Maps","protocol":17,"map":"cp_altitude","folder":"tf","game":"Team Fortress","app_id":440,"player_count":0,"max_players":24,"Bots":0,"server_type":"Dedicated","server_os":"Linux","password":true,"vac":true,"version":"7932396","steam_id":85568392924510192,"keywords":["cp","nocrits","nodmgspread","uncletopia"],"game_id":440,"stv_port":27036,"stv_name":"Uncletopia | London | 3 | All Maps | STV","players":null},{"server_id":321,"name":"Uncletopia | London | 4 | All Maps","name_short":"lon-4","host":"lon-1.uk.uncletopia.com","port":27045,"enabled":true,"region":"eu","cc":"gb","latitude":51.509865,"longitude":-0.118092,"reserved":0,"last_update":"0001-01-01T00:00:00Z","name_a2s":"Uncletopia | London | 4 | All Maps","protocol":17,"map":"cp_snakewater_final1","folder":"tf","game":"Team Fortress","app_id":440,"player_count":0,"max_players":24,"Bots":0,"server_type":"Dedicated","server_os":"Linux","password":true,"vac":true,"version":"7932396","steam_id":85568392924510193,"keywords":["cp","nocrits","nodmgspread","uncletopia"],"game_id":440,"stv_port":27046,"stv_name":"Uncletopia | London | 4 | All Maps | STV","players":null},{"server_id":21,"name":"Uncletopia | London | 5 | All Maps","name_short":"lon-5","host":"lon-1.uk.uncletopia.com","port":27055,"enabled":true,"region":"eu","cc":"gb","latitude":51.509865,"longitude":-0.118092,"reserved":0,"last_update":"0001-01-01T00:00:00Z","name_a2s":"Uncletopia | London | 5 | All Maps","protocol":17,"map":"pl_borneo","folder":"tf","game":"Team Fortress","app_id":440,"player_count":0,"max_players":24,"Bots":0,"server_type":"Dedicated","server_os":"Linux","password":true,"vac":true,"version":"7932396","steam_id":85568392924742829,"keywords":["nocrits","nodmgspread","payload","uncletopia"],"game_id":440,"stv_port":27056,"stv_name":"Uncletopia | London | 5 | All Maps | STV","players":null},{"server_id":22,"name":"Uncletopia | London | 6 | All Maps","name_short":"lon-6","host":"lon-1.uk.uncletopia.com","port":27065,"enabled":true,"region":"eu","cc":"gb","latitude":51.509865,"longitude":-0.118092,"reserved":0,"last_update":"0001-01-01T00:00:00Z","name_a2s":"Uncletopia | London | 6 | All Maps","protocol":17,"map":"pl_upward","folder":"tf","game":"Team Fortress","app_id":440,"player_count":20,"max_players":24,"Bots":0,"server_type":"Dedicated","server_os":"Linux","password":true,"vac":true,"version":"7932396","steam_id":85568392924742830,"keywords":["nocrits","nodmgspread","payload","uncletopia"],"game_id":440,"stv_port":27066,"stv_name":"Uncletopia | London | 6 | All Maps | STV","players":[{"user_id":4,"name":"beebo","steam_id":76561199120277007,"connected_time":3166000000000,"state":"connecting","ping":47},{"user_id":6,"name":"swag overlord","steam_id":76561199074553825,"connected_time":3151000000000,"state":"connecting","ping":68},{"user_id":42,"name":"Niko","steam_id":76561199006295285,"connected_time":1431000000000,"state":"spawning","ping":76},{"user_id":8,"name":"m909","steam_id":76561198279621400,"connected_time":3138000000000,"state":"spawning","ping":99},{"user_id":9,"name":"collin","steam_id":76561198067030681,"connected_time":3138000000000,"state":"spawning","ping":61},{"user_id":53,"name":"TheEventGuy","steam_id":76561197972797744,"connected_time":18000000000,"state":"connecting","ping":86},{"user_id":49,"name":"in the house like carpet","steam_id":76561199480942903,"connected_time":528000000000,"state":"connecting","ping":96},{"user_id":12,"name":"Name'sNotAnnabelle","steam_id":76561198253518073,"connected_time":3119000000000,"state":"connecting","ping":70},{"user_id":44,"name":"$t@lker_Tim","steam_id":76561198963658042,"connected_time":1187000000000,"state":"connecting","ping":135},{"user_id":50,"name":"yes","steam_id":76561197977461320,"connected_time":290000000000,"state":"spawning","ping":72},{"user_id":31,"name":"big naked bruh","steam_id":76561199179040672,"connected_time":2026000000000,"state":"spawning","ping":76},{"user_id":51,"name":"TuRnIp Maybe?","steam_id":76561199103094723,"connected_time":185000000000,"state":"connecting","ping":233},{"user_id":36,"name":"stew","steam_id":76561198220665819,"connected_time":1678000000000,"state":"connecting","ping":121},{"user_id":52,"name":"The Assistant Regional Manager","steam_id":76561199221484936,"connected_time":50000000000,"state":"connecting","ping":221},{"user_id":22,"name":"Kaz","steam_id":76561198044844041,"connected_time":2633000000000,"state":"spawning","ping":127},{"user_id":47,"name":"+2","steam_id":76561198116986693,"connected_time":737000000000,"state":"connecting","ping":113},{"user_id":41,"name":"regimiro","steam_id":76561198120457008,"connected_time":1534000000000,"state":"connecting","ping":72},{"user_id":46,"name":"Tomfool","steam_id":76561197993256481,"connected_time":1087000000000,"state":"connecting","ping":101},{"user_id":39,"name":"thekoolest88","steam_id":76561199022415672,"connected_time":1575000000000,"state":"connecting","ping":171},{"user_id":30,"name":"Bun","steam_id":76561197989239999,"connected_time":2175000000000,"state":"spawning","ping":72}]},{"server_id":40,"name":"Uncletopia | London | 7 | No Payload","name_short":"lon-7","host":"lon-1.uk.uncletopia.com","port":27075,"enabled":true,"region":"eu","cc":"gb","latitude":51.509865,"longitude":-0.118092,"reserved":0,"last_update":"0001-01-01T00:00:00Z","name_a2s":"Uncletopia | London | 7 | No Payload","protocol":17,"map":"pl_snowycoast","folder":"tf","game":"Team Fortress","app_id":440,"player_count":0,"max_players":24,"Bots":0,"server_type":"Dedicated","server_os":"Linux","password":true,"vac":true,"version":"7932396","steam_id":85568392924964314,"keywords":["nocrits","nodmgspread","payload","uncletopia"],"game_id":440,"stv_port":27076,"stv_name":"Uncletopia | London | 7 | No Payload | STV","players":null},{"server_id":41,"name":"Uncletopia | London | 8 | Community","name_short":"lon-8","host":"lon-1.uk.uncletopia.com","port":27085,"enabled":true,"region":"eu","cc":"gb","latitude":51.509865,"longitude":-0.118092,"reserved":0,"last_update":"0001-01-01T00:00:00Z","name_a2s":"Uncletopia | London | 8 | Community","protocol":17,"map":"pl_barnblitz","folder":"tf","game":"Team Fortress","app_id":440,"player_count":0,"max_players":24,"Bots":0,"server_type":"Dedicated","server_os":"Linux","password":true,"vac":true,"version":"7932396","steam_id":85568392924964315,"keywords":["nocrits","nodmgspread","payload","uncletopia"],"game_id":440,"stv_port":27086,"stv_name":"Uncletopia | London | 8 | Community | STV","players":null},{"server_id":300,"name":"Uncletopia | Montr√©al | 1 | All Maps","name_short":"mtl-1","host":"mtl-1.ca.uncletopia.com","port":27015,"enabled":true,"region":"us-east","cc":"ca","latitude":45.50889,"longitude":-73.56167,"reserved":0,"last_update":"0001-01-01T00:00:00Z","name_a2s":"Uncletopia | Montr√©al | 1 | All Maps","protocol":17,"map":"cp_altitude","folder":"tf","game":"Team Fortress","app_id":440,"player_count":0,"max_players":24,"Bots":0,"server_type":"Dedicated","server_os":"Linux","password":true,"vac":true,"version":"7932396","steam_id":85568392924500087,"keywords":["cp","nocrits","nodmgspread","uncletopia"],"game_id":440,"stv_port":27016,"stv_name":"Uncletopia | Montr√©al | 1 | All Maps | STV","players":null},{"server_id":301,"name":"Uncletopia | Montr√©al | 2 | All Maps","name_short":"mtl-2","host":"mtl-1.ca.uncletopia.com","port":27025,"enabled":true,"region":"us-east","cc":"ca","latitude":45.50889,"longitude":-73.56167,"reserved":0,"last_update":"0001-01-01T00:00:00Z","name_a2s":"Uncletopia | Montr√©al | 2 | All Maps","protocol":17,"map":"koth_king","folder":"tf","game":"Team Fortress","app_id":440,"player_count":0,"max_players":24,"Bots":0,"server_type":"Dedicated","server_os":"Linux","password":true,"vac":true,"version":"7932396","steam_id":85568392924500088,"keywords":["cp","nocrits","nodmgspread","uncletopia"],"game_id":440,"stv_port":27026,"stv_name":"Uncletopia | Montr√©al | 2 | All Maps | STV","players":null},{"server_id":302,"name":"Uncletopia | Montr√©al | 3 | All Maps","name_short":"mtl-3","host":"mtl-1.ca.uncletopia.com","port":27035,"enabled":true,"region":"us-east","cc":"ca","latitude":45.50889,"longitude":-73.56167,"reserved":0,"last_update":"0001-01-01T00:00:00Z","name_a2s":"Uncletopia | Montr√©al | 3 | All Maps","protocol":17,"map":"pl_snowycoast","folder":"tf","game":"Team Fortress","app_id":440,"player_count":0,"max_players":24,"Bots":0,"server_type":"Dedicated","server_os":"Linux","password":true,"vac":true,"version":"7932396","steam_id":85568392924500089,"keywords":["nocrits","nodmgspread","payload","uncletopia"],"game_id":440,"stv_port":27036,"stv_name":"Uncletopia | Montr√©al | 3 | All Maps | STV","players":null},{"server_id":303,"name":"Uncletopia | Montr√©al | 4 | No Payload","name_short":"mtl-4","host":"mtl-1.ca.uncletopia.com","port":27045,"enabled":true,"region":"us-east","cc":"ca","latitude":45.50889,"longitude":-73.56167,"reserved":0,"last_update":"0001-01-01T00:00:00Z","name_a2s":"Uncletopia | Montr√©al | 4 | No Payload","protocol":17,"map":"koth_king","folder":"tf","game":"Team Fortress","app_id":440,"player_count":0,"max_players":24,"Bots":0,"server_type":"Dedicated","server_os":"Linux","password":true,"vac":true,"version":"7932396","steam_id":85568392924500090,"keywords":["cp","nocrits","nodmgspread","uncletopia"],"game_id":440,"stv_port":27046,"stv_name":"Uncletopia | Montr√©al | 4 | No Payload | STV","players":null},{"server_id":13,"name":"Uncletopia | New York City | 1 | All Maps","name_short":"nyc-1","host":"nyc-1.us.uncletopia.com","port":27015,"enabled":true,"region":"us-east","cc":"us","latitude":40.73061,"longitude":-73.93524,"reserved":0,"last_update":"0001-01-01T00:00:00Z","name_a2s":"Uncletopia | New York City | 1 | All Maps","protocol":17,"map":"pl_frontier_final","folder":"tf","game":"Team Fortress","app_id":440,"player_count":22,"max_players":24,"Bots":0,"server_type":"Dedicated","server_os":"Linux","password":true,"vac":true,"version":"7932396","steam_id":85568392924469993,"keywords":["nocrits","nodmgspread","payload","uncletopia"],"game_id":440,"stv_port":27016,"stv_name":"Uncletopia | New York City | 1 | All Maps | STV","players":[{"user_id":690,"name":"yanyul","steam_id":76561198032871139,"connected_time":692000000000,"state":"active","ping":135},{"user_id":697,"name":"Mint Jelly","steam_id":76561197991286751,"connected_time":250000000000,"state":"active","ping":62},{"user_id":661,"name":"Toonice","steam_id":76561198402994885,"connected_time":2636000000000,"state":"active","ping":63},{"user_id":701,"name":"spooz","steam_id":76561198100590571,"connected_time":43000000000,"state":"active","ping":119},{"user_id":682,"name":"xFactr","steam_id":76561198129007422,"connected_time":1383000000000,"state":"active","ping":39},{"user_id":688,"name":"sulli","steam_id":76561198243918128,"connected_time":983000000000,"state":"active","ping":50},{"user_id":680,"name":"Hiryuu","steam_id":76561198025267260,"connected_time":1394000000000,"state":"active","ping":78},{"user_id":692,"name":"Crisp","steam_id":76561198132644084,"connected_time":621000000000,"state":"active","ping":54},{"user_id":674,"name":"Dan","steam_id":76561198205054883,"connected_time":2144000000000,"state":"active","ping":122},{"user_id":658,"name":"eish","steam_id":76561198089463603,"connected_time":2660000000000,"state":"active","ping":135},{"user_id":693,"name":"Robotsontheloose(¬∞x¬∞)","steam_id":76561198250156796,"connected_time":394000000000,"state":"active","ping":128},{"user_id":684,"name":"ShadowBolt","steam_id":76561198061610985,"connected_time":1309000000000,"state":"active","ping":113},{"user_id":681,"name":"wwwillsux","steam_id":76561198201819066,"connected_time":1393000000000,"state":"active","ping":68},{"user_id":685,"name":"Wique","steam_id":76561198071217597,"connected_time":1205000000000,"state":"active","ping":66},{"user_id":669,"name":"Xavier","steam_id":76561198799635880,"connected_time":2484000000000,"state":"active","ping":126},{"user_id":686,"name":"Octovaitor","steam_id":76561198004658451,"connected_time":1198000000000,"state":"active","ping":48},{"user_id":698,"name":"Am da Best","steam_id":76561198163825955,"connected_time":217000000000,"state":"active","ping":115},{"user_id":696,"name":"Blobbyfish","steam_id":76561198822962650,"connected_time":342000000000,"state":"active","ping":54},{"user_id":699,"name":"Punga","steam_id":76561198083529226,"connected_time":210000000000,"state":"active","ping":174},{"user_id":673,"name":"exotic fishes","steam_id":76561199046490785,"connected_time":2371000000000,"state":"active","ping":74},{"user_id":656,"name":"OffKey","steam_id":76561198017660927,"connected_time":2776000000000,"state":"active","ping":55},{"user_id":700,"name":"C Papi","steam_id":76561198027779564,"connected_time":70000000000,"state":"active","ping":60}]},{"server_id":14,"name":"Uncletopia | New York City | 2 | All Maps","name_short":"nyc-2","host":"nyc-1.us.uncletopia.com","port":27025,"enabled":true,"region":"us-east","cc":"us","latitude":40.73061,"longitude":-73.93524,"reserved":0,"last_update":"0001-01-01T00:00:00Z","name_a2s":"Uncletopia | New York City | 2 | All Maps","protocol":17,"map":"cp_mountainlab","folder":"tf","game":"Team Fortress","app_id":440,"player_count":0,"max_players":24,"Bots":0,"server_type":"Dedicated","server_os":"Linux","password":true,"vac":true,"version":"7932396","steam_id":85568392924469994,"keywords":["cp","nocrits","nodmgspread","uncletopia"],"game_id":440,"stv_port":27026,"stv_name":"Uncletopia | New York City | 2 | All Maps | STV","players":null},{"server_id":15,"name":"Uncletopia | New York City | 3 | Stopwatch Beta","name_short":"nyc-3","host":"nyc-1.us.uncletopia.com","port":27035,"enabled":true,"region":"us-east","cc":"us","latitude":40.73061,"longitude":-73.93524,"reserved":0,"last_update":"0001-01-01T00:00:00Z","name_a2s":"Uncletopia | New York City | 3 | Stopwatch Beta","protocol":17,"map":"koth_lakeside_final","folder":"tf","game":"Team Fortress","app_id":440,"player_count":0,"max_players":24,"Bots":0,"server_type":"Dedicated","server_os":"Linux","password":true,"vac":true,"version":"7932396","steam_id":85568392924742820,"keywords":["cp","nocrits","nodmgspread","uncletopia"],"game_id":440,"stv_port":27036,"stv_name":"Uncletopia | New York City | 3 | Stopwatch Beta | STV","players":null},{"server_id":16,"name":"Uncletopia | New York City | 4 | Community","name_short":"nyc-4","host":"nyc-1.us.uncletopia.com","port":27045,"enabled":true,"region":"us-east","cc":"us","latitude":40.73061,"longitude":-73.93524,"reserved":0,"last_update":"0001-01-01T00:00:00Z","name_a2s":"Uncletopia | New York City | 4 | Community","protocol":17,"map":"workshop/cp_logjam_rc12.ugc454812035","folder":"tf","game":"Team Fortress","app_id":440,"player_count":16,"max_players":24,"Bots":0,"server_type":"Dedicated","server_os":"Linux","password":true,"vac":true,"version":"7932396","steam_id":85568392924742821,"keywords":["cp","nocrits","nodmgspread","uncletopia"],"game_id":440,"stv_port":27046,"stv_name":"Uncletopia | New York City | 4 | Community | STV","players":[{"user_id":759,"name":"Captain Emerald The Changeling","steam_id":76561198320651177,"connected_time":2544000000000,"state":"active","ping":45},{"user_id":769,"name":"spids","steam_id":76561198041133528,"connected_time":499000000000,"state":"active","ping":55},{"user_id":761,"name":"Xryleth","steam_id":76561198031402063,"connected_time":1825000000000,"state":"active","ping":129},{"user_id":762,"name":"DededeMain | trade.tf","steam_id":76561198310951632,"connected_time":1814000000000,"state":"active","ping":58},{"user_id":766,"name":"Masotan","steam_id":76561199047187302,"connected_time":1070000000000,"state":"active","ping":60},{"user_id":740,"name":"Yongle","steam_id":76561198068591156,"connected_time":4912000000000,"state":"active","ping":70},{"user_id":754,"name":"Gungan","steam_id":76561198307588458,"connected_time":3086000000000,"state":"active","ping":85},{"user_id":767,"name":"Fish_man_Jon","steam_id":76561198068158264,"connected_time":1040000000000,"state":"active","ping":80},{"user_id":701,"name":"larguu","steam_id":76561197994336210,"connected_time":7725000000000,"state":"active","ping":38},{"user_id":771,"name":"erf","steam_id":76561198078203677,"connected_time":23000000000,"state":"active","ping":51},{"user_id":741,"name":"Amber","steam_id":76561198031298701,"connected_time":4870000000000,"state":"active","ping":63},{"user_id":768,"name":"Freewave","steam_id":76561198156282541,"connected_time":731000000000,"state":"active","ping":55},{"user_id":735,"name":"ChozoChorizo","steam_id":76561198272609196,"connected_time":5116000000000,"state":"active","ping":69},{"user_id":704,"name":"XxAngel3ReaperxX","steam_id":76561198874183456,"connected_time":7626000000000,"state":"active","ping":129},{"user_id":669,"name":"Gram Tokers Count Doinkula","steam_id":76561198112811565,"connected_time":10386000000000,"state":"active","ping":57},{"user_id":745,"name":"Happy Yaoi Friday","steam_id":76561198111290441,"connected_time":4708000000000,"state":"active","ping":41}]},{"server_id":142,"name":"Uncletopia | S√£o Paulo | 1 | All Maps","name_short":"sao-1","host":"sao-1.br.uncletopia.com","port":27015,"enabled":true,"region":"sa","cc":"br","latitude":-23.533773,"longitude":-46.62529,"reserved":0,"last_update":"0001-01-01T00:00:00Z","name_a2s":"Uncletopia | S√£o Paulo | 1 | All Maps","protocol":17,"map":"pl_barnblitz","folder":"tf","game":"Team Fortress","app_id":440,"player_count":0,"max_players":24,"Bots":0,"server_type":"Dedicated","server_os":"Linux","password":true,"vac":true,"version":"7932396","steam_id":85568392924469996,"keywords":["nocrits","nodmgspread","payload","uncletopia"],"game_id":440,"stv_port":27016,"stv_name":"Uncletopia | S√£o Paulo | 1 | All Maps | STV","players":null},{"server_id":143,"name":"Uncletopia | S√£o Paulo | 2 | All Maps","name_short":"sao-2","host":"sao-2.br.uncletopia.com","port":27015,"enabled":true,"region":"sa","cc":"br","latitude":-23.533773,"longitude":-46.62529,"reserved":0,"last_update":"0001-01-01T00:00:00Z","name_a2s":"Uncletopia | S√£o Paulo | 2 | All Maps","protocol":17,"map":"koth_cascade","folder":"tf","game":"Team Fortress","app_id":440,"player_count":0,"max_players":24,"Bots":0,"server_type":"Dedicated","server_os":"Linux","password":true,"vac":true,"version":"7932396","steam_id":85568392924485349,"keywords":["cp","nocrits","nodmgspread","uncletopia"],"game_id":440,"stv_port":27016,"stv_name":"Uncletopia | S√£o Paulo | 2 | All Maps | STV","players":null},{"server_id":7,"name":"Uncletopia | Seattle | 1 | All Maps","name_short":"sea-1","host":"sea-1.us.uncletopia.com","port":27015,"enabled":true,"region":"us-west","cc":"us","latitude":47.608013,"longitude":-122.33517,"reserved":0,"last_update":"0001-01-01T00:00:00Z","name_a2s":"Uncletopia | Seattle | 1 | All Maps","protocol":17,"map":"pl_borneo","folder":"tf","game":"Team Fortress","app_id":440,"player_count":26,"max_players":24,"Bots":0,"server_type":"Dedicated","server_os":"Linux","password":true,"vac":true,"version":"7932396","steam_id":85568392924469997,"keywords":["nocrits","nodmgspread","payload","uncletopia"],"game_id":440,"stv_port":27016,"stv_name":"Uncletopia | Seattle | 1 | All Maps | STV","players":[{"user_id":564,"name":"im mr ____hed look at me","steam_id":76561198051751133,"connected_time":1498000000000,"state":"active","ping":62},{"user_id":531,"name":"twink in pastry flops","steam_id":76561198340646012,"connected_time":3577000000000,"state":"active","ping":34},{"user_id":542,"name":"oil","steam_id":76561198099980149,"connected_time":2444000000000,"state":"active","ping":76},{"user_id":500,"name":"ophiocordyceps","steam_id":76561198169755734,"connected_time":7067000000000,"state":"active","ping":61},{"user_id":527,"name":"Faster Than Instant Transmissio","steam_id":76561198271939793,"connected_time":5339000000000,"state":"active","ping":49},{"user_id":566,"name":"lil boogie","steam_id":76561198064059721,"connected_time":334000000000,"state":"active","ping":46},{"user_id":567,"name":"mike, 2.4 GPA","steam_id":76561198225411004,"connected_time":334000000000,"state":"active","ping":75},{"user_id":534,"name":"The King of Piss World","steam_id":76561198082806956,"connected_time":3559000000000,"state":"active","ping":147},{"user_id":569,"name":"reiidaya","steam_id":76561198325306660,"connected_time":234000000000,"state":"active","ping":51},{"user_id":570,"name":"rat gets the cheese","steam_id":76561198031234032,"connected_time":234000000000,"state":"active","ping":99},{"user_id":560,"name":"35 years without a footjob...","steam_id":76561198799299193,"connected_time":1684000000000,"state":"active","ping":52},{"user_id":537,"name":"lasky","steam_id":76561198017030029,"connected_time":3517000000000,"state":"active","ping":73},{"user_id":556,"name":"Ayayayayayahuasca","steam_id":76561199002906056,"connected_time":1705000000000,"state":"active","ping":53},{"user_id":571,"name":"BolognaWithOlives","steam_id":76561198101262668,"connected_time":197000000000,"state":"active","ping":87},{"user_id":563,"name":"lusty","steam_id":76561198138478947,"connected_time":1536000000000,"state":"active","ping":43},{"user_id":515,"name":"Inflight","steam_id":76561198920049475,"connected_time":6221000000000,"state":"active","ping":103},{"user_id":544,"name":"NEBULA","steam_id":76561198086878595,"connected_time":2441000000000,"state":"active","ping":74},{"user_id":545,"name":"ed","steam_id":76561198080475712,"connected_time":2430000000000,"state":"active","ping":75},{"user_id":572,"name":"Meso","steam_id":76561199088153190,"connected_time":184000000000,"state":"active","ping":100},{"user_id":573,"name":"jorts","steam_id":76561199041179985,"connected_time":60000000000,"state":"active","ping":56},{"user_id":558,"name":"french exterminator","steam_id":76561198993412673,"connected_time":1697000000000,"state":"active","ping":68},{"user_id":518,"name":"Juuichi11","steam_id":76561198141955085,"connected_time":5966000000000,"state":"active","ping":50},{"user_id":559,"name":"Moonkey","steam_id":76561199013741389,"connected_time":1694000000000,"state":"active","ping":124},{"user_id":557,"name":"Arsonist Goose","steam_id":76561198147441830,"connected_time":1704000000000,"state":"active","ping":72},{"user_id":552,"name":"resh","steam_id":76561198239598834,"connected_time":1728000000000,"state":"active","ping":130},{"user_id":574,"name":"rorywashere /·ê† - Àï -„Éû ‚≥ä","steam_id":76561198065825165,"connected_time":59000000000,"state":"active","ping":118}]},{"server_id":119,"name":"Uncletopia | Seattle | 2 | All Maps","name_short":"sea-2","host":"sea-1.us.uncletopia.com","port":27025,"enabled":true,"region":"us-west","cc":"us","latitude":47.608013,"longitude":-122.33517,"reserved":0,"last_update":"0001-01-01T00:00:00Z","name_a2s":"Uncletopia | Seattle | 2 | All Maps","protocol":17,"map":"cp_dustbowl","folder":"tf","game":"Team Fortress","app_id":440,"player_count":24,"max_players":24,"Bots":0,"server_type":"Dedicated","server_os":"Linux","password":true,"vac":true,"version":"7932396","steam_id":85568392924469998,"keywords":["cp","nocrits","nodmgspread","uncletopia"],"game_id":440,"stv_port":27026,"stv_name":"Uncletopia | Seattle | 2 | All Maps | STV","players":[{"user_id":899,"name":"krispin' wah","steam_id":76561198027052378,"connected_time":2083000000000,"state":"active","ping":120},{"user_id":917,"name":"Oaky Loafs","steam_id":76561198317179010,"connected_time":620000000000,"state":"active","ping":56},{"user_id":909,"name":"Johnson, Navin R.","steam_id":76561197961107982,"connected_time":893000000000,"state":"active","ping":71},{"user_id":890,"name":"SN0W","steam_id":76561198153665468,"connected_time":2679000000000,"state":"active","ping":86},{"user_id":901,"name":"Lord Ballsack of Cum Castle","steam_id":76561198285996788,"connected_time":1937000000000,"state":"active","ping":113},{"user_id":887,"name":"Frank [LIVE ON TWITCH]","steam_id":76561198126681511,"connected_time":2837000000000,"state":"active","ping":76},{"user_id":906,"name":"airbudenjoyer2012","steam_id":76561198150428763,"connected_time":1210000000000,"state":"active","ping":103},{"user_id":907,"name":"Dive(z)","steam_id":76561198140843225,"connected_time":1057000000000,"state":"active","ping":102},{"user_id":910,"name":"‚òÜShinyMew112","steam_id":76561198042820161,"connected_time":884000000000,"state":"active","ping":86},{"user_id":905,"name":"lavender","steam_id":76561199069518286,"connected_time":1405000000000,"state":"active","ping":71},{"user_id":921,"name":"dougrocks421","steam_id":76561198165063918,"connected_time":118000000000,"state":"active","ping":39},{"user_id":912,"name":"MyCoal","steam_id":76561198045150946,"connected_time":859000000000,"state":"active","ping":59},{"user_id":913,"name":"Neo Kojiro","steam_id":76561198000967076,"connected_time":830000000000,"state":"active","ping":157},{"user_id":892,"name":"BlazedBunny","steam_id":76561198243610560,"connected_time":2423000000000,"state":"active","ping":79},{"user_id":866,"name":":(){ :|:\u0026 };:","steam_id":76561198115242460,"connected_time":4563000000000,"state":"active","ping":54},{"user_id":915,"name":"RaixaR","steam_id":76561198025289430,"connected_time":804000000000,"state":"active","ping":102},{"user_id":869,"name":"MyMonkeyBaby","steam_id":76561198046896670,"connected_time":4450000000000,"state":"active","ping":57},{"user_id":916,"name":"TheGreatDong","steam_id":76561198000634178,"connected_time":787000000000,"state":"active","ping":61},{"user_id":889,"name":"8bitw0rld","steam_id":76561198092788818,"connected_time":2717000000000,"state":"active","ping":57},{"user_id":918,"name":"Not Slavoj ≈Ωi≈æek","steam_id":76561198004619616,"connected_time":593000000000,"state":"active","ping":93},{"user_id":898,"name":"LTG face","steam_id":76561198035629877,"connected_time":2184000000000,"state":"active","ping":93},{"user_id":885,"name":"Person Man","steam_id":76561198293857963,"connected_time":3419000000000,"state":"active","ping":93},{"user_id":904,"name":"ShapedSky0","steam_id":76561199486555735,"connected_time":1501000000000,"state":"active","ping":109},{"user_id":920,"name":"Heavy Lobster","steam_id":76561199437953754,"connected_time":136000000000,"state":"active","ping":81}]},{"server_id":406,"name":"Uncletopia | Seattle | 3 | Stopwatch Beta","name_short":"sea-3","host":"sea-1.us.uncletopia.com","port":27035,"enabled":true,"region":"us-west","cc":"us","latitude":47.608013,"longitude":-122.33517,"reserved":0,"last_update":"0001-01-01T00:00:00Z","name_a2s":"Uncletopia | Seattle | 3 | Stopwatch Beta","protocol":17,"map":"workshop/koth_clearcut_b15.ugc2107050255","folder":"tf","game":"Team Fortress","app_id":440,"player_count":0,"max_players":24,"Bots":0,"server_type":"Dedicated","server_os":"Linux","password":true,"vac":true,"version":"7932396","steam_id":85568392924515217,"keywords":["cp","nocrits","nodmgspread","uncletopia"],"game_id":440,"stv_port":27036,"stv_name":"Uncletopia | Seattle | 3 | Stopwatch Beta | STV","players":null},{"server_id":17,"name":"Uncletopia | San Francisco | 1 | All Maps","name_short":"sfo-1","host":"sfo-1.us.uncletopia.com","port":27015,"enabled":true,"region":"us-west","cc":"us","latitude":37.77397,"longitude":-122.4313,"reserved":0,"last_update":"0001-01-01T00:00:00Z","name_a2s":"Uncletopia | San Francisco | 1 | All Maps","protocol":17,"map":"cp_mountainlab","folder":"tf","game":"Team Fortress","app_id":440,"player_count":24,"max_players":24,"Bots":0,"server_type":"Dedicated","server_os":"Linux","password":true,"vac":true,"version":"7932396","steam_id":85568392924469999,"keywords":["cp","nocrits","nodmgspread","uncletopia"],"game_id":440,"stv_port":27016,"stv_name":"Uncletopia | San Francisco | 1 | All Maps | STV","players":[{"user_id":199,"name":"[Industrial] A_HUMBLEBUMBLED","steam_id":76561198064771878,"connected_time":7239000000000,"state":"active","ping":45},{"user_id":247,"name":"SUPREME LEADER OF NORTH KOREA","steam_id":76561199467334502,"connected_time":1964000000000,"state":"active","ping":45},{"user_id":268,"name":"St. Bimmius","steam_id":76561198013595716,"connected_time":280000000000,"state":"active","ping":69},{"user_id":266,"name":"TEAM WIMPY BIG L0SER","steam_id":76561198392514273,"connected_time":332000000000,"state":"active","ping":72},{"user_id":225,"name":"kaede","steam_id":76561198345528370,"connected_time":5106000000000,"state":"active","ping":42},{"user_id":231,"name":"Killing_Moon","steam_id":76561198028185566,"connected_time":4750000000000,"state":"active","ping":59},{"user_id":276,"name":"chaos^","steam_id":76561198116697517,"connected_time":149000000000,"state":"active","ping":120},{"user_id":264,"name":"Windfall","steam_id":76561198046500859,"connected_time":470000000000,"state":"active","ping":58},{"user_id":253,"name":"Space Magic","steam_id":76561199006292310,"connected_time":1745000000000,"state":"active","ping":62},{"user_id":269,"name":"Dragonite","steam_id":76561198053223201,"connected_time":265000000000,"state":"active","ping":113},{"user_id":262,"name":"Chambers","steam_id":76561198092415156,"connected_time":662000000000,"state":"active","ping":152},{"user_id":249,"name":"H.","steam_id":76561198074951179,"connected_time":1904000000000,"state":"active","ping":66},{"user_id":270,"name":"Urist McDwarf","steam_id":76561198164004939,"connected_time":262000000000,"state":"active","ping":73},{"user_id":277,"name":"‚Ä∫ Pavvy","steam_id":76561197998662839,"connected_time":40000000000,"state":"active","ping":77},{"user_id":251,"name":"skittle ducks jr.","steam_id":76561198309823950,"connected_time":1803000000000,"state":"active","ping":60},{"user_id":272,"name":"Fiery","steam_id":76561197970843547,"connected_time":222000000000,"state":"active","ping":47},{"user_id":179,"name":"Nani","steam_id":76561198010230727,"connected_time":8256000000000,"state":"active","ping":57},{"user_id":239,"name":"NOT A BOT","steam_id":76561199092023746,"connected_time":3157000000000,"state":"active","ping":64},{"user_id":261,"name":"monkey squirts","steam_id":76561197983101644,"connected_time":945000000000,"state":"active","ping":58},{"user_id":258,"name":"sleep","steam_id":76561198069074012,"connected_time":1258000000000,"state":"active","ping":90},{"user_id":273,"name":"tekkito","steam_id":76561198084082737,"connected_time":217000000000,"state":"active","ping":109},{"user_id":259,"name":"DumbDragon","steam_id":76561198240899824,"connected_time":1250000000000,"state":"active","ping":51},{"user_id":245,"name":"Talulah","steam_id":76561198348354629,"connected_time":2611000000000,"state":"active","ping":56},{"user_id":275,"name":"ponstah","steam_id":76561198043995999,"connected_time":202000000000,"state":"active","ping":127}]},{"server_id":18,"name":"Uncletopia | San Francisco | 2 | All Maps","name_short":"sfo-2","host":"sfo-1.us.uncletopia.com","port":27025,"enabled":true,"region":"us-west","cc":"us","latitude":37.77397,"longitude":-122.4313,"reserved":0,"last_update":"0001-01-01T00:00:00Z","name_a2s":"Uncletopia | San Francisco | 2 | All Maps","protocol":17,"map":"pl_pier","folder":"tf","game":"Team Fortress","app_id":440,"player_count":24,"max_players":24,"Bots":0,"server_type":"Dedicated","server_os":"Linux","password":true,"vac":true,"version":"7932396","steam_id":85568392924470000,"keywords":["nocrits","nodmgspread","payload","uncletopia"],"game_id":440,"stv_port":27026,"stv_name":"Uncletopia | San Francisco | 2 | All Maps | STV","players":[{"user_id":238,"name":"Agni","steam_id":76561199229355018,"connected_time":2077000000000,"state":"active","ping":57},{"user_id":270,"name":"OneMisguidedSlyGuy","steam_id":76561198372243261,"connected_time":181000000000,"state":"active","ping":55},{"user_id":242,"name":"Sogified","steam_id":76561198093266755,"connected_time":1981000000000,"state":"active","ping":115},{"user_id":260,"name":"qouesm","steam_id":76561198042673929,"connected_time":1188000000000,"state":"active","ping":114},{"user_id":202,"name":"ApertureCity","steam_id":76561198004153607,"connected_time":4907000000000,"state":"active","ping":129},{"user_id":261,"name":"mega","steam_id":76561198089520959,"connected_time":1159000000000,"state":"active","ping":127},{"user_id":268,"name":"Vincent Van Goat","steam_id":76561198070543888,"connected_time":262000000000,"state":"active","ping":88},{"user_id":229,"name":"Truffles","steam_id":76561198095868800,"connected_time":2984000000000,"state":"active","ping":122},{"user_id":197,"name":"ant5678910","steam_id":76561199036142684,"connected_time":5195000000000,"state":"active","ping":59},{"user_id":271,"name":"JustaTroll","steam_id":76561198351004116,"connected_time":175000000000,"state":"active","ping":63},{"user_id":269,"name":"Your Dinosaurs","steam_id":76561198392670237,"connected_time":255000000000,"state":"active","ping":46},{"user_id":272,"name":"Quibits","steam_id":76561198032944405,"connected_time":156000000000,"state":"active","ping":47},{"user_id":273,"name":"ArcanianWarrior","steam_id":76561198178243991,"connected_time":73000000000,"state":"active","ping":57},{"user_id":248,"name":" û…íb∆ßA„Öã úœÖ ûi…í…íUH á","steam_id":76561199489544881,"connected_time":1590000000000,"state":"active","ping":172},{"user_id":249,"name":"F. Bomb Fitzgerald","steam_id":76561198031791060,"connected_time":1586000000000,"state":"active","ping":85},{"user_id":226,"name":"Seriously Bruh","steam_id":76561198070408485,"connected_time":3517000000000,"state":"active","ping":75},{"user_id":274,"name":"hedahman","steam_id":76561198052398134,"connected_time":71000000000,"state":"active","ping":67},{"user_id":275,"name":"Copy","steam_id":76561198025031590,"connected_time":70000000000,"state":"active","ping":70},{"user_id":149,"name":"Grand","steam_id":76561198290143399,"connected_time":9062000000000,"state":"active","ping":75},{"user_id":207,"name":"Mr. Boombox","steam_id":76561198070609120,"connected_time":4559000000000,"state":"active","ping":94},{"user_id":77,"name":"riSygneD","steam_id":76561198331618687,"connected_time":15248000000000,"state":"active","ping":46},{"user_id":253,"name":"The_Pacific_gamer","steam_id":76561198089491446,"connected_time":1496000000000,"state":"active","ping":62},{"user_id":262,"name":"Farseer Ulwithy","steam_id":76561197965179245,"connected_time":1135000000000,"state":"active","ping":85},{"user_id":266,"name":"A Soviet Panda","steam_id":76561198096337308,"connected_time":454000000000,"state":"active","ping":102}]},{"server_id":19,"name":"Uncletopia | San Francisco | 3 | Stopwatch Beta","name_short":"sfo-3","host":"sfo-1.us.uncletopia.com","port":27035,"enabled":true,"region":"us-west","cc":"us","latitude":37.77397,"longitude":-122.4313,"reserved":0,"last_update":"0001-01-01T00:00:00Z","name_a2s":"Uncletopia | San Francisco | 3 | Stopwatch Beta","protocol":17,"map":"workshop/pl_badwater_pro_v12.ugc2142942074","folder":"tf","game":"Team Fortress","app_id":440,"player_count":0,"max_players":24,"Bots":0,"server_type":"Dedicated","server_os":"Linux","password":true,"vac":true,"version":"7932396","steam_id":85568392924742824,"keywords":["nocrits","nodmgspread","payload","uncletopia"],"game_id":440,"stv_port":27036,"stv_name":"Uncletopia | San Francisco | 3 | Stopwatch Beta | STV","players":null},{"server_id":20,"name":"Uncletopia | San Francisco | 4 | Community","name_short":"sfo-4","host":"sfo-1.us.uncletopia.com","port":27045,"enabled":true,"region":"us-west","cc":"us","latitude":37.77397,"longitude":-122.4313,"reserved":0,"last_update":"0001-01-01T00:00:00Z","name_a2s":"Uncletopia | San Francisco | 4 | Community","protocol":17,"map":"workshop/koth_trenchfoot_b1a.ugc731436616","folder":"tf","game":"Team Fortress","app_id":440,"player_count":0,"max_players":24,"Bots":0,"server_type":"Dedicated","server_os":"Linux","password":true,"vac":true,"version":"7932396","steam_id":85568392924742826,"keywords":["cp","nocrits","nodmgspread","uncletopia"],"game_id":440,"stv_port":27046,"stv_name":"Uncletopia | San Francisco | 4 | Community | STV","players":null},{"server_id":141,"name":"Uncletopia | Sydney | 1 | All Maps","name_short":"syd-1","host":"syd-1.au.uncletopia.com","port":27015,"enabled":true,"region":"au","cc":"au","latitude":-33.865143,"longitude":151.2099,"reserved":0,"last_update":"0001-01-01T00:00:00Z","name_a2s":"Uncletopia | Sydney | 1 | All Maps","protocol":17,"map":"pl_upward","folder":"tf","game":"Team Fortress","app_id":440,"player_count":22,"max_players":24,"Bots":0,"server_type":"Dedicated","server_os":"Linux","password":true,"vac":true,"version":"7932396","steam_id":85568392924470001,"keywords":["nocrits","nodmgspread","payload","uncletopia"],"game_id":440,"stv_port":27016,"stv_name":"Uncletopia | Sydney | 1 | All Maps | STV","players":[{"user_id":13,"name":"Gallamellow","steam_id":76561198069046033,"connected_time":2197000000000,"state":"active","ping":41},{"user_id":15,"name":"Morshu the Shopkeep","steam_id":76561198077196776,"connected_time":2054000000000,"state":"active","ping":48},{"user_id":36,"name":"Halla875","steam_id":76561198371206561,"connected_time":579000000000,"state":"active","ping":68},{"user_id":19,"name":"uven","steam_id":76561198080981482,"connected_time":1761000000000,"state":"active","ping":37},{"user_id":39,"name":"Cup","steam_id":76561198038485845,"connected_time":525000000000,"state":"active","ping":30},{"user_id":22,"name":"Rashid Of The Dank Memes","steam_id":76561198281398078,"connected_time":1607000000000,"state":"active","ping":61},{"user_id":23,"name":"Hungry for thumbtacks","steam_id":76561198059129270,"connected_time":1442000000000,"state":"active","ping":67},{"user_id":24,"name":"Zebadar","steam_id":76561198121318474,"connected_time":1402000000000,"state":"active","ping":53},{"user_id":38,"name":"Nawor","steam_id":76561198087419337,"connected_time":559000000000,"state":"active","ping":54},{"user_id":50,"name":"sav","steam_id":76561198058760041,"connected_time":55000000000,"state":"active","ping":74},{"user_id":27,"name":"Sir Bigg","steam_id":76561199080759165,"connected_time":1233000000000,"state":"active","ping":64},{"user_id":30,"name":"Jeshƒ´","steam_id":76561198105982416,"connected_time":966000000000,"state":"active","ping":53},{"user_id":32,"name":"jim :)","steam_id":76561198127508905,"connected_time":811000000000,"state":"active","ping":36},{"user_id":33,"name":"Genuline","steam_id":76561198126426787,"connected_time":802000000000,"state":"active","ping":48},{"user_id":34,"name":"Okie Dokie","steam_id":76561198125237921,"connected_time":800000000000,"state":"active","ping":48},{"user_id":46,"name":"Meow'dy","steam_id":76561198100050147,"connected_time":370000000000,"state":"active","ping":99},{"user_id":42,"name":"Hawk","steam_id":76561198135164277,"connected_time":430000000000,"state":"active","ping":55},{"user_id":43,"name":"horrid webbon ·òõ‚ÅêÃ§·ïê·ê∑","steam_id":76561198061998379,"connected_time":427000000000,"state":"active","ping":47},{"user_id":47,"name":"hazz_mcpie -BvM-","steam_id":76561198092450084,"connected_time":221000000000,"state":"active","ping":90},{"user_id":45,"name":"mickey","steam_id":76561198145136439,"connected_time":392000000000,"state":"active","ping":58},{"user_id":48,"name":"steezus christ","steam_id":76561198048064049,"connected_time":171000000000,"state":"active","ping":86},{"user_id":49,"name":"Hunchback of Gay","steam_id":76561199440190709,"connected_time":152000000000,"state":"active","ping":61}]},{"server_id":123,"name":"Uncletopia | Sydney | 2 | All Maps","name_short":"syd-2","host":"syd-1.au.uncletopia.com","port":27025,"enabled":true,"region":"au","cc":"au","latitude":-33.865143,"longitude":151.2099,"reserved":0,"last_update":"0001-01-01T00:00:00Z","name_a2s":"Uncletopia | Sydney | 2 | All Maps","protocol":17,"map":"cp_snakewater_final1","folder":"tf","game":"Team Fortress","app_id":440,"player_count":0,"max_players":24,"Bots":0,"server_type":"Dedicated","server_os":"Linux","password":true,"vac":true,"version":"7932396","steam_id":85568392924470002,"keywords":["cp","nocrits","nodmgspread","uncletopia"],"game_id":440,"stv_port":27026,"stv_name":"Uncletopia | Sydney | 2 | All Maps | STV","players":null},{"server_id":395,"name":"Uncletopia | Sydney | 3 | All Maps","name_short":"syd-3","host":"syd-1.au.uncletopia.com","port":27035,"enabled":true,"region":"au","cc":"au","latitude":-33.865143,"longitude":151.2099,"reserved":0,"last_update":"0001-01-01T00:00:00Z","name_a2s":"Uncletopia | Sydney | 3 | All Maps","protocol":17,"map":"pl_upward","folder":"tf","game":"Team Fortress","app_id":440,"player_count":1,"max_players":24,"Bots":0,"server_type":"Dedicated","server_os":"Linux","password":true,"vac":true,"version":"7932396","steam_id":85568392925194467,"keywords":["nocrits","nodmgspread","payload","uncletopia"],"game_id":440,"stv_port":27036,"stv_name":"Uncletopia | Sydney | 3 | All Maps | STV","players":[{"user_id":5,"name":"Empol√©","steam_id":76561198363939040,"connected_time":2824000000000,"state":"active","ping":76}]},{"server_id":396,"name":"Uncletopia | Sydney | 4 | All Maps","name_short":"syd-4","host":"syd-1.au.uncletopia.com","port":27045,"enabled":true,"region":"au","cc":"au","latitude":-33.865143,"longitude":151.2099,"reserved":0,"last_update":"0001-01-01T00:00:00Z","name_a2s":"Uncletopia | Sydney | 4 | All Maps","protocol":17,"map":"pl_frontier_final","folder":"tf","game":"Team Fortress","app_id":440,"player_count":0,"max_players":24,"Bots":0,"server_type":"Dedicated","server_os":"Linux","password":true,"vac":true,"version":"7932396","steam_id":85568392925397958,"keywords":["nocrits","nodmgspread","payload","uncletopia"],"game_id":440,"stv_port":27046,"stv_name":"Uncletopia | Sydney | 4 | All Maps | STV","players":null},{"server_id":58,"name":"Uncletopia | Sydney | 5 | Stopwatch Beta","name_short":"syd-5","host":"syd-1.au.uncletopia.com","port":27055,"enabled":true,"region":"au","cc":"au","latitude":-33.865143,"longitude":151.2099,"reserved":0,"last_update":"0001-01-01T00:00:00Z","name_a2s":"Uncletopia | Sydney | 5 | Stopwatch Beta","protocol":17,"map":"pl_borneo","folder":"tf","game":"Team Fortress","app_id":440,"player_count":0,"max_players":24,"Bots":0,"server_type":"Dedicated","server_os":"Linux","password":true,"vac":true,"version":"7932396","steam_id":85568392925397959,"keywords":["nocrits","nodmgspread","payload","uncletopia"],"game_id":440,"stv_port":27056,"stv_name":"Uncletopia | Sydney | 5 | Stopwatch Beta | STV","players":null},{"server_id":59,"name":"Uncletopia | Sydney | 6 | Community","name_short":"syd-6","host":"syd-1.au.uncletopia.com","port":27065,"enabled":true,"region":"au","cc":"au","latitude":-33.865143,"longitude":151.2099,"reserved":0,"last_update":"0001-01-01T00:00:00Z","name_a2s":"Uncletopia | Sydney | 6 | Community","protocol":17,"map":"workshop/pl_highwood_b13.ugc1769496557","folder":"tf","game":"Team Fortress","app_id":440,"player_count":0,"max_players":24,"Bots":0,"server_type":"Dedicated","server_os":"Linux","password":true,"vac":true,"version":"7932396","steam_id":85568392925397960,"keywords":["nocrits","nodmgspread","payload","uncletopia"],"game_id":440,"stv_port":27066,"stv_name":"Uncletopia | Sydney | 6 | Community | STV","players":null},{"server_id":49,"name":"Uncletopia | Warsaw | 1 | All Maps","name_short":"waw-1","host":"waw-1.pl.uncletopia.com","port":27015,"enabled":true,"region":"eu","cc":"pl","latitude":52.2297,"longitude":21.017532,"reserved":0,"last_update":"0001-01-01T00:00:00Z","name_a2s":"","protocol":0,"map":"","folder":"","game":"","app_id":0,"player_count":0,"max_players":0,"Bots":0,"server_type":"","server_os":"","password":false,"vac":false,"version":"","steam_id":0,"keywords":null,"game_id":0,"stv_port":0,"stv_name":"","players":null},{"server_id":50,"name":"Uncletopia | Warsaw | 2 | All Maps","name_short":"waw-2","host":"waw-1.pl.uncletopia.com","port":27025,"enabled":true,"region":"eu","cc":"pl","latitude":52.2297,"longitude":21.017532,"reserved":0,"last_update":"0001-01-01T00:00:00Z","name_a2s":"Uncletopia | Warsaw | 2 | All Maps","protocol":17,"map":"cp_sunshine","folder":"tf","game":"Team Fortress","app_id":440,"player_count":0,"max_players":24,"Bots":0,"server_type":"Dedicated","server_os":"Linux","password":true,"vac":true,"version":"7932396","steam_id":85568392925397851,"keywords":["cp","nocrits","nodmgspread","uncletopia"],"game_id":440,"stv_port":27026,"stv_name":"Uncletopia | Warsaw | 2 | All Maps | STV","players":null},{"server_id":51,"name":"Uncletopia | Warsaw | 3 | All Maps","name_short":"waw-3","host":"waw-1.pl.uncletopia.com","port":27035,"enabled":true,"region":"eu","cc":"pl","latitude":52.2297,"longitude":21.017532,"reserved":0,"last_update":"0001-01-01T00:00:00Z","name_a2s":"Uncletopia | Warsaw | 3 | All Maps","protocol":17,"map":"koth_lakeside_final","folder":"tf","game":"Team Fortress","app_id":440,"player_count":0,"max_players":24,"Bots":0,"server_type":"Dedicated","server_os":"Linux","password":true,"vac":true,"version":"7932396","steam_id":85568392925397852,"keywords":["cp","nocrits","nodmgspread","uncletopia"],"game_id":440,"stv_port":27036,"stv_name":"Uncletopia | Warsaw | 3 | All Maps | STV","players":null},{"server_id":52,"name":"Uncletopia | Warsaw | 4 | All Maps","name_short":"waw-4","host":"waw-1.pl.uncletopia.com","port":27045,"enabled":true,"region":"eu","cc":"pl","latitude":52.2297,"longitude":21.017532,"reserved":0,"last_update":"0001-01-01T00:00:00Z","name_a2s":"Uncletopia | Warsaw | 4 | All Maps","protocol":17,"map":"pl_swiftwater_final1","folder":"tf","game":"Team Fortress","app_id":440,"player_count":0,"max_players":24,"Bots":0,"server_type":"Dedicated","server_os":"Linux","password":true,"vac":true,"version":"7932396","steam_id":85568392925397853,"keywords":["nocrits","nodmgspread","payload","uncletopia"],"game_id":440,"stv_port":27046,"stv_name":"Uncletopia | Warsaw | 4 | All Maps | STV","players":null},{"server_id":53,"name":"Uncletopia | Warsaw | 5 | Stopwatch Beta","name_short":"waw-5","host":"waw-1.pl.uncletopia.com","port":27055,"enabled":true,"region":"eu","cc":"pl","latitude":52.2297,"longitude":21.017532,"reserved":0,"last_update":"0001-01-01T00:00:00Z","name_a2s":"Uncletopia | Warsaw | 5 | Stopwatch Beta","protocol":17,"map":"koth_highpass","folder":"tf","game":"Team Fortress","app_id":440,"player_count":0,"max_players":24,"Bots":0,"server_type":"Dedicated","server_os":"Linux","password":true,"vac":true,"version":"7932396","steam_id":85568392925397854,"keywords":["cp","nocrits","nodmgspread","uncletopia"],"game_id":440,"stv_port":27056,"stv_name":"Uncletopia | Warsaw | 5 | Stopwatch Beta | STV","players":null},{"server_id":54,"name":"Uncletopia | Warsaw | 6 | Community","name_short":"waw-6","host":"waw-1.pl.uncletopia.com","port":27065,"enabled":true,"region":"eu","cc":"pl","latitude":52.2297,"longitude":21.017532,"reserved":0,"last_update":"0001-01-01T00:00:00Z","name_a2s":"Uncletopia | Warsaw | 6 | Community","protocol":17,"map":"pl_upward","folder":"tf","game":"Team Fortress","app_id":440,"player_count":0,"max_players":24,"Bots":0,"server_type":"Dedicated","server_os":"Linux","password":true,"vac":true,"version":"7932396","steam_id":85568392925397856,"keywords":["nocrits","nodmgspread","payload","uncletopia"],"game_id":440,"stv_port":27066,"stv_name":"Uncletopia | Warsaw | 6 | Community | STV","players":null}]}