{"status":true,"message":"","result":[{"server_id":9,"name":"Uncletopia | Atlanta | 1 | All Maps","name_short":"atl-1","host":"atl-1.us.uncletopia.com","port":27015,"enabled":true,"region":"us-east","cc":"us","latitude":33.753746,"longitude":-84.38633,"reserved":0,"last_update":"0001-01-01T00:00:00Z","name_a2s":"Uncletopia | Atlanta | 1 | All Maps","protocol":17,"map":"koth_highpass","folder":"tf","game":"Team Fortress","app_id":440,"player_count":0,"max_players":24,"Bots":0,"server_type":"Dedicated","server_os":"Linux","password":true,"vac":true,"version":"7757534","steam_id":85568392924469982,"keywords":["cp","nocrits","nodmgspread","uncletopia"],"game_id":440,"stv_port":27016,"stv_name":"Uncletopia | Atlanta | 1 | All Maps | STV","players":null},{"server_id":400,"name":"Uncletopia | Atlanta | 3 | Community","name_short":"atl-3","host":"atl-1.us.uncletopia.com","port":27035,"enabled":true,"region":"us-east","cc":"us","latitude":33.753746,"longitude":-84.38633,"reserved":0,"last_update":"0001-01-01T00:00:00Z","name_a2s":"Uncletopia | Atlanta | 3 | Community","protocol":17,"map":"cp_mountainlab","folder":"tf","game":"Team Fortress","app_id":440,"player_count":0,"max_players":24,"Bots":0,"server_type":"Dedicated","server_os":"Linux","password":true,"vac":true,"version":"7757534","steam_id":85568392924515187,"keywords":["cp","nocrits","nodmgspread","uncletopia"],"game_id":440,"stv_port":27036,"stv_name":"Uncletopia | Atlanta | 3 | Community | STV","players":null},{"server_id":401,"name":"Uncletopia | Atlanta | 4 | No Payload","name_short":"atl-4","host":"atl-1.us.uncletopia.com","port":27045,"enabled":true,"region":"us-east","cc":"us","latitude":33.753746,"longitude":-84.38633,"reserved":0,"last_update":"0001-01-01T00:00:00Z","name_a2s":"","protocol":0,"map":"","folder":"","game":"","app_id":0,"player_count":0,"max_players":0,"Bots":0,"server_type":"","server_os":"","password":false,"vac":false,"version":"","steam_id":0,"keywords":null,"game_id":0,"stv_port":0,"stv_name":"","players":null},{"server_id":2,"name":"Uncletopia | Chicago | 1 | All Maps","name_short":"chi-1","host":"chi-1.us.uncletopia.com","port":27015,"enabled":true,"region":"us-central","cc":"us","latitude":41.881832,"longitude":-87.62318,"reserved":0,"last_update":"0001-01-01T00:00:00Z","name_a2s":"Uncletopia | Chicago | 1 | All Maps","protocol":17,"map":"pl_snowycoast","folder":"tf","game":"Team Fortress","app_id":440,"player_count":24,"max_players":24,"Bots":0,"server_type":"Dedicated","server_os":"Linux","password":true,"vac":true,"version":"7757534","steam_id":85568392924469984,"keywords":["nocrits","nodmgspread","payload","uncletopia"],"game_id":440,"stv_port":27016,"stv_name":"Uncletopia | Chicago | 1 | All Maps | STV","players":[{"user_id":3,"name":"Paradoxical_Wayfarer","steam_id":76561198043250942,"connected_time":6060000000000,"state":"active","ping":46},{"user_id":107,"name":"Loogey03","steam_id":76561198155483586,"connected_time":538000000000,"state":"active","ping":58},{"user_id":78,"name":"KatzenMeister","steam_id":76561198315056580,"connected_time":2370000000000,"state":"active","ping":89},{"user_id":63,"name":"kodoku","steam_id":76561198077902438,"connected_time":3419000000000,"state":"active","ping":75},{"user_id":102,"name":"Bong Rips for Karl","steam_id":76561197976436609,"connected_time":658000000000,"state":"active","ping":77},{"user_id":109,"name":"Veir≈´ Viseris","steam_id":76561197989857176,"connected_time":108000000000,"state":"active","ping":162},{"user_id":110,"name":"cortar","steam_id":76561199077636183,"connected_time":73000000000,"state":"active","ping":85},{"user_id":87,"name":"feenman","steam_id":76561199383834799,"connected_time":1592000000000,"state":"active","ping":99},{"user_id":106,"name":"Peri","steam_id":76561198255311543,"connected_time":617000000000,"state":"active","ping":62},{"user_id":88,"name":"‚ô°Popcorn_Pillow‚ô°","steam_id":76561199117033095,"connected_time":1570000000000,"state":"active","ping":119},{"user_id":100,"name":"IPlayGamez","steam_id":76561198041387508,"connected_time":830000000000,"state":"active","ping":67},{"user_id":95,"name":"jimbo","steam_id":76561198046059770,"connected_time":978000000000,"state":"active","ping":62},{"user_id":64,"name":"hi","steam_id":76561198809577048,"connected_time":3344000000000,"state":"active","ping":102},{"user_id":104,"name":"Big Phony","steam_id":76561199092395311,"connected_time":656000000000,"state":"active","ping":68},{"user_id":75,"name":"Mak","steam_id":76561198089197922,"connected_time":2435000000000,"state":"active","ping":105},{"user_id":97,"name":"Will Walters","steam_id":76561198249138216,"connected_time":950000000000,"state":"active","ping":75},{"user_id":30,"name":"ADOLF RIZZLER","steam_id":76561198017945920,"connected_time":5034000000000,"state":"active","ping":60},{"user_id":108,"name":"Thorngot","steam_id":76561198398094468,"connected_time":379000000000,"state":"active","ping":86},{"user_id":99,"name":"Phoenix","steam_id":76561199222233650,"connected_time":862000000000,"state":"active","ping":68},{"user_id":105,"name":"Don't Fuckle with Shuckle","steam_id":76561199020102367,"connected_time":646000000000,"state":"active","ping":83},{"user_id":68,"name":"n00bcreeper45 | hotdogexperimen","steam_id":76561198039180450,"connected_time":3294000000000,"state":"active","ping":70},{"user_id":51,"name":"I SwirlyPop I","steam_id":76561198039152318,"connected_time":4454000000000,"state":"active","ping":88},{"user_id":54,"name":"dairy","steam_id":76561198117033273,"connected_time":4231000000000,"state":"active","ping":141},{"user_id":83,"name":"Mr. Luggy","steam_id":76561198072723392,"connected_time":2291000000000,"state":"active","ping":96}]},{"server_id":106,"name":"Uncletopia | Chicago | 2 | All Maps","name_short":"chi-2","host":"chi-1.us.uncletopia.com","port":27025,"enabled":true,"region":"us-central","cc":"us","latitude":41.881832,"longitude":-87.62318,"reserved":0,"last_update":"0001-01-01T00:00:00Z","name_a2s":"Uncletopia | Chicago | 2 | All Maps","protocol":17,"map":"pl_upward","folder":"tf","game":"Team Fortress","app_id":440,"player_count":0,"max_players":24,"Bots":0,"server_type":"Dedicated","server_os":"Linux","password":true,"vac":true,"version":"7757534","steam_id":85568392924469985,"keywords":["nocrits","nodmgspread","payload","uncletopia"],"game_id":440,"stv_port":27026,"stv_name":"Uncletopia | Chicago | 2 | All Maps | STV","players":null},{"server_id":402,"name":"Uncletopia | Chicago | 3 | All Maps","name_short":"chi-3","host":"chi-1.us.uncletopia.com","port":27035,"enabled":true,"region":"us-central","cc":"us","latitude":41.881832,"longitude":-87.62318,"reserved":0,"last_update":"0001-01-01T00:00:00Z","name_a2s":"Uncletopia | Chicago | 3 | All Maps","protocol":17,"map":"koth_cascade","folder":"tf","game":"Team Fortress","app_id":440,"player_count":0,"max_players":24,"Bots":0,"server_type":"Dedicated","server_os":"Linux","password":true,"vac":true,"version":"7757534","steam_id":85568392924515191,"keywords":["cp","nocrits","nodmgspread","uncletopia"],"game_id":440,"stv_port":27036,"stv_name":"Uncletopia | Chicago | 3 | All Maps | STV","players":null},{"server_id":403,"name":"Uncletopia | Chicago | 4 | All Maps","name_short":"chi-4","host":"chi-1.us.uncletopia.com","port":27045,"enabled":true,"region":"us-central","cc":"us","latitude":41.881832,"longitude":-87.62318,"reserved":0,"last_update":"0001-01-01T00:00:00Z","name_a2s":"Uncletopia | Chicago | 4 | All Maps","protocol":17,"map":"koth_cascade","folder":"tf","game":"Team Fortress","app_id":440,"player_count":0,"max_players":24,"Bots":0,"server_type":"Dedicated","server_os":"Linux","password":true,"vac":true,"version":"7757534","steam_id":85568392924515193,"keywords":["cp","nocrits","nodmgspread","uncletopia"],"game_id":440,"stv_port":27046,"stv_name":"Uncletopia | Chicago | 4 | All Maps | STV","players":null},{"server_id":36,"name":"Uncletopia | Chicago | 5 | All Maps","name_short":"chi-5","host":"chi-2.us.uncletopia.com","port":27015,"enabled":true,"region":"us-central","cc":"us","latitude":41.881832,"longitude":-87.62318,"reserved":0,"last_update":"0001-01-01T00:00:00Z","name_a2s":"Uncletopia | Chicago | 5 | All Maps","protocol":17,"map":"koth_lakeside_final","folder":"tf","game":"Team Fortress","app_id":440,"player_count":0,"max_players":24,"Bots":0,"server_type":"Dedicated","server_os":"Linux","password":true,"vac":true,"version":"7757534","steam_id":85568392924866362,"keywords":["cp","nocrits","nodmgspread","uncletopia"],"game_id":440,"stv_port":27016,"stv_name":"Uncletopia | Chicago | 5 | All Maps | STV","players":null},{"server_id":37,"name":"Uncletopia | Chicago | 6 | All Maps","name_short":"chi-6","host":"chi-2.us.uncletopia.com","port":27025,"enabled":true,"region":"us-central","cc":"us","latitude":41.881832,"longitude":-87.62318,"reserved":0,"last_update":"0001-01-01T00:00:00Z","name_a2s":"Uncletopia | Chicago | 6 | All Maps","protocol":17,"map":"cp_dustbowl","folder":"tf","game":"Team Fortress","app_id":440,"player_count":0,"max_players":24,"Bots":0,"server_type":"Dedicated","server_os":"Linux","password":true,"vac":true,"version":"7757534","steam_id":85568392924866363,"keywords":["cp","nocrits","nodmgspread","uncletopia"],"game_id":440,"stv_port":27026,"stv_name":"Uncletopia | Chicago | 6 | All Maps | STV","players":null},{"server_id":38,"name":"Uncletopia | Chicago | 7 | Stopwatch Beta","name_short":"chi-7","host":"chi-2.us.uncletopia.com","port":27035,"enabled":true,"region":"us-central","cc":"us","latitude":41.881832,"longitude":-87.62318,"reserved":0,"last_update":"0001-01-01T00:00:00Z","name_a2s":"Uncletopia | Chicago | 7 | Stopwatch Beta","protocol":17,"map":"koth_viaduct","folder":"tf","game":"Team Fortress","app_id":440,"player_count":0,"max_players":24,"Bots":0,"server_type":"Dedicated","server_os":"Linux","password":true,"vac":true,"version":"7757534","steam_id":85568392924866364,"keywords":["cp","nocrits","nodmgspread","uncletopia"],"game_id":440,"stv_port":27036,"stv_name":"Uncletopia | Chicago | 7 | Stopwatch Beta | STV","players":null},{"server_id":39,"name":"Uncletopia | Chicago | 8 | Community","name_short":"chi-8","host":"chi-2.us.uncletopia.com","port":27045,"enabled":true,"region":"us-central","cc":"us","latitude":41.881832,"longitude":-87.62318,"reserved":0,"last_update":"0001-01-01T00:00:00Z","name_a2s":"Uncletopia | Chicago | 8 | Community","protocol":17,"map":"koth_lakeside_final","folder":"tf","game":"Team Fortress","app_id":440,"player_count":0,"max_players":24,"Bots":0,"server_type":"Dedicated","server_os":"Linux","password":true,"vac":true,"version":"7757534","steam_id":85568392924866365,"keywords":["cp","nocrits","nodmgspread","uncletopia"],"game_id":440,"stv_port":27046,"stv_name":"Uncletopia | Chicago | 8 | Community | STV","players":null},{"server_id":8,"name":"Uncletopia | Dallas | 1 | All Maps","name_short":"dal-1","host":"dal-1.us.uncletopia.com","port":27015,"enabled":true,"region":"us-central","cc":"us","latitude":32.779167,"longitude":-96.80889,"reserved":0,"last_update":"0001-01-01T00:00:00Z","name_a2s":"Uncletopia | Dallas | 1 | All Maps","protocol":17,"map":"cp_sunshine","folder":"tf","game":"Team Fortress","app_id":440,"player_count":0,"max_players":24,"Bots":0,"server_type":"Dedicated","server_os":"Linux","password":true,"vac":true,"version":"7757534","steam_id":85568392924469986,"keywords":["cp","nocrits","nodmgspread","uncletopia"],"game_id":440,"stv_port":27016,"stv_name":"Uncletopia | Dallas | 1 | All Maps | STV","players":null},{"server_id":108,"name":"Uncletopia | Dallas | 2 | All Maps","name_short":"dal-2","host":"dal-1.us.uncletopia.com","port":27025,"enabled":true,"region":"us-central","cc":"us","latitude":32.779167,"longitude":-96.80889,"reserved":0,"last_update":"0001-01-01T00:00:00Z","name_a2s":"Uncletopia | Dallas | 2 | All Maps","protocol":17,"map":"cp_altitude","folder":"tf","game":"Team Fortress","app_id":440,"player_count":0,"max_players":24,"Bots":0,"server_type":"Dedicated","server_os":"Linux","password":true,"vac":true,"version":"7757534","steam_id":85568392924469988,"keywords":["cp","nocrits","nodmgspread","uncletopia"],"game_id":440,"stv_port":27026,"stv_name":"Uncletopia | Dallas | 2 | All Maps | STV","players":null},{"server_id":5,"name":"Uncletopia | Frankfurt | 1 | All Maps","name_short":"frk-1","host":"frk-1.de.uncletopia.com","port":27015,"enabled":true,"region":"eu","cc":"de","latitude":50.110924,"longitude":8.682127,"reserved":0,"last_update":"0001-01-01T00:00:00Z","name_a2s":"Uncletopia | Frankfurt | 1 | All Maps","protocol":17,"map":"cp_gorge","folder":"tf","game":"Team Fortress","app_id":440,"player_count":24,"max_players":24,"Bots":0,"server_type":"Dedicated","server_os":"Linux","password":true,"vac":true,"version":"7757534","steam_id":85568392924469989,"keywords":["cp","nocrits","nodmgspread","uncletopia"],"game_id":440,"stv_port":27016,"stv_name":"Uncletopia | Frankfurt | 1 | All Maps | STV","players":[{"user_id":23,"name":"hourglass","steam_id":76561198166613799,"connected_time":5288000000000,"state":"active","ping":86},{"user_id":55,"name":"Grandpa Dingelberg","steam_id":76561198072166743,"connected_time":3487000000000,"state":"active","ping":155},{"user_id":64,"name":"Ljubi Te Brat . . .","steam_id":76561198054582971,"connected_time":2481000000000,"state":"active","ping":72},{"user_id":26,"name":"DawnStar","steam_id":76561198271106831,"connected_time":5243000000000,"state":"active","ping":103},{"user_id":73,"name":"Rex","steam_id":76561199474556920,"connected_time":1976000000000,"state":"active","ping":90},{"user_id":28,"name":"Microsoft PowerPoint","steam_id":76561198204290539,"connected_time":4860000000000,"state":"active","ping":75},{"user_id":77,"name":"CrazyEarth","steam_id":76561198101745576,"connected_time":1465000000000,"state":"active","ping":71},{"user_id":82,"name":"on1on (pickled)","steam_id":76561197995304137,"connected_time":880000000000,"state":"active","ping":56},{"user_id":68,"name":"nostalgia critic side character","steam_id":76561198273681447,"connected_time":2084000000000,"state":"active","ping":75},{"user_id":69,"name":"Great recession of 2008","steam_id":76561198881151562,"connected_time":2082000000000,"state":"active","ping":93},{"user_id":51,"name":"plepek","steam_id":76561198042959598,"connected_time":4413000000000,"state":"active","ping":73},{"user_id":74,"name":"Chikapu_Xek","steam_id":76561198428023493,"connected_time":1900000000000,"state":"active","ping":72},{"user_id":84,"name":"I have aids","steam_id":76561198860347851,"connected_time":493000000000,"state":"active","ping":138},{"user_id":63,"name":"john fortress","steam_id":76561198013237629,"connected_time":2559000000000,"state":"active","ping":100},{"user_id":59,"name":"Prezers","steam_id":76561198211612216,"connected_time":3402000000000,"state":"active","ping":98},{"user_id":83,"name":"hud_saytext_time 0","steam_id":76561198010327228,"connected_time":687000000000,"state":"active","ping":58},{"user_id":85,"name":"Unfortunate","steam_id":76561198125500777,"connected_time":455000000000,"state":"active","ping":89},{"user_id":86,"name":"Saul Goodman","steam_id":76561198276443605,"connected_time":440000000000,"state":"active","ping":113},{"user_id":79,"name":"Kenaga","steam_id":76561198052927473,"connected_time":1190000000000,"state":"active","ping":99},{"user_id":72,"name":"Dzan50","steam_id":76561198059758591,"connected_time":2036000000000,"state":"active","ping":89},{"user_id":87,"name":"Bob.","steam_id":76561198330093822,"connected_time":436000000000,"state":"active","ping":75},{"user_id":76,"name":"eoy","steam_id":76561198116511067,"connected_time":1772000000000,"state":"active","ping":89},{"user_id":49,"name":"Killer8880","steam_id":76561199094449560,"connected_time":4521000000000,"state":"active","ping":105},{"user_id":50,"name":"TheFallenFox","steam_id":76561199074190919,"connected_time":4520000000000,"state":"active","ping":61}]},{"server_id":110,"name":"Uncletopia | Frankfurt | 2 | All Maps","name_short":"frk-2","host":"frk-1.de.uncletopia.com","port":27025,"enabled":true,"region":"eu","cc":"de","latitude":50.110924,"longitude":8.682127,"reserved":0,"last_update":"0001-01-01T00:00:00Z","name_a2s":"Uncletopia | Frankfurt | 2 | All Maps","protocol":17,"map":"koth_viaduct","folder":"tf","game":"Team Fortress","app_id":440,"player_count":14,"max_players":24,"Bots":0,"server_type":"Dedicated","server_os":"Linux","password":true,"vac":true,"version":"7757534","steam_id":85568392924469990,"keywords":["cp","nocrits","nodmgspread","uncletopia"],"game_id":440,"stv_port":27026,"stv_name":"Uncletopia | Frankfurt | 2 | All Maps | STV","players":[{"user_id":206,"name":"9034kh-bgtio","steam_id":76561198401523966,"connected_time":975000000000,"state":"spawning","ping":165},{"user_id":211,"name":"DOMAIN","steam_id":76561199095640319,"connected_time":5000000000,"state":"spawning","ping":77},{"user_id":195,"name":"Osmo","steam_id":76561199286764992,"connected_time":1646000000000,"state":"active","ping":238},{"user_id":199,"name":"aura","steam_id":76561197991687793,"connected_time":1458000000000,"state":"spawning","ping":64},{"user_id":181,"name":"‚ô´‚òÖXriasp‚òÖ‚ô´","steam_id":76561198104721321,"connected_time":2557000000000,"state":"spawning","ping":156},{"user_id":210,"name":"Noah 24.8","steam_id":76561198210102703,"connected_time":87000000000,"state":"spawning","ping":31},{"user_id":191,"name":"Gay Vulture","steam_id":76561198034100354,"connected_time":2010000000000,"state":"active","ping":259},{"user_id":165,"name":"Wario","steam_id":76561198356089255,"connected_time":3845000000000,"state":"spawning","ping":52},{"user_id":179,"name":"Numbe","steam_id":76561198269614930,"connected_time":2572000000000,"state":"spawning","ping":78},{"user_id":162,"name":"Striker","steam_id":76561198100173021,"connected_time":3943000000000,"state":"active","ping":79},{"user_id":59,"name":"dob:cob","steam_id":76561198253323044,"connected_time":11596000000000,"state":"spawning","ping":70},{"user_id":176,"name":"Seeker","steam_id":76561198873052772,"connected_time":2687000000000,"state":"active","ping":115},{"user_id":203,"name":"S0LDaTo","steam_id":76561198269413360,"connected_time":1022000000000,"state":"spawning","ping":68},{"user_id":186,"name":"Old Hat","steam_id":76561197994673297,"connected_time":2376000000000,"state":"spawning","ping":47}]},{"server_id":308,"name":"Uncletopia | Frankfurt | 3 | All Maps","name_short":"frk-3","host":"frk-1.de.uncletopia.com","port":27035,"enabled":true,"region":"eu","cc":"de","latitude":50.110924,"longitude":8.682127,"reserved":0,"last_update":"0001-01-01T00:00:00Z","name_a2s":"Uncletopia | Frankfurt | 3 | All Maps","protocol":17,"map":"koth_cascade","folder":"tf","game":"Team Fortress","app_id":440,"player_count":0,"max_players":24,"Bots":0,"server_type":"Dedicated","server_os":"Linux","password":true,"vac":true,"version":"7757534","steam_id":85568392924504274,"keywords":["cp","nocrits","nodmgspread","uncletopia"],"game_id":440,"stv_port":27036,"stv_name":"Uncletopia | Frankfurt | 3 | All Maps | STV","players":null},{"server_id":309,"name":"Uncletopia | Frankfurt | 4 | All Maps","name_short":"frk-4","host":"frk-1.de.uncletopia.com","port":27045,"enabled":true,"region":"eu","cc":"de","latitude":50.110924,"longitude":8.682127,"reserved":0,"last_update":"0001-01-01T00:00:00Z","name_a2s":"Uncletopia | Frankfurt | 4 | All Maps","protocol":17,"map":"pl_upward","folder":"tf","game":"Team Fortress","app_id":440,"player_count":24,"max_players":24,"Bots":0,"server_type":"Dedicated","server_os":"Linux","password":true,"vac":true,"version":"7757534","steam_id":85568392924504275,"keywords":["nocrits","nodmgspread","payload","uncletopia"],"game_id":440,"stv_port":27046,"stv_name":"Uncletopia | Frankfurt | 4 | All Maps | STV","players":[{"user_id":6,"name":"Maxy Luck","steam_id":76561199009583144,"connected_time":3528000000000,"state":"active","ping":108},{"user_id":27,"name":"Pocket Shield","steam_id":76561198170917854,"connected_time":2137000000000,"state":"active","ping":51},{"user_id":8,"name":"gus","steam_id":76561198876303958,"connected_time":3319000000000,"state":"active","ping":116},{"user_id":64,"name":"Juggins","steam_id":76561197962571373,"connected_time":31000000000,"state":"active","ping":81},{"user_id":16,"name":"_Chelik_","steam_id":76561199076069284,"connected_time":2624000000000,"state":"active","ping":86},{"user_id":25,"name":"‚òÖpoyo‚òÖ","steam_id":76561198150078959,"connected_time":2232000000000,"state":"active","ping":77},{"user_id":17,"name":"hey kid, wanna see my Octagon?","steam_id":76561198066287297,"connected_time":2602000000000,"state":"active","ping":55},{"user_id":22,"name":"Caro-Kann","steam_id":76561198065506317,"connected_time":2322000000000,"state":"active","ping":63},{"user_id":24,"name":"the AWP player","steam_id":76561198054047446,"connected_time":2276000000000,"state":"active","ping":63},{"user_id":62,"name":"push fuck as","steam_id":76561199360189459,"connected_time":141000000000,"state":"active","ping":75},{"user_id":26,"name":"nutty zoe","steam_id":76561199013457963,"connected_time":2221000000000,"state":"active","ping":65},{"user_id":54,"name":"Chambersite","steam_id":76561198197022399,"connected_time":435000000000,"state":"active","ping":76},{"user_id":52,"name":"Jarvis from Avengers","steam_id":76561198164035863,"connected_time":571000000000,"state":"active","ping":139},{"user_id":55,"name":"DocTwoEight","steam_id":76561198153488940,"connected_time":417000000000,"state":"active","ping":62},{"user_id":31,"name":"–î–µ–Ω–∏—Å –ë–∞–∑—É–∫–∞","steam_id":76561198835849082,"connected_time":2023000000000,"state":"active","ping":94},{"user_id":63,"name":"stoppen","steam_id":76561197960281482,"connected_time":103000000000,"state":"active","ping":70},{"user_id":42,"name":"Dark ^^","steam_id":76561198036241064,"connected_time":1660000000000,"state":"active","ping":55},{"user_id":35,"name":"rizook","steam_id":76561198055010039,"connected_time":1786000000000,"state":"active","ping":70},{"user_id":36,"name":"nightmare","steam_id":76561198386928726,"connected_time":1786000000000,"state":"active","ping":99},{"user_id":59,"name":"ducks","steam_id":76561198166148685,"connected_time":264000000000,"state":"active","ping":51},{"user_id":38,"name":"Hey, I¬¥m Andy!","steam_id":76561198060337777,"connected_time":1783000000000,"state":"active","ping":80},{"user_id":56,"name":"Fascist state of Rock n' Roll","steam_id":76561199129807175,"connected_time":409000000000,"state":"active","ping":129},{"user_id":46,"name":"Hot Bean","steam_id":76561198803639155,"connected_time":1448000000000,"state":"active","ping":87},{"user_id":66,"name":"BRIDGEBURNER420","steam_id":76561198183949987,"connected_time":18000000000,"state":"spawning","ping":75}]},{"server_id":310,"name":"Uncletopia | Frankfurt | 5 | All Maps","name_short":"frk-5","host":"frk-1.de.uncletopia.com","port":27055,"enabled":true,"region":"eu","cc":"de","latitude":50.110924,"longitude":8.682127,"reserved":0,"last_update":"0001-01-01T00:00:00Z","name_a2s":"Uncletopia | Frankfurt | 5 | All Maps","protocol":17,"map":"koth_viaduct","folder":"tf","game":"Team Fortress","app_id":440,"player_count":0,"max_players":24,"Bots":0,"server_type":"Dedicated","server_os":"Linux","password":true,"vac":true,"version":"7757534","steam_id":85568392924504277,"keywords":["cp","nocrits","nodmgspread","uncletopia"],"game_id":440,"stv_port":27056,"stv_name":"Uncletopia | Frankfurt | 5 | All Maps | STV","players":null},{"server_id":311,"name":"Uncletopia | Frankfurt | 6 | All Maps","name_short":"frk-6","host":"frk-1.de.uncletopia.com","port":27065,"enabled":true,"region":"eu","cc":"de","latitude":50.110924,"longitude":8.682127,"reserved":0,"last_update":"0001-01-01T00:00:00Z","name_a2s":"Uncletopia | Frankfurt | 6 | All Maps","protocol":17,"map":"cp_process_final","folder":"tf","game":"Team Fortress","app_id":440,"player_count":23,"max_players":24,"Bots":0,"server_type":"Dedicated","server_os":"Linux","password":true,"vac":true,"version":"7757534","steam_id":85568392924504278,"keywords":["cp","nocrits","nodmgspread","uncletopia"],"game_id":440,"stv_port":27066,"stv_name":"Uncletopia | Frankfurt | 6 | All Maps | STV","players":[{"user_id":147,"name":"Mr.TEA","steam_id":76561198014381591,"connected_time":268000000000,"state":"active","ping":65},{"user_id":149,"name":"I have no path in life","steam_id":76561198418538887,"connected_time":213000000000,"state":"active","ping":93},{"user_id":140,"name":"Art","steam_id":76561198823514629,"connected_time":494000000000,"state":"active","ping":118},{"user_id":150,"name":"lacurio","steam_id":76561198059701776,"connected_time":184000000000,"state":"active","ping":60},{"user_id":148,"name":"ye","steam_id":76561198110452167,"connected_time":265000000000,"state":"active","ping":61},{"user_id":152,"name":"I-I","steam_id":76561198267969436,"connected_time":74000000000,"state":"active","ping":68},{"user_id":141,"name":"wouris","steam_id":76561198876188003,"connected_time":488000000000,"state":"active","ping":58},{"user_id":151,"name":"Ushlus","steam_id":76561199225270732,"connected_time":133000000000,"state":"active","ping":125},{"user_id":142,"name":"Doc Sui","steam_id":76561198071885470,"connected_time":408000000000,"state":"active","ping":46},{"user_id":153,"name":"ArikMor","steam_id":76561199124472513,"connected_time":43000000000,"state":"active","ping":121},{"user_id":122,"name":"God's not dead, I am.","steam_id":76561198840484105,"connected_time":1960000000000,"state":"active","ping":164},{"user_id":143,"name":"Lesnik","steam_id":76561198861269325,"connected_time":373000000000,"state":"active","ping":136},{"user_id":71,"name":"If I MVP My Team Sucks","steam_id":76561198147668373,"connected_time":5148000000000,"state":"active","ping":55},{"user_id":130,"name":"TJ1212","steam_id":76561199013575313,"connected_time":1349000000000,"state":"active","ping":68},{"user_id":137,"name":"Duel_Clip","steam_id":76561198287685317,"connected_time":1119000000000,"state":"active","ping":161},{"user_id":139,"name":"thekoolest88","steam_id":76561199022415672,"connected_time":993000000000,"state":"active","ping":149},{"user_id":134,"name":"Lunar","steam_id":76561199001872188,"connected_time":1203000000000,"state":"active","ping":127},{"user_id":112,"name":"Sn0wie","steam_id":76561198119641489,"connected_time":2157000000000,"state":"active","ping":102},{"user_id":76,"name":"Purps","steam_id":76561198053886680,"connected_time":4622000000000,"state":"active","ping":59},{"user_id":144,"name":"Milk Man","steam_id":76561198099433856,"connected_time":351000000000,"state":"active","ping":66},{"user_id":90,"name":"Dakeyras","steam_id":76561198057069564,"connected_time":4079000000000,"state":"active","ping":111},{"user_id":145,"name":"silves","steam_id":76561198106407598,"connected_time":323000000000,"state":"active","ping":73},{"user_id":146,"name":"Qwerty","steam_id":76561198023525894,"connected_time":307000000000,"state":"active","ping":89}]},{"server_id":23,"name":"Uncletopia | Frankfurt | 7 | Stopwatch Beta","name_short":"frk-7","host":"frk-1.de.uncletopia.com","port":27075,"enabled":true,"region":"eu","cc":"de","latitude":50.110924,"longitude":8.682127,"reserved":0,"last_update":"0001-01-01T00:00:00Z","name_a2s":"Uncletopia | Frankfurt | 7 | Stopwatch Beta","protocol":17,"map":"cp_metalworks","folder":"tf","game":"Team Fortress","app_id":440,"player_count":0,"max_players":24,"Bots":0,"server_type":"Dedicated","server_os":"Linux","password":true,"vac":true,"version":"7757534","steam_id":85568392924742827,"keywords":["cp","nocrits","nodmgspread","uncletopia"],"game_id":440,"stv_port":27076,"stv_name":"Uncletopia | Frankfurt | 7 | Stopwatch Beta | STV","players":null},{"server_id":24,"name":"Uncletopia | Frankfurt | 8 | Community","name_short":"frk-8","host":"frk-1.de.uncletopia.com","port":27085,"enabled":true,"region":"eu","cc":"de","latitude":50.110924,"longitude":8.682127,"reserved":0,"last_update":"0001-01-01T00:00:00Z","name_a2s":"Uncletopia | Frankfurt | 8 | Community","protocol":17,"map":"workshop/cp_fulgur_rc2a.ugc2068252300","folder":"tf","game":"Team Fortress","app_id":440,"player_count":1,"max_players":24,"Bots":0,"server_type":"Dedicated","server_os":"Linux","password":true,"vac":true,"version":"7757534","steam_id":85568392924742828,"keywords":["cp","nocrits","nodmgspread","uncletopia"],"game_id":440,"stv_port":27086,"stv_name":"Uncletopia | Frankfurt | 8 | Community | STV","players":[{"user_id":14,"name":"Ork","steam_id":76561197968575924,"connected_time":210000000000,"state":"active","ping":67}]},{"server_id":202,"name":"Uncletopia | Hong Kong | 1 | All Maps","name_short":"hgk-1","host":"hgk-1.hk.uncletopia.com","port":27015,"enabled":true,"region":"asia","cc":"hk","latitude":22.302711,"longitude":114.177216,"reserved":0,"last_update":"0001-01-01T00:00:00Z","name_a2s":"Uncletopia | Hong Kong | 1 | All Maps","protocol":17,"map":"pl_borneo","folder":"tf","game":"Team Fortress","app_id":440,"player_count":24,"max_players":24,"Bots":0,"server_type":"Dedicated","server_os":"Linux","password":true,"vac":true,"version":"7757534","steam_id":85568392924494504,"keywords":["nocrits","nodmgspread","payload","uncletopia"],"game_id":440,"stv_port":27016,"stv_name":"Uncletopia | Hong Kong | 1 | All Maps | STV","players":[{"user_id":349,"name":"Milk‚ù§ (First Scope Enjoyer)","steam_id":76561198163911560,"connected_time":1537000000000,"state":"active","ping":133},{"user_id":317,"name":"stormy","steam_id":76561198044944261,"connected_time":3555000000000,"state":"active","ping":89},{"user_id":320,"name":"tiden2000","steam_id":76561198092969425,"connected_time":2928000000000,"state":"active","ping":117},{"user_id":353,"name":"Eugene the WISE","steam_id":76561198303608523,"connected_time":560000000000,"state":"active","ping":103},{"user_id":302,"name":"Beef Wellington","steam_id":76561197995635241,"connected_time":5284000000000,"state":"active","ping":134},{"user_id":344,"name":"screw it","steam_id":76561198188905629,"connected_time":1596000000000,"state":"active","ping":57},{"user_id":333,"name":"yw","steam_id":76561199382726488,"connected_time":1899000000000,"state":"active","ping":40},{"user_id":358,"name":"·É¶ Maeve.","steam_id":76561198275846469,"connected_time":102000000000,"state":"active","ping":106},{"user_id":335,"name":"17","steam_id":76561198241530712,"connected_time":1758000000000,"state":"active","ping":57},{"user_id":351,"name":"Ivy","steam_id":76561198400698408,"connected_time":1524000000000,"state":"active","ping":89},{"user_id":354,"name":"vintage","steam_id":76561198230213828,"connected_time":275000000000,"state":"active","ping":64},{"user_id":348,"name":"AmaiToxic","steam_id":76561199122491157,"connected_time":1561000000000,"state":"active","ping":174},{"user_id":338,"name":"Samoyed","steam_id":76561198299150410,"connected_time":1694000000000,"state":"active","ping":82},{"user_id":343,"name":"Bepo","steam_id":76561198136685157,"connected_time":1609000000000,"state":"active","ping":60},{"user_id":336,"name":"Kyo","steam_id":76561198088550274,"connected_time":1740000000000,"state":"active","ping":45},{"user_id":147,"name":"qbetter","steam_id":76561198055553140,"connected_time":10886000000000,"state":"active","ping":100},{"user_id":318,"name":"Bertengkar","steam_id":76561198213031155,"connected_time":3513000000000,"state":"active","ping":102},{"user_id":341,"name":"P","steam_id":76561198304514505,"connected_time":1640000000000,"state":"active","ping":81},{"user_id":329,"name":"Paragon","steam_id":76561197983816430,"connected_time":2162000000000,"state":"active","ping":131},{"user_id":305,"name":"Stupid B","steam_id":76561198131423270,"connected_time":5130000000000,"state":"active","ping":96},{"user_id":356,"name":"Bill, Nye, Science, Guy","steam_id":76561198146158642,"connected_time":266000000000,"state":"active","ping":78},{"user_id":301,"name":"corpse_cadaver","steam_id":76561199225360457,"connected_time":5343000000000,"state":"active","ping":91},{"user_id":311,"name":"Mystery cheese üßÄ","steam_id":76561198304002409,"connected_time":4024000000000,"state":"active","ping":89},{"user_id":347,"name":"jjjjjjjjjjjjjjjjjjjjjjjj","steam_id":76561198324008555,"connected_time":1569000000000,"state":"active","ping":50}]},{"server_id":1,"name":"Uncletopia | Los Angeles | 1 | All Maps","name_short":"lax-1","host":"lax-1.us.uncletopia.com","port":27015,"enabled":true,"region":"us-west","cc":"us","latitude":33.94279,"longitude":-118.41004,"reserved":0,"last_update":"0001-01-01T00:00:00Z","name_a2s":"Uncletopia | Los Angeles | 1 | All Maps","protocol":17,"map":"cp_sunshine","folder":"tf","game":"Team Fortress","app_id":440,"player_count":0,"max_players":24,"Bots":0,"server_type":"Dedicated","server_os":"Linux","password":true,"vac":true,"version":"7757534","steam_id":85568392924469991,"keywords":["cp","nocrits","nodmgspread","uncletopia"],"game_id":440,"stv_port":27016,"stv_name":"Uncletopia | Los Angeles | 1 | All Maps | STV","players":null},{"server_id":112,"name":"Uncletopia | Los Angeles | 2 | All Maps","name_short":"lax-2","host":"lax-1.us.uncletopia.com","port":27025,"enabled":true,"region":"us-west","cc":"us","latitude":33.94279,"longitude":-118.41004,"reserved":0,"last_update":"0001-01-01T00:00:00Z","name_a2s":"Uncletopia | Los Angeles | 2 | All Maps","protocol":17,"map":"pl_swiftwater_final1","folder":"tf","game":"Team Fortress","app_id":440,"player_count":22,"max_players":24,"Bots":0,"server_type":"Dedicated","server_os":"Linux","password":true,"vac":true,"version":"7757534","steam_id":85568392924469992,"keywords":["nocrits","nodmgspread","payload","uncletopia"],"game_id":440,"stv_port":27026,"stv_name":"Uncletopia | Los Angeles | 2 | All Maps | STV","players":[{"user_id":427,"name":"nella","steam_id":76561198079349621,"connected_time":2978000000000,"state":"active","ping":45},{"user_id":407,"name":"the gaming philosopher","steam_id":76561198107784011,"connected_time":3817000000000,"state":"active","ping":83},{"user_id":458,"name":"For whom the gosha kerrs","steam_id":76561198276310307,"connected_time":51000000000,"state":"active","ping":94},{"user_id":364,"name":"chunky kong jungle japes","steam_id":76561198014920568,"connected_time":6029000000000,"state":"active","ping":106},{"user_id":451,"name":"VixianUwU","steam_id":76561198948815060,"connected_time":911000000000,"state":"active","ping":85},{"user_id":433,"name":"Mani","steam_id":76561198139428711,"connected_time":2250000000000,"state":"active","ping":75},{"user_id":457,"name":"Dov-Ah-Bob","steam_id":76561198147798338,"connected_time":282000000000,"state":"active","ping":55},{"user_id":430,"name":"nyoah","steam_id":76561198834915248,"connected_time":2388000000000,"state":"active","ping":55},{"user_id":441,"name":"kris the deer","steam_id":76561198170928310,"connected_time":1495000000000,"state":"active","ping":204},{"user_id":436,"name":"Wizowd","steam_id":76561198167702261,"connected_time":2100000000000,"state":"active","ping":60},{"user_id":461,"name":"freegibz","steam_id":76561198132192461,"connected_time":11000000000,"state":"active","ping":95},{"user_id":444,"name":"doorlarkeded","steam_id":76561199439227968,"connected_time":1419000000000,"state":"active","ping":138},{"user_id":435,"name":"A Shiny Meat Bicycle","steam_id":76561198358757709,"connected_time":2185000000000,"state":"active","ping":120},{"user_id":437,"name":"Mr.Kevin120","steam_id":76561199186919096,"connected_time":2018000000000,"state":"active","ping":144},{"user_id":423,"name":"Joey Wheeler","steam_id":76561198073792437,"connected_time":3043000000000,"state":"active","ping":66},{"user_id":448,"name":"CatBerryLemonade","steam_id":76561198120932314,"connected_time":1243000000000,"state":"active","ping":117},{"user_id":452,"name":"Grassman (Cc)","steam_id":76561198026488532,"connected_time":833000000000,"state":"active","ping":54},{"user_id":431,"name":"·µà·µÉ ∑·∂∞","steam_id":76561198155447646,"connected_time":2334000000000,"state":"active","ping":48},{"user_id":429,"name":"im a pisces","steam_id":76561198063880315,"connected_time":2891000000000,"state":"active","ping":46},{"user_id":450,"name":"sera","steam_id":76561198120360801,"connected_time":1121000000000,"state":"active","ping":62},{"user_id":456,"name":"Sydney","steam_id":76561198797603297,"connected_time":590000000000,"state":"active","ping":86},{"user_id":449,"name":"‚úøBee Lover‚úø","steam_id":76561199200969139,"connected_time":1184000000000,"state":"active","ping":246}]},{"server_id":324,"name":"Uncletopia | Los Angeles | 3 | All Maps","name_short":"lax-3","host":"lax-1.us.uncletopia.com","port":27035,"enabled":true,"region":"us-west","cc":"us","latitude":33.94279,"longitude":-118.41004,"reserved":0,"last_update":"0001-01-01T00:00:00Z","name_a2s":"Uncletopia | Los Angeles | 3 | All Maps","protocol":17,"map":"koth_highpass","folder":"tf","game":"Team Fortress","app_id":440,"player_count":0,"max_players":24,"Bots":0,"server_type":"Dedicated","server_os":"Linux","password":true,"vac":true,"version":"7757534","steam_id":85568392924510198,"keywords":["cp","nocrits","nodmgspread","uncletopia"],"game_id":440,"stv_port":27036,"stv_name":"Uncletopia | Los Angeles | 3 | All Maps | STV","players":null},{"server_id":25,"name":"Uncletopia | Los Angeles | 4 | Stopwatch Beta","name_short":"lax-4","host":"lax-1.us.uncletopia.com","port":27045,"enabled":true,"region":"us-west","cc":"us","latitude":33.94279,"longitude":-118.41004,"reserved":0,"last_update":"0001-01-01T00:00:00Z","name_a2s":"Uncletopia | Los Angeles | 4 | Stopwatch Beta","protocol":17,"map":"workshop/koth_product_final.ugc454272353","folder":"tf","game":"Team Fortress","app_id":440,"player_count":0,"max_players":24,"Bots":0,"server_type":"Dedicated","server_os":"Linux","password":true,"vac":true,"version":"7757534","steam_id":85568392924510199,"keywords":["cp","nocrits","nodmgspread","uncletopia"],"game_id":440,"stv_port":27046,"stv_name":"Uncletopia | Los Angeles | 4 | Stopwatch Beta | STV","players":null},{"server_id":11,"name":"Uncletopia | London | 1 | All Maps","name_short":"lon-1","host":"lon-1.uk.uncletopia.com","port":27015,"enabled":true,"region":"eu","cc":"gb","latitude":51.509865,"longitude":-0.118092,"reserved":0,"last_update":"0001-01-01T00:00:00Z","name_a2s":"Uncletopia | London | 1 | All Maps","protocol":17,"map":"pl_pier","folder":"tf","game":"Team Fortress","app_id":440,"player_count":24,"max_players":24,"Bots":0,"server_type":"Dedicated","server_os":"Linux","password":true,"vac":true,"version":"7757534","steam_id":85568392924367362,"keywords":["nocrits","nodmgspread","payload","uncletopia"],"game_id":440,"stv_port":27016,"stv_name":"Uncletopia | London | 1 | All Maps | STV","players":[{"user_id":436,"name":"AnonTron","steam_id":76561199031895493,"connected_time":2499000000000,"state":"active","ping":164},{"user_id":455,"name":"Son Goku","steam_id":76561199383437138,"connected_time":418000000000,"state":"active","ping":124},{"user_id":445,"name":"Kwizine","steam_id":76561198147999400,"connected_time":2110000000000,"state":"active","ping":61},{"user_id":429,"name":"Bounter","steam_id":76561198072614188,"connected_time":3913000000000,"state":"active","ping":71},{"user_id":444,"name":"Pyrolander","steam_id":76561198050785450,"connected_time":2300000000000,"state":"active","ping":53},{"user_id":388,"name":"badrobot","steam_id":76561198322878356,"connected_time":6500000000000,"state":"active","ping":113},{"user_id":416,"name":"GMsU | DaLuigi","steam_id":76561198054486188,"connected_time":4346000000000,"state":"active","ping":55},{"user_id":451,"name":"skilltissues","steam_id":76561198025828664,"connected_time":1336000000000,"state":"active","ping":57},{"user_id":458,"name":"Mr.Fosty","steam_id":76561198045212783,"connected_time":121000000000,"state":"active","ping":82},{"user_id":448,"name":"Flare","steam_id":76561198039098320,"connected_time":1895000000000,"state":"active","ping":47},{"user_id":355,"name":"antlionguard","steam_id":76561198072747143,"connected_time":8449000000000,"state":"active","ping":100},{"user_id":356,"name":"Pintlebert","steam_id":76561199178591063,"connected_time":8442000000000,"state":"active","ping":115},{"user_id":446,"name":"boot kla","steam_id":76561198106049954,"connected_time":1918000000000,"state":"active","ping":72},{"user_id":449,"name":"eon","steam_id":76561197971360276,"connected_time":1820000000000,"state":"active","ping":70},{"user_id":435,"name":"hedchot","steam_id":76561198043601838,"connected_time":2640000000000,"state":"active","ping":64},{"user_id":422,"name":"Vic maher","steam_id":76561198097523768,"connected_time":4177000000000,"state":"active","ping":71},{"user_id":433,"name":"kelpie","steam_id":76561198128327529,"connected_time":3197000000000,"state":"active","ping":45},{"user_id":450,"name":"Bo","steam_id":76561198023975550,"connected_time":1729000000000,"state":"active","ping":71},{"user_id":457,"name":"Proto-arc","steam_id":76561198012776747,"connected_time":387000000000,"state":"active","ping":53},{"user_id":454,"name":"Riel","steam_id":76561198066017633,"connected_time":1173000000000,"state":"active","ping":64},{"user_id":397,"name":"GMsU | Rebikas","steam_id":76561198077053764,"connected_time":5872000000000,"state":"active","ping":51},{"user_id":438,"name":"Renard pos4","steam_id":76561197998908594,"connected_time":2398000000000,"state":"active","ping":64},{"user_id":412,"name":"Futa Lover","steam_id":76561198056775795,"connected_time":5371000000000,"state":"active","ping":141},{"user_id":441,"name":"Blacksheep","steam_id":76561198019621063,"connected_time":2365000000000,"state":"active","ping":50}]},{"server_id":114,"name":"Uncletopia | London | 2 | All Maps","name_short":"lon-2","host":"lon-1.uk.uncletopia.com","port":27025,"enabled":true,"region":"eu","cc":"gb","latitude":51.509865,"longitude":-0.118092,"reserved":0,"last_update":"0001-01-01T00:00:00Z","name_a2s":"Uncletopia | London | 2 | All Maps","protocol":17,"map":"koth_highpass","folder":"tf","game":"Team Fortress","app_id":440,"player_count":24,"max_players":24,"Bots":0,"server_type":"Dedicated","server_os":"Linux","password":true,"vac":true,"version":"7757534","steam_id":85568392924470941,"keywords":["cp","nocrits","nodmgspread","uncletopia"],"game_id":440,"stv_port":27026,"stv_name":"Uncletopia | London | 2 | All Maps | STV","players":[{"user_id":33,"name":"Dispenser","steam_id":76561198130195469,"connected_time":830000000000,"state":"active","ping":81},{"user_id":13,"name":"Pink Cheese","steam_id":76561198972186436,"connected_time":1497000000000,"state":"active","ping":60},{"user_id":12,"name":"heavy sings (real)","steam_id":76561199023804405,"connected_time":1634000000000,"state":"active","ping":64},{"user_id":48,"name":"Memphis (‚ôÇ)","steam_id":76561198045039038,"connected_time":246000000000,"state":"active","ping":83},{"user_id":46,"name":"Zerfesh","steam_id":76561198117534358,"connected_time":279000000000,"state":"active","ping":95},{"user_id":47,"name":"Cak3","steam_id":76561198012633295,"connected_time":260000000000,"state":"active","ping":66},{"user_id":19,"name":"Orange","steam_id":76561198431114889,"connected_time":1213000000000,"state":"active","ping":98},{"user_id":49,"name":"mr K","steam_id":76561198120166752,"connected_time":246000000000,"state":"active","ping":79},{"user_id":50,"name":"toiletshitter","steam_id":76561198052088053,"connected_time":241000000000,"state":"active","ping":48},{"user_id":21,"name":"vi hava en usel regering","steam_id":76561198037978654,"connected_time":1008000000000,"state":"active","ping":75},{"user_id":51,"name":"Jakk","steam_id":76561198041537908,"connected_time":239000000000,"state":"active","ping":63},{"user_id":52,"name":"NitPig","steam_id":76561198212991935,"connected_time":217000000000,"state":"active","ping":94},{"user_id":24,"name":"esheen","steam_id":76561198139376665,"connected_time":985000000000,"state":"active","ping":67},{"user_id":53,"name":"Yelowchy","steam_id":76561198199416121,"connected_time":209000000000,"state":"active","ping":66},{"user_id":56,"name":"alvinulv","steam_id":76561198024487177,"connected_time":89000000000,"state":"active","ping":58},{"user_id":27,"name":"Threon","steam_id":76561198826783545,"connected_time":936000000000,"state":"active","ping":93},{"user_id":28,"name":"Watson","steam_id":76561197974362869,"connected_time":920000000000,"state":"active","ping":62},{"user_id":45,"name":"Œî","steam_id":76561199042470246,"connected_time":532000000000,"state":"active","ping":59},{"user_id":36,"name":"When Life gives you Lemons","steam_id":76561198318290663,"connected_time":701000000000,"state":"active","ping":59},{"user_id":38,"name":"MrrPickle","steam_id":76561198122046514,"connected_time":667000000000,"state":"active","ping":129},{"user_id":55,"name":"X45Y","steam_id":76561198112534025,"connected_time":135000000000,"state":"active","ping":46},{"user_id":40,"name":"Agent_Mag","steam_id":76561199051793215,"connected_time":624000000000,"state":"active","ping":221},{"user_id":42,"name":"Bonuxer","steam_id":76561198093098132,"connected_time":593000000000,"state":"active","ping":88},{"user_id":43,"name":"Currently on 4g of Benadryl","steam_id":76561198347336086,"connected_time":591000000000,"state":"active","ping":44}]},{"server_id":320,"name":"Uncletopia | London | 3 | All Maps","name_short":"lon-3","host":"lon-1.uk.uncletopia.com","port":27035,"enabled":true,"region":"eu","cc":"gb","latitude":51.509865,"longitude":-0.118092,"reserved":0,"last_update":"0001-01-01T00:00:00Z","name_a2s":"Uncletopia | London | 3 | All Maps","protocol":17,"map":"pl_swiftwater_final1","folder":"tf","game":"Team Fortress","app_id":440,"player_count":0,"max_players":24,"Bots":0,"server_type":"Dedicated","server_os":"Linux","password":true,"vac":true,"version":"7757534","steam_id":85568392924510192,"keywords":["nocrits","nodmgspread","payload","uncletopia"],"game_id":440,"stv_port":27036,"stv_name":"Uncletopia | London | 3 | All Maps | STV","players":null},{"server_id":321,"name":"Uncletopia | London | 4 | All Maps","name_short":"lon-4","host":"lon-1.uk.uncletopia.com","port":27045,"enabled":true,"region":"eu","cc":"gb","latitude":51.509865,"longitude":-0.118092,"reserved":0,"last_update":"0001-01-01T00:00:00Z","name_a2s":"Uncletopia | London | 4 | All Maps","protocol":17,"map":"cp_mountainlab","folder":"tf","game":"Team Fortress","app_id":440,"player_count":0,"max_players":24,"Bots":0,"server_type":"Dedicated","server_os":"Linux","password":true,"vac":true,"version":"7757534","steam_id":85568392924510193,"keywords":["cp","nocrits","nodmgspread","uncletopia"],"game_id":440,"stv_port":27046,"stv_name":"Uncletopia | London | 4 | All Maps | STV","players":null},{"server_id":21,"name":"Uncletopia | London | 5 | All Maps","name_short":"lon-5","host":"lon-1.uk.uncletopia.com","port":27055,"enabled":true,"region":"eu","cc":"gb","latitude":51.509865,"longitude":-0.118092,"reserved":0,"last_update":"0001-01-01T00:00:00Z","name_a2s":"Uncletopia | London | 5 | All Maps","protocol":17,"map":"pl_pier","folder":"tf","game":"Team Fortress","app_id":440,"player_count":0,"max_players":24,"Bots":0,"server_type":"Dedicated","server_os":"Linux","password":true,"vac":true,"version":"7757534","steam_id":85568392924742829,"keywords":["nocrits","nodmgspread","payload","uncletopia"],"game_id":440,"stv_port":27056,"stv_name":"Uncletopia | London | 5 | All Maps | STV","players":null},{"server_id":22,"name":"Uncletopia | London | 6 | All Maps","name_short":"lon-6","host":"lon-1.uk.uncletopia.com","port":27065,"enabled":true,"region":"eu","cc":"gb","latitude":51.509865,"longitude":-0.118092,"reserved":0,"last_update":"0001-01-01T00:00:00Z","name_a2s":"Uncletopia | London | 6 | All Maps","protocol":17,"map":"koth_highpass","folder":"tf","game":"Team Fortress","app_id":440,"player_count":0,"max_players":24,"Bots":0,"server_type":"Dedicated","server_os":"Linux","password":true,"vac":true,"version":"7757534","steam_id":85568392924742830,"keywords":["cp","nocrits","nodmgspread","uncletopia"],"game_id":440,"stv_port":27066,"stv_name":"Uncletopia | London | 6 | All Maps | STV","players":null},{"server_id":40,"name":"Uncletopia | London | 7 | No Payload","name_short":"lon-7","host":"lon-1.uk.uncletopia.com","port":27075,"enabled":true,"region":"eu","cc":"gb","latitude":51.509865,"longitude":-0.118092,"reserved":0,"last_update":"0001-01-01T00:00:00Z","name_a2s":"Uncletopia | London | 7 | No Payload","protocol":17,"map":"koth_highpass","folder":"tf","game":"Team Fortress","app_id":440,"player_count":0,"max_players":24,"Bots":0,"server_type":"Dedicated","server_os":"Linux","password":true,"vac":true,"version":"7757534","steam_id":85568392924964314,"keywords":["cp","nocrits","nodmgspread","uncletopia"],"game_id":440,"stv_port":27076,"stv_name":"Uncletopia | London | 7 | No Payload | STV","players":null},{"server_id":41,"name":"Uncletopia | London | 8 | Community","name_short":"lon-8","host":"lon-1.uk.uncletopia.com","port":27085,"enabled":true,"region":"eu","cc":"gb","latitude":51.509865,"longitude":-0.118092,"reserved":0,"last_update":"0001-01-01T00:00:00Z","name_a2s":"Uncletopia | London | 8 | Community","protocol":17,"map":"workshop/pl_cactuscanyon_redux_final1.ugc2579644293","folder":"tf","game":"Team Fortress","app_id":440,"player_count":0,"max_players":24,"Bots":0,"server_type":"Dedicated","server_os":"Linux","password":true,"vac":true,"version":"7757534","steam_id":85568392924964315,"keywords":["nocrits","nodmgspread","payload","uncletopia"],"game_id":440,"stv_port":27086,"stv_name":"Uncletopia | London | 8 | Community | STV","players":null},{"server_id":300,"name":"Uncletopia | Montr√©al | 1 | All Maps","name_short":"mtl-1","host":"mtl-1.ca.uncletopia.com","port":27015,"enabled":true,"region":"us-east","cc":"ca","latitude":45.50889,"longitude":-73.56167,"reserved":0,"last_update":"0001-01-01T00:00:00Z","name_a2s":"Uncletopia | Montr√©al | 1 | All Maps","protocol":17,"map":"pl_pier","folder":"tf","game":"Team Fortress","app_id":440,"player_count":0,"max_players":24,"Bots":0,"server_type":"Dedicated","server_os":"Linux","password":true,"vac":true,"version":"7757534","steam_id":85568392924500087,"keywords":["nocrits","nodmgspread","payload","uncletopia"],"game_id":440,"stv_port":27016,"stv_name":"Uncletopia | Montr√©al | 1 | All Maps | STV","players":null},{"server_id":301,"name":"Uncletopia | Montr√©al | 2 | All Maps","name_short":"mtl-2","host":"mtl-1.ca.uncletopia.com","port":27025,"enabled":true,"region":"us-east","cc":"ca","latitude":45.50889,"longitude":-73.56167,"reserved":0,"last_update":"0001-01-01T00:00:00Z","name_a2s":"Uncletopia | Montr√©al | 2 | All Maps","protocol":17,"map":"cp_sunshine","folder":"tf","game":"Team Fortress","app_id":440,"player_count":0,"max_players":24,"Bots":0,"server_type":"Dedicated","server_os":"Linux","password":true,"vac":true,"version":"7757534","steam_id":85568392924500088,"keywords":["cp","nocrits","nodmgspread","uncletopia"],"game_id":440,"stv_port":27026,"stv_name":"Uncletopia | Montr√©al | 2 | All Maps | STV","players":null},{"server_id":302,"name":"Uncletopia | Montr√©al | 3 | All Maps","name_short":"mtl-3","host":"mtl-1.ca.uncletopia.com","port":27035,"enabled":true,"region":"us-east","cc":"ca","latitude":45.50889,"longitude":-73.56167,"reserved":0,"last_update":"0001-01-01T00:00:00Z","name_a2s":"Uncletopia | Montr√©al | 3 | All Maps","protocol":17,"map":"pl_frontier_final","folder":"tf","game":"Team Fortress","app_id":440,"player_count":0,"max_players":24,"Bots":0,"server_type":"Dedicated","server_os":"Linux","password":true,"vac":true,"version":"7757534","steam_id":85568392924500089,"keywords":["nocrits","nodmgspread","payload","uncletopia"],"game_id":440,"stv_port":27036,"stv_name":"Uncletopia | Montr√©al | 3 | All Maps | STV","players":null},{"server_id":303,"name":"Uncletopia | Montr√©al | 4 | No Payload","name_short":"mtl-4","host":"mtl-1.ca.uncletopia.com","port":27045,"enabled":true,"region":"us-east","cc":"ca","latitude":45.50889,"longitude":-73.56167,"reserved":0,"last_update":"0001-01-01T00:00:00Z","name_a2s":"Uncletopia | Montr√©al | 4 | No Payload","protocol":17,"map":"pl_pier","folder":"tf","game":"Team Fortress","app_id":440,"player_count":0,"max_players":24,"Bots":0,"server_type":"Dedicated","server_os":"Linux","password":true,"vac":true,"version":"7757534","steam_id":85568392924500090,"keywords":["nocrits","nodmgspread","payload","uncletopia"],"game_id":440,"stv_port":27046,"stv_name":"Uncletopia | Montr√©al | 4 | No Payload | STV","players":null},{"server_id":13,"name":"Uncletopia | New York City | 1 | All Maps","name_short":"nyc-1","host":"nyc-1.us.uncletopia.com","port":27015,"enabled":true,"region":"us-east","cc":"us","latitude":40.73061,"longitude":-73.93524,"reserved":0,"last_update":"0001-01-01T00:00:00Z","name_a2s":"Uncletopia | New York City | 1 | All Maps","protocol":17,"map":"cp_mountainlab","folder":"tf","game":"Team Fortress","app_id":440,"player_count":0,"max_players":24,"Bots":0,"server_type":"Dedicated","server_os":"Linux","password":true,"vac":true,"version":"7757534","steam_id":85568392924469993,"keywords":["cp","nocrits","nodmgspread","uncletopia"],"game_id":440,"stv_port":27016,"stv_name":"Uncletopia | New York City | 1 | All Maps | STV","players":null},{"server_id":14,"name":"Uncletopia | New York City | 2 | All Maps","name_short":"nyc-2","host":"nyc-1.us.uncletopia.com","port":27025,"enabled":true,"region":"us-east","cc":"us","latitude":40.73061,"longitude":-73.93524,"reserved":0,"last_update":"0001-01-01T00:00:00Z","name_a2s":"Uncletopia | New York City | 2 | All Maps","protocol":17,"map":"cp_dustbowl","folder":"tf","game":"Team Fortress","app_id":440,"player_count":0,"max_players":24,"Bots":0,"server_type":"Dedicated","server_os":"Linux","password":true,"vac":true,"version":"7757534","steam_id":85568392924469994,"keywords":["cp","nocrits","nodmgspread","uncletopia"],"game_id":440,"stv_port":27026,"stv_name":"Uncletopia | New York City | 2 | All Maps | STV","players":null},{"server_id":15,"name":"Uncletopia | New York City | 3 | Stopwatch Beta","name_short":"nyc-3","host":"nyc-1.us.uncletopia.com","port":27035,"enabled":true,"region":"us-east","cc":"us","latitude":40.73061,"longitude":-73.93524,"reserved":0,"last_update":"0001-01-01T00:00:00Z","name_a2s":"Uncletopia | New York City | 3 | Stopwatch Beta","protocol":17,"map":"koth_cascade","folder":"tf","game":"Team Fortress","app_id":440,"player_count":0,"max_players":24,"Bots":0,"server_type":"Dedicated","server_os":"Linux","password":true,"vac":true,"version":"7757534","steam_id":85568392924742820,"keywords":["cp","nocrits","nodmgspread","uncletopia"],"game_id":440,"stv_port":27036,"stv_name":"Uncletopia | New York City | 3 | Stopwatch Beta | STV","players":null},{"server_id":16,"name":"Uncletopia | New York City | 4 | Community","name_short":"nyc-4","host":"nyc-1.us.uncletopia.com","port":27045,"enabled":true,"region":"us-east","cc":"us","latitude":40.73061,"longitude":-73.93524,"reserved":0,"last_update":"0001-01-01T00:00:00Z","name_a2s":"Uncletopia | New York City | 4 | Community","protocol":17,"map":"pl_frontier_final","folder":"tf","game":"Team Fortress","app_id":440,"player_count":0,"max_players":24,"Bots":0,"server_type":"Dedicated","server_os":"Linux","password":true,"vac":true,"version":"7757534","steam_id":85568392924742821,"keywords":["nocrits","nodmgspread","payload","uncletopia"],"game_id":440,"stv_port":27046,"stv_name":"Uncletopia | New York City | 4 | Community | STV","players":null},{"server_id":142,"name":"Uncletopia | S√£o Paulo | 1 | All Maps","name_short":"sao-1","host":"sao-1.br.uncletopia.com","port":27015,"enabled":true,"region":"sa","cc":"br","latitude":-23.533773,"longitude":-46.62529,"reserved":0,"last_update":"0001-01-01T00:00:00Z","name_a2s":"Uncletopia | S√£o Paulo | 1 | All Maps","protocol":17,"map":"cp_altitude","folder":"tf","game":"Team Fortress","app_id":440,"player_count":0,"max_players":24,"Bots":0,"server_type":"Dedicated","server_os":"Linux","password":true,"vac":true,"version":"7757534","steam_id":85568392924469996,"keywords":["cp","nocrits","nodmgspread","uncletopia"],"game_id":440,"stv_port":27016,"stv_name":"Uncletopia | S√£o Paulo | 1 | All Maps | STV","players":null},{"server_id":143,"name":"Uncletopia | S√£o Paulo | 2 | All Maps","name_short":"sao-2","host":"sao-2.br.uncletopia.com","port":27015,"enabled":true,"region":"sa","cc":"br","latitude":-23.533773,"longitude":-46.62529,"reserved":0,"last_update":"0001-01-01T00:00:00Z","name_a2s":"Uncletopia | S√£o Paulo | 2 | All Maps","protocol":17,"map":"koth_viaduct","folder":"tf","game":"Team Fortress","app_id":440,"player_count":0,"max_players":24,"Bots":0,"server_type":"Dedicated","server_os":"Linux","password":true,"vac":true,"version":"7757534","steam_id":85568392924485349,"keywords":["cp","nocrits","nodmgspread","uncletopia"],"game_id":440,"stv_port":27016,"stv_name":"Uncletopia | S√£o Paulo | 2 | All Maps | STV","players":null},{"server_id":7,"name":"Uncletopia | Seattle | 1 | All Maps","name_short":"sea-1","host":"sea-1.us.uncletopia.com","port":27015,"enabled":true,"region":"us-west","cc":"us","latitude":47.608013,"longitude":-122.33517,"reserved":0,"last_update":"0001-01-01T00:00:00Z","name_a2s":"Uncletopia | Seattle | 1 | All Maps","protocol":17,"map":"koth_lakeside_final","folder":"tf","game":"Team Fortress","app_id":440,"player_count":0,"max_players":24,"Bots":0,"server_type":"Dedicated","server_os":"Linux","password":true,"vac":true,"version":"7757534","steam_id":85568392924469997,"keywords":["cp","nocrits","nodmgspread","uncletopia"],"game_id":440,"stv_port":27016,"stv_name":"Uncletopia | Seattle | 1 | All Maps | STV","players":null},{"server_id":119,"name":"Uncletopia | Seattle | 2 | All Maps","name_short":"sea-2","host":"sea-1.us.uncletopia.com","port":27025,"enabled":true,"region":"us-west","cc":"us","latitude":47.608013,"longitude":-122.33517,"reserved":0,"last_update":"0001-01-01T00:00:00Z","name_a2s":"Uncletopia | Seattle | 2 | All Maps","protocol":17,"map":"cp_snakewater_final1","folder":"tf","game":"Team Fortress","app_id":440,"player_count":0,"max_players":24,"Bots":0,"server_type":"Dedicated","server_os":"Linux","password":true,"vac":true,"version":"7757534","steam_id":85568392924469998,"keywords":["cp","nocrits","nodmgspread","uncletopia"],"game_id":440,"stv_port":27026,"stv_name":"Uncletopia | Seattle | 2 | All Maps | STV","players":null},{"server_id":406,"name":"Uncletopia | Seattle | 3 | Stopwatch Beta","name_short":"sea-3","host":"sea-1.us.uncletopia.com","port":27035,"enabled":true,"region":"us-west","cc":"us","latitude":47.608013,"longitude":-122.33517,"reserved":0,"last_update":"0001-01-01T00:00:00Z","name_a2s":"Uncletopia | Seattle | 3 | Stopwatch Beta","protocol":17,"map":"cp_process_final","folder":"tf","game":"Team Fortress","app_id":440,"player_count":0,"max_players":24,"Bots":0,"server_type":"Dedicated","server_os":"Linux","password":true,"vac":true,"version":"7757534","steam_id":85568392924515217,"keywords":["cp","nocrits","nodmgspread","uncletopia"],"game_id":440,"stv_port":27036,"stv_name":"Uncletopia | Seattle | 3 | Stopwatch Beta | STV","players":null},{"server_id":17,"name":"Uncletopia | San Francisco | 1 | All Maps","name_short":"sfo-1","host":"sfo-1.us.uncletopia.com","port":27015,"enabled":true,"region":"us-west","cc":"us","latitude":37.77397,"longitude":-122.4313,"reserved":0,"last_update":"0001-01-01T00:00:00Z","name_a2s":"Uncletopia | San Francisco | 1 | All Maps","protocol":17,"map":"pl_badwater","folder":"tf","game":"Team Fortress","app_id":440,"player_count":0,"max_players":24,"Bots":0,"server_type":"Dedicated","server_os":"Linux","password":true,"vac":true,"version":"7757534","steam_id":85568392924469999,"keywords":["nocrits","nodmgspread","payload","uncletopia"],"game_id":440,"stv_port":27016,"stv_name":"Uncletopia | San Francisco | 1 | All Maps | STV","players":null},{"server_id":18,"name":"Uncletopia | San Francisco | 2 | All Maps","name_short":"sfo-2","host":"sfo-1.us.uncletopia.com","port":27025,"enabled":true,"region":"us-west","cc":"us","latitude":37.77397,"longitude":-122.4313,"reserved":0,"last_update":"0001-01-01T00:00:00Z","name_a2s":"Uncletopia | San Francisco | 2 | All Maps","protocol":17,"map":"cp_dustbowl","folder":"tf","game":"Team Fortress","app_id":440,"player_count":0,"max_players":24,"Bots":0,"server_type":"Dedicated","server_os":"Linux","password":true,"vac":true,"version":"7757534","steam_id":85568392924470000,"keywords":["cp","nocrits","nodmgspread","uncletopia"],"game_id":440,"stv_port":27026,"stv_name":"Uncletopia | San Francisco | 2 | All Maps | STV","players":null},{"server_id":19,"name":"Uncletopia | San Francisco | 3 | Stopwatch Beta","name_short":"sfo-3","host":"sfo-1.us.uncletopia.com","port":27035,"enabled":true,"region":"us-west","cc":"us","latitude":37.77397,"longitude":-122.4313,"reserved":0,"last_update":"0001-01-01T00:00:00Z","name_a2s":"Uncletopia | San Francisco | 3 | Stopwatch Beta","protocol":17,"map":"koth_lakeside_final","folder":"tf","game":"Team Fortress","app_id":440,"player_count":0,"max_players":24,"Bots":0,"server_type":"Dedicated","server_os":"Linux","password":true,"vac":true,"version":"7757534","steam_id":85568392924742824,"keywords":["cp","nocrits","nodmgspread","uncletopia"],"game_id":440,"stv_port":27036,"stv_name":"Uncletopia | San Francisco | 3 | Stopwatch Beta | STV","players":null},{"server_id":20,"name":"Uncletopia | San Francisco | 4 | Community","name_short":"sfo-4","host":"sfo-1.us.uncletopia.com","port":27045,"enabled":true,"region":"us-west","cc":"us","latitude":37.77397,"longitude":-122.4313,"reserved":0,"last_update":"0001-01-01T00:00:00Z","name_a2s":"Uncletopia | San Francisco | 4 | Community","protocol":17,"map":"workshop/pl_eruption_b9a.ugc2807898013","folder":"tf","game":"Team Fortress","app_id":440,"player_count":0,"max_players":24,"Bots":0,"server_type":"Dedicated","server_os":"Linux","password":true,"vac":true,"version":"7757534","steam_id":85568392924742826,"keywords":["nocrits","nodmgspread","payload","uncletopia"],"game_id":440,"stv_port":27046,"stv_name":"Uncletopia | San Francisco | 4 | Community | STV","players":null},{"server_id":141,"name":"Uncletopia | Sydney | 1 | All Maps","name_short":"syd-1","host":"syd-1.au.uncletopia.com","port":27015,"enabled":true,"region":"au","cc":"au","latitude":-33.865143,"longitude":151.2099,"reserved":0,"last_update":"0001-01-01T00:00:00Z","name_a2s":"Uncletopia | Sydney | 1 | All Maps","protocol":17,"map":"cp_dustbowl","folder":"tf","game":"Team Fortress","app_id":440,"player_count":0,"max_players":24,"Bots":0,"server_type":"Dedicated","server_os":"Linux","password":true,"vac":true,"version":"7757534","steam_id":85568392924470001,"keywords":["cp","nocrits","nodmgspread","uncletopia"],"game_id":440,"stv_port":27016,"stv_name":"Uncletopia | Sydney | 1 | All Maps | STV","players":null},{"server_id":123,"name":"Uncletopia | Sydney | 2 | All Maps","name_short":"syd-2","host":"syd-1.au.uncletopia.com","port":27025,"enabled":true,"region":"au","cc":"au","latitude":-33.865143,"longitude":151.2099,"reserved":0,"last_update":"0001-01-01T00:00:00Z","name_a2s":"Uncletopia | Sydney | 2 | All Maps","protocol":17,"map":"cp_dustbowl","folder":"tf","game":"Team Fortress","app_id":440,"player_count":22,"max_players":24,"Bots":0,"server_type":"Dedicated","server_os":"Linux","password":true,"vac":true,"version":"7757534","steam_id":85568392924470002,"keywords":["cp","nocrits","nodmgspread","uncletopia"],"game_id":440,"stv_port":27026,"stv_name":"Uncletopia | Sydney | 2 | All Maps | STV","players":[{"user_id":457,"name":"Arpazha","steam_id":76561199072257230,"connected_time":1017000000000,"state":"active","ping":179},{"user_id":386,"name":"Distracted Chibi","steam_id":76561198033546650,"connected_time":6370000000000,"state":"active","ping":53},{"user_id":438,"name":"FoddyFogHorn","steam_id":76561198145223811,"connected_time":2380000000000,"state":"active","ping":57},{"user_id":471,"name":"Branko","steam_id":76561199262196710,"connected_time":44000000000,"state":"active","ping":237},{"user_id":460,"name":"Captain Canadia","steam_id":76561198167967735,"connected_time":523000000000,"state":"active","ping":49},{"user_id":472,"name":"tenten","steam_id":76561198402822072,"connected_time":12000000000,"state":"spawning","ping":67},{"user_id":458,"name":"Barnaby","steam_id":76561197963461611,"connected_time":944000000000,"state":"active","ping":57},{"user_id":398,"name":"Lincoln2603","steam_id":76561198170236666,"connected_time":5447000000000,"state":"active","ping":38},{"user_id":464,"name":"Wallahi_Legend","steam_id":76561198442691771,"connected_time":426000000000,"state":"active","ping":66},{"user_id":448,"name":"Greg","steam_id":76561198133966374,"connected_time":1597000000000,"state":"active","ping":51},{"user_id":449,"name":"Matt","steam_id":76561198006791420,"connected_time":1498000000000,"state":"active","ping":96},{"user_id":452,"name":"„ÉÑ","steam_id":76561198025588321,"connected_time":1303000000000,"state":"active","ping":77},{"user_id":451,"name":"oldbie","steam_id":76561198053297711,"connected_time":1338000000000,"state":"active","ping":83},{"user_id":355,"name":"stub","steam_id":76561198237014504,"connected_time":7409000000000,"state":"active","ping":56},{"user_id":447,"name":"electro599","steam_id":76561198058148858,"connected_time":1750000000000,"state":"active","ping":60},{"user_id":465,"name":"uncle nephew junior","steam_id":76561198930683342,"connected_time":425000000000,"state":"active","ping":63},{"user_id":467,"name":"nightmare2503","steam_id":76561199100642588,"connected_time":342000000000,"state":"active","ping":65},{"user_id":444,"name":"Jagonite","steam_id":76561198089124961,"connected_time":1971000000000,"state":"active","ping":107},{"user_id":456,"name":"nurf","steam_id":76561198019391327,"connected_time":1034000000000,"state":"active","ping":80},{"user_id":468,"name":"ETHICAL CONSUMPTION","steam_id":76561198035066643,"connected_time":338000000000,"state":"active","ping":98},{"user_id":454,"name":"piratespy22","steam_id":76561198042198744,"connected_time":1158000000000,"state":"active","ping":42},{"user_id":445,"name":"Snowy","steam_id":76561198255720598,"connected_time":1904000000000,"state":"active","ping":44}]},{"server_id":395,"name":"Uncletopia | Sydney | 3 | All Maps","name_short":"syd-3","host":"syd-1.au.uncletopia.com","port":27035,"enabled":true,"region":"au","cc":"au","latitude":-33.865143,"longitude":151.2099,"reserved":0,"last_update":"0001-01-01T00:00:00Z","name_a2s":"Uncletopia | Sydney | 3 | All Maps","protocol":17,"map":"pl_badwater","folder":"tf","game":"Team Fortress","app_id":440,"player_count":0,"max_players":24,"Bots":0,"server_type":"Dedicated","server_os":"Linux","password":true,"vac":true,"version":"7757534","steam_id":85568392925194467,"keywords":["nocrits","nodmgspread","payload","uncletopia"],"game_id":440,"stv_port":27036,"stv_name":"Uncletopia | Sydney | 3 | All Maps | STV","players":null},{"server_id":396,"name":"Uncletopia | Sydney | 4 | All Maps","name_short":"syd-4","host":"syd-1.au.uncletopia.com","port":27045,"enabled":true,"region":"au","cc":"au","latitude":-33.865143,"longitude":151.2099,"reserved":0,"last_update":"0001-01-01T00:00:00Z","name_a2s":"Uncletopia | Sydney | 4 | All Maps","protocol":17,"map":"pl_snowycoast","folder":"tf","game":"Team Fortress","app_id":440,"player_count":0,"max_players":24,"Bots":0,"server_type":"Dedicated","server_os":"Linux","password":true,"vac":true,"version":"7757534","steam_id":85568392925397958,"keywords":["nocrits","nodmgspread","payload","uncletopia"],"game_id":440,"stv_port":27046,"stv_name":"Uncletopia | Sydney | 4 | All Maps | STV","players":null},{"server_id":58,"name":"Uncletopia | Sydney | 5 | Stopwatch Beta","name_short":"syd-5","host":"syd-1.au.uncletopia.com","port":27055,"enabled":true,"region":"au","cc":"au","latitude":-33.865143,"longitude":151.2099,"reserved":0,"last_update":"0001-01-01T00:00:00Z","name_a2s":"Uncletopia | Sydney | 5 | Stopwatch Beta","protocol":17,"map":"cp_gullywash_final1","folder":"tf","game":"Team Fortress","app_id":440,"player_count":0,"max_players":24,"Bots":0,"server_type":"Dedicated","server_os":"Linux","password":true,"vac":true,"version":"7757534","steam_id":85568392925397959,"keywords":["cp","nocrits","nodmgspread","uncletopia"],"game_id":440,"stv_port":27056,"stv_name":"Uncletopia | Sydney | 5 | Stopwatch Beta | STV","players":null},{"server_id":59,"name":"Uncletopia | Sydney | 6 | Community","name_short":"syd-6","host":"syd-1.au.uncletopia.com","port":27065,"enabled":true,"region":"au","cc":"au","latitude":-33.865143,"longitude":151.2099,"reserved":0,"last_update":"0001-01-01T00:00:00Z","name_a2s":"Uncletopia | Sydney | 6 | Community","protocol":17,"map":"workshop/pl_cactuscanyon_redux_final1.ugc2579644293","folder":"tf","game":"Team Fortress","app_id":440,"player_count":0,"max_players":24,"Bots":0,"server_type":"Dedicated","server_os":"Linux","password":true,"vac":true,"version":"7757534","steam_id":85568392925397960,"keywords":["nocrits","nodmgspread","payload","uncletopia"],"game_id":440,"stv_port":27066,"stv_name":"Uncletopia | Sydney | 6 | Community | STV","players":null},{"server_id":49,"name":"Uncletopia | Warsaw | 1 | All Maps","name_short":"waw-1","host":"waw-1.pl.uncletopia.com","port":27015,"enabled":true,"region":"eu","cc":"pl","latitude":52.2297,"longitude":21.017532,"reserved":0,"last_update":"0001-01-01T00:00:00Z","name_a2s":"","protocol":0,"map":"","folder":"","game":"","app_id":0,"player_count":0,"max_players":0,"Bots":0,"server_type":"","server_os":"","password":false,"vac":false,"version":"","steam_id":0,"keywords":null,"game_id":0,"stv_port":0,"stv_name":"","players":null},{"server_id":50,"name":"Uncletopia | Warsaw | 2 | All Maps","name_short":"waw-2","host":"waw-1.pl.uncletopia.com","port":27025,"enabled":true,"region":"eu","cc":"pl","latitude":52.2297,"longitude":21.017532,"reserved":0,"last_update":"0001-01-01T00:00:00Z","name_a2s":"Uncletopia | Warsaw | 2 | All Maps","protocol":17,"map":"cp_process_final","folder":"tf","game":"Team Fortress","app_id":440,"player_count":0,"max_players":24,"Bots":0,"server_type":"Dedicated","server_os":"Linux","password":true,"vac":true,"version":"7757534","steam_id":85568392925397851,"keywords":["cp","nocrits","nodmgspread","uncletopia"],"game_id":440,"stv_port":27026,"stv_name":"Uncletopia | Warsaw | 2 | All Maps | STV","players":null},{"server_id":51,"name":"Uncletopia | Warsaw | 3 | All Maps","name_short":"waw-3","host":"waw-1.pl.uncletopia.com","port":27035,"enabled":true,"region":"eu","cc":"pl","latitude":52.2297,"longitude":21.017532,"reserved":0,"last_update":"0001-01-01T00:00:00Z","name_a2s":"Uncletopia | Warsaw | 3 | All Maps","protocol":17,"map":"koth_highpass","folder":"tf","game":"Team Fortress","app_id":440,"player_count":0,"max_players":24,"Bots":0,"server_type":"Dedicated","server_os":"Linux","password":true,"vac":true,"version":"7757534","steam_id":85568392925397852,"keywords":["cp","nocrits","nodmgspread","uncletopia"],"game_id":440,"stv_port":27036,"stv_name":"Uncletopia | Warsaw | 3 | All Maps | STV","players":null},{"server_id":52,"name":"Uncletopia | Warsaw | 4 | All Maps","name_short":"waw-4","host":"waw-1.pl.uncletopia.com","port":27045,"enabled":true,"region":"eu","cc":"pl","latitude":52.2297,"longitude":21.017532,"reserved":0,"last_update":"0001-01-01T00:00:00Z","name_a2s":"Uncletopia | Warsaw | 4 | All Maps","protocol":17,"map":"cp_altitude","folder":"tf","game":"Team Fortress","app_id":440,"player_count":0,"max_players":24,"Bots":0,"server_type":"Dedicated","server_os":"Linux","password":true,"vac":true,"version":"7757534","steam_id":85568392925397853,"keywords":["cp","nocrits","nodmgspread","uncletopia"],"game_id":440,"stv_port":27046,"stv_name":"Uncletopia | Warsaw | 4 | All Maps | STV","players":null},{"server_id":53,"name":"Uncletopia | Warsaw | 5 | Stopwatch Beta","name_short":"waw-5","host":"waw-1.pl.uncletopia.com","port":27055,"enabled":true,"region":"eu","cc":"pl","latitude":52.2297,"longitude":21.017532,"reserved":0,"last_update":"0001-01-01T00:00:00Z","name_a2s":"Uncletopia | Warsaw | 5 | Stopwatch Beta","protocol":17,"map":"pl_pier","folder":"tf","game":"Team Fortress","app_id":440,"player_count":0,"max_players":24,"Bots":0,"server_type":"Dedicated","server_os":"Linux","password":true,"vac":true,"version":"7757534","steam_id":85568392925397854,"keywords":["nocrits","nodmgspread","payload","uncletopia"],"game_id":440,"stv_port":27056,"stv_name":"Uncletopia | Warsaw | 5 | Stopwatch Beta | STV","players":null},{"server_id":54,"name":"Uncletopia | Warsaw | 6 | Community","name_short":"waw-6","host":"waw-1.pl.uncletopia.com","port":27065,"enabled":true,"region":"eu","cc":"pl","latitude":52.2297,"longitude":21.017532,"reserved":0,"last_update":"0001-01-01T00:00:00Z","name_a2s":"Uncletopia | Warsaw | 6 | Community","protocol":17,"map":"koth_highpass","folder":"tf","game":"Team Fortress","app_id":440,"player_count":0,"max_players":24,"Bots":0,"server_type":"Dedicated","server_os":"Linux","password":true,"vac":true,"version":"7757534","steam_id":85568392925397856,"keywords":["cp","nocrits","nodmgspread","uncletopia"],"game_id":440,"stv_port":27066,"stv_name":"Uncletopia | Warsaw | 6 | Community | STV","players":null}]}