{"status":true,"message":"","result":[{"server_id":9,"name":"Uncletopia | Atlanta | 1 | All Maps","name_short":"atl-1","host":"atl-1.us.uncletopia.com","port":27015,"enabled":true,"region":"us-east","cc":"us","latitude":33.753746,"longitude":-84.38633,"reserved":0,"last_update":"0001-01-01T00:00:00Z","name_a2s":"Uncletopia | Atlanta | 1 | All Maps","protocol":17,"map":"cp_dustbowl","folder":"tf","game":"Team Fortress","app_id":440,"player_count":24,"max_players":24,"Bots":0,"server_type":"Dedicated","server_os":"Linux","password":true,"vac":true,"version":"7961495","steam_id":85568392924469982,"keywords":["cp","nocrits","nodmgspread","uncletopia"],"game_id":440,"stv_port":27016,"stv_name":"Uncletopia | Atlanta | 1 | All Maps | STV","players":null},{"server_id":104,"name":"Uncletopia | Atlanta | 2 | All Maps","name_short":"atl-2","host":"atl-1.us.uncletopia.com","port":27025,"enabled":true,"region":"us-east","cc":"us","latitude":33.753746,"longitude":-84.38633,"reserved":0,"last_update":"0001-01-01T00:00:00Z","name_a2s":"Uncletopia | Atlanta | 2 | All Maps","protocol":17,"map":"pl_badwater","folder":"tf","game":"Team Fortress","app_id":440,"player_count":19,"max_players":24,"Bots":0,"server_type":"Dedicated","server_os":"Linux","password":true,"vac":true,"version":"7961495","steam_id":85568392924469983,"keywords":["nocrits","nodmgspread","payload","uncletopia"],"game_id":440,"stv_port":27026,"stv_name":"Uncletopia | Atlanta | 2 | All Maps | STV","players":null},{"server_id":400,"name":"Uncletopia | Atlanta | 3 | All Maps","name_short":"atl-3","host":"atl-1.us.uncletopia.com","port":27035,"enabled":true,"region":"us-east","cc":"us","latitude":33.753746,"longitude":-84.38633,"reserved":0,"last_update":"0001-01-01T00:00:00Z","name_a2s":"Uncletopia | Atlanta | 3 | All Maps","protocol":17,"map":"koth_lakeside_final","folder":"tf","game":"Team Fortress","app_id":440,"player_count":0,"max_players":24,"Bots":0,"server_type":"Dedicated","server_os":"Linux","password":true,"vac":true,"version":"7961495","steam_id":85568392924515187,"keywords":["cp","nocrits","nodmgspread","uncletopia"],"game_id":440,"stv_port":27036,"stv_name":"Uncletopia | Atlanta | 3 | All Maps | STV","players":null},{"server_id":401,"name":"Uncletopia | Atlanta | 4 | Community","name_short":"atl-4","host":"atl-1.us.uncletopia.com","port":27045,"enabled":true,"region":"us-east","cc":"us","latitude":33.753746,"longitude":-84.38633,"reserved":0,"last_update":"0001-01-01T00:00:00Z","name_a2s":"Uncletopia | Atlanta | 4 | Community","protocol":17,"map":"cp_dustbowl","folder":"tf","game":"Team Fortress","app_id":440,"player_count":0,"max_players":24,"Bots":0,"server_type":"Dedicated","server_os":"Linux","password":true,"vac":true,"version":"7961495","steam_id":85568392924515188,"keywords":["cp","nocrits","nodmgspread","uncletopia"],"game_id":440,"stv_port":27046,"stv_name":"Uncletopia | Atlanta | 4 | Community | STV","players":null},{"server_id":2,"name":"Uncletopia | Chicago | 1 | All Maps","name_short":"chi-1","host":"chi-1.us.uncletopia.com","port":27015,"enabled":true,"region":"us-central","cc":"us","latitude":41.881832,"longitude":-87.62318,"reserved":0,"last_update":"0001-01-01T00:00:00Z","name_a2s":"Uncletopia | Chicago | 1 | All Maps","protocol":17,"map":"cp_dustbowl","folder":"tf","game":"Team Fortress","app_id":440,"player_count":24,"max_players":24,"Bots":0,"server_type":"Dedicated","server_os":"Linux","password":true,"vac":true,"version":"7961495","steam_id":85568392924469984,"keywords":["cp","nocrits","nodmgspread","uncletopia"],"game_id":440,"stv_port":27016,"stv_name":"Uncletopia | Chicago | 1 | All Maps | STV","players":[{"user_id":199,"name":"DinkleBerg","steam_id":76561198891626233,"connected_time":2795000000000,"state":"active","ping":71},{"user_id":218,"name":"Archer","steam_id":76561198341537452,"connected_time":417000000000,"state":"active","ping":72},{"user_id":112,"name":"Praise_to_the_Flashlight!","steam_id":76561199001728789,"connected_time":8573000000000,"state":"active","ping":60},{"user_id":223,"name":"Lawnmower","steam_id":76561198186680197,"connected_time":2000000000,"state":"spawning","ping":77},{"user_id":210,"name":"roast pig with apple in mouth","steam_id":76561198051353647,"connected_time":1239000000000,"state":"active","ping":60},{"user_id":214,"name":"medic enthusiast","steam_id":76561198323031964,"connected_time":1220000000000,"state":"active","ping":76},{"user_id":202,"name":"ameritech","steam_id":76561198064769089,"connected_time":2147000000000,"state":"active","ping":51},{"user_id":205,"name":"Quads4Kek","steam_id":76561198800907433,"connected_time":1259000000000,"state":"active","ping":86},{"user_id":213,"name":"Shwal","steam_id":76561198138840448,"connected_time":1226000000000,"state":"active","ping":81},{"user_id":221,"name":"HorizonPear","steam_id":76561198179808389,"connected_time":234000000000,"state":"active","ping":77},{"user_id":222,"name":"TheOneZoot","steam_id":76561198121944243,"connected_time":148000000000,"state":"active","ping":84},{"user_id":178,"name":"PKBEAST_7","steam_id":76561198177136537,"connected_time":4075000000000,"state":"active","ping":90},{"user_id":185,"name":"hej","steam_id":76561197996366940,"connected_time":3656000000000,"state":"active","ping":60},{"user_id":206,"name":"Swash","steam_id":76561197969421355,"connected_time":1259000000000,"state":"active","ping":68},{"user_id":201,"name":"MedRed™ #IATAH","steam_id":76561198002962970,"connected_time":2161000000000,"state":"active","ping":128},{"user_id":152,"name":"Maverick","steam_id":76561198322829814,"connected_time":5583000000000,"state":"active","ping":80},{"user_id":200,"name":"Mank","steam_id":76561198189421005,"connected_time":2659000000000,"state":"active","ping":52},{"user_id":180,"name":"TallBit","steam_id":76561199059748976,"connected_time":3673000000000,"state":"active","ping":56},{"user_id":220,"name":"XxTom_y_JerryxX","steam_id":76561199379801098,"connected_time":382000000000,"state":"active","ping":190},{"user_id":211,"name":"AppleTruffle","steam_id":76561198031299571,"connected_time":1239000000000,"state":"active","ping":61},{"user_id":195,"name":"berserker_tf2 yt","steam_id":76561198303464488,"connected_time":3251000000000,"state":"active","ping":69},{"user_id":209,"name":"Heat My Justice","steam_id":76561197995252750,"connected_time":1251000000000,"state":"active","ping":95},{"user_id":212,"name":"V","steam_id":76561198057374871,"connected_time":1238000000000,"state":"active","ping":63},{"user_id":190,"name":"Glue Gulper","steam_id":76561198158014525,"connected_time":3633000000000,"state":"active","ping":63}]},{"server_id":106,"name":"Uncletopia | Chicago | 2 | All Maps","name_short":"chi-2","host":"chi-1.us.uncletopia.com","port":27025,"enabled":true,"region":"us-central","cc":"us","latitude":41.881832,"longitude":-87.62318,"reserved":0,"last_update":"0001-01-01T00:00:00Z","name_a2s":"Uncletopia | Chicago | 2 | All Maps","protocol":17,"map":"pl_frontier_final","folder":"tf","game":"Team Fortress","app_id":440,"player_count":24,"max_players":24,"Bots":0,"server_type":"Dedicated","server_os":"Linux","password":true,"vac":true,"version":"7961495","steam_id":85568392924469985,"keywords":["nocrits","nodmgspread","payload","uncletopia"],"game_id":440,"stv_port":27026,"stv_name":"Uncletopia | Chicago | 2 | All Maps | STV","players":[{"user_id":166,"name":"Smile from God","steam_id":76561198032663494,"connected_time":2869000000000,"state":"active","ping":76},{"user_id":182,"name":"minecraft","steam_id":76561198104345201,"connected_time":2055000000000,"state":"active","ping":64},{"user_id":184,"name":"Ibrahim","steam_id":76561198028320625,"connected_time":2031000000000,"state":"active","ping":69},{"user_id":164,"name":"Space⭐Taffy","steam_id":76561198002271720,"connected_time":3247000000000,"state":"active","ping":69},{"user_id":205,"name":"Plasmie{ylo}","steam_id":76561198083513154,"connected_time":269000000000,"state":"active","ping":78},{"user_id":206,"name":"Captian Wobbs","steam_id":76561198142884936,"connected_time":268000000000,"state":"active","ping":86},{"user_id":198,"name":"ElephantHydrogen4277882","steam_id":76561198175741741,"connected_time":595000000000,"state":"active","ping":75},{"user_id":214,"name":"Pango","steam_id":76561198069811545,"connected_time":21000000000,"state":"spawning","ping":76},{"user_id":202,"name":"Scorpie Doodle","steam_id":76561198021845763,"connected_time":287000000000,"state":"active","ping":52},{"user_id":155,"name":"Aaron","steam_id":76561198091157802,"connected_time":4057000000000,"state":"active","ping":75},{"user_id":189,"name":"Terror","steam_id":76561198188685728,"connected_time":1699000000000,"state":"active","ping":47},{"user_id":186,"name":"The Potato Romancer","steam_id":76561198204197648,"connected_time":2000000000000,"state":"active","ping":99},{"user_id":207,"name":"Gustavo Fring","steam_id":76561198132807405,"connected_time":262000000000,"state":"active","ping":98},{"user_id":200,"name":"RusticCarp42989","steam_id":76561198361151865,"connected_time":290000000000,"state":"active","ping":123},{"user_id":208,"name":"Rtx Fred ●","steam_id":76561198999217575,"connected_time":255000000000,"state":"active","ping":72},{"user_id":153,"name":"Mug Moment Gaming","steam_id":76561198233098136,"connected_time":4326000000000,"state":"active","ping":65},{"user_id":194,"name":"Detective Pyro","steam_id":76561199039805435,"connected_time":1333000000000,"state":"active","ping":90},{"user_id":213,"name":"Catherine","steam_id":76561198125233120,"connected_time":120000000000,"state":"active","ping":101},{"user_id":199,"name":"pinky","steam_id":76561199109784776,"connected_time":390000000000,"state":"active","ping":55},{"user_id":180,"name":"Bad Medic Buddy","steam_id":76561198093222632,"connected_time":2076000000000,"state":"active","ping":88},{"user_id":210,"name":"Dwayne Da Wok Jinsun","steam_id":76561198044506855,"connected_time":221000000000,"state":"active","ping":72},{"user_id":211,"name":"tooth","steam_id":76561197986437643,"connected_time":201000000000,"state":"active","ping":68},{"user_id":212,"name":"stick","steam_id":76561198049489094,"connected_time":190000000000,"state":"active","ping":54}]},{"server_id":402,"name":"Uncletopia | Chicago | 3 | All Maps","name_short":"chi-3","host":"chi-1.us.uncletopia.com","port":27035,"enabled":true,"region":"us-central","cc":"us","latitude":41.881832,"longitude":-87.62318,"reserved":0,"last_update":"0001-01-01T00:00:00Z","name_a2s":"Uncletopia | Chicago | 3 | All Maps","protocol":17,"map":"pl_borneo","folder":"tf","game":"Team Fortress","app_id":440,"player_count":24,"max_players":24,"Bots":0,"server_type":"Dedicated","server_os":"Linux","password":true,"vac":true,"version":"7961495","steam_id":85568392924515191,"keywords":["nocrits","nodmgspread","payload","uncletopia"],"game_id":440,"stv_port":27036,"stv_name":"Uncletopia | Chicago | 3 | All Maps | STV","players":[{"user_id":179,"name":"rbjunk","steam_id":76561198123458199,"connected_time":703000000000,"state":"active","ping":61},{"user_id":147,"name":"Pizza","steam_id":76561198118748364,"connected_time":3599000000000,"state":"active","ping":76},{"user_id":185,"name":"Goose!","steam_id":76561199012114744,"connected_time":563000000000,"state":"active","ping":102},{"user_id":190,"name":"Blood Moon","steam_id":76561197995279133,"connected_time":421000000000,"state":"active","ping":71},{"user_id":183,"name":"big steve","steam_id":76561199037050183,"connected_time":644000000000,"state":"active","ping":92},{"user_id":187,"name":"Penis Chopper","steam_id":76561199016999537,"connected_time":471000000000,"state":"active","ping":118},{"user_id":192,"name":"lfty","steam_id":76561198283841707,"connected_time":325000000000,"state":"active","ping":74},{"user_id":128,"name":"yes daddy","steam_id":76561198166100997,"connected_time":5369000000000,"state":"active","ping":75},{"user_id":168,"name":"BakedBushido","steam_id":76561197976095068,"connected_time":2412000000000,"state":"active","ping":60},{"user_id":193,"name":"SiltyStar85","steam_id":76561198309175923,"connected_time":43000000000,"state":"active","ping":77},{"user_id":188,"name":"FEAR MY FISH!!","steam_id":76561199141431059,"connected_time":439000000000,"state":"active","ping":92},{"user_id":141,"name":"No Chance of Pearly Gates","steam_id":76561198042570322,"connected_time":4497000000000,"state":"active","ping":83},{"user_id":143,"name":"Makina","steam_id":76561198057475567,"connected_time":4096000000000,"state":"active","ping":70},{"user_id":191,"name":"HONEY BOO BUSCEMI","steam_id":76561198379980749,"connected_time":400000000000,"state":"active","ping":88},{"user_id":156,"name":"Dick Grimes","steam_id":76561198157414556,"connected_time":3272000000000,"state":"active","ping":89},{"user_id":173,"name":"2.5 Oz of Paprika","steam_id":76561198174647666,"connected_time":2111000000000,"state":"active","ping":90},{"user_id":166,"name":"REAL LAOZI","steam_id":76561198326944980,"connected_time":2419000000000,"state":"active","ping":79},{"user_id":172,"name":"Bone Daddy","steam_id":76561197989953895,"connected_time":2355000000000,"state":"active","ping":77},{"user_id":165,"name":"Mr. Tickle","steam_id":76561198126684647,"connected_time":2426000000000,"state":"active","ping":60},{"user_id":161,"name":"quality control","steam_id":76561198148059714,"connected_time":3141000000000,"state":"active","ping":60},{"user_id":167,"name":"Shady Businessman","steam_id":76561198143855968,"connected_time":2415000000000,"state":"active","ping":101},{"user_id":169,"name":"MrJoePHD","steam_id":76561197961227977,"connected_time":2406000000000,"state":"active","ping":80},{"user_id":146,"name":"[NAME-REDACTED]","steam_id":76561198035682975,"connected_time":3630000000000,"state":"active","ping":71},{"user_id":184,"name":"coffeeEnjoyer","steam_id":76561198025307896,"connected_time":614000000000,"state":"active","ping":64}]},{"server_id":403,"name":"Uncletopia | Chicago | 4 | All Maps","name_short":"chi-4","host":"chi-1.us.uncletopia.com","port":27045,"enabled":true,"region":"us-central","cc":"us","latitude":41.881832,"longitude":-87.62318,"reserved":0,"last_update":"0001-01-01T00:00:00Z","name_a2s":"Uncletopia | Chicago | 4 | All Maps","protocol":17,"map":"cp_dustbowl","folder":"tf","game":"Team Fortress","app_id":440,"player_count":24,"max_players":24,"Bots":0,"server_type":"Dedicated","server_os":"Linux","password":true,"vac":true,"version":"7961495","steam_id":85568392924515193,"keywords":["cp","nocrits","nodmgspread","uncletopia"],"game_id":440,"stv_port":27046,"stv_name":"Uncletopia | Chicago | 4 | All Maps | STV","players":[{"user_id":189,"name":"ˢᵏᵉᵗᶜʰ","steam_id":76561198138216669,"connected_time":2928000000000,"state":"active","ping":61},{"user_id":201,"name":"milkman dairy","steam_id":76561198210247443,"connected_time":2404000000000,"state":"active","ping":49},{"user_id":211,"name":"Jill the Owl","steam_id":76561197999210583,"connected_time":1417000000000,"state":"active","ping":71},{"user_id":198,"name":"Gaming","steam_id":76561198107080532,"connected_time":2447000000000,"state":"active","ping":69},{"user_id":215,"name":"breathing meat donut","steam_id":76561198123566649,"connected_time":1391000000000,"state":"active","ping":118},{"user_id":225,"name":"steakfarmasian","steam_id":76561198212754036,"connected_time":1032000000000,"state":"active","ping":45},{"user_id":223,"name":"Chode Mode","steam_id":76561198353840477,"connected_time":1055000000000,"state":"active","ping":45},{"user_id":231,"name":"bouncyhousin","steam_id":76561198852902827,"connected_time":271000000000,"state":"active","ping":51},{"user_id":183,"name":"mike_and_ike","steam_id":76561198048427618,"connected_time":3255000000000,"state":"active","ping":57},{"user_id":218,"name":"Lamp","steam_id":76561198369922506,"connected_time":1363000000000,"state":"active","ping":57},{"user_id":228,"name":"ErenJenga54","steam_id":76561199066185761,"connected_time":718000000000,"state":"active","ping":139},{"user_id":232,"name":"SpiderString (She/She++)","steam_id":76561198092409181,"connected_time":178000000000,"state":"active","ping":101},{"user_id":216,"name":"Ten","steam_id":76561199056335837,"connected_time":1385000000000,"state":"active","ping":55},{"user_id":236,"name":"HanakoToast","steam_id":76561198045233131,"connected_time":53000000000,"state":"active","ping":105},{"user_id":151,"name":"DeSynthed","steam_id":76561198098768007,"connected_time":5703000000000,"state":"active","ping":74},{"user_id":209,"name":"freaky man","steam_id":76561198109742474,"connected_time":1440000000000,"state":"active","ping":71},{"user_id":234,"name":"SaaxoM","steam_id":76561198208256603,"connected_time":118000000000,"state":"active","ping":102},{"user_id":205,"name":"Try Gardening","steam_id":76561198120311340,"connected_time":2075000000000,"state":"active","ping":51},{"user_id":217,"name":"Shmebulock","steam_id":76561198046941925,"connected_time":1383000000000,"state":"active","ping":56},{"user_id":208,"name":"SES3","steam_id":76561198054380259,"connected_time":1475000000000,"state":"active","ping":73},{"user_id":230,"name":"AverageJoe","steam_id":76561198313420109,"connected_time":488000000000,"state":"active","ping":53},{"user_id":207,"name":"Fewny","steam_id":76561198225977000,"connected_time":1924000000000,"state":"active","ping":72},{"user_id":224,"name":"Twilight Princess","steam_id":76561198049460281,"connected_time":1047000000000,"state":"active","ping":64},{"user_id":237,"name":"♡Ame♡","steam_id":76561198071217748,"connected_time":46000000000,"state":"active","ping":51}]},{"server_id":36,"name":"Uncletopia | Chicago | 5 | All Maps","name_short":"chi-5","host":"chi-2.us.uncletopia.com","port":27015,"enabled":true,"region":"us-central","cc":"us","latitude":41.881832,"longitude":-87.62318,"reserved":0,"last_update":"0001-01-01T00:00:00Z","name_a2s":"Uncletopia | Chicago | 5 | All Maps","protocol":17,"map":"cp_dustbowl","folder":"tf","game":"Team Fortress","app_id":440,"player_count":24,"max_players":24,"Bots":0,"server_type":"Dedicated","server_os":"Linux","password":true,"vac":true,"version":"7961495","steam_id":85568392924866362,"keywords":["cp","nocrits","nodmgspread","uncletopia"],"game_id":440,"stv_port":27016,"stv_name":"Uncletopia | Chicago | 5 | All Maps | STV","players":[{"user_id":101,"name":"Spyincorporated","steam_id":76561198080956951,"connected_time":4157000000000,"state":"active","ping":60},{"user_id":142,"name":"Coup de Grass","steam_id":76561198011643226,"connected_time":722000000000,"state":"active","ping":77},{"user_id":144,"name":"granola","steam_id":76561198349359281,"connected_time":453000000000,"state":"active","ping":67},{"user_id":131,"name":"Flowers","steam_id":76561198031669899,"connected_time":1975000000000,"state":"active","ping":81},{"user_id":105,"name":"Yayifications","steam_id":76561198066227208,"connected_time":3903000000000,"state":"active","ping":60},{"user_id":121,"name":"Linguine Alfredo","steam_id":76561198022045816,"connected_time":2613000000000,"state":"active","ping":76},{"user_id":123,"name":"That Guy","steam_id":76561198074138740,"connected_time":2157000000000,"state":"active","ping":83},{"user_id":117,"name":"Jousty","steam_id":76561199162677853,"connected_time":3271000000000,"state":"active","ping":90},{"user_id":114,"name":"fac_73","steam_id":76561198064692697,"connected_time":3400000000000,"state":"active","ping":62},{"user_id":132,"name":"AJTarcza","steam_id":76561198070800190,"connected_time":1964000000000,"state":"active","ping":87},{"user_id":94,"name":"Majin Boo Radley","steam_id":76561198288471052,"connected_time":4243000000000,"state":"active","ping":58},{"user_id":146,"name":"MADHEAD347","steam_id":76561199475145723,"connected_time":238000000000,"state":"active","ping":84},{"user_id":124,"name":"HornedAccomplice","steam_id":76561198171126347,"connected_time":2149000000000,"state":"active","ping":46},{"user_id":130,"name":"L","steam_id":76561197999500613,"connected_time":2049000000000,"state":"active","ping":62},{"user_id":125,"name":"Vegerot","steam_id":76561197997843710,"connected_time":2145000000000,"state":"active","ping":68},{"user_id":137,"name":"♦","steam_id":76561198114471719,"connected_time":1752000000000,"state":"active","ping":57},{"user_id":134,"name":"MILF-Hunting Wizard","steam_id":76561198113748347,"connected_time":1919000000000,"state":"active","ping":92},{"user_id":145,"name":"[MP40s] JavelinV2","steam_id":76561198188284466,"connected_time":407000000000,"state":"active","ping":60},{"user_id":65,"name":"Shrebbie","steam_id":76561198875230824,"connected_time":7177000000000,"state":"active","ping":58},{"user_id":118,"name":"chesterwnimitz","steam_id":76561198062664377,"connected_time":3181000000000,"state":"active","ping":89},{"user_id":129,"name":"Sean","steam_id":76561198129453300,"connected_time":2078000000000,"state":"active","ping":59},{"user_id":112,"name":"ThePopularLoner3334","steam_id":76561198202436474,"connected_time":3608000000000,"state":"active","ping":64},{"user_id":140,"name":"drwwby","steam_id":76561198067741339,"connected_time":754000000000,"state":"active","ping":58},{"user_id":141,"name":"Antwan","steam_id":76561198246200638,"connected_time":754000000000,"state":"active","ping":75}]},{"server_id":37,"name":"Uncletopia | Chicago | 6 | All Maps","name_short":"chi-6","host":"chi-2.us.uncletopia.com","port":27025,"enabled":true,"region":"us-central","cc":"us","latitude":41.881832,"longitude":-87.62318,"reserved":0,"last_update":"0001-01-01T00:00:00Z","name_a2s":"Uncletopia | Chicago | 6 | All Maps","protocol":17,"map":"pl_upward","folder":"tf","game":"Team Fortress","app_id":440,"player_count":24,"max_players":24,"Bots":0,"server_type":"Dedicated","server_os":"Linux","password":true,"vac":true,"version":"7961495","steam_id":85568392924866363,"keywords":["nocrits","nodmgspread","payload","uncletopia"],"game_id":440,"stv_port":27026,"stv_name":"Uncletopia | Chicago | 6 | All Maps | STV","players":[{"user_id":220,"name":"thecal","steam_id":76561198307893384,"connected_time":1558000000000,"state":"active","ping":85},{"user_id":211,"name":"lexi","steam_id":76561198176299759,"connected_time":2316000000000,"state":"active","ping":91},{"user_id":223,"name":"General Mightyian11","steam_id":76561199125278476,"connected_time":1521000000000,"state":"active","ping":65},{"user_id":229,"name":"c64guy","steam_id":76561198023022744,"connected_time":1033000000000,"state":"active","ping":76},{"user_id":132,"name":"FRANKIEonPCP","steam_id":76561198208451949,"connected_time":6238000000000,"state":"active","ping":80},{"user_id":179,"name":"Bullwinkle J. Moose","steam_id":76561198075977196,"connected_time":4584000000000,"state":"active","ping":67},{"user_id":233,"name":"Rudy","steam_id":76561198013456828,"connected_time":710000000000,"state":"active","ping":73},{"user_id":212,"name":"Venk","steam_id":76561198251131422,"connected_time":2310000000000,"state":"active","ping":70},{"user_id":232,"name":"Medic Bag","steam_id":76561198403209900,"connected_time":743000000000,"state":"active","ping":65},{"user_id":234,"name":"MrDudeMan","steam_id":76561198959351282,"connected_time":708000000000,"state":"active","ping":72},{"user_id":236,"name":"Løst","steam_id":76561198035677801,"connected_time":316000000000,"state":"active","ping":66},{"user_id":217,"name":"BarrowBaron","steam_id":76561198013633236,"connected_time":2177000000000,"state":"active","ping":60},{"user_id":214,"name":"Hope","steam_id":76561199201900779,"connected_time":2250000000000,"state":"active","ping":81},{"user_id":188,"name":"Master Oogway","steam_id":76561198051869638,"connected_time":3323000000000,"state":"active","ping":76},{"user_id":222,"name":"ven the foreskin haver","steam_id":76561198880428283,"connected_time":1524000000000,"state":"active","ping":78},{"user_id":235,"name":"McDonald's Chicken Big Mac","steam_id":76561198254991505,"connected_time":499000000000,"state":"active","ping":69},{"user_id":215,"name":"Conjon","steam_id":76561198083408885,"connected_time":2233000000000,"state":"active","ping":53},{"user_id":190,"name":"Pizza Boy","steam_id":76561198207213173,"connected_time":3231000000000,"state":"active","ping":52},{"user_id":224,"name":"Mr. Sauce","steam_id":76561198055512324,"connected_time":1453000000000,"state":"active","ping":73},{"user_id":191,"name":"dogface","steam_id":76561198074407897,"connected_time":3155000000000,"state":"active","ping":72},{"user_id":160,"name":"ole_diggy","steam_id":76561198970212746,"connected_time":5057000000000,"state":"active","ping":67},{"user_id":226,"name":"pinguez","steam_id":76561199003447981,"connected_time":1290000000000,"state":"active","ping":102},{"user_id":228,"name":"BiggsyBoy","steam_id":76561198119656147,"connected_time":1119000000000,"state":"active","ping":70},{"user_id":194,"name":"Delicious Mayonnaise","steam_id":76561198031406237,"connected_time":3065000000000,"state":"active","ping":63}]},{"server_id":38,"name":"Uncletopia | Chicago | 7 | Stopwatch Beta","name_short":"chi-7","host":"chi-2.us.uncletopia.com","port":27035,"enabled":true,"region":"us-central","cc":"us","latitude":41.881832,"longitude":-87.62318,"reserved":0,"last_update":"0001-01-01T00:00:00Z","name_a2s":"Uncletopia | Chicago | 7 | Stopwatch Beta","protocol":17,"map":"cp_granary","folder":"tf","game":"Team Fortress","app_id":440,"player_count":0,"max_players":24,"Bots":0,"server_type":"Dedicated","server_os":"Linux","password":true,"vac":true,"version":"7961495","steam_id":85568392924866364,"keywords":["cp","nocrits","nodmgspread","uncletopia"],"game_id":440,"stv_port":27036,"stv_name":"Uncletopia | Chicago | 7 | Stopwatch Beta | STV","players":null},{"server_id":39,"name":"Uncletopia | Chicago | 8 | Community","name_short":"chi-8","host":"chi-2.us.uncletopia.com","port":27045,"enabled":true,"region":"us-central","cc":"us","latitude":41.881832,"longitude":-87.62318,"reserved":0,"last_update":"0001-01-01T00:00:00Z","name_a2s":"Uncletopia | Chicago | 8 | Community","protocol":17,"map":"workshop/cp_croissant_final.ugc458840209","folder":"tf","game":"Team Fortress","app_id":440,"player_count":24,"max_players":24,"Bots":0,"server_type":"Dedicated","server_os":"Linux","password":true,"vac":true,"version":"7961495","steam_id":85568392924866365,"keywords":["cp","nocrits","nodmgspread","uncletopia"],"game_id":440,"stv_port":27046,"stv_name":"Uncletopia | Chicago | 8 | Community | STV","players":[{"user_id":160,"name":"toastman","steam_id":76561198207073088,"connected_time":357000000000,"state":"active","ping":81},{"user_id":108,"name":"Skeleton Hotel","steam_id":76561198041704727,"connected_time":5021000000000,"state":"active","ping":73},{"user_id":143,"name":"savetherobot","steam_id":76561197970664111,"connected_time":1376000000000,"state":"active","ping":79},{"user_id":154,"name":"TAgola","steam_id":76561199188083707,"connected_time":771000000000,"state":"active","ping":68},{"user_id":164,"name":"TrustworthyStranger","steam_id":76561198154105678,"connected_time":144000000000,"state":"active","ping":77},{"user_id":124,"name":"the pest","steam_id":76561198826298849,"connected_time":3546000000000,"state":"active","ping":92},{"user_id":148,"name":"JambaJuice","steam_id":76561198806736231,"connected_time":1351000000000,"state":"active","ping":76},{"user_id":131,"name":"Assorted_Asserey","steam_id":76561198132649657,"connected_time":2832000000000,"state":"active","ping":68},{"user_id":142,"name":"stampdawg","steam_id":76561198050500060,"connected_time":1791000000000,"state":"active","ping":84},{"user_id":144,"name":"Ji-man Choi","steam_id":76561198107899101,"connected_time":1375000000000,"state":"active","ping":74},{"user_id":151,"name":"❄︎SHIT PISSER JULIANNE❄","steam_id":76561198061955351,"connected_time":1182000000000,"state":"active","ping":56},{"user_id":141,"name":"PigPig","steam_id":76561198068190834,"connected_time":1881000000000,"state":"active","ping":110},{"user_id":81,"name":"floral incandescent porpoises","steam_id":76561198172454407,"connected_time":6671000000000,"state":"active","ping":76},{"user_id":162,"name":"sonikro","steam_id":76561197989428692,"connected_time":192000000000,"state":"active","ping":62},{"user_id":163,"name":"im a juvenile and i love to ste","steam_id":76561198143132686,"connected_time":184000000000,"state":"active","ping":85},{"user_id":134,"name":"Ace Chromatica","steam_id":76561198042211131,"connected_time":2795000000000,"state":"active","ping":56},{"user_id":136,"name":"Cyclops_672","steam_id":76561198080169497,"connected_time":2782000000000,"state":"active","ping":59},{"user_id":130,"name":"ShadowDragon0125","steam_id":76561198343849022,"connected_time":3231000000000,"state":"active","ping":70},{"user_id":165,"name":"scrich scrich","steam_id":76561198123287268,"connected_time":108000000000,"state":"active","ping":46},{"user_id":161,"name":"LUM","steam_id":76561198069976825,"connected_time":351000000000,"state":"active","ping":80},{"user_id":150,"name":"Chimpo","steam_id":76561198066228209,"connected_time":1343000000000,"state":"active","ping":79},{"user_id":138,"name":"Froyo Ding Dong","steam_id":76561198379421700,"connected_time":2528000000000,"state":"active","ping":80},{"user_id":168,"name":"Sirmrmagoo","steam_id":76561198993190424,"connected_time":89000000000,"state":"active","ping":108},{"user_id":86,"name":"ATL1 | SparkStorm","steam_id":76561198095817025,"connected_time":6623000000000,"state":"active","ping":61}]},{"server_id":8,"name":"Uncletopia | Dallas | 1 | All Maps","name_short":"dal-1","host":"dal-1.us.uncletopia.com","port":27015,"enabled":true,"region":"us-central","cc":"us","latitude":32.779167,"longitude":-96.80889,"reserved":0,"last_update":"0001-01-01T00:00:00Z","name_a2s":"Uncletopia | Dallas | 1 | All Maps","protocol":17,"map":"pl_frontier_final","folder":"tf","game":"Team Fortress","app_id":440,"player_count":24,"max_players":24,"Bots":0,"server_type":"Dedicated","server_os":"Linux","password":true,"vac":true,"version":"7961495","steam_id":85568392924469986,"keywords":["nocrits","nodmgspread","payload","uncletopia"],"game_id":440,"stv_port":27016,"stv_name":"Uncletopia | Dallas | 1 | All Maps | STV","players":[{"user_id":184,"name":"Young-OG","steam_id":76561198058800479,"connected_time":1359000000000,"state":"active","ping":89},{"user_id":136,"name":"LORDO","steam_id":76561198044824675,"connected_time":4903000000000,"state":"active","ping":82},{"user_id":169,"name":"Ryzema","steam_id":76561198165594229,"connected_time":2005000000000,"state":"active","ping":96},{"user_id":149,"name":"muck","steam_id":76561198120437909,"connected_time":3669000000000,"state":"active","ping":44},{"user_id":185,"name":"Ballista","steam_id":76561197983182562,"connected_time":1222000000000,"state":"active","ping":59},{"user_id":147,"name":"xfinitycablebox","steam_id":76561198317433700,"connected_time":3743000000000,"state":"active","ping":83},{"user_id":196,"name":"neight","steam_id":76561197998456682,"connected_time":610000000000,"state":"active","ping":82},{"user_id":193,"name":"rf","steam_id":76561198195359229,"connected_time":1118000000000,"state":"active","ping":104},{"user_id":140,"name":"flippercurve","steam_id":76561199238295034,"connected_time":4445000000000,"state":"active","ping":75},{"user_id":104,"name":"Angry Ginger","steam_id":76561198256929349,"connected_time":6716000000000,"state":"active","ping":81},{"user_id":200,"name":"Sahbi ʕ •ᴥ•ʔ (she/they)","steam_id":76561199196292242,"connected_time":249000000000,"state":"active","ping":74},{"user_id":129,"name":"sih3","steam_id":76561198081462396,"connected_time":5791000000000,"state":"active","ping":67},{"user_id":171,"name":"pawldag","steam_id":76561198000936442,"connected_time":1978000000000,"state":"active","ping":103},{"user_id":188,"name":"why?","steam_id":76561198170390298,"connected_time":1157000000000,"state":"active","ping":63},{"user_id":123,"name":"leesh","steam_id":76561198079603938,"connected_time":6177000000000,"state":"active","ping":66},{"user_id":201,"name":"sailor","steam_id":76561198091015050,"connected_time":206000000000,"state":"active","ping":80},{"user_id":179,"name":"Johnny Lawrence #JohnnyMaxxing","steam_id":76561199367141671,"connected_time":1388000000000,"state":"active","ping":90},{"user_id":157,"name":"aidenmc3","steam_id":76561198062209166,"connected_time":3056000000000,"state":"active","ping":47},{"user_id":189,"name":"LampMan","steam_id":76561198079857527,"connected_time":1154000000000,"state":"active","ping":61},{"user_id":199,"name":"Evil little man","steam_id":76561198311053471,"connected_time":268000000000,"state":"active","ping":59},{"user_id":192,"name":"elyktsorb","steam_id":76561198158964488,"connected_time":1135000000000,"state":"active","ping":88},{"user_id":167,"name":"I haven't even begun to peak","steam_id":76561198022302843,"connected_time":2503000000000,"state":"active","ping":78},{"user_id":178,"name":"sumerian death metal warrior","steam_id":76561198997380708,"connected_time":1414000000000,"state":"active","ping":118},{"user_id":138,"name":"Imrgrim","steam_id":76561198135866481,"connected_time":4471000000000,"state":"active","ping":73}]},{"server_id":108,"name":"Uncletopia | Dallas | 2 | All Maps","name_short":"dal-2","host":"dal-1.us.uncletopia.com","port":27025,"enabled":true,"region":"us-central","cc":"us","latitude":32.779167,"longitude":-96.80889,"reserved":0,"last_update":"0001-01-01T00:00:00Z","name_a2s":"Uncletopia | Dallas | 2 | All Maps","protocol":17,"map":"pl_borneo","folder":"tf","game":"Team Fortress","app_id":440,"player_count":24,"max_players":24,"Bots":0,"server_type":"Dedicated","server_os":"Linux","password":true,"vac":true,"version":"7961495","steam_id":85568392924469988,"keywords":["nocrits","nodmgspread","payload","uncletopia"],"game_id":440,"stv_port":27026,"stv_name":"Uncletopia | Dallas | 2 | All Maps | STV","players":[{"user_id":155,"name":"Sirphantom","steam_id":76561198125415432,"connected_time":2581000000000,"state":"active","ping":91},{"user_id":197,"name":"Tribute","steam_id":76561198081594043,"connected_time":462000000000,"state":"active","ping":60},{"user_id":165,"name":"LordKirby","steam_id":76561198006938286,"connected_time":1784000000000,"state":"active","ping":97},{"user_id":200,"name":"Astro","steam_id":76561198035676106,"connected_time":158000000000,"state":"active","ping":68},{"user_id":163,"name":"Levi","steam_id":76561198089832776,"connected_time":1868000000000,"state":"active","ping":56},{"user_id":181,"name":"Nuke Dookie","steam_id":76561198127013243,"connected_time":1472000000000,"state":"active","ping":75},{"user_id":160,"name":"Panda Loser","steam_id":76561198828745176,"connected_time":2358000000000,"state":"active","ping":87},{"user_id":109,"name":"Argon","steam_id":76561199254804349,"connected_time":6183000000000,"state":"active","ping":101},{"user_id":91,"name":"HeroOfTime","steam_id":76561199096218001,"connected_time":7162000000000,"state":"active","ping":85},{"user_id":185,"name":"JtsRes","steam_id":76561197994809241,"connected_time":1362000000000,"state":"active","ping":63},{"user_id":186,"name":"Tungstentoad","steam_id":76561198364160221,"connected_time":1317000000000,"state":"active","ping":77},{"user_id":192,"name":"hforce11","steam_id":76561198087647130,"connected_time":652000000000,"state":"active","ping":67},{"user_id":193,"name":"Sin","steam_id":76561198084771229,"connected_time":631000000000,"state":"active","ping":80},{"user_id":184,"name":"DbrotLord","steam_id":76561198156461280,"connected_time":1411000000000,"state":"active","ping":70},{"user_id":190,"name":"Lezabel","steam_id":76561198970753261,"connected_time":989000000000,"state":"active","ping":76},{"user_id":179,"name":"Sonic Mania 2 [100 Real Leaked","steam_id":76561198062764039,"connected_time":1541000000000,"state":"active","ping":75},{"user_id":153,"name":"BigPimpin","steam_id":76561198119549348,"connected_time":2721000000000,"state":"active","ping":47},{"user_id":199,"name":"usmnt==chokers","steam_id":76561198043456370,"connected_time":397000000000,"state":"active","ping":92},{"user_id":148,"name":"Yimberly","steam_id":76561199206923109,"connected_time":3411000000000,"state":"active","ping":85},{"user_id":176,"name":"mel","steam_id":76561198019820977,"connected_time":1644000000000,"state":"active","ping":47},{"user_id":189,"name":"Major Woody","steam_id":76561198835541533,"connected_time":1138000000000,"state":"active","ping":81},{"user_id":195,"name":"sunny","steam_id":76561198069380992,"connected_time":629000000000,"state":"active","ping":58},{"user_id":159,"name":"ThesaltySpoon303","steam_id":76561198348070410,"connected_time":2414000000000,"state":"active","ping":90},{"user_id":196,"name":"boo_thefeared","steam_id":76561198127967685,"connected_time":628000000000,"state":"active","ping":163}]},{"server_id":404,"name":"Uncletopia | Dallas | 3 | All Maps","name_short":"dal-3","host":"dal-1.us.uncletopia.com","port":27035,"enabled":true,"region":"us-central","cc":"us","latitude":32.779167,"longitude":-96.80889,"reserved":0,"last_update":"0001-01-01T00:00:00Z","name_a2s":"Uncletopia | Dallas | 3 | All Maps","protocol":17,"map":"cp_dustbowl","folder":"tf","game":"Team Fortress","app_id":440,"player_count":24,"max_players":24,"Bots":0,"server_type":"Dedicated","server_os":"Linux","password":true,"vac":true,"version":"7961495","steam_id":85568392924515219,"keywords":["cp","nocrits","nodmgspread","uncletopia"],"game_id":440,"stv_port":27036,"stv_name":"Uncletopia | Dallas | 3 | All Maps | STV","players":[{"user_id":144,"name":"Soda","steam_id":76561198219209367,"connected_time":292000000000,"state":"active","ping":63},{"user_id":122,"name":"Sqilliam Afton","steam_id":76561198326052355,"connected_time":1279000000000,"state":"active","ping":128},{"user_id":147,"name":"Freddy fatbear","steam_id":76561199077997794,"connected_time":6000000000,"state":"spawning","ping":63},{"user_id":132,"name":"shaq$","steam_id":76561198045246504,"connected_time":1222000000000,"state":"active","ping":78},{"user_id":142,"name":"SmokyDank","steam_id":76561198045782886,"connected_time":408000000000,"state":"active","ping":99},{"user_id":101,"name":"notuncooldude","steam_id":76561199129819858,"connected_time":3061000000000,"state":"active","ping":131},{"user_id":125,"name":"Generator","steam_id":76561198011762257,"connected_time":1260000000000,"state":"active","ping":109},{"user_id":121,"name":"Yvette420","steam_id":76561199472888498,"connected_time":1282000000000,"state":"active","ping":94},{"user_id":104,"name":"YoteDab McFapDab.jpg","steam_id":76561197984870380,"connected_time":3020000000000,"state":"active","ping":84},{"user_id":136,"name":"TerrorOfTheSeas","steam_id":76561198388385659,"connected_time":1038000000000,"state":"active","ping":54},{"user_id":126,"name":"Bacon","steam_id":76561199078407152,"connected_time":1260000000000,"state":"active","ping":87},{"user_id":146,"name":"xLeoparrd","steam_id":76561198940657194,"connected_time":255000000000,"state":"active","ping":56},{"user_id":116,"name":"Jericho von Generico","steam_id":76561198206139559,"connected_time":2146000000000,"state":"active","ping":91},{"user_id":81,"name":"tydogzilla","steam_id":76561198054254518,"connected_time":5639000000000,"state":"active","ping":102},{"user_id":143,"name":"°Creamy Gilligan","steam_id":76561198001569384,"connected_time":386000000000,"state":"active","ping":83},{"user_id":99,"name":"Linus Sex Tips","steam_id":76561198271875263,"connected_time":3298000000000,"state":"active","ping":99},{"user_id":128,"name":"asm_ghost","steam_id":76561199205363547,"connected_time":1249000000000,"state":"active","ping":108},{"user_id":129,"name":"Ati","steam_id":76561198381841894,"connected_time":1248000000000,"state":"active","ping":90},{"user_id":141,"name":"Just A Potato","steam_id":76561198056360867,"connected_time":681000000000,"state":"active","ping":85},{"user_id":133,"name":"Unarmed Gun Man","steam_id":76561199489296949,"connected_time":1194000000000,"state":"active","ping":74},{"user_id":134,"name":"PensiveProgrammer64","steam_id":76561198360198382,"connected_time":1189000000000,"state":"active","ping":105},{"user_id":98,"name":"Withur","steam_id":76561199076191608,"connected_time":3394000000000,"state":"active","ping":78},{"user_id":135,"name":"Lemon","steam_id":76561198119362095,"connected_time":1187000000000,"state":"active","ping":74},{"user_id":138,"name":"Da Policia","steam_id":76561198012762789,"connected_time":958000000000,"state":"active","ping":46}]},{"server_id":405,"name":"Uncletopia | Dallas | 4 | Community","name_short":"dal-4","host":"dal-1.us.uncletopia.com","port":27045,"enabled":true,"region":"us-central","cc":"us","latitude":32.779167,"longitude":-96.80889,"reserved":0,"last_update":"0001-01-01T00:00:00Z","name_a2s":"Uncletopia | Dallas | 4 | Community","protocol":17,"map":"koth_lakeside_final","folder":"tf","game":"Team Fortress","app_id":440,"player_count":6,"max_players":24,"Bots":0,"server_type":"Dedicated","server_os":"Linux","password":true,"vac":true,"version":"7961495","steam_id":85568392924515220,"keywords":["cp","nocrits","nodmgspread","uncletopia"],"game_id":440,"stv_port":27046,"stv_name":"Uncletopia | Dallas | 4 | Community | STV","players":[{"user_id":6,"name":"Pachimari","steam_id":76561198114464970,"connected_time":874000000000,"state":"active","ping":73},{"user_id":17,"name":"KingSteve42","steam_id":76561198409455888,"connected_time":313000000000,"state":"active","ping":95},{"user_id":18,"name":"H2OBourne","steam_id":76561198396293109,"connected_time":129000000000,"state":"active","ping":54},{"user_id":19,"name":"rad killl raccoon","steam_id":76561198980975595,"connected_time":64000000000,"state":"spawning","ping":138},{"user_id":14,"name":"Iron Argus","steam_id":76561198181088245,"connected_time":530000000000,"state":"active","ping":96},{"user_id":15,"name":"Oxbell","steam_id":76561198448173562,"connected_time":498000000000,"state":"active","ping":111}]},{"server_id":5,"name":"Uncletopia | Frankfurt | 1 | All Maps","name_short":"frk-1","host":"frk-1.de.uncletopia.com","port":27015,"enabled":true,"region":"eu","cc":"de","latitude":50.110924,"longitude":8.682127,"reserved":0,"last_update":"0001-01-01T00:00:00Z","name_a2s":"Uncletopia | Frankfurt | 1 | All Maps","protocol":17,"map":"pl_badwater","folder":"tf","game":"Team Fortress","app_id":440,"player_count":10,"max_players":24,"Bots":0,"server_type":"Dedicated","server_os":"Linux","password":true,"vac":true,"version":"7961495","steam_id":85568392924469989,"keywords":["nocrits","nodmgspread","payload","uncletopia"],"game_id":440,"stv_port":27016,"stv_name":"Uncletopia | Frankfurt | 1 | All Maps | STV","players":[{"user_id":197,"name":"The Irish Eejit","steam_id":76561198027738057,"connected_time":11000000000,"state":"spawning","ping":60},{"user_id":184,"name":"Afham NO","steam_id":76561199172467136,"connected_time":1635000000000,"state":"active","ping":298},{"user_id":163,"name":"๖ۣۜBarry_Fish3R","steam_id":76561198127543553,"connected_time":4415000000000,"state":"active","ping":107},{"user_id":196,"name":"Polyzonial","steam_id":76561198072679667,"connected_time":212000000000,"state":"active","ping":51},{"user_id":180,"name":"Vistulan","steam_id":76561198194847049,"connected_time":1878000000000,"state":"active","ping":46},{"user_id":181,"name":"Savorybic198","steam_id":76561199244345797,"connected_time":1868000000000,"state":"active","ping":47},{"user_id":185,"name":"Atomix","steam_id":76561199270776321,"connected_time":1621000000000,"state":"active","ping":56},{"user_id":164,"name":"SwLucie","steam_id":76561197969984656,"connected_time":4216000000000,"state":"active","ping":60},{"user_id":193,"name":"FoxyTheFish","steam_id":76561199074190919,"connected_time":613000000000,"state":"active","ping":57},{"user_id":97,"name":"FlammenwerferPanzer","steam_id":76561199096682977,"connected_time":9686000000000,"state":"active","ping":78}]},{"server_id":110,"name":"Uncletopia | Frankfurt | 2 | All Maps","name_short":"frk-2","host":"frk-1.de.uncletopia.com","port":27025,"enabled":true,"region":"eu","cc":"de","latitude":50.110924,"longitude":8.682127,"reserved":0,"last_update":"0001-01-01T00:00:00Z","name_a2s":"Uncletopia | Frankfurt | 2 | All Maps","protocol":17,"map":"plr_hightower","folder":"tf","game":"Team Fortress","app_id":440,"player_count":0,"max_players":24,"Bots":0,"server_type":"Dedicated","server_os":"Linux","password":true,"vac":true,"version":"7961495","steam_id":85568392924469990,"keywords":["nocrits","nodmgspread","payload","uncletopia"],"game_id":440,"stv_port":27026,"stv_name":"Uncletopia | Frankfurt | 2 | All Maps | STV","players":null},{"server_id":308,"name":"Uncletopia | Frankfurt | 3 | All Maps","name_short":"frk-3","host":"frk-1.de.uncletopia.com","port":27035,"enabled":true,"region":"eu","cc":"de","latitude":50.110924,"longitude":8.682127,"reserved":0,"last_update":"0001-01-01T00:00:00Z","name_a2s":"Uncletopia | Frankfurt | 3 | All Maps","protocol":17,"map":"koth_viaduct","folder":"tf","game":"Team Fortress","app_id":440,"player_count":0,"max_players":24,"Bots":0,"server_type":"Dedicated","server_os":"Linux","password":true,"vac":true,"version":"7961495","steam_id":85568392924504274,"keywords":["cp","nocrits","nodmgspread","uncletopia"],"game_id":440,"stv_port":27036,"stv_name":"Uncletopia | Frankfurt | 3 | All Maps | STV","players":null},{"server_id":309,"name":"Uncletopia | Frankfurt | 4 | All Maps","name_short":"frk-4","host":"frk-1.de.uncletopia.com","port":27045,"enabled":true,"region":"eu","cc":"de","latitude":50.110924,"longitude":8.682127,"reserved":0,"last_update":"0001-01-01T00:00:00Z","name_a2s":"Uncletopia | Frankfurt | 4 | All Maps","protocol":17,"map":"pl_borneo","folder":"tf","game":"Team Fortress","app_id":440,"player_count":0,"max_players":24,"Bots":0,"server_type":"Dedicated","server_os":"Linux","password":true,"vac":true,"version":"7961495","steam_id":85568392924504275,"keywords":["nocrits","nodmgspread","payload","uncletopia"],"game_id":440,"stv_port":27046,"stv_name":"Uncletopia | Frankfurt | 4 | All Maps | STV","players":null},{"server_id":310,"name":"Uncletopia | Frankfurt | 5 | All Maps","name_short":"frk-5","host":"frk-1.de.uncletopia.com","port":27055,"enabled":true,"region":"eu","cc":"de","latitude":50.110924,"longitude":8.682127,"reserved":0,"last_update":"0001-01-01T00:00:00Z","name_a2s":"Uncletopia | Frankfurt | 5 | All Maps","protocol":17,"map":"pl_borneo","folder":"tf","game":"Team Fortress","app_id":440,"player_count":0,"max_players":24,"Bots":0,"server_type":"Dedicated","server_os":"Linux","password":true,"vac":true,"version":"7961495","steam_id":85568392924504277,"keywords":["nocrits","nodmgspread","payload","uncletopia"],"game_id":440,"stv_port":27056,"stv_name":"Uncletopia | Frankfurt | 5 | All Maps | STV","players":null},{"server_id":311,"name":"Uncletopia | Frankfurt | 6 | All Maps","name_short":"frk-6","host":"frk-1.de.uncletopia.com","port":27065,"enabled":true,"region":"eu","cc":"de","latitude":50.110924,"longitude":8.682127,"reserved":0,"last_update":"0001-01-01T00:00:00Z","name_a2s":"Uncletopia | Frankfurt | 6 | All Maps","protocol":17,"map":"pl_swiftwater_final1","folder":"tf","game":"Team Fortress","app_id":440,"player_count":0,"max_players":24,"Bots":0,"server_type":"Dedicated","server_os":"Linux","password":true,"vac":true,"version":"7961495","steam_id":85568392924504278,"keywords":["nocrits","nodmgspread","payload","uncletopia"],"game_id":440,"stv_port":27066,"stv_name":"Uncletopia | Frankfurt | 6 | All Maps | STV","players":null},{"server_id":23,"name":"Uncletopia | Frankfurt | 7 | Stopwatch Beta","name_short":"frk-7","host":"frk-1.de.uncletopia.com","port":27075,"enabled":true,"region":"eu","cc":"de","latitude":50.110924,"longitude":8.682127,"reserved":0,"last_update":"0001-01-01T00:00:00Z","name_a2s":"Uncletopia | Frankfurt | 7 | Stopwatch Beta","protocol":17,"map":"pl_frontier_final","folder":"tf","game":"Team Fortress","app_id":440,"player_count":0,"max_players":24,"Bots":0,"server_type":"Dedicated","server_os":"Linux","password":true,"vac":true,"version":"7961495","steam_id":85568392924742827,"keywords":["nocrits","nodmgspread","payload","uncletopia"],"game_id":440,"stv_port":27076,"stv_name":"Uncletopia | Frankfurt | 7 | Stopwatch Beta | STV","players":null},{"server_id":24,"name":"Uncletopia | Frankfurt | 8 | Community","name_short":"frk-8","host":"frk-1.de.uncletopia.com","port":27085,"enabled":true,"region":"eu","cc":"de","latitude":50.110924,"longitude":8.682127,"reserved":0,"last_update":"0001-01-01T00:00:00Z","name_a2s":"Uncletopia | Frankfurt | 8 | Community","protocol":17,"map":"koth_highpass","folder":"tf","game":"Team Fortress","app_id":440,"player_count":0,"max_players":24,"Bots":0,"server_type":"Dedicated","server_os":"Linux","password":true,"vac":true,"version":"7961495","steam_id":85568392924742828,"keywords":["cp","nocrits","nodmgspread","uncletopia"],"game_id":440,"stv_port":27086,"stv_name":"Uncletopia | Frankfurt | 8 | Community | STV","players":null},{"server_id":202,"name":"Uncletopia | Hong Kong | 1 | All Maps","name_short":"hgk-1","host":"hgk-1.hk.uncletopia.com","port":27015,"enabled":true,"region":"asia","cc":"hk","latitude":22.302711,"longitude":114.177216,"reserved":0,"last_update":"0001-01-01T00:00:00Z","name_a2s":"Uncletopia | Hong Kong | 1 | All Maps","protocol":17,"map":"pl_pier","folder":"tf","game":"Team Fortress","app_id":440,"player_count":0,"max_players":24,"Bots":0,"server_type":"Dedicated","server_os":"Linux","password":true,"vac":true,"version":"7961495","steam_id":85568392924494504,"keywords":["nocrits","nodmgspread","payload","uncletopia"],"game_id":440,"stv_port":27016,"stv_name":"Uncletopia | Hong Kong | 1 | All Maps | STV","players":null},{"server_id":1,"name":"Uncletopia | Los Angeles | 1 | All Maps","name_short":"lax-1","host":"lax-1.us.uncletopia.com","port":27015,"enabled":true,"region":"us-west","cc":"us","latitude":33.94279,"longitude":-118.41004,"reserved":0,"last_update":"0001-01-01T00:00:00Z","name_a2s":"Uncletopia | Los Angeles | 1 | All Maps","protocol":17,"map":"pl_swiftwater_final1","folder":"tf","game":"Team Fortress","app_id":440,"player_count":24,"max_players":24,"Bots":0,"server_type":"Dedicated","server_os":"Linux","password":true,"vac":true,"version":"7961495","steam_id":85568392924469991,"keywords":["nocrits","nodmgspread","payload","uncletopia"],"game_id":440,"stv_port":27016,"stv_name":"Uncletopia | Los Angeles | 1 | All Maps | STV","players":[{"user_id":190,"name":"cringeass nae-nae girl","steam_id":76561198108753857,"connected_time":1028000000000,"state":"active","ping":101},{"user_id":176,"name":"Person Man","steam_id":76561198293857963,"connected_time":2184000000000,"state":"active","ping":64},{"user_id":163,"name":"Tom","steam_id":76561198139202942,"connected_time":3030000000000,"state":"active","ping":123},{"user_id":75,"name":"Meekz","steam_id":76561198012562373,"connected_time":10564000000000,"state":"active","ping":56},{"user_id":184,"name":"MeatShield 2000","steam_id":76561199375192850,"connected_time":1403000000000,"state":"active","ping":99},{"user_id":138,"name":"||BassMan||","steam_id":76561198279865229,"connected_time":4095000000000,"state":"active","ping":87},{"user_id":187,"name":"Sparse","steam_id":76561198865084441,"connected_time":1208000000000,"state":"active","ping":77},{"user_id":191,"name":"SadChicken λ","steam_id":76561198082458968,"connected_time":1026000000000,"state":"active","ping":77},{"user_id":198,"name":"Your Favorite Fearless Hero","steam_id":76561199127590316,"connected_time":304000000000,"state":"active","ping":60},{"user_id":151,"name":"lol","steam_id":76561198026491738,"connected_time":3468000000000,"state":"active","ping":57},{"user_id":192,"name":"Matches_","steam_id":76561198048925904,"connected_time":999000000000,"state":"active","ping":60},{"user_id":104,"name":"Big Jack","steam_id":76561198132755619,"connected_time":7975000000000,"state":"active","ping":39},{"user_id":197,"name":"Firedust19","steam_id":76561198153238631,"connected_time":321000000000,"state":"active","ping":68},{"user_id":167,"name":"SavageJacky","steam_id":76561198056465430,"connected_time":2781000000000,"state":"active","ping":105},{"user_id":178,"name":"chunkysquare","steam_id":76561199076468383,"connected_time":2012000000000,"state":"active","ping":45},{"user_id":177,"name":"Imitation Caucasian","steam_id":76561198320536166,"connected_time":2184000000000,"state":"active","ping":72},{"user_id":181,"name":"rg","steam_id":76561198408128752,"connected_time":1475000000000,"state":"active","ping":116},{"user_id":152,"name":"Rango","steam_id":76561198104086771,"connected_time":3212000000000,"state":"active","ping":46},{"user_id":196,"name":"Kng","steam_id":76561198993248203,"connected_time":661000000000,"state":"active","ping":123},{"user_id":200,"name":"albert jones","steam_id":76561198404271005,"connected_time":167000000000,"state":"active","ping":53},{"user_id":199,"name":"Pidjy","steam_id":76561199080365190,"connected_time":297000000000,"state":"active","ping":65},{"user_id":106,"name":"Toastedtoast222","steam_id":76561198120756409,"connected_time":7914000000000,"state":"active","ping":82},{"user_id":180,"name":"❤ Ashley ❤","steam_id":76561198056428303,"connected_time":1766000000000,"state":"active","ping":48},{"user_id":182,"name":"Nothing▲","steam_id":76561198071152906,"connected_time":1475000000000,"state":"active","ping":99}]},{"server_id":112,"name":"Uncletopia | Los Angeles | 2 | All Maps","name_short":"lax-2","host":"lax-1.us.uncletopia.com","port":27025,"enabled":true,"region":"us-west","cc":"us","latitude":33.94279,"longitude":-118.41004,"reserved":0,"last_update":"0001-01-01T00:00:00Z","name_a2s":"Uncletopia | Los Angeles | 2 | All Maps","protocol":17,"map":"pl_thundermountain","folder":"tf","game":"Team Fortress","app_id":440,"player_count":24,"max_players":24,"Bots":0,"server_type":"Dedicated","server_os":"Linux","password":true,"vac":true,"version":"7961495","steam_id":85568392924469992,"keywords":["nocrits","nodmgspread","payload","uncletopia"],"game_id":440,"stv_port":27026,"stv_name":"Uncletopia | Los Angeles | 2 | All Maps | STV","players":[{"user_id":106,"name":"DudeBro42","steam_id":76561198021838197,"connected_time":1094000000000,"state":"active","ping":90},{"user_id":124,"name":"J3X","steam_id":76561198184753858,"connected_time":28000000000,"state":"spawning","ping":93},{"user_id":109,"name":"in the balls (kick)","steam_id":76561199277633460,"connected_time":1077000000000,"state":"active","ping":37},{"user_id":82,"name":"Korn Dawg","steam_id":76561198026941076,"connected_time":3967000000000,"state":"active","ping":60},{"user_id":113,"name":"smooth brain","steam_id":76561198049253541,"connected_time":779000000000,"state":"active","ping":100},{"user_id":107,"name":"secret agent","steam_id":76561198105666663,"connected_time":1091000000000,"state":"active","ping":49},{"user_id":89,"name":"donutdagger","steam_id":76561199203048300,"connected_time":2796000000000,"state":"active","ping":67},{"user_id":96,"name":"Kdash","steam_id":76561198043829155,"connected_time":2401000000000,"state":"active","ping":83},{"user_id":115,"name":"DaWayOfRockets","steam_id":76561199228437541,"connected_time":741000000000,"state":"active","ping":176},{"user_id":120,"name":"AMONGUS","steam_id":76561199176017593,"connected_time":308000000000,"state":"active","ping":58},{"user_id":111,"name":"Da Benevolent Pimp","steam_id":76561198073569962,"connected_time":1040000000000,"state":"active","ping":111},{"user_id":42,"name":"Lumberjane37 (She/Her)","steam_id":76561198014841793,"connected_time":5745000000000,"state":"active","ping":67},{"user_id":123,"name":"Monki","steam_id":76561198964210411,"connected_time":281000000000,"state":"active","ping":60},{"user_id":110,"name":"UHHH","steam_id":76561198093818959,"connected_time":1053000000000,"state":"active","ping":80},{"user_id":105,"name":"Ralph Kramden (Slim Charles)","steam_id":76561197981687895,"connected_time":1173000000000,"state":"active","ping":64},{"user_id":72,"name":"Dreamzapp","steam_id":76561199084936632,"connected_time":4339000000000,"state":"active","ping":66},{"user_id":122,"name":"flame","steam_id":76561198079321914,"connected_time":289000000000,"state":"active","ping":67},{"user_id":116,"name":"Jokezonyu","steam_id":76561198213167893,"connected_time":697000000000,"state":"active","ping":72},{"user_id":47,"name":"Shagbark","steam_id":76561198173447342,"connected_time":5623000000000,"state":"active","ping":120},{"user_id":86,"name":"ena - d","steam_id":76561198072329335,"connected_time":3603000000000,"state":"active","ping":94},{"user_id":117,"name":"Strangelove","steam_id":76561198353773611,"connected_time":692000000000,"state":"active","ping":130},{"user_id":88,"name":"SquidFurBrains","steam_id":76561198293899688,"connected_time":2959000000000,"state":"active","ping":75},{"user_id":112,"name":"Hiigara","steam_id":76561198028393133,"connected_time":1040000000000,"state":"active","ping":96},{"user_id":121,"name":"Beast of Baltimore","steam_id":76561198046882817,"connected_time":293000000000,"state":"active","ping":101}]},{"server_id":324,"name":"Uncletopia | Los Angeles | 3 | All Maps","name_short":"lax-3","host":"lax-1.us.uncletopia.com","port":27035,"enabled":true,"region":"us-west","cc":"us","latitude":33.94279,"longitude":-118.41004,"reserved":0,"last_update":"0001-01-01T00:00:00Z","name_a2s":"Uncletopia | Los Angeles | 3 | All Maps","protocol":17,"map":"koth_viaduct","folder":"tf","game":"Team Fortress","app_id":440,"player_count":0,"max_players":24,"Bots":0,"server_type":"Dedicated","server_os":"Linux","password":true,"vac":true,"version":"7961495","steam_id":85568392924510198,"keywords":["cp","nocrits","nodmgspread","uncletopia"],"game_id":440,"stv_port":27036,"stv_name":"Uncletopia | Los Angeles | 3 | All Maps | STV","players":null},{"server_id":25,"name":"Uncletopia | Los Angeles | 4 | Stopwatch","name_short":"lax-4","host":"lax-1.us.uncletopia.com","port":27045,"enabled":true,"region":"us-west","cc":"us","latitude":33.94279,"longitude":-118.41004,"reserved":0,"last_update":"0001-01-01T00:00:00Z","name_a2s":"Uncletopia | Los Angeles | 4 | Stopwatch","protocol":17,"map":"workshop/pl_barnblitz_pro7.ugc582280235","folder":"tf","game":"Team Fortress","app_id":440,"player_count":0,"max_players":24,"Bots":0,"server_type":"Dedicated","server_os":"Linux","password":true,"vac":true,"version":"7961495","steam_id":85568392924510199,"keywords":["nocrits","nodmgspread","payload","uncletopia"],"game_id":440,"stv_port":27046,"stv_name":"Uncletopia | Los Angeles | 4 | Stopwatch | STV","players":null},{"server_id":11,"name":"Uncletopia | London | 1 | All Maps","name_short":"lon-1","host":"lon-1.uk.uncletopia.com","port":27015,"enabled":true,"region":"eu","cc":"gb","latitude":51.509865,"longitude":-0.118092,"reserved":0,"last_update":"0001-01-01T00:00:00Z","name_a2s":"Uncletopia | London | 1 | All Maps","protocol":17,"map":"plr_bananabay","folder":"tf","game":"Team Fortress","app_id":440,"player_count":0,"max_players":24,"Bots":0,"server_type":"Dedicated","server_os":"Linux","password":true,"vac":true,"version":"7961495","steam_id":85568392924367362,"keywords":["nocrits","nodmgspread","payload","uncletopia"],"game_id":440,"stv_port":27016,"stv_name":"Uncletopia | London | 1 | All Maps | STV","players":null},{"server_id":114,"name":"Uncletopia | London | 2 | All Maps","name_short":"lon-2","host":"lon-1.uk.uncletopia.com","port":27025,"enabled":true,"region":"eu","cc":"gb","latitude":51.509865,"longitude":-0.118092,"reserved":0,"last_update":"0001-01-01T00:00:00Z","name_a2s":"Uncletopia | London | 2 | All Maps","protocol":17,"map":"pl_pier","folder":"tf","game":"Team Fortress","app_id":440,"player_count":0,"max_players":24,"Bots":0,"server_type":"Dedicated","server_os":"Linux","password":true,"vac":true,"version":"7961495","steam_id":85568392924470941,"keywords":["nocrits","nodmgspread","payload","uncletopia"],"game_id":440,"stv_port":27026,"stv_name":"Uncletopia | London | 2 | All Maps | STV","players":null},{"server_id":320,"name":"Uncletopia | London | 3 | All Maps","name_short":"lon-3","host":"lon-1.uk.uncletopia.com","port":27035,"enabled":true,"region":"eu","cc":"gb","latitude":51.509865,"longitude":-0.118092,"reserved":0,"last_update":"0001-01-01T00:00:00Z","name_a2s":"Uncletopia | London | 3 | All Maps","protocol":17,"map":"pl_pier","folder":"tf","game":"Team Fortress","app_id":440,"player_count":0,"max_players":24,"Bots":0,"server_type":"Dedicated","server_os":"Linux","password":true,"vac":true,"version":"7961495","steam_id":85568392924510192,"keywords":["nocrits","nodmgspread","payload","uncletopia"],"game_id":440,"stv_port":27036,"stv_name":"Uncletopia | London | 3 | All Maps | STV","players":null},{"server_id":321,"name":"Uncletopia | London | 4 | All Maps","name_short":"lon-4","host":"lon-1.uk.uncletopia.com","port":27045,"enabled":true,"region":"eu","cc":"gb","latitude":51.509865,"longitude":-0.118092,"reserved":0,"last_update":"0001-01-01T00:00:00Z","name_a2s":"Uncletopia | London | 4 | All Maps","protocol":17,"map":"pl_borneo","folder":"tf","game":"Team Fortress","app_id":440,"player_count":24,"max_players":24,"Bots":0,"server_type":"Dedicated","server_os":"Linux","password":true,"vac":true,"version":"7961495","steam_id":85568392924510193,"keywords":["nocrits","nodmgspread","payload","uncletopia"],"game_id":440,"stv_port":27046,"stv_name":"Uncletopia | London | 4 | All Maps | STV","players":[{"user_id":210,"name":"Raynesko.Yung.Vitamix.Baklava.G","steam_id":76561198044113229,"connected_time":1533000000000,"state":"active","ping":125},{"user_id":174,"name":"Nova","steam_id":76561198108601005,"connected_time":3903000000000,"state":"active","ping":82},{"user_id":168,"name":"[IVe/LO]Jadore_les_Currywurst","steam_id":76561198005084382,"connected_time":4640000000000,"state":"active","ping":86},{"user_id":205,"name":"FurthestBen","steam_id":76561198056681239,"connected_time":1935000000000,"state":"active","ping":56},{"user_id":163,"name":"=BaFFe= Krakenpots","steam_id":76561198106600025,"connected_time":4882000000000,"state":"active","ping":56},{"user_id":206,"name":"jonbob","steam_id":76561197963506620,"connected_time":1926000000000,"state":"active","ping":49},{"user_id":217,"name":"Zutter","steam_id":76561198283679782,"connected_time":967000000000,"state":"active","ping":55},{"user_id":220,"name":"etc","steam_id":76561197998394797,"connected_time":475000000000,"state":"active","ping":46},{"user_id":167,"name":"Falcon","steam_id":76561198211463916,"connected_time":4805000000000,"state":"active","ping":90},{"user_id":207,"name":"SHEEP","steam_id":76561198043813073,"connected_time":1890000000000,"state":"active","ping":125},{"user_id":175,"name":"Worm","steam_id":76561198296497176,"connected_time":3710000000000,"state":"active","ping":48},{"user_id":208,"name":"Call me Rain Man","steam_id":76561198025284624,"connected_time":1820000000000,"state":"active","ping":131},{"user_id":150,"name":"chillrend_morphs_high_lod6","steam_id":76561198452963141,"connected_time":6242000000000,"state":"active","ping":88},{"user_id":209,"name":"Catsontrains","steam_id":76561198066686704,"connected_time":1800000000000,"state":"active","ping":116},{"user_id":176,"name":"the gamer","steam_id":76561199175442910,"connected_time":3634000000000,"state":"active","ping":128},{"user_id":201,"name":"Sky Tree","steam_id":76561198027103242,"connected_time":2345000000000,"state":"active","ping":101},{"user_id":219,"name":"Milk_","steam_id":76561198087612533,"connected_time":495000000000,"state":"active","ping":60},{"user_id":198,"name":"WeegeePJ","steam_id":76561199383362382,"connected_time":2696000000000,"state":"active","ping":125},{"user_id":213,"name":"7Tales","steam_id":76561198121572869,"connected_time":1203000000000,"state":"active","ping":50},{"user_id":183,"name":"trans werewolf","steam_id":76561198107235989,"connected_time":3437000000000,"state":"active","ping":68},{"user_id":216,"name":"trans werewolf 2nd of her name","steam_id":76561198369367211,"connected_time":1017000000000,"state":"active","ping":75},{"user_id":215,"name":"sex offender gang","steam_id":76561199495051478,"connected_time":1140000000000,"state":"active","ping":101},{"user_id":218,"name":"yaldabaoth","steam_id":76561198084606869,"connected_time":933000000000,"state":"active","ping":135},{"user_id":194,"name":"harper","steam_id":76561198188642265,"connected_time":2783000000000,"state":"active","ping":55}]},{"server_id":21,"name":"Uncletopia | London | 5 | All Maps","name_short":"lon-5","host":"lon-1.uk.uncletopia.com","port":27055,"enabled":true,"region":"eu","cc":"gb","latitude":51.509865,"longitude":-0.118092,"reserved":0,"last_update":"0001-01-01T00:00:00Z","name_a2s":"Uncletopia | London | 5 | All Maps","protocol":17,"map":"plr_hightower","folder":"tf","game":"Team Fortress","app_id":440,"player_count":0,"max_players":24,"Bots":0,"server_type":"Dedicated","server_os":"Linux","password":true,"vac":true,"version":"7961495","steam_id":85568392924742829,"keywords":["nocrits","nodmgspread","payload","uncletopia"],"game_id":440,"stv_port":27056,"stv_name":"Uncletopia | London | 5 | All Maps | STV","players":null},{"server_id":22,"name":"Uncletopia | London | 6 | All Maps","name_short":"lon-6","host":"lon-1.uk.uncletopia.com","port":27065,"enabled":true,"region":"eu","cc":"gb","latitude":51.509865,"longitude":-0.118092,"reserved":0,"last_update":"0001-01-01T00:00:00Z","name_a2s":"Uncletopia | London | 6 | All Maps","protocol":17,"map":"koth_lakeside_final","folder":"tf","game":"Team Fortress","app_id":440,"player_count":0,"max_players":24,"Bots":0,"server_type":"Dedicated","server_os":"Linux","password":true,"vac":true,"version":"7961495","steam_id":85568392924742830,"keywords":["cp","nocrits","nodmgspread","uncletopia"],"game_id":440,"stv_port":27066,"stv_name":"Uncletopia | London | 6 | All Maps | STV","players":null},{"server_id":40,"name":"Uncletopia | London | 7 | No Payload","name_short":"lon-7","host":"lon-1.uk.uncletopia.com","port":27075,"enabled":true,"region":"eu","cc":"gb","latitude":51.509865,"longitude":-0.118092,"reserved":0,"last_update":"0001-01-01T00:00:00Z","name_a2s":"Uncletopia | London | 7 | No Payload","protocol":17,"map":"cp_altitude","folder":"tf","game":"Team Fortress","app_id":440,"player_count":0,"max_players":24,"Bots":0,"server_type":"Dedicated","server_os":"Linux","password":true,"vac":true,"version":"7961495","steam_id":85568392924964314,"keywords":["cp","nocrits","nodmgspread","uncletopia"],"game_id":440,"stv_port":27076,"stv_name":"Uncletopia | London | 7 | No Payload | STV","players":null},{"server_id":41,"name":"Uncletopia | London | 8 | Community","name_short":"lon-8","host":"lon-1.uk.uncletopia.com","port":27085,"enabled":true,"region":"eu","cc":"gb","latitude":51.509865,"longitude":-0.118092,"reserved":0,"last_update":"0001-01-01T00:00:00Z","name_a2s":"Uncletopia | London | 8 | Community","protocol":17,"map":"workshop/pl_emerge_rc2.ugc888027758","folder":"tf","game":"Team Fortress","app_id":440,"player_count":0,"max_players":24,"Bots":0,"server_type":"Dedicated","server_os":"Linux","password":true,"vac":true,"version":"7961495","steam_id":85568392924964315,"keywords":["nocrits","nodmgspread","payload","uncletopia"],"game_id":440,"stv_port":27086,"stv_name":"Uncletopia | London | 8 | Community | STV","players":null},{"server_id":300,"name":"Uncletopia | Montréal | 1 | All Maps","name_short":"mtl-1","host":"mtl-1.ca.uncletopia.com","port":27015,"enabled":true,"region":"us-east","cc":"ca","latitude":45.50889,"longitude":-73.56167,"reserved":0,"last_update":"0001-01-01T00:00:00Z","name_a2s":"","protocol":0,"map":"","folder":"","game":"","app_id":0,"player_count":18,"max_players":0,"Bots":0,"server_type":"","server_os":"","password":false,"vac":false,"version":"","steam_id":0,"keywords":null,"game_id":0,"stv_port":0,"stv_name":"","players":[{"user_id":102,"name":"The_Canoli_Man","steam_id":76561198855709701,"connected_time":168000000000,"state":"active","ping":57},{"user_id":65,"name":"I Cast Spells on the Pussy","steam_id":76561198087532369,"connected_time":3334000000000,"state":"active","ping":58},{"user_id":76,"name":"eipi","steam_id":76561199084492097,"connected_time":2290000000000,"state":"active","ping":60},{"user_id":89,"name":"Dog Goggles","steam_id":76561197995233692,"connected_time":631000000000,"state":"active","ping":71},{"user_id":105,"name":"baguette","steam_id":76561198209813328,"connected_time":81000000000,"state":"active","ping":67},{"user_id":99,"name":"grif","steam_id":76561198272333800,"connected_time":290000000000,"state":"active","ping":70},{"user_id":96,"name":"Captain Parker","steam_id":76561198882415101,"connected_time":392000000000,"state":"active","ping":128},{"user_id":78,"name":"Urby","steam_id":76561199074391666,"connected_time":2220000000000,"state":"active","ping":131},{"user_id":97,"name":"oomper","steam_id":76561199189982701,"connected_time":343000000000,"state":"active","ping":62},{"user_id":101,"name":"Kfte","steam_id":76561198993423192,"connected_time":207000000000,"state":"active","ping":136},{"user_id":98,"name":"Trout","steam_id":76561198075180255,"connected_time":317000000000,"state":"active","ping":54},{"user_id":64,"name":"Mario","steam_id":76561198321794277,"connected_time":3530000000000,"state":"active","ping":75},{"user_id":104,"name":"Im Groot","steam_id":76561198294943420,"connected_time":153000000000,"state":"active","ping":87},{"user_id":106,"name":"HemoTox","steam_id":76561197999713466,"connected_time":22000000000,"state":"active","ping":75},{"user_id":107,"name":"็Periculosum PhD in Funny","steam_id":76561198123370914,"connected_time":19000000000,"state":"spawning","ping":74},{"user_id":108,"name":"golbat","steam_id":76561198041601161,"connected_time":15000000000,"state":"active","ping":76},{"user_id":86,"name":"GoldtoothFour","steam_id":76561198055529332,"connected_time":853000000000,"state":"active","ping":60},{"user_id":58,"name":"crexorz","steam_id":76561198890949432,"connected_time":3647000000000,"state":"active","ping":64}]},{"server_id":301,"name":"Uncletopia | Montréal | 2 | All Maps","name_short":"mtl-2","host":"mtl-1.ca.uncletopia.com","port":27025,"enabled":true,"region":"us-east","cc":"ca","latitude":45.50889,"longitude":-73.56167,"reserved":0,"last_update":"0001-01-01T00:00:00Z","name_a2s":"","protocol":0,"map":"","folder":"","game":"","app_id":0,"player_count":0,"max_players":0,"Bots":0,"server_type":"","server_os":"","password":false,"vac":false,"version":"","steam_id":0,"keywords":null,"game_id":0,"stv_port":0,"stv_name":"","players":null},{"server_id":302,"name":"Uncletopia | Montréal | 3 | All Maps","name_short":"mtl-3","host":"mtl-1.ca.uncletopia.com","port":27035,"enabled":true,"region":"us-east","cc":"ca","latitude":45.50889,"longitude":-73.56167,"reserved":0,"last_update":"0001-01-01T00:00:00Z","name_a2s":"","protocol":0,"map":"","folder":"","game":"","app_id":0,"player_count":0,"max_players":0,"Bots":0,"server_type":"","server_os":"","password":false,"vac":false,"version":"","steam_id":0,"keywords":null,"game_id":0,"stv_port":0,"stv_name":"","players":null},{"server_id":303,"name":"Uncletopia | Montréal | 4 | No Payload","name_short":"mtl-4","host":"mtl-1.ca.uncletopia.com","port":27045,"enabled":true,"region":"us-east","cc":"ca","latitude":45.50889,"longitude":-73.56167,"reserved":0,"last_update":"0001-01-01T00:00:00Z","name_a2s":"","protocol":0,"map":"","folder":"","game":"","app_id":0,"player_count":0,"max_players":0,"Bots":0,"server_type":"","server_os":"","password":false,"vac":false,"version":"","steam_id":0,"keywords":null,"game_id":0,"stv_port":0,"stv_name":"","players":null},{"server_id":13,"name":"Uncletopia | New York City | 1 | All Maps","name_short":"nyc-1","host":"nyc-1.us.uncletopia.com","port":27015,"enabled":true,"region":"us-east","cc":"us","latitude":40.73061,"longitude":-73.93524,"reserved":0,"last_update":"0001-01-01T00:00:00Z","name_a2s":"Uncletopia | New York City | 1 | All Maps","protocol":17,"map":"pl_borneo","folder":"tf","game":"Team Fortress","app_id":440,"player_count":24,"max_players":24,"Bots":0,"server_type":"Dedicated","server_os":"Linux","password":true,"vac":true,"version":"7961495","steam_id":85568392924469993,"keywords":["nocrits","nodmgspread","payload","uncletopia"],"game_id":440,"stv_port":27016,"stv_name":"Uncletopia | New York City | 1 | All Maps | STV","players":[{"user_id":197,"name":"Runny Eggs","steam_id":76561198006785882,"connected_time":928000000000,"state":"active","ping":84},{"user_id":186,"name":"Griffen","steam_id":76561198095732195,"connected_time":2151000000000,"state":"active","ping":107},{"user_id":183,"name":"Nerrrd_","steam_id":76561198870129960,"connected_time":2177000000000,"state":"active","ping":45},{"user_id":204,"name":"ImmortalProphet","steam_id":76561198012352477,"connected_time":337000000000,"state":"active","ping":60},{"user_id":181,"name":"AceDeuce","steam_id":76561198049904924,"connected_time":2455000000000,"state":"active","ping":52},{"user_id":192,"name":"Indigolake","steam_id":76561198202215807,"connected_time":1953000000000,"state":"active","ping":70},{"user_id":200,"name":"ᗜˬᗜ","steam_id":76561198049076233,"connected_time":911000000000,"state":"active","ping":54},{"user_id":195,"name":"ive lost my marbles","steam_id":76561198284576334,"connected_time":1320000000000,"state":"active","ping":46},{"user_id":201,"name":"Uncle Dale","steam_id":76561199144302768,"connected_time":846000000000,"state":"active","ping":79},{"user_id":12,"name":"High School Nudical","steam_id":76561198172120615,"connected_time":13739000000000,"state":"active","ping":33},{"user_id":187,"name":"Ostin","steam_id":76561197993726444,"connected_time":2150000000000,"state":"active","ping":96},{"user_id":196,"name":"Jimbo Slice","steam_id":76561198064830847,"connected_time":937000000000,"state":"active","ping":56},{"user_id":158,"name":"Red Lobster Cheddar Bay Biscuit","steam_id":76561198133231245,"connected_time":4460000000000,"state":"active","ping":34},{"user_id":190,"name":"Parth Makeo","steam_id":76561198002516581,"connected_time":2068000000000,"state":"active","ping":44},{"user_id":84,"name":"A Puppy","steam_id":76561198828184456,"connected_time":9189000000000,"state":"active","ping":45},{"user_id":172,"name":"Punkin","steam_id":76561198334301755,"connected_time":3002000000000,"state":"active","ping":57},{"user_id":108,"name":"GummybearKillr","steam_id":76561198031235750,"connected_time":7523000000000,"state":"active","ping":57},{"user_id":203,"name":"that one mudkip","steam_id":76561198396492130,"connected_time":383000000000,"state":"active","ping":105},{"user_id":188,"name":"TRx AxIon2","steam_id":76561198980931557,"connected_time":2131000000000,"state":"active","ping":49},{"user_id":138,"name":"Brawling Bouse","steam_id":76561198030271278,"connected_time":5781000000000,"state":"active","ping":55},{"user_id":161,"name":"WitheredReaper","steam_id":76561198411394589,"connected_time":4271000000000,"state":"active","ping":131},{"user_id":198,"name":"Hoopla","steam_id":76561198327775508,"connected_time":928000000000,"state":"active","ping":45},{"user_id":155,"name":"Luis wid a mic","steam_id":76561198349570006,"connected_time":4885000000000,"state":"active","ping":37},{"user_id":111,"name":"Maet","steam_id":76561198030208485,"connected_time":7259000000000,"state":"active","ping":86}]},{"server_id":14,"name":"Uncletopia | New York City | 2 | All Maps","name_short":"nyc-2","host":"nyc-1.us.uncletopia.com","port":27025,"enabled":true,"region":"us-east","cc":"us","latitude":40.73061,"longitude":-73.93524,"reserved":0,"last_update":"0001-01-01T00:00:00Z","name_a2s":"Uncletopia | New York City | 2 | All Maps","protocol":17,"map":"pl_swiftwater_final1","folder":"tf","game":"Team Fortress","app_id":440,"player_count":24,"max_players":24,"Bots":0,"server_type":"Dedicated","server_os":"Linux","password":true,"vac":true,"version":"7961495","steam_id":85568392924469994,"keywords":["nocrits","nodmgspread","payload","uncletopia"],"game_id":440,"stv_port":27026,"stv_name":"Uncletopia | New York City | 2 | All Maps | STV","players":[{"user_id":193,"name":"Moris","steam_id":76561198280461456,"connected_time":413000000000,"state":"active","ping":130},{"user_id":194,"name":"Zhenaj","steam_id":76561199209016136,"connected_time":413000000000,"state":"active","ping":61},{"user_id":186,"name":"Kirbs","steam_id":76561198970654800,"connected_time":1236000000000,"state":"active","ping":49},{"user_id":191,"name":"C Papi","steam_id":76561198027779564,"connected_time":444000000000,"state":"active","ping":59},{"user_id":195,"name":"hayes","steam_id":76561198057101042,"connected_time":409000000000,"state":"active","ping":85},{"user_id":168,"name":"JustSparky","steam_id":76561198043074739,"connected_time":3067000000000,"state":"active","ping":54},{"user_id":10,"name":"2cats_2curious","steam_id":76561198027143149,"connected_time":13377000000000,"state":"active","ping":68},{"user_id":145,"name":"mikaXD","steam_id":76561198046055673,"connected_time":6341000000000,"state":"active","ping":60},{"user_id":196,"name":"The Real Jetpack Jackson","steam_id":76561199009471455,"connected_time":394000000000,"state":"active","ping":105},{"user_id":158,"name":"Gentoo Linux Gaming","steam_id":76561197999657118,"connected_time":6086000000000,"state":"active","ping":64},{"user_id":171,"name":"Great","steam_id":76561198895516433,"connected_time":1946000000000,"state":"active","ping":160},{"user_id":177,"name":"Waffle Wannabe","steam_id":76561198064510650,"connected_time":1907000000000,"state":"active","ping":58},{"user_id":197,"name":"Hidden Phantom","steam_id":76561198115531799,"connected_time":391000000000,"state":"active","ping":85},{"user_id":198,"name":"wolfgrey139","steam_id":76561199206554751,"connected_time":388000000000,"state":"active","ping":61},{"user_id":199,"name":"gIBBY","steam_id":76561198080099598,"connected_time":384000000000,"state":"active","ping":40},{"user_id":163,"name":"dohnuts","steam_id":76561198025965230,"connected_time":3962000000000,"state":"active","ping":99},{"user_id":187,"name":"Coop","steam_id":76561198042839356,"connected_time":1034000000000,"state":"active","ping":68},{"user_id":204,"name":"fug","steam_id":76561198105374054,"connected_time":78000000000,"state":"active","ping":132},{"user_id":181,"name":"Novu","steam_id":76561198886997024,"connected_time":1702000000000,"state":"active","ping":82},{"user_id":103,"name":"Machine Girl - SAD CLAPS","steam_id":76561198294013916,"connected_time":7385000000000,"state":"active","ping":53},{"user_id":200,"name":"phlour","steam_id":76561198137238620,"connected_time":369000000000,"state":"active","ping":83},{"user_id":201,"name":"Spiral Mountain","steam_id":76561198058683715,"connected_time":367000000000,"state":"active","ping":71},{"user_id":180,"name":"_--Baker--_","steam_id":76561198401495362,"connected_time":1727000000000,"state":"active","ping":74},{"user_id":189,"name":"Protato","steam_id":76561198061182563,"connected_time":914000000000,"state":"active","ping":62}]},{"server_id":15,"name":"Uncletopia | New York City | 3 | Stopwatch Beta","name_short":"nyc-3","host":"nyc-1.us.uncletopia.com","port":27035,"enabled":true,"region":"us-east","cc":"us","latitude":40.73061,"longitude":-73.93524,"reserved":0,"last_update":"0001-01-01T00:00:00Z","name_a2s":"Uncletopia | New York City | 3 | Stopwatch Beta","protocol":17,"map":"workshop/koth_product_final.ugc454272353","folder":"tf","game":"Team Fortress","app_id":440,"player_count":20,"max_players":24,"Bots":0,"server_type":"Dedicated","server_os":"Linux","password":true,"vac":true,"version":"7961495","steam_id":85568392924742820,"keywords":["cp","nocrits","nodmgspread","uncletopia"],"game_id":440,"stv_port":27036,"stv_name":"Uncletopia | New York City | 3 | Stopwatch Beta | STV","players":[{"user_id":56,"name":"BluCoffee","steam_id":76561198214995967,"connected_time":810000000000,"state":"active","ping":42},{"user_id":46,"name":"LeDerpLegend","steam_id":76561198062327182,"connected_time":1151000000000,"state":"active","ping":120},{"user_id":32,"name":"not a good idea","steam_id":76561198032259680,"connected_time":2773000000000,"state":"active","ping":61},{"user_id":54,"name":"Aegis","steam_id":76561198272052750,"connected_time":991000000000,"state":"active","ping":74},{"user_id":55,"name":"Noxxiy","steam_id":76561198804962979,"connected_time":934000000000,"state":"active","ping":98},{"user_id":53,"name":"LeafSaga","steam_id":76561198144212318,"connected_time":1030000000000,"state":"active","ping":119},{"user_id":68,"name":"backshots inc","steam_id":76561198839562402,"connected_time":324000000000,"state":"active","ping":81},{"user_id":61,"name":"beast from the east","steam_id":76561198267624034,"connected_time":575000000000,"state":"active","ping":60},{"user_id":59,"name":"Dr. Nobotnik","steam_id":76561198357339092,"connected_time":737000000000,"state":"active","ping":91},{"user_id":38,"name":"30xx","steam_id":76561198115714484,"connected_time":2405000000000,"state":"active","ping":162},{"user_id":60,"name":"Cheesemelt","steam_id":76561198008221847,"connected_time":722000000000,"state":"active","ping":45},{"user_id":69,"name":"THE Grapist","steam_id":76561198069648668,"connected_time":317000000000,"state":"active","ping":80},{"user_id":64,"name":"Bee_Pirate","steam_id":76561199000599111,"connected_time":538000000000,"state":"active","ping":69},{"user_id":71,"name":"Aristotle Voulton","steam_id":76561198100174923,"connected_time":294000000000,"state":"active","ping":73},{"user_id":72,"name":"Magnolia","steam_id":76561199044602594,"connected_time":262000000000,"state":"active","ping":43},{"user_id":73,"name":"J21","steam_id":76561198066590783,"connected_time":231000000000,"state":"active","ping":61},{"user_id":74,"name":"Merpling","steam_id":76561198048272047,"connected_time":226000000000,"state":"active","ping":74},{"user_id":78,"name":"Bibbymcbobby","steam_id":76561198292480758,"connected_time":13000000000,"state":"spawning","ping":289},{"user_id":76,"name":"Professor Chromosomes","steam_id":76561198042020662,"connected_time":94000000000,"state":"active","ping":195},{"user_id":77,"name":"josh","steam_id":76561198110063909,"connected_time":61000000000,"state":"active","ping":80}]},{"server_id":16,"name":"Uncletopia | New York City | 4 | Community","name_short":"nyc-4","host":"nyc-1.us.uncletopia.com","port":27045,"enabled":true,"region":"us-east","cc":"us","latitude":40.73061,"longitude":-73.93524,"reserved":0,"last_update":"0001-01-01T00:00:00Z","name_a2s":"Uncletopia | New York City | 4 | Community","protocol":17,"map":"workshop/cp_fulgur_rc2a.ugc2068252300","folder":"tf","game":"Team Fortress","app_id":440,"player_count":0,"max_players":24,"Bots":0,"server_type":"Dedicated","server_os":"Linux","password":true,"vac":true,"version":"7961495","steam_id":85568392924742821,"keywords":["cp","nocrits","nodmgspread","uncletopia"],"game_id":440,"stv_port":27046,"stv_name":"Uncletopia | New York City | 4 | Community | STV","players":null},{"server_id":142,"name":"Uncletopia | São Paulo | 1 | All Maps","name_short":"sao-1","host":"sao-1.br.uncletopia.com","port":27015,"enabled":true,"region":"sa","cc":"br","latitude":-23.533773,"longitude":-46.62529,"reserved":0,"last_update":"0001-01-01T00:00:00Z","name_a2s":"Uncletopia | São Paulo | 1 | All Maps","protocol":17,"map":"koth_highpass","folder":"tf","game":"Team Fortress","app_id":440,"player_count":0,"max_players":24,"Bots":0,"server_type":"Dedicated","server_os":"Linux","password":true,"vac":true,"version":"7961495","steam_id":85568392924469996,"keywords":["cp","nocrits","nodmgspread","uncletopia"],"game_id":440,"stv_port":27016,"stv_name":"Uncletopia | São Paulo | 1 | All Maps | STV","players":null},{"server_id":143,"name":"Uncletopia | São Paulo | 2 | Community","name_short":"sao-2","host":"sao-2.br.uncletopia.com","port":27015,"enabled":true,"region":"sa","cc":"br","latitude":-23.533773,"longitude":-46.62529,"reserved":0,"last_update":"0001-01-01T00:00:00Z","name_a2s":"Uncletopia | São Paulo | 2 | Community","protocol":17,"map":"workshop/cp_bruhstbowl_b6.ugc2878604990","folder":"tf","game":"Team Fortress","app_id":440,"player_count":0,"max_players":24,"Bots":0,"server_type":"Dedicated","server_os":"Linux","password":true,"vac":true,"version":"7961495","steam_id":85568392924485349,"keywords":["cp","nocrits","nodmgspread","uncletopia"],"game_id":440,"stv_port":27016,"stv_name":"Uncletopia | São Paulo | 2 | Community | STV","players":null},{"server_id":7,"name":"Uncletopia | Seattle | 1 | All Maps","name_short":"sea-1","host":"sea-1.us.uncletopia.com","port":27015,"enabled":true,"region":"us-west","cc":"us","latitude":47.608013,"longitude":-122.33517,"reserved":0,"last_update":"0001-01-01T00:00:00Z","name_a2s":"Uncletopia | Seattle | 1 | All Maps","protocol":17,"map":"pl_enclosure_final","folder":"tf","game":"Team Fortress","app_id":440,"player_count":24,"max_players":24,"Bots":0,"server_type":"Dedicated","server_os":"Linux","password":true,"vac":true,"version":"7961495","steam_id":85568392924469997,"keywords":["nocrits","nodmgspread","payload","uncletopia"],"game_id":440,"stv_port":27016,"stv_name":"Uncletopia | Seattle | 1 | All Maps | STV","players":[{"user_id":202,"name":"genius of love","steam_id":76561198282764599,"connected_time":319000000000,"state":"active","ping":92},{"user_id":145,"name":"Crouchin down to munch bugs","steam_id":76561198011675372,"connected_time":4691000000000,"state":"active","ping":66},{"user_id":201,"name":"Google","steam_id":76561198857237473,"connected_time":335000000000,"state":"active","ping":50},{"user_id":190,"name":"pepe warlord","steam_id":76561198080819197,"connected_time":980000000000,"state":"active","ping":85},{"user_id":195,"name":"Doofenshmirtz Evil Inc.","steam_id":76561198439793697,"connected_time":899000000000,"state":"active","ping":110},{"user_id":178,"name":"marty","steam_id":76561198032782746,"connected_time":2076000000000,"state":"active","ping":45},{"user_id":203,"name":"here2he1p","steam_id":76561199216977630,"connected_time":305000000000,"state":"active","ping":56},{"user_id":187,"name":"MegumiTame","steam_id":76561198450280686,"connected_time":1018000000000,"state":"active","ping":51},{"user_id":197,"name":"KOJAKK","steam_id":76561199060841878,"connected_time":762000000000,"state":"active","ping":36},{"user_id":198,"name":"kenZino","steam_id":76561197967971192,"connected_time":729000000000,"state":"active","ping":45},{"user_id":171,"name":"Tripll-L","steam_id":76561197998077437,"connected_time":2451000000000,"state":"active","ping":61},{"user_id":76,"name":"jacix3 [silly doggie :3]","steam_id":76561198205004165,"connected_time":10607000000000,"state":"active","ping":66},{"user_id":101,"name":"The King of Piss World","steam_id":76561198082806956,"connected_time":7562000000000,"state":"active","ping":146},{"user_id":204,"name":"Ducks","steam_id":76561198130038345,"connected_time":2000000000,"state":"spawning","ping":94},{"user_id":179,"name":"Pretzalcoatlus","steam_id":76561198424248616,"connected_time":2062000000000,"state":"active","ping":124},{"user_id":160,"name":"Haydob13","steam_id":76561198110378191,"connected_time":3416000000000,"state":"active","ping":58},{"user_id":189,"name":"DrMonkey","steam_id":76561198939543244,"connected_time":998000000000,"state":"active","ping":117},{"user_id":180,"name":"Lunigoonz","steam_id":76561198283083143,"connected_time":2057000000000,"state":"active","ping":90},{"user_id":163,"name":"CashGordon","steam_id":76561197975594096,"connected_time":3244000000000,"state":"active","ping":40},{"user_id":181,"name":"Cam","steam_id":76561198285054047,"connected_time":1840000000000,"state":"active","ping":75},{"user_id":174,"name":"mmmBoyo","steam_id":76561198821360261,"connected_time":2391000000000,"state":"active","ping":55},{"user_id":158,"name":"NEЯO","steam_id":76561197965450216,"connected_time":3806000000000,"state":"active","ping":55},{"user_id":199,"name":"Grimace D. Drippings","steam_id":76561198050849790,"connected_time":715000000000,"state":"active","ping":86},{"user_id":166,"name":"Kobicha","steam_id":76561198144970720,"connected_time":3025000000000,"state":"active","ping":132}]},{"server_id":119,"name":"Uncletopia | Seattle | 2 | All Maps","name_short":"sea-2","host":"sea-1.us.uncletopia.com","port":27025,"enabled":true,"region":"us-west","cc":"us","latitude":47.608013,"longitude":-122.33517,"reserved":0,"last_update":"0001-01-01T00:00:00Z","name_a2s":"Uncletopia | Seattle | 2 | All Maps","protocol":17,"map":"pl_borneo","folder":"tf","game":"Team Fortress","app_id":440,"player_count":24,"max_players":24,"Bots":0,"server_type":"Dedicated","server_os":"Linux","password":true,"vac":true,"version":"7961495","steam_id":85568392924469998,"keywords":["nocrits","nodmgspread","payload","uncletopia"],"game_id":440,"stv_port":27026,"stv_name":"Uncletopia | Seattle | 2 | All Maps | STV","players":[{"user_id":196,"name":"Zesty Zucchini Ziti","steam_id":76561198092494136,"connected_time":1378000000000,"state":"active","ping":105},{"user_id":194,"name":"Broken Glass Drinker","steam_id":76561199059653595,"connected_time":1431000000000,"state":"active","ping":47},{"user_id":199,"name":"FiddyFoMike","steam_id":76561198057072581,"connected_time":333000000000,"state":"active","ping":66},{"user_id":168,"name":"Vibrantword3732","steam_id":76561198916638641,"connected_time":2611000000000,"state":"active","ping":62},{"user_id":200,"name":"Hector Salamanca","steam_id":76561199103213955,"connected_time":329000000000,"state":"active","ping":81},{"user_id":197,"name":"BlazedBunny","steam_id":76561198243610560,"connected_time":1179000000000,"state":"active","ping":76},{"user_id":192,"name":"Ockulus","steam_id":76561199069638460,"connected_time":1510000000000,"state":"active","ping":82},{"user_id":163,"name":"Bibleboy","steam_id":76561198049289869,"connected_time":2960000000000,"state":"active","ping":114},{"user_id":173,"name":"Redja","steam_id":76561198075009586,"connected_time":2448000000000,"state":"active","ping":119},{"user_id":170,"name":"Bolbi","steam_id":76561198051811597,"connected_time":2609000000000,"state":"active","ping":82},{"user_id":203,"name":"gnome zone","steam_id":76561198883349445,"connected_time":256000000000,"state":"active","ping":72},{"user_id":186,"name":"Camohno","steam_id":76561198283519918,"connected_time":1809000000000,"state":"active","ping":76},{"user_id":156,"name":"SAD PANDA GAMING","steam_id":76561198060846419,"connected_time":3420000000000,"state":"active","ping":53},{"user_id":70,"name":"cool beans","steam_id":76561198045758072,"connected_time":10523000000000,"state":"active","ping":63},{"user_id":195,"name":"Montis","steam_id":76561199130184348,"connected_time":1426000000000,"state":"active","ping":83},{"user_id":184,"name":"Zorlovo","steam_id":76561198006443283,"connected_time":1864000000000,"state":"active","ping":88},{"user_id":204,"name":"MondoDong","steam_id":76561197991400109,"connected_time":249000000000,"state":"active","ping":116},{"user_id":115,"name":"❀lo mein lacht sep chicken❀","steam_id":76561198059580373,"connected_time":6390000000000,"state":"active","ping":75},{"user_id":110,"name":"illness","steam_id":76561198200749235,"connected_time":6874000000000,"state":"active","ping":63},{"user_id":198,"name":"Gwen (Limited Huge Cock Edition","steam_id":76561198276385778,"connected_time":366000000000,"state":"active","ping":49},{"user_id":190,"name":"PieTheMan","steam_id":76561198027825469,"connected_time":1596000000000,"state":"active","ping":144},{"user_id":171,"name":"hemaglox","steam_id":76561198023187633,"connected_time":2600000000000,"state":"active","ping":45},{"user_id":177,"name":"Angela :3","steam_id":76561198991101353,"connected_time":2178000000000,"state":"active","ping":46},{"user_id":114,"name":"how many sins","steam_id":76561198213385439,"connected_time":6476000000000,"state":"active","ping":93}]},{"server_id":406,"name":"Uncletopia | Seattle | 3 | Stopwatch","name_short":"sea-3","host":"sea-1.us.uncletopia.com","port":27035,"enabled":true,"region":"us-west","cc":"us","latitude":47.608013,"longitude":-122.33517,"reserved":0,"last_update":"0001-01-01T00:00:00Z","name_a2s":"Uncletopia | Seattle | 3 | Stopwatch","protocol":17,"map":"workshop/koth_clearcut_b15.ugc2107050255","folder":"tf","game":"Team Fortress","app_id":440,"player_count":2,"max_players":24,"Bots":0,"server_type":"Dedicated","server_os":"Linux","password":true,"vac":true,"version":"7961495","steam_id":85568392924515217,"keywords":["cp","nocrits","nodmgspread","uncletopia"],"game_id":440,"stv_port":27036,"stv_name":"Uncletopia | Seattle | 3 | Stopwatch | STV","players":[{"user_id":7,"name":"NaeNaeChungusBozo","steam_id":76561199446407203,"connected_time":91000000000,"state":"active","ping":77},{"user_id":8,"name":"nfseskimo","steam_id":76561198078745666,"connected_time":21000000000,"state":"active","ping":32}]},{"server_id":17,"name":"Uncletopia | San Francisco | 1 | All Maps","name_short":"sfo-1","host":"sfo-1.us.uncletopia.com","port":27015,"enabled":true,"region":"us-west","cc":"us","latitude":37.77397,"longitude":-122.4313,"reserved":0,"last_update":"0001-01-01T00:00:00Z","name_a2s":"Uncletopia | San Francisco | 1 | All Maps","protocol":17,"map":"pl_frontier_final","folder":"tf","game":"Team Fortress","app_id":440,"player_count":24,"max_players":24,"Bots":0,"server_type":"Dedicated","server_os":"Linux","password":true,"vac":true,"version":"7961495","steam_id":85568392924469999,"keywords":["nocrits","nodmgspread","payload","uncletopia"],"game_id":440,"stv_port":27016,"stv_name":"Uncletopia | San Francisco | 1 | All Maps | STV","players":[{"user_id":201,"name":"Amitie","steam_id":76561198067848409,"connected_time":1167000000000,"state":"active","ping":63},{"user_id":206,"name":"grape","steam_id":76561197993980328,"connected_time":541000000000,"state":"active","ping":91},{"user_id":209,"name":"Mr. DeLarge","steam_id":76561198336820066,"connected_time":453000000000,"state":"active","ping":80},{"user_id":205,"name":"HalfGuest","steam_id":76561199045682328,"connected_time":815000000000,"state":"active","ping":84},{"user_id":207,"name":"Ice cream sandwich","steam_id":76561198172748357,"connected_time":489000000000,"state":"active","ping":49},{"user_id":199,"name":"CheesyPoofs","steam_id":76561197998650617,"connected_time":1425000000000,"state":"active","ping":76},{"user_id":180,"name":"too much peyote","steam_id":76561198161747964,"connected_time":1945000000000,"state":"active","ping":83},{"user_id":181,"name":"nnhan635","steam_id":76561199434135742,"connected_time":1936000000000,"state":"active","ping":59},{"user_id":132,"name":"Kenny Riots","steam_id":76561198060800850,"connected_time":6079000000000,"state":"active","ping":132},{"user_id":204,"name":"Who loves orange soda?","steam_id":76561198059808982,"connected_time":829000000000,"state":"active","ping":60},{"user_id":202,"name":"bottom pride burger","steam_id":76561198322247602,"connected_time":1117000000000,"state":"active","ping":59},{"user_id":189,"name":"OddSlaush","steam_id":76561198043898488,"connected_time":1701000000000,"state":"active","ping":54},{"user_id":186,"name":"biblically accurate angel","steam_id":76561198095121758,"connected_time":1783000000000,"state":"active","ping":44},{"user_id":208,"name":"Cream Corn","steam_id":76561198043791586,"connected_time":489000000000,"state":"active","ping":88},{"user_id":190,"name":"Wang of Wall St","steam_id":76561198047460598,"connected_time":1690000000000,"state":"active","ping":132},{"user_id":198,"name":"NayrTheMayor","steam_id":76561198853726475,"connected_time":1432000000000,"state":"active","ping":80},{"user_id":94,"name":"Lucxs707","steam_id":76561198260136009,"connected_time":8405000000000,"state":"active","ping":112},{"user_id":210,"name":"CRYHAV0C","steam_id":76561199129350925,"connected_time":448000000000,"state":"active","ping":88},{"user_id":174,"name":"a_lilypup","steam_id":76561198163640324,"connected_time":2886000000000,"state":"active","ping":61},{"user_id":139,"name":"crowe","steam_id":76561198142185527,"connected_time":5469000000000,"state":"active","ping":56},{"user_id":200,"name":"Ajayajax","steam_id":76561198389802335,"connected_time":1259000000000,"state":"active","ping":77},{"user_id":211,"name":"TheOtherBrush","steam_id":76561199048222977,"connected_time":414000000000,"state":"active","ping":69},{"user_id":194,"name":"sillyjack","steam_id":76561198844273999,"connected_time":1619000000000,"state":"active","ping":66},{"user_id":213,"name":"zinnk","steam_id":76561198092081825,"connected_time":177000000000,"state":"active","ping":43}]},{"server_id":18,"name":"Uncletopia | San Francisco | 2 | All Maps","name_short":"sfo-2","host":"sfo-1.us.uncletopia.com","port":27025,"enabled":true,"region":"us-west","cc":"us","latitude":37.77397,"longitude":-122.4313,"reserved":0,"last_update":"0001-01-01T00:00:00Z","name_a2s":"Uncletopia | San Francisco | 2 | All Maps","protocol":17,"map":"pl_barnblitz","folder":"tf","game":"Team Fortress","app_id":440,"player_count":19,"max_players":24,"Bots":0,"server_type":"Dedicated","server_os":"Linux","password":true,"vac":true,"version":"7961495","steam_id":85568392924470000,"keywords":["nocrits","nodmgspread","payload","uncletopia"],"game_id":440,"stv_port":27026,"stv_name":"Uncletopia | San Francisco | 2 | All Maps | STV","players":[{"user_id":200,"name":"sqnguine","steam_id":76561199481839224,"connected_time":1464000000000,"state":"active","ping":63},{"user_id":212,"name":"Retrace","steam_id":76561198080620966,"connected_time":911000000000,"state":"active","ping":66},{"user_id":215,"name":"boof","steam_id":76561198218238705,"connected_time":834000000000,"state":"active","ping":93},{"user_id":218,"name":"Castello-Mondragón","steam_id":76561198331379703,"connected_time":300000000000,"state":"active","ping":117},{"user_id":220,"name":"nae nae goblin68","steam_id":76561199115259028,"connected_time":4000000000,"state":"spawning","ping":74},{"user_id":190,"name":"Mike Bean Burritos","steam_id":76561198173430607,"connected_time":2375000000000,"state":"active","ping":77},{"user_id":128,"name":"Ratchet55","steam_id":76561198208655521,"connected_time":5987000000000,"state":"active","ping":75},{"user_id":219,"name":"Eris","steam_id":76561198120775038,"connected_time":7000000000,"state":"spawning","ping":45},{"user_id":181,"name":"Cinabun","steam_id":76561198169144061,"connected_time":2666000000000,"state":"active","ping":84},{"user_id":217,"name":"moe","steam_id":76561198929586245,"connected_time":671000000000,"state":"active","ping":51},{"user_id":203,"name":"Mark","steam_id":76561199092079229,"connected_time":1437000000000,"state":"active","ping":62},{"user_id":204,"name":"małię","steam_id":76561198337705174,"connected_time":1429000000000,"state":"active","ping":75},{"user_id":205,"name":"tinfoil_hatter","steam_id":76561198002247691,"connected_time":1425000000000,"state":"active","ping":74},{"user_id":206,"name":"viedoamges","steam_id":76561198025295263,"connected_time":1407000000000,"state":"active","ping":83},{"user_id":161,"name":"Brison","steam_id":76561198051370524,"connected_time":4040000000000,"state":"active","ping":59},{"user_id":199,"name":"John Smith","steam_id":76561198185776555,"connected_time":1520000000000,"state":"active","ping":55},{"user_id":207,"name":"cass","steam_id":76561198074502046,"connected_time":1371000000000,"state":"active","ping":165},{"user_id":210,"name":"Hkthunder","steam_id":76561199094251379,"connected_time":1199000000000,"state":"active","ping":69},{"user_id":136,"name":"guy who stares at GOOD players","steam_id":76561198065662025,"connected_time":5218000000000,"state":"active","ping":49}]},{"server_id":19,"name":"Uncletopia | San Francisco | 3 | Stopwatch","name_short":"sfo-3","host":"sfo-1.us.uncletopia.com","port":27035,"enabled":true,"region":"us-west","cc":"us","latitude":37.77397,"longitude":-122.4313,"reserved":0,"last_update":"0001-01-01T00:00:00Z","name_a2s":"Uncletopia | San Francisco | 3 | Stopwatch","protocol":17,"map":"pl_upward","folder":"tf","game":"Team Fortress","app_id":440,"player_count":18,"max_players":24,"Bots":0,"server_type":"Dedicated","server_os":"Linux","password":true,"vac":true,"version":"7961495","steam_id":85568392924742824,"keywords":["nocrits","nodmgspread","payload","uncletopia"],"game_id":440,"stv_port":27036,"stv_name":"Uncletopia | San Francisco | 3 | Stopwatch | STV","players":[{"user_id":84,"name":"Dog Deodorant","steam_id":76561199225832228,"connected_time":1109000000000,"state":"active","ping":47},{"user_id":94,"name":"Thomas","steam_id":76561198048091513,"connected_time":517000000000,"state":"active","ping":61},{"user_id":110,"name":"lukamine","steam_id":76561198166827208,"connected_time":39000000000,"state":"active","ping":61},{"user_id":85,"name":"Timebomb2134","steam_id":76561199065629825,"connected_time":1087000000000,"state":"active","ping":65},{"user_id":11,"name":"i boil rats","steam_id":76561199351786399,"connected_time":4114000000000,"state":"active","ping":130},{"user_id":108,"name":"bangs and fangs","steam_id":76561198102681457,"connected_time":69000000000,"state":"active","ping":106},{"user_id":111,"name":"Borgor Boi","steam_id":76561199061388107,"connected_time":7000000000,"state":"spawning","ping":69},{"user_id":93,"name":"Minecraft Furnace","steam_id":76561199071151136,"connected_time":524000000000,"state":"active","ping":61},{"user_id":95,"name":"3/4'' x 18'' industrial pipe","steam_id":76561198094042613,"connected_time":516000000000,"state":"active","ping":118},{"user_id":42,"name":"Daz","steam_id":76561198041431938,"connected_time":2475000000000,"state":"active","ping":68},{"user_id":97,"name":"choochoo","steam_id":76561199122075275,"connected_time":503000000000,"state":"active","ping":74},{"user_id":101,"name":"mayoman","steam_id":76561198399205495,"connected_time":482000000000,"state":"active","ping":60},{"user_id":77,"name":"Balerion the Black Dread","steam_id":76561198003728369,"connected_time":1686000000000,"state":"active","ping":105},{"user_id":102,"name":"zero two","steam_id":76561199058650117,"connected_time":416000000000,"state":"active","ping":68},{"user_id":103,"name":"Crazy Hungarian","steam_id":76561198025498172,"connected_time":409000000000,"state":"active","ping":75},{"user_id":44,"name":"gung6n","steam_id":76561198099843841,"connected_time":2441000000000,"state":"active","ping":46},{"user_id":104,"name":"Rays","steam_id":76561198072462009,"connected_time":380000000000,"state":"active","ping":90},{"user_id":92,"name":"DrShikura","steam_id":76561198003810927,"connected_time":934000000000,"state":"active","ping":123}]},{"server_id":20,"name":"Uncletopia | San Francisco | 4 | Community","name_short":"sfo-4","host":"sfo-1.us.uncletopia.com","port":27045,"enabled":true,"region":"us-west","cc":"us","latitude":37.77397,"longitude":-122.4313,"reserved":0,"last_update":"0001-01-01T00:00:00Z","name_a2s":"Uncletopia | San Francisco | 4 | Community","protocol":17,"map":"cp_snakewater_final1","folder":"tf","game":"Team Fortress","app_id":440,"player_count":0,"max_players":24,"Bots":0,"server_type":"Dedicated","server_os":"Linux","password":true,"vac":true,"version":"7961495","steam_id":85568392924742826,"keywords":["cp","nocrits","nodmgspread","uncletopia"],"game_id":440,"stv_port":27046,"stv_name":"Uncletopia | San Francisco | 4 | Community | STV","players":null},{"server_id":141,"name":"Uncletopia | Sydney | 1 | All Maps","name_short":"syd-1","host":"syd-1.au.uncletopia.com","port":27015,"enabled":true,"region":"au","cc":"au","latitude":-33.865143,"longitude":151.2099,"reserved":0,"last_update":"0001-01-01T00:00:00Z","name_a2s":"Uncletopia | Sydney | 1 | All Maps","protocol":17,"map":"koth_viaduct","folder":"tf","game":"Team Fortress","app_id":440,"player_count":0,"max_players":24,"Bots":0,"server_type":"Dedicated","server_os":"Linux","password":true,"vac":true,"version":"7961495","steam_id":85568392924470001,"keywords":["cp","nocrits","nodmgspread","uncletopia"],"game_id":440,"stv_port":27016,"stv_name":"Uncletopia | Sydney | 1 | All Maps | STV","players":null},{"server_id":123,"name":"Uncletopia | Sydney | 2 | All Maps","name_short":"syd-2","host":"syd-1.au.uncletopia.com","port":27025,"enabled":true,"region":"au","cc":"au","latitude":-33.865143,"longitude":151.2099,"reserved":0,"last_update":"0001-01-01T00:00:00Z","name_a2s":"Uncletopia | Sydney | 2 | All Maps","protocol":17,"map":"koth_viaduct","folder":"tf","game":"Team Fortress","app_id":440,"player_count":0,"max_players":24,"Bots":0,"server_type":"Dedicated","server_os":"Linux","password":true,"vac":true,"version":"7961495","steam_id":85568392924470002,"keywords":["cp","nocrits","nodmgspread","uncletopia"],"game_id":440,"stv_port":27026,"stv_name":"Uncletopia | Sydney | 2 | All Maps | STV","players":null},{"server_id":395,"name":"Uncletopia | Sydney | 3 | All Maps","name_short":"syd-3","host":"syd-1.au.uncletopia.com","port":27035,"enabled":true,"region":"au","cc":"au","latitude":-33.865143,"longitude":151.2099,"reserved":0,"last_update":"0001-01-01T00:00:00Z","name_a2s":"Uncletopia | Sydney | 3 | All Maps","protocol":17,"map":"pl_borneo","folder":"tf","game":"Team Fortress","app_id":440,"player_count":0,"max_players":24,"Bots":0,"server_type":"Dedicated","server_os":"Linux","password":true,"vac":true,"version":"7961495","steam_id":85568392925194467,"keywords":["nocrits","nodmgspread","payload","uncletopia"],"game_id":440,"stv_port":27036,"stv_name":"Uncletopia | Sydney | 3 | All Maps | STV","players":null},{"server_id":396,"name":"Uncletopia | Sydney | 4 | All Maps","name_short":"syd-4","host":"syd-1.au.uncletopia.com","port":27045,"enabled":true,"region":"au","cc":"au","latitude":-33.865143,"longitude":151.2099,"reserved":0,"last_update":"0001-01-01T00:00:00Z","name_a2s":"Uncletopia | Sydney | 4 | All Maps","protocol":17,"map":"pl_barnblitz","folder":"tf","game":"Team Fortress","app_id":440,"player_count":0,"max_players":24,"Bots":0,"server_type":"Dedicated","server_os":"Linux","password":true,"vac":true,"version":"7961495","steam_id":85568392925397958,"keywords":["nocrits","nodmgspread","payload","uncletopia"],"game_id":440,"stv_port":27046,"stv_name":"Uncletopia | Sydney | 4 | All Maps | STV","players":null},{"server_id":58,"name":"Uncletopia | Sydney | 5 | Stopwatch Beta","name_short":"syd-5","host":"syd-1.au.uncletopia.com","port":27055,"enabled":true,"region":"au","cc":"au","latitude":-33.865143,"longitude":151.2099,"reserved":0,"last_update":"0001-01-01T00:00:00Z","name_a2s":"Uncletopia | Sydney | 5 | Stopwatch Beta","protocol":17,"map":"pl_frontier_final","folder":"tf","game":"Team Fortress","app_id":440,"player_count":0,"max_players":24,"Bots":0,"server_type":"Dedicated","server_os":"Linux","password":true,"vac":true,"version":"7961495","steam_id":85568392925397959,"keywords":["nocrits","nodmgspread","payload","uncletopia"],"game_id":440,"stv_port":27056,"stv_name":"Uncletopia | Sydney | 5 | Stopwatch Beta | STV","players":null},{"server_id":59,"name":"Uncletopia | Sydney | 6 | Community","name_short":"syd-6","host":"syd-1.au.uncletopia.com","port":27065,"enabled":true,"region":"au","cc":"au","latitude":-33.865143,"longitude":151.2099,"reserved":0,"last_update":"0001-01-01T00:00:00Z","name_a2s":"Uncletopia | Sydney | 6 | Community","protocol":17,"map":"pl_swiftwater_final1","folder":"tf","game":"Team Fortress","app_id":440,"player_count":0,"max_players":24,"Bots":0,"server_type":"Dedicated","server_os":"Linux","password":true,"vac":true,"version":"7961495","steam_id":85568392925397960,"keywords":["nocrits","nodmgspread","payload","uncletopia"],"game_id":440,"stv_port":27066,"stv_name":"Uncletopia | Sydney | 6 | Community | STV","players":null},{"server_id":49,"name":"Uncletopia | Warsaw | 1 | All Maps","name_short":"waw-1","host":"waw-1.pl.uncletopia.com","port":27015,"enabled":true,"region":"eu","cc":"pl","latitude":52.2297,"longitude":21.017532,"reserved":0,"last_update":"0001-01-01T00:00:00Z","name_a2s":"Uncletopia | Warsaw | 1 | All Maps","protocol":17,"map":"pl_upward","folder":"tf","game":"Team Fortress","app_id":440,"player_count":0,"max_players":24,"Bots":0,"server_type":"Dedicated","server_os":"Linux","password":true,"vac":true,"version":"7961495","steam_id":85568392925397850,"keywords":["nocrits","nodmgspread","payload","uncletopia"],"game_id":440,"stv_port":27016,"stv_name":"Uncletopia | Warsaw | 1 | All Maps | STV","players":null},{"server_id":50,"name":"Uncletopia | Warsaw | 2 | All Maps","name_short":"waw-2","host":"waw-1.pl.uncletopia.com","port":27025,"enabled":true,"region":"eu","cc":"pl","latitude":52.2297,"longitude":21.017532,"reserved":0,"last_update":"0001-01-01T00:00:00Z","name_a2s":"Uncletopia | Warsaw | 2 | All Maps","protocol":17,"map":"pl_badwater","folder":"tf","game":"Team Fortress","app_id":440,"player_count":0,"max_players":24,"Bots":0,"server_type":"Dedicated","server_os":"Linux","password":true,"vac":true,"version":"7961495","steam_id":85568392925397851,"keywords":["nocrits","nodmgspread","payload","uncletopia"],"game_id":440,"stv_port":27026,"stv_name":"Uncletopia | Warsaw | 2 | All Maps | STV","players":null},{"server_id":51,"name":"Uncletopia | Warsaw | 3 | All Maps","name_short":"waw-3","host":"waw-1.pl.uncletopia.com","port":27035,"enabled":true,"region":"eu","cc":"pl","latitude":52.2297,"longitude":21.017532,"reserved":0,"last_update":"0001-01-01T00:00:00Z","name_a2s":"Uncletopia | Warsaw | 3 | All Maps","protocol":17,"map":"cp_mountainlab","folder":"tf","game":"Team Fortress","app_id":440,"player_count":0,"max_players":24,"Bots":0,"server_type":"Dedicated","server_os":"Linux","password":true,"vac":true,"version":"7961495","steam_id":85568392925397852,"keywords":["cp","nocrits","nodmgspread","uncletopia"],"game_id":440,"stv_port":27036,"stv_name":"Uncletopia | Warsaw | 3 | All Maps | STV","players":null},{"server_id":52,"name":"Uncletopia | Warsaw | 4 | All Maps","name_short":"waw-4","host":"waw-1.pl.uncletopia.com","port":27045,"enabled":true,"region":"eu","cc":"pl","latitude":52.2297,"longitude":21.017532,"reserved":0,"last_update":"0001-01-01T00:00:00Z","name_a2s":"Uncletopia | Warsaw | 4 | All Maps","protocol":17,"map":"pl_badwater","folder":"tf","game":"Team Fortress","app_id":440,"player_count":0,"max_players":24,"Bots":0,"server_type":"Dedicated","server_os":"Linux","password":true,"vac":true,"version":"7961495","steam_id":85568392925397853,"keywords":["nocrits","nodmgspread","payload","uncletopia"],"game_id":440,"stv_port":27046,"stv_name":"Uncletopia | Warsaw | 4 | All Maps | STV","players":null},{"server_id":53,"name":"Uncletopia | Warsaw | 5 | Stopwatch Beta","name_short":"waw-5","host":"waw-1.pl.uncletopia.com","port":27055,"enabled":true,"region":"eu","cc":"pl","latitude":52.2297,"longitude":21.017532,"reserved":0,"last_update":"0001-01-01T00:00:00Z","name_a2s":"Uncletopia | Warsaw | 5 | Stopwatch Beta","protocol":17,"map":"pl_snowycoast","folder":"tf","game":"Team Fortress","app_id":440,"player_count":0,"max_players":24,"Bots":0,"server_type":"Dedicated","server_os":"Linux","password":true,"vac":true,"version":"7961495","steam_id":85568392925397854,"keywords":["nocrits","nodmgspread","payload","uncletopia"],"game_id":440,"stv_port":27056,"stv_name":"Uncletopia | Warsaw | 5 | Stopwatch Beta | STV","players":null},{"server_id":54,"name":"Uncletopia | Warsaw | 6 | Community","name_short":"waw-6","host":"waw-1.pl.uncletopia.com","port":27065,"enabled":true,"region":"eu","cc":"pl","latitude":52.2297,"longitude":21.017532,"reserved":0,"last_update":"0001-01-01T00:00:00Z","name_a2s":"Uncletopia | Warsaw | 6 | Community","protocol":17,"map":"pl_borneo","folder":"tf","game":"Team Fortress","app_id":440,"player_count":0,"max_players":24,"Bots":0,"server_type":"Dedicated","server_os":"Linux","password":true,"vac":true,"version":"7961495","steam_id":85568392925397856,"keywords":["nocrits","nodmgspread","payload","uncletopia"],"game_id":440,"stv_port":27066,"stv_name":"Uncletopia | Warsaw | 6 | Community | STV","players":null}]}