{"status":true,"message":"","result":[{"server_id":2,"name":"Uncletopia | Chicago | 1 | All Maps","name_short":"chi-1","host":"chi-1.us.uncletopia.com","port":27015,"enabled":true,"region":"us-central","cc":"us","latitude":41.881832,"longitude":-87.62318,"reserved":0,"last_update":"0001-01-01T00:00:00Z","name_a2s":"Uncletopia | Chicago | 1 | All Maps","protocol":17,"map":"cp_dustbowl","folder":"tf","game":"Team Fortress","app_id":440,"player_count":24,"max_players":24,"Bots":0,"server_type":"Dedicated","server_os":"Linux","password":true,"vac":true,"version":"7932396","steam_id":85568392924469984,"keywords":["cp","nocrits","nodmgspread","uncletopia"],"game_id":440,"stv_port":27016,"stv_name":"Uncletopia | Chicago | 1 | All Maps | STV","players":[{"user_id":777,"name":"ronny","steam_id":76561197994180230,"connected_time":65000000000,"state":"active","ping":61},{"user_id":735,"name":"kite","steam_id":76561198346516392,"connected_time":3781000000000,"state":"active","ping":66},{"user_id":747,"name":"Zoot","steam_id":76561198121944243,"connected_time":2739000000000,"state":"active","ping":79},{"user_id":697,"name":"loser","steam_id":76561198259380127,"connected_time":8033000000000,"state":"active","ping":56},{"user_id":768,"name":"Lumi","steam_id":76561198089978036,"connected_time":1089000000000,"state":"active","ping":72},{"user_id":762,"name":"L√∏st","steam_id":76561198035677801,"connected_time":1646000000000,"state":"active","ping":64},{"user_id":773,"name":"fruitpunch","steam_id":76561198156516161,"connected_time":638000000000,"state":"active","ping":72},{"user_id":704,"name":"Ras","steam_id":76561198123546775,"connected_time":7216000000000,"state":"active","ping":78},{"user_id":776,"name":"Space","steam_id":76561198350489754,"connected_time":74000000000,"state":"active","ping":42},{"user_id":725,"name":"meo ‚ô•","steam_id":76561197992719272,"connected_time":5307000000000,"state":"active","ping":43},{"user_id":778,"name":"t","steam_id":76561198175988929,"connected_time":37000000000,"state":"active","ping":79},{"user_id":668,"name":"Spy Gaming","steam_id":76561198453295613,"connected_time":11153000000000,"state":"active","ping":111},{"user_id":744,"name":"eat Pant","steam_id":76561197974965536,"connected_time":2799000000000,"state":"active","ping":59},{"user_id":779,"name":"asfg","steam_id":76561198107931997,"connected_time":37000000000,"state":"active","ping":68},{"user_id":722,"name":"L + Ratio","steam_id":76561198263786953,"connected_time":5622000000000,"state":"active","ping":86},{"user_id":764,"name":"Jabawakai","steam_id":76561198088881254,"connected_time":1496000000000,"state":"active","ping":55},{"user_id":727,"name":"cheese burger","steam_id":76561198999217575,"connected_time":4259000000000,"state":"active","ping":73},{"user_id":770,"name":"I gotta fart really bad","steam_id":76561197986530028,"connected_time":921000000000,"state":"active","ping":91},{"user_id":761,"name":"Waddlehi","steam_id":76561198072553840,"connected_time":2062000000000,"state":"active","ping":56},{"user_id":774,"name":"Barbados Slim","steam_id":76561199483183459,"connected_time":85000000000,"state":"active","ping":89},{"user_id":780,"name":"AlcoholicDad454","steam_id":76561198157414556,"connected_time":29000000000,"state":"spawning","ping":74},{"user_id":752,"name":"PKBEAST_7","steam_id":76561198177136537,"connected_time":2632000000000,"state":"active","ping":87},{"user_id":771,"name":"Mixomin","steam_id":76561198295061570,"connected_time":898000000000,"state":"active","ping":45},{"user_id":781,"name":"DinkleBerg","steam_id":76561198891626233,"connected_time":26000000000,"state":"active","ping":63}]},{"server_id":106,"name":"Uncletopia | Chicago | 2 | All Maps","name_short":"chi-2","host":"chi-1.us.uncletopia.com","port":27025,"enabled":true,"region":"us-central","cc":"us","latitude":41.881832,"longitude":-87.62318,"reserved":0,"last_update":"0001-01-01T00:00:00Z","name_a2s":"Uncletopia | Chicago | 2 | All Maps","protocol":17,"map":"plr_bananabay","folder":"tf","game":"Team Fortress","app_id":440,"player_count":22,"max_players":24,"Bots":0,"server_type":"Dedicated","server_os":"Linux","password":true,"vac":true,"version":"7932396","steam_id":85568392924469985,"keywords":["nocrits","nodmgspread","payload","uncletopia"],"game_id":440,"stv_port":27026,"stv_name":"Uncletopia | Chicago | 2 | All Maps | STV","players":[{"user_id":476,"name":"Osrio","steam_id":76561198083428069,"connected_time":1423000000000,"state":"active","ping":98},{"user_id":480,"name":"TinySuperion","steam_id":76561198917460128,"connected_time":986000000000,"state":"active","ping":62},{"user_id":481,"name":"SteeredAxe","steam_id":76561198081309492,"connected_time":852000000000,"state":"active","ping":59},{"user_id":495,"name":"Wehttam","steam_id":76561199229493583,"connected_time":36000000000,"state":"active","ping":90},{"user_id":455,"name":"Galaxy_42","steam_id":76561198845514831,"connected_time":2960000000000,"state":"active","ping":67},{"user_id":496,"name":"eWVra2Vy","steam_id":76561198453565942,"connected_time":35000000000,"state":"active","ping":88},{"user_id":493,"name":"LeRoy42","steam_id":76561198035591428,"connected_time":282000000000,"state":"active","ping":73},{"user_id":499,"name":"Butters495","steam_id":76561197998689042,"connected_time":13000000000,"state":"active","ping":74},{"user_id":497,"name":"glankinator","steam_id":76561198354077256,"connected_time":31000000000,"state":"active","ping":41},{"user_id":494,"name":"megaboi796","steam_id":76561198122995438,"connected_time":103000000000,"state":"active","ping":84},{"user_id":465,"name":"eryn üó∫","steam_id":76561198004433070,"connected_time":1649000000000,"state":"active","ping":78},{"user_id":467,"name":"Joe Biden","steam_id":76561198238699798,"connected_time":1615000000000,"state":"active","ping":73},{"user_id":498,"name":"yeyoi","steam_id":76561198069821885,"connected_time":29000000000,"state":"active","ping":70},{"user_id":469,"name":"NitoT97","steam_id":76561199074443643,"connected_time":1572000000000,"state":"active","ping":269},{"user_id":477,"name":"Osteo-Oligarch","steam_id":76561198164731896,"connected_time":1413000000000,"state":"active","ping":74},{"user_id":450,"name":"pump","steam_id":76561198071705442,"connected_time":2989000000000,"state":"active","ping":76},{"user_id":485,"name":"Postmaster","steam_id":76561198078500859,"connected_time":806000000000,"state":"active","ping":120},{"user_id":472,"name":"George Bossington","steam_id":76561197993127608,"connected_time":1552000000000,"state":"active","ping":74},{"user_id":488,"name":"Mikael_01","steam_id":76561199080253129,"connected_time":451000000000,"state":"active","ping":182},{"user_id":474,"name":"ecto cooler","steam_id":76561198068409067,"connected_time":1500000000000,"state":"active","ping":76},{"user_id":491,"name":"xdab","steam_id":76561198086904171,"connected_time":415000000000,"state":"active","ping":48},{"user_id":454,"name":"Hugs","steam_id":76561198062726277,"connected_time":2975000000000,"state":"active","ping":51}]},{"server_id":402,"name":"Uncletopia | Chicago | 3 | All Maps","name_short":"chi-3","host":"chi-1.us.uncletopia.com","port":27035,"enabled":true,"region":"us-central","cc":"us","latitude":41.881832,"longitude":-87.62318,"reserved":0,"last_update":"0001-01-01T00:00:00Z","name_a2s":"Uncletopia | Chicago | 3 | All Maps","protocol":17,"map":"pl_badwater","folder":"tf","game":"Team Fortress","app_id":440,"player_count":24,"max_players":24,"Bots":0,"server_type":"Dedicated","server_os":"Linux","password":true,"vac":true,"version":"7932396","steam_id":85568392924515191,"keywords":["nocrits","nodmgspread","payload","uncletopia"],"game_id":440,"stv_port":27036,"stv_name":"Uncletopia | Chicago | 3 | All Maps | STV","players":[{"user_id":426,"name":"Adum","steam_id":76561198181162382,"connected_time":1594000000000,"state":"active","ping":73},{"user_id":429,"name":"CherriKat","steam_id":76561198821297512,"connected_time":1579000000000,"state":"active","ping":104},{"user_id":447,"name":"S–°–ê–¢–¢–ïR","steam_id":76561198405168492,"connected_time":649000000000,"state":"active","ping":90},{"user_id":452,"name":"Universe Man","steam_id":76561197997710655,"connected_time":452000000000,"state":"active","ping":85},{"user_id":421,"name":"Vibe Check","steam_id":76561198087326826,"connected_time":2408000000000,"state":"active","ping":74},{"user_id":453,"name":"Dr. Dick","steam_id":76561198138011922,"connected_time":350000000000,"state":"active","ping":84},{"user_id":448,"name":"Sergeant Joker #savetf2","steam_id":76561198854616604,"connected_time":647000000000,"state":"active","ping":67},{"user_id":449,"name":"Fostrel","steam_id":76561198152160601,"connected_time":638000000000,"state":"active","ping":73},{"user_id":396,"name":"ryan","steam_id":76561198141875225,"connected_time":4496000000000,"state":"active","ping":60},{"user_id":443,"name":"Heathcliff","steam_id":76561198044288534,"connected_time":1076000000000,"state":"active","ping":86},{"user_id":303,"name":"Shoeshocker","steam_id":76561198174302467,"connected_time":8695000000000,"state":"active","ping":68},{"user_id":390,"name":"Shady Businessman","steam_id":76561198143855968,"connected_time":4789000000000,"state":"active","ping":87},{"user_id":446,"name":"[GUT] RiDiK¬Æ","steam_id":76561197969756446,"connected_time":742000000000,"state":"active","ping":55},{"user_id":417,"name":"Puke Skyfucker","steam_id":76561198012846213,"connected_time":2767000000000,"state":"active","ping":72},{"user_id":315,"name":"notdoxed","steam_id":76561197992591404,"connected_time":7600000000000,"state":"active","ping":48},{"user_id":454,"name":"thomas gerald the rat jr","steam_id":76561198087666917,"connected_time":230000000000,"state":"active","ping":59},{"user_id":343,"name":"5 dollar","steam_id":76561198068190834,"connected_time":6072000000000,"state":"active","ping":118},{"user_id":444,"name":"Dr Oshawott","steam_id":76561198042021629,"connected_time":1068000000000,"state":"active","ping":66},{"user_id":445,"name":"mechiimi","steam_id":76561198321627268,"connected_time":1067000000000,"state":"active","ping":124},{"user_id":441,"name":"anonion","steam_id":76561198056477584,"connected_time":1127000000000,"state":"active","ping":89},{"user_id":442,"name":"TransSammie","steam_id":76561198046331930,"connected_time":1097000000000,"state":"active","ping":82},{"user_id":341,"name":"Footlong","steam_id":76561198080169497,"connected_time":6108000000000,"state":"active","ping":58},{"user_id":450,"name":"Tired","steam_id":76561198072620682,"connected_time":631000000000,"state":"active","ping":89},{"user_id":419,"name":"Axel Beoulve","steam_id":76561198126511231,"connected_time":2489000000000,"state":"active","ping":121}]},{"server_id":403,"name":"Uncletopia | Chicago | 4 | All Maps","name_short":"chi-4","host":"chi-1.us.uncletopia.com","port":27045,"enabled":true,"region":"us-central","cc":"us","latitude":41.881832,"longitude":-87.62318,"reserved":0,"last_update":"0001-01-01T00:00:00Z","name_a2s":"Uncletopia | Chicago | 4 | All Maps","protocol":17,"map":"cp_mountainlab","folder":"tf","game":"Team Fortress","app_id":440,"player_count":24,"max_players":24,"Bots":0,"server_type":"Dedicated","server_os":"Linux","password":true,"vac":true,"version":"7932396","steam_id":85568392924515193,"keywords":["cp","nocrits","nodmgspread","uncletopia"],"game_id":440,"stv_port":27046,"stv_name":"Uncletopia | Chicago | 4 | All Maps | STV","players":[{"user_id":578,"name":"Cosmos Rogue","steam_id":76561198378791617,"connected_time":951000000000,"state":"active","ping":47},{"user_id":566,"name":"DragonHaert","steam_id":76561198132516061,"connected_time":2365000000000,"state":"active","ping":56},{"user_id":561,"name":"tsbro40","steam_id":76561199455605580,"connected_time":3001000000000,"state":"active","ping":267},{"user_id":569,"name":"magickxanadu","steam_id":76561199117360103,"connected_time":2296000000000,"state":"active","ping":83},{"user_id":480,"name":"JPSS","steam_id":76561199239530493,"connected_time":7459000000000,"state":"active","ping":85},{"user_id":563,"name":"homewurk","steam_id":76561199080327081,"connected_time":2839000000000,"state":"active","ping":140},{"user_id":579,"name":"(TPT) Ghost","steam_id":76561198123262873,"connected_time":907000000000,"state":"active","ping":115},{"user_id":590,"name":"Soradesu","steam_id":76561198193631487,"connected_time":104000000000,"state":"active","ping":185},{"user_id":585,"name":"minecraft","steam_id":76561198104345201,"connected_time":589000000000,"state":"active","ping":73},{"user_id":568,"name":"Speedboat","steam_id":76561198094841559,"connected_time":2308000000000,"state":"active","ping":48},{"user_id":555,"name":"Heat My Justice","steam_id":76561197995252750,"connected_time":3116000000000,"state":"active","ping":96},{"user_id":570,"name":"Bad Medic Buddy","steam_id":76561198093222632,"connected_time":2287000000000,"state":"active","ping":76},{"user_id":587,"name":"rbstat","steam_id":76561198050169034,"connected_time":462000000000,"state":"active","ping":75},{"user_id":588,"name":"SaltyManok","steam_id":76561198160082948,"connected_time":395000000000,"state":"active","ping":49},{"user_id":580,"name":"Tesire","steam_id":76561198854728955,"connected_time":896000000000,"state":"active","ping":129},{"user_id":586,"name":"the indomitable human spirit","steam_id":76561198277163301,"connected_time":575000000000,"state":"active","ping":72},{"user_id":582,"name":"Outta Kenya","steam_id":76561198153604875,"connected_time":749000000000,"state":"active","ping":84},{"user_id":573,"name":"Tomoko2001","steam_id":76561198047117990,"connected_time":2265000000000,"state":"active","ping":92},{"user_id":576,"name":"God's Drunkest Driver","steam_id":76561198886606452,"connected_time":1515000000000,"state":"active","ping":81},{"user_id":589,"name":"Donnie Blasto","steam_id":76561198043432005,"connected_time":339000000000,"state":"active","ping":48},{"user_id":525,"name":"cakgamin","steam_id":76561199088909749,"connected_time":4110000000000,"state":"active","ping":65},{"user_id":554,"name":"Fella","steam_id":76561198373886887,"connected_time":3129000000000,"state":"active","ping":82}]},{"server_id":36,"name":"Uncletopia | Chicago | 5 | All Maps","name_short":"chi-5","host":"chi-2.us.uncletopia.com","port":27015,"enabled":true,"region":"us-central","cc":"us","latitude":41.881832,"longitude":-87.62318,"reserved":0,"last_update":"0001-01-01T00:00:00Z","name_a2s":"Uncletopia | Chicago | 5 | All Maps","protocol":17,"map":"cp_dustbowl","folder":"tf","game":"Team Fortress","app_id":440,"player_count":23,"max_players":24,"Bots":0,"server_type":"Dedicated","server_os":"Linux","password":true,"vac":true,"version":"7932396","steam_id":85568392924866362,"keywords":["cp","nocrits","nodmgspread","uncletopia"],"game_id":440,"stv_port":27016,"stv_name":"Uncletopia | Chicago | 5 | All Maps | STV","players":[{"user_id":334,"name":"Sammich","steam_id":76561198010543087,"connected_time":3525000000000,"state":"active","ping":74},{"user_id":359,"name":"HaveADay","steam_id":76561198001086219,"connected_time":1783000000000,"state":"active","ping":75},{"user_id":335,"name":"Daubee","steam_id":76561198004385130,"connected_time":3415000000000,"state":"active","ping":66},{"user_id":376,"name":"Temm32","steam_id":76561198440657154,"connected_time":130000000000,"state":"active","ping":73},{"user_id":373,"name":"Nobody","steam_id":76561198160544586,"connected_time":439000000000,"state":"active","ping":74},{"user_id":295,"name":"Heavy Main","steam_id":76561198333746778,"connected_time":5847000000000,"state":"active","ping":72},{"user_id":360,"name":"Swash","steam_id":76561197969421355,"connected_time":1532000000000,"state":"active","ping":68},{"user_id":370,"name":"MintyPawz","steam_id":76561198111430103,"connected_time":756000000000,"state":"active","ping":85},{"user_id":374,"name":"FrostStorm","steam_id":76561198142685151,"connected_time":328000000000,"state":"active","ping":60},{"user_id":341,"name":"lwyr","steam_id":76561198007982579,"connected_time":2569000000000,"state":"active","ping":59},{"user_id":312,"name":"Liebestr√§ume","steam_id":76561198038862034,"connected_time":5210000000000,"state":"active","ping":94},{"user_id":369,"name":"Lots0","steam_id":76561198043143145,"connected_time":912000000000,"state":"active","ping":86},{"user_id":289,"name":"The Noob Sire","steam_id":76561198119219754,"connected_time":6615000000000,"state":"active","ping":96},{"user_id":358,"name":"LivingRaccoon","steam_id":76561198035425632,"connected_time":1820000000000,"state":"active","ping":107},{"user_id":320,"name":"Angry Ginger","steam_id":76561198256929349,"connected_time":4653000000000,"state":"active","ping":47},{"user_id":307,"name":"dweamy","steam_id":76561198119181880,"connected_time":5514000000000,"state":"active","ping":71},{"user_id":344,"name":"Spooky Man Moose","steam_id":76561199027129554,"connected_time":2427000000000,"state":"active","ping":74},{"user_id":362,"name":"thecal","steam_id":76561198307893384,"connected_time":1428000000000,"state":"active","ping":58},{"user_id":363,"name":"A Fool","steam_id":76561198029853893,"connected_time":1353000000000,"state":"active","ping":63},{"user_id":368,"name":"A Cranky Cassowary","steam_id":76561198037372342,"connected_time":956000000000,"state":"active","ping":69},{"user_id":366,"name":"Ozwald","steam_id":76561198125241562,"connected_time":1178000000000,"state":"active","ping":57},{"user_id":375,"name":"Sketchy","steam_id":76561198271902070,"connected_time":243000000000,"state":"active","ping":89},{"user_id":354,"name":"Scoter1009","steam_id":76561198315464837,"connected_time":2235000000000,"state":"active","ping":78}]},{"server_id":37,"name":"Uncletopia | Chicago | 6 | All Maps","name_short":"chi-6","host":"chi-2.us.uncletopia.com","port":27025,"enabled":true,"region":"us-central","cc":"us","latitude":41.881832,"longitude":-87.62318,"reserved":0,"last_update":"0001-01-01T00:00:00Z","name_a2s":"Uncletopia | Chicago | 6 | All Maps","protocol":17,"map":"pl_pier","folder":"tf","game":"Team Fortress","app_id":440,"player_count":23,"max_players":24,"Bots":0,"server_type":"Dedicated","server_os":"Linux","password":true,"vac":true,"version":"7932396","steam_id":85568392924866363,"keywords":["nocrits","nodmgspread","payload","uncletopia"],"game_id":440,"stv_port":27026,"stv_name":"Uncletopia | Chicago | 6 | All Maps | STV","players":[{"user_id":316,"name":"CHIEF_JUSTICE_FUCKASS","steam_id":76561199261675844,"connected_time":130000000000,"state":"active","ping":116},{"user_id":317,"name":"UnJoogapop","steam_id":76561199082352422,"connected_time":121000000000,"state":"active","ping":175},{"user_id":268,"name":"helen keller","steam_id":76561197979870540,"connected_time":3698000000000,"state":"active","ping":46},{"user_id":269,"name":"CFGU || RAWRWAFL","steam_id":76561198032118386,"connected_time":3529000000000,"state":"active","ping":98},{"user_id":223,"name":"C Papi","steam_id":76561198027779564,"connected_time":7386000000000,"state":"active","ping":59},{"user_id":311,"name":"sansa musa","steam_id":76561198163723555,"connected_time":805000000000,"state":"active","ping":71},{"user_id":178,"name":"daemon","steam_id":76561198001541433,"connected_time":10321000000000,"state":"active","ping":47},{"user_id":312,"name":"AudaCD","steam_id":76561198202775853,"connected_time":805000000000,"state":"active","ping":54},{"user_id":318,"name":"Nighttimerecorder","steam_id":76561198005857340,"connected_time":80000000000,"state":"active","ping":104},{"user_id":285,"name":"ZeroTwoMedicGayming","steam_id":76561199470465243,"connected_time":2666000000000,"state":"active","ping":85},{"user_id":283,"name":"Krissy","steam_id":76561197960848174,"connected_time":2783000000000,"state":"active","ping":62},{"user_id":302,"name":"jarrettconsult","steam_id":76561198249998262,"connected_time":1596000000000,"state":"active","ping":80},{"user_id":319,"name":"Fat Kid In a Dragonball T-Shirt","steam_id":76561198182589975,"connected_time":72000000000,"state":"active","ping":86},{"user_id":273,"name":"creal","steam_id":76561198127116199,"connected_time":3421000000000,"state":"active","ping":60},{"user_id":290,"name":"Trotsky Gaming","steam_id":76561199101638460,"connected_time":2510000000000,"state":"active","ping":75},{"user_id":310,"name":"[NAME-REDACTED]","steam_id":76561198035682975,"connected_time":820000000000,"state":"active","ping":73},{"user_id":320,"name":"the whale (2022)","steam_id":76561198095313463,"connected_time":70000000000,"state":"active","ping":271},{"user_id":303,"name":"Deathknight719","steam_id":76561198867241911,"connected_time":1379000000000,"state":"active","ping":74},{"user_id":300,"name":"Boomerish","steam_id":76561198083946878,"connected_time":1695000000000,"state":"active","ping":77},{"user_id":262,"name":"!mute","steam_id":76561198219209367,"connected_time":4317000000000,"state":"active","ping":68},{"user_id":321,"name":"kat","steam_id":76561198099191938,"connected_time":29000000000,"state":"active","ping":51},{"user_id":304,"name":"Mayor Chill","steam_id":76561199024957600,"connected_time":1191000000000,"state":"active","ping":74},{"user_id":280,"name":"(Past Tense)","steam_id":76561197996279335,"connected_time":2862000000000,"state":"active","ping":47}]},{"server_id":38,"name":"Uncletopia | Chicago | 7 | Stopwatch Beta","name_short":"chi-7","host":"chi-2.us.uncletopia.com","port":27035,"enabled":true,"region":"us-central","cc":"us","latitude":41.881832,"longitude":-87.62318,"reserved":0,"last_update":"0001-01-01T00:00:00Z","name_a2s":"Uncletopia | Chicago | 7 | Stopwatch Beta","protocol":17,"map":"workshop/koth_ashville_final.ugc2130459942","folder":"tf","game":"Team Fortress","app_id":440,"player_count":24,"max_players":24,"Bots":0,"server_type":"Dedicated","server_os":"Linux","password":true,"vac":true,"version":"7932396","steam_id":85568392924866364,"keywords":["cp","nocrits","nodmgspread","uncletopia"],"game_id":440,"stv_port":27036,"stv_name":"Uncletopia | Chicago | 7 | Stopwatch Beta | STV","players":[{"user_id":100,"name":"Bones0010","steam_id":76561198096186958,"connected_time":8000000000,"state":"spawning","ping":125},{"user_id":54,"name":"Ayylmao","steam_id":76561198104780147,"connected_time":1985000000000,"state":"active","ping":48},{"user_id":93,"name":"xLeoparrd","steam_id":76561198940657194,"connected_time":204000000000,"state":"active","ping":78},{"user_id":28,"name":"firstlastmcgee","steam_id":76561198170187989,"connected_time":2972000000000,"state":"active","ping":64},{"user_id":94,"name":"Dr.Longmont","steam_id":76561198035566337,"connected_time":181000000000,"state":"active","ping":83},{"user_id":86,"name":"froggy","steam_id":76561198079405234,"connected_time":453000000000,"state":"active","ping":52},{"user_id":29,"name":"Nespreco","steam_id":76561198252035336,"connected_time":2876000000000,"state":"active","ping":112},{"user_id":80,"name":"Fever Dreams","steam_id":76561198116614620,"connected_time":695000000000,"state":"active","ping":81},{"user_id":95,"name":"Chaffy2125","steam_id":76561198232839260,"connected_time":162000000000,"state":"active","ping":135},{"user_id":32,"name":"Theus117 [ „ÉÅ„É´„Éé‚ë®]","steam_id":76561198108902928,"connected_time":2796000000000,"state":"active","ping":61},{"user_id":78,"name":"femboy on hrt","steam_id":76561198204075083,"connected_time":705000000000,"state":"active","ping":87},{"user_id":98,"name":"Brick","steam_id":76561198451278576,"connected_time":92000000000,"state":"active","ping":83},{"user_id":42,"name":"Digital Sock","steam_id":76561198308524176,"connected_time":2202000000000,"state":"active","ping":82},{"user_id":69,"name":"big slug","steam_id":76561198042154373,"connected_time":1354000000000,"state":"active","ping":74},{"user_id":70,"name":".mp3","steam_id":76561198070710025,"connected_time":1320000000000,"state":"active","ping":76},{"user_id":65,"name":"Freewave","steam_id":76561198156282541,"connected_time":1634000000000,"state":"active","ping":45},{"user_id":45,"name":"Op banana","steam_id":76561198303231451,"connected_time":2188000000000,"state":"active","ping":70},{"user_id":79,"name":"Saucy Boy","steam_id":76561198178332031,"connected_time":698000000000,"state":"active","ping":70},{"user_id":75,"name":"the meat man","steam_id":76561198037921140,"connected_time":738000000000,"state":"active","ping":91},{"user_id":76,"name":"hashmap","steam_id":76561198043794014,"connected_time":736000000000,"state":"active","ping":49},{"user_id":50,"name":"AlbinoRhino","steam_id":76561199192140783,"connected_time":2146000000000,"state":"active","ping":101},{"user_id":52,"name":"Cooldogjoe","steam_id":76561198105543698,"connected_time":2108000000000,"state":"active","ping":59},{"user_id":53,"name":"Pengi","steam_id":76561198333097000,"connected_time":2078000000000,"state":"active","ping":45},{"user_id":82,"name":"Arrythmia","steam_id":76561198093748123,"connected_time":612000000000,"state":"active","ping":87}]},{"server_id":39,"name":"Uncletopia | Chicago | 8 | Community","name_short":"chi-8","host":"chi-2.us.uncletopia.com","port":27045,"enabled":true,"region":"us-central","cc":"us","latitude":41.881832,"longitude":-87.62318,"reserved":0,"last_update":"0001-01-01T00:00:00Z","name_a2s":"Uncletopia | Chicago | 8 | Community","protocol":17,"map":"workshop/cp_bruhstbowl_b6.ugc2878604990","folder":"tf","game":"Team Fortress","app_id":440,"player_count":24,"max_players":24,"Bots":0,"server_type":"Dedicated","server_os":"Linux","password":true,"vac":true,"version":"7932396","steam_id":85568392924866365,"keywords":["cp","nocrits","nodmgspread","uncletopia"],"game_id":440,"stv_port":27046,"stv_name":"Uncletopia | Chicago | 8 | Community | STV","players":[{"user_id":517,"name":"High Caliber Triangle","steam_id":76561197999059241,"connected_time":4045000000000,"state":"active","ping":94},{"user_id":534,"name":"Spicy Within Reason","steam_id":76561198066700370,"connected_time":1703000000000,"state":"active","ping":86},{"user_id":559,"name":"Starvation Gaming","steam_id":76561198880991847,"connected_time":288000000000,"state":"active","ping":65},{"user_id":519,"name":"tomboys \u003e femboys","steam_id":76561198983069721,"connected_time":3804000000000,"state":"active","ping":64},{"user_id":556,"name":"morsetime","steam_id":76561199116362348,"connected_time":352000000000,"state":"active","ping":84},{"user_id":515,"name":"if looks could krill","steam_id":76561198424248616,"connected_time":4173000000000,"state":"active","ping":142},{"user_id":538,"name":"BlackheartKyurem","steam_id":76561198088842813,"connected_time":1357000000000,"state":"active","ping":82},{"user_id":562,"name":"rept","steam_id":76561198022100969,"connected_time":177000000000,"state":"active","ping":48},{"user_id":539,"name":"Snoozey","steam_id":76561198017120466,"connected_time":1351000000000,"state":"active","ping":84},{"user_id":491,"name":"Microreo","steam_id":76561198006966554,"connected_time":5623000000000,"state":"active","ping":75},{"user_id":563,"name":"The premium licking experience","steam_id":76561199213456232,"connected_time":147000000000,"state":"active","ping":105},{"user_id":553,"name":"Tom Cr√∫aich","steam_id":76561197999439911,"connected_time":473000000000,"state":"active","ping":75},{"user_id":560,"name":"peebs","steam_id":76561198261319753,"connected_time":227000000000,"state":"active","ping":75},{"user_id":550,"name":"Dude","steam_id":76561199058616824,"connected_time":597000000000,"state":"active","ping":103},{"user_id":557,"name":"schnedwob","steam_id":76561197999146588,"connected_time":334000000000,"state":"active","ping":76},{"user_id":561,"name":"TheCakeCat","steam_id":76561198444380294,"connected_time":222000000000,"state":"active","ping":114},{"user_id":558,"name":"cereaI","steam_id":76561198066929519,"connected_time":331000000000,"state":"active","ping":77},{"user_id":567,"name":"Soy","steam_id":76561198015120487,"connected_time":28000000000,"state":"spawning","ping":144},{"user_id":536,"name":"Predicta","steam_id":76561198017630616,"connected_time":1599000000000,"state":"active","ping":63},{"user_id":459,"name":"King","steam_id":76561198039763676,"connected_time":7189000000000,"state":"active","ping":126},{"user_id":535,"name":"Patrick Bateman","steam_id":76561198967020759,"connected_time":1619000000000,"state":"active","ping":84},{"user_id":511,"name":"Gram Tokers Count Doinkula","steam_id":76561198112811565,"connected_time":4628000000000,"state":"active","ping":75},{"user_id":564,"name":"Side egg? Unnecessary.","steam_id":76561198091172158,"connected_time":104000000000,"state":"active","ping":45},{"user_id":552,"name":"Eomy","steam_id":76561198297783627,"connected_time":515000000000,"state":"active","ping":71}]},{"server_id":8,"name":"Uncletopia | Dallas | 1 | All Maps","name_short":"dal-1","host":"dal-1.us.uncletopia.com","port":27015,"enabled":true,"region":"us-central","cc":"us","latitude":32.779167,"longitude":-96.80889,"reserved":0,"last_update":"0001-01-01T00:00:00Z","name_a2s":"Uncletopia | Dallas | 1 | All Maps","protocol":17,"map":"pl_badwater","folder":"tf","game":"Team Fortress","app_id":440,"player_count":24,"max_players":24,"Bots":0,"server_type":"Dedicated","server_os":"Linux","password":true,"vac":true,"version":"7932396","steam_id":85568392924469986,"keywords":["nocrits","nodmgspread","payload","uncletopia"],"game_id":440,"stv_port":27016,"stv_name":"Uncletopia | Dallas | 1 | All Maps | STV","players":[{"user_id":510,"name":"leesh","steam_id":76561198079603938,"connected_time":1791000000000,"state":"active","ping":61},{"user_id":547,"name":"basilberry","steam_id":76561198145275937,"connected_time":31000000000,"state":"active","ping":67},{"user_id":513,"name":"A Straw","steam_id":76561199367935846,"connected_time":1766000000000,"state":"active","ping":71},{"user_id":537,"name":"spiderguy","steam_id":76561198412074955,"connected_time":878000000000,"state":"active","ping":69},{"user_id":525,"name":"J√∏sef  |  J√∏ello","steam_id":76561198042658092,"connected_time":1184000000000,"state":"active","ping":76},{"user_id":508,"name":"errant","steam_id":76561197961758410,"connected_time":1808000000000,"state":"active","ping":45},{"user_id":527,"name":"Choppah","steam_id":76561198269193530,"connected_time":1046000000000,"state":"active","ping":57},{"user_id":546,"name":"Ground Control to Majortom","steam_id":76561198065589126,"connected_time":74000000000,"state":"active","ping":83},{"user_id":447,"name":"cc","steam_id":76561199215821942,"connected_time":6849000000000,"state":"active","ping":47},{"user_id":451,"name":"DLATON","steam_id":76561198236650672,"connected_time":6754000000000,"state":"active","ping":44},{"user_id":536,"name":"Tf2isafungame","steam_id":76561199070031623,"connected_time":912000000000,"state":"active","ping":87},{"user_id":538,"name":"zuzu","steam_id":76561197969622110,"connected_time":869000000000,"state":"active","ping":118},{"user_id":493,"name":"Elias","steam_id":76561198106431732,"connected_time":3248000000000,"state":"active","ping":74},{"user_id":530,"name":"SlawBunny","steam_id":76561198094913841,"connected_time":1020000000000,"state":"active","ping":76},{"user_id":518,"name":"goblin tf2","steam_id":76561198033073709,"connected_time":1738000000000,"state":"active","ping":93},{"user_id":531,"name":"chicken wit dah eggrow","steam_id":76561198115458307,"connected_time":1020000000000,"state":"active","ping":77},{"user_id":506,"name":"Rookie","steam_id":76561198074607715,"connected_time":1824000000000,"state":"active","ping":88},{"user_id":500,"name":"Palamedes Sextus","steam_id":76561198096306325,"connected_time":2574000000000,"state":"active","ping":93},{"user_id":544,"name":"Rob","steam_id":76561199187786660,"connected_time":196000000000,"state":"active","ping":55},{"user_id":540,"name":"Dark Lord","steam_id":76561198044199150,"connected_time":804000000000,"state":"active","ping":149},{"user_id":458,"name":"Homosexual Warmachine","steam_id":76561198040425096,"connected_time":6006000000000,"state":"active","ping":69},{"user_id":542,"name":"Apollo","steam_id":76561198162364702,"connected_time":402000000000,"state":"active","ping":101},{"user_id":498,"name":"bumperbarrygaming","steam_id":76561199204076827,"connected_time":3082000000000,"state":"active","ping":80},{"user_id":523,"name":"CORONA‚Ñ¢ and friends","steam_id":76561198342011115,"connected_time":1386000000000,"state":"active","ping":64}]},{"server_id":108,"name":"Uncletopia | Dallas | 2 | All Maps","name_short":"dal-2","host":"dal-1.us.uncletopia.com","port":27025,"enabled":true,"region":"us-central","cc":"us","latitude":32.779167,"longitude":-96.80889,"reserved":0,"last_update":"0001-01-01T00:00:00Z","name_a2s":"Uncletopia | Dallas | 2 | All Maps","protocol":17,"map":"cp_sunshine","folder":"tf","game":"Team Fortress","app_id":440,"player_count":24,"max_players":24,"Bots":0,"server_type":"Dedicated","server_os":"Linux","password":true,"vac":true,"version":"7932396","steam_id":85568392924469988,"keywords":["cp","nocrits","nodmgspread","uncletopia"],"game_id":440,"stv_port":27026,"stv_name":"Uncletopia | Dallas | 2 | All Maps | STV","players":[{"user_id":309,"name":"trash beast","steam_id":76561198015792736,"connected_time":4547000000000,"state":"active","ping":87},{"user_id":332,"name":"Viren","steam_id":76561198012636897,"connected_time":2815000000000,"state":"active","ping":45},{"user_id":356,"name":"Q","steam_id":76561199019647814,"connected_time":1404000000000,"state":"active","ping":55},{"user_id":375,"name":"Zee","steam_id":76561198003077515,"connected_time":71000000000,"state":"active","ping":104},{"user_id":370,"name":"¬øskitt1eS?","steam_id":76561198330093211,"connected_time":615000000000,"state":"active","ping":62},{"user_id":335,"name":"Poop Deck Joe","steam_id":76561198271397568,"connected_time":2785000000000,"state":"active","ping":64},{"user_id":369,"name":"RaixaR","steam_id":76561198025289430,"connected_time":648000000000,"state":"active","ping":51},{"user_id":371,"name":"Drilly22","steam_id":76561198068838338,"connected_time":511000000000,"state":"active","ping":63},{"user_id":333,"name":"2JZ_","steam_id":76561198064027289,"connected_time":2802000000000,"state":"active","ping":77},{"user_id":359,"name":"Earl S","steam_id":76561198064273772,"connected_time":958000000000,"state":"active","ping":79},{"user_id":366,"name":"Velvety","steam_id":76561198081922813,"connected_time":777000000000,"state":"active","ping":81},{"user_id":342,"name":"Pok√©","steam_id":76561198100167641,"connected_time":2529000000000,"state":"active","ping":72},{"user_id":346,"name":"üê∫-Iwky-ü¶ä","steam_id":76561198185616311,"connected_time":2329000000000,"state":"active","ping":76},{"user_id":372,"name":"PileofPolygons","steam_id":76561199321343460,"connected_time":491000000000,"state":"active","ping":71},{"user_id":364,"name":"Rose","steam_id":76561198955581861,"connected_time":837000000000,"state":"active","ping":78},{"user_id":355,"name":"Holly she/her","steam_id":76561198982631429,"connected_time":1515000000000,"state":"active","ping":65},{"user_id":367,"name":"Sushi McBeef","steam_id":76561198039227477,"connected_time":745000000000,"state":"active","ping":83},{"user_id":365,"name":"29palms","steam_id":76561198095104925,"connected_time":825000000000,"state":"active","ping":105},{"user_id":374,"name":"Faraday","steam_id":76561198089928357,"connected_time":376000000000,"state":"active","ping":53},{"user_id":325,"name":"That wasn't milk","steam_id":76561198155294045,"connected_time":3446000000000,"state":"active","ping":108},{"user_id":317,"name":"Nintendodo","steam_id":76561198012336042,"connected_time":4113000000000,"state":"active","ping":84},{"user_id":339,"name":"Giga","steam_id":76561199217543649,"connected_time":2723000000000,"state":"active","ping":70},{"user_id":350,"name":"rawgust","steam_id":76561198004523887,"connected_time":2107000000000,"state":"active","ping":127},{"user_id":320,"name":"hotel mario 2","steam_id":76561198143878039,"connected_time":4006000000000,"state":"active","ping":98}]},{"server_id":5,"name":"Uncletopia | Frankfurt | 1 | All Maps","name_short":"frk-1","host":"frk-1.de.uncletopia.com","port":27015,"enabled":true,"region":"eu","cc":"de","latitude":50.110924,"longitude":8.682127,"reserved":0,"last_update":"0001-01-01T00:00:00Z","name_a2s":"Uncletopia | Frankfurt | 1 | All Maps","protocol":17,"map":"cp_sunshine","folder":"tf","game":"Team Fortress","app_id":440,"player_count":24,"max_players":24,"Bots":0,"server_type":"Dedicated","server_os":"Linux","password":true,"vac":true,"version":"7932396","steam_id":85568392924469989,"keywords":["cp","nocrits","nodmgspread","uncletopia"],"game_id":440,"stv_port":27016,"stv_name":"Uncletopia | Frankfurt | 1 | All Maps | STV","players":[{"user_id":932,"name":"xulera","steam_id":76561198080736030,"connected_time":35000000000,"state":"active","ping":75},{"user_id":864,"name":"onuralp_tf2","steam_id":76561198133321967,"connected_time":4541000000000,"state":"active","ping":104},{"user_id":918,"name":"-Kost1xx","steam_id":76561198160062258,"connected_time":1252000000000,"state":"active","ping":90},{"user_id":900,"name":"going bananas","steam_id":76561199480942903,"connected_time":2842000000000,"state":"active","ping":60},{"user_id":881,"name":"fecal incident","steam_id":76561198086770023,"connected_time":3800000000000,"state":"active","ping":60},{"user_id":921,"name":"cervantes","steam_id":76561198099245500,"connected_time":1091000000000,"state":"active","ping":71},{"user_id":911,"name":"Lorelei","steam_id":76561198056341754,"connected_time":1485000000000,"state":"active","ping":52},{"user_id":913,"name":"some girl","steam_id":76561198890391967,"connected_time":1400000000000,"state":"active","ping":127},{"user_id":914,"name":"big naked bruh","steam_id":76561199179040672,"connected_time":1383000000000,"state":"active","ping":73},{"user_id":915,"name":"DavidGilbertLover268","steam_id":76561198324775476,"connected_time":1352000000000,"state":"active","ping":68},{"user_id":916,"name":"aight","steam_id":76561198174474613,"connected_time":1343000000000,"state":"active","ping":57},{"user_id":931,"name":"Dim","steam_id":76561198141549249,"connected_time":139000000000,"state":"spawning","ping":140},{"user_id":923,"name":"filthy ‚òÜ","steam_id":76561198089069719,"connected_time":818000000000,"state":"active","ping":75},{"user_id":909,"name":"kag","steam_id":76561198059813166,"connected_time":1694000000000,"state":"active","ping":54},{"user_id":924,"name":"selzic ‚òÖ","steam_id":76561198068100717,"connected_time":780000000000,"state":"active","ping":47},{"user_id":832,"name":"Lennox","steam_id":76561198069063554,"connected_time":7351000000000,"state":"active","ping":46},{"user_id":839,"name":"Bobirulez","steam_id":76561198009125458,"connected_time":6488000000000,"state":"active","ping":79},{"user_id":858,"name":"nobodyy","steam_id":76561198027735766,"connected_time":5351000000000,"state":"active","ping":75},{"user_id":927,"name":"roLab","steam_id":76561198002416756,"connected_time":587000000000,"state":"active","ping":77},{"user_id":928,"name":"Kosmonaukt","steam_id":76561198168108777,"connected_time":573000000000,"state":"active","ping":68},{"user_id":890,"name":"Scacery","steam_id":76561198382668057,"connected_time":3218000000000,"state":"active","ping":70},{"user_id":930,"name":"Cosmetic brain","steam_id":76561198055936410,"connected_time":279000000000,"state":"active","ping":89},{"user_id":887,"name":"Borat","steam_id":76561198122226417,"connected_time":3315000000000,"state":"active","ping":60},{"user_id":874,"name":"Zedifo","steam_id":76561198044032070,"connected_time":4263000000000,"state":"active","ping":57}]},{"server_id":110,"name":"Uncletopia | Frankfurt | 2 | All Maps","name_short":"frk-2","host":"frk-1.de.uncletopia.com","port":27025,"enabled":true,"region":"eu","cc":"de","latitude":50.110924,"longitude":8.682127,"reserved":0,"last_update":"0001-01-01T00:00:00Z","name_a2s":"Uncletopia | Frankfurt | 2 | All Maps","protocol":17,"map":"pl_snowycoast","folder":"tf","game":"Team Fortress","app_id":440,"player_count":0,"max_players":24,"Bots":0,"server_type":"Dedicated","server_os":"Linux","password":true,"vac":true,"version":"7932396","steam_id":85568392924469990,"keywords":["nocrits","nodmgspread","payload","uncletopia"],"game_id":440,"stv_port":27026,"stv_name":"Uncletopia | Frankfurt | 2 | All Maps | STV","players":null},{"server_id":308,"name":"Uncletopia | Frankfurt | 3 | All Maps","name_short":"frk-3","host":"frk-1.de.uncletopia.com","port":27035,"enabled":true,"region":"eu","cc":"de","latitude":50.110924,"longitude":8.682127,"reserved":0,"last_update":"0001-01-01T00:00:00Z","name_a2s":"Uncletopia | Frankfurt | 3 | All Maps","protocol":17,"map":"pl_frontier_final","folder":"tf","game":"Team Fortress","app_id":440,"player_count":0,"max_players":24,"Bots":0,"server_type":"Dedicated","server_os":"Linux","password":true,"vac":true,"version":"7932396","steam_id":85568392924504274,"keywords":["nocrits","nodmgspread","payload","uncletopia"],"game_id":440,"stv_port":27036,"stv_name":"Uncletopia | Frankfurt | 3 | All Maps | STV","players":null},{"server_id":309,"name":"Uncletopia | Frankfurt | 4 | All Maps","name_short":"frk-4","host":"frk-1.de.uncletopia.com","port":27045,"enabled":true,"region":"eu","cc":"de","latitude":50.110924,"longitude":8.682127,"reserved":0,"last_update":"0001-01-01T00:00:00Z","name_a2s":"Uncletopia | Frankfurt | 4 | All Maps","protocol":17,"map":"pl_borneo","folder":"tf","game":"Team Fortress","app_id":440,"player_count":0,"max_players":24,"Bots":0,"server_type":"Dedicated","server_os":"Linux","password":true,"vac":true,"version":"7932396","steam_id":85568392924504275,"keywords":["nocrits","nodmgspread","payload","uncletopia"],"game_id":440,"stv_port":27046,"stv_name":"Uncletopia | Frankfurt | 4 | All Maps | STV","players":null},{"server_id":310,"name":"Uncletopia | Frankfurt | 5 | All Maps","name_short":"frk-5","host":"frk-1.de.uncletopia.com","port":27055,"enabled":true,"region":"eu","cc":"de","latitude":50.110924,"longitude":8.682127,"reserved":0,"last_update":"0001-01-01T00:00:00Z","name_a2s":"Uncletopia | Frankfurt | 5 | All Maps","protocol":17,"map":"koth_viaduct","folder":"tf","game":"Team Fortress","app_id":440,"player_count":0,"max_players":24,"Bots":0,"server_type":"Dedicated","server_os":"Linux","password":true,"vac":true,"version":"7932396","steam_id":85568392924504277,"keywords":["cp","nocrits","nodmgspread","uncletopia"],"game_id":440,"stv_port":27056,"stv_name":"Uncletopia | Frankfurt | 5 | All Maps | STV","players":null},{"server_id":311,"name":"Uncletopia | Frankfurt | 6 | All Maps","name_short":"frk-6","host":"frk-1.de.uncletopia.com","port":27065,"enabled":true,"region":"eu","cc":"de","latitude":50.110924,"longitude":8.682127,"reserved":0,"last_update":"0001-01-01T00:00:00Z","name_a2s":"Uncletopia | Frankfurt | 6 | All Maps","protocol":17,"map":"koth_lakeside_final","folder":"tf","game":"Team Fortress","app_id":440,"player_count":0,"max_players":24,"Bots":0,"server_type":"Dedicated","server_os":"Linux","password":true,"vac":true,"version":"7932396","steam_id":85568392924504278,"keywords":["cp","nocrits","nodmgspread","uncletopia"],"game_id":440,"stv_port":27066,"stv_name":"Uncletopia | Frankfurt | 6 | All Maps | STV","players":null},{"server_id":23,"name":"Uncletopia | Frankfurt | 7 | Stopwatch Beta","name_short":"frk-7","host":"frk-1.de.uncletopia.com","port":27075,"enabled":true,"region":"eu","cc":"de","latitude":50.110924,"longitude":8.682127,"reserved":0,"last_update":"0001-01-01T00:00:00Z","name_a2s":"Uncletopia | Frankfurt | 7 | Stopwatch Beta","protocol":17,"map":"pl_snowycoast","folder":"tf","game":"Team Fortress","app_id":440,"player_count":0,"max_players":24,"Bots":0,"server_type":"Dedicated","server_os":"Linux","password":true,"vac":true,"version":"7932396","steam_id":85568392924742827,"keywords":["nocrits","nodmgspread","payload","uncletopia"],"game_id":440,"stv_port":27076,"stv_name":"Uncletopia | Frankfurt | 7 | Stopwatch Beta | STV","players":null},{"server_id":24,"name":"Uncletopia | Frankfurt | 8 | Community","name_short":"frk-8","host":"frk-1.de.uncletopia.com","port":27085,"enabled":true,"region":"eu","cc":"de","latitude":50.110924,"longitude":8.682127,"reserved":0,"last_update":"0001-01-01T00:00:00Z","name_a2s":"Uncletopia | Frankfurt | 8 | Community","protocol":17,"map":"workshop/koth_ramjam_rc1.ugc459778887","folder":"tf","game":"Team Fortress","app_id":440,"player_count":0,"max_players":24,"Bots":0,"server_type":"Dedicated","server_os":"Linux","password":true,"vac":true,"version":"7932396","steam_id":85568392924742828,"keywords":["cp","nocrits","nodmgspread","uncletopia"],"game_id":440,"stv_port":27086,"stv_name":"Uncletopia | Frankfurt | 8 | Community | STV","players":null},{"server_id":202,"name":"Uncletopia | Hong Kong | 1 | All Maps","name_short":"hgk-1","host":"hgk-1.hk.uncletopia.com","port":27015,"enabled":true,"region":"asia","cc":"hk","latitude":22.302711,"longitude":114.177216,"reserved":0,"last_update":"0001-01-01T00:00:00Z","name_a2s":"Uncletopia | Hong Kong | 1 | All Maps","protocol":17,"map":"cp_altitude","folder":"tf","game":"Team Fortress","app_id":440,"player_count":0,"max_players":24,"Bots":0,"server_type":"Dedicated","server_os":"Linux","password":true,"vac":true,"version":"7932396","steam_id":85568392924494504,"keywords":["cp","nocrits","nodmgspread","uncletopia"],"game_id":440,"stv_port":27016,"stv_name":"Uncletopia | Hong Kong | 1 | All Maps | STV","players":null},{"server_id":1,"name":"Uncletopia | Los Angeles | 1 | All Maps","name_short":"lax-1","host":"lax-1.us.uncletopia.com","port":27015,"enabled":true,"region":"us-west","cc":"us","latitude":33.94279,"longitude":-118.41004,"reserved":0,"last_update":"0001-01-01T00:00:00Z","name_a2s":"Uncletopia | Los Angeles | 1 | All Maps","protocol":17,"map":"koth_cascade","folder":"tf","game":"Team Fortress","app_id":440,"player_count":0,"max_players":24,"Bots":0,"server_type":"Dedicated","server_os":"Linux","password":true,"vac":true,"version":"7932396","steam_id":85568392924469991,"keywords":["cp","nocrits","nodmgspread","uncletopia"],"game_id":440,"stv_port":27016,"stv_name":"Uncletopia | Los Angeles | 1 | All Maps | STV","players":null},{"server_id":112,"name":"Uncletopia | Los Angeles | 2 | All Maps","name_short":"lax-2","host":"lax-1.us.uncletopia.com","port":27025,"enabled":true,"region":"us-west","cc":"us","latitude":33.94279,"longitude":-118.41004,"reserved":0,"last_update":"0001-01-01T00:00:00Z","name_a2s":"Uncletopia | Los Angeles | 2 | All Maps","protocol":17,"map":"koth_viaduct","folder":"tf","game":"Team Fortress","app_id":440,"player_count":24,"max_players":24,"Bots":0,"server_type":"Dedicated","server_os":"Linux","password":true,"vac":true,"version":"7932396","steam_id":85568392924469992,"keywords":["cp","nocrits","nodmgspread","uncletopia"],"game_id":440,"stv_port":27026,"stv_name":"Uncletopia | Los Angeles | 2 | All Maps | STV","players":[{"user_id":393,"name":"Paradon","steam_id":76561198242214772,"connected_time":256000000000,"state":"active","ping":56},{"user_id":346,"name":"Rectangle","steam_id":76561198429572676,"connected_time":3019000000000,"state":"active","ping":115},{"user_id":361,"name":"naturia","steam_id":76561198092317849,"connected_time":2276000000000,"state":"active","ping":45},{"user_id":389,"name":"..flop","steam_id":76561197989058876,"connected_time":484000000000,"state":"active","ping":213},{"user_id":370,"name":"adam0o0","steam_id":76561198052250279,"connected_time":2047000000000,"state":"active","ping":100},{"user_id":398,"name":"Grilled Jizo","steam_id":76561199250875340,"connected_time":94000000000,"state":"active","ping":92},{"user_id":316,"name":"Eblizard","steam_id":76561198111481965,"connected_time":5939000000000,"state":"active","ping":134},{"user_id":390,"name":"-_-","steam_id":76561198048754646,"connected_time":293000000000,"state":"active","ping":44},{"user_id":394,"name":"primordialheath","steam_id":76561199386942638,"connected_time":242000000000,"state":"active","ping":113},{"user_id":399,"name":"Hatfam","steam_id":76561199192629036,"connected_time":8000000000,"state":"spawning","ping":54},{"user_id":363,"name":"sams","steam_id":76561199093161260,"connected_time":2260000000000,"state":"active","ping":67},{"user_id":362,"name":"Shinnooooo","steam_id":76561198152128596,"connected_time":2266000000000,"state":"active","ping":54},{"user_id":358,"name":"srf_1124","steam_id":76561198434714748,"connected_time":2466000000000,"state":"active","ping":59},{"user_id":397,"name":"sora","steam_id":76561198094256973,"connected_time":177000000000,"state":"active","ping":55},{"user_id":392,"name":"OHGODBEES!","steam_id":76561198000653374,"connected_time":280000000000,"state":"active","ping":83},{"user_id":334,"name":"Unk","steam_id":76561198031717617,"connected_time":5220000000000,"state":"active","ping":102},{"user_id":395,"name":"Mint Widget","steam_id":76561198036875245,"connected_time":230000000000,"state":"active","ping":92},{"user_id":347,"name":"Invis","steam_id":76561198054546884,"connected_time":2746000000000,"state":"active","ping":106},{"user_id":340,"name":"Sobertoday","steam_id":76561198010606163,"connected_time":4569000000000,"state":"active","ping":131},{"user_id":396,"name":"Big Birb","steam_id":76561198101770271,"connected_time":218000000000,"state":"active","ping":90},{"user_id":384,"name":"OG Mando","steam_id":76561198799439774,"connected_time":1135000000000,"state":"active","ping":48},{"user_id":382,"name":"boosh","steam_id":76561198034218020,"connected_time":1264000000000,"state":"active","ping":65},{"user_id":383,"name":"hakken","steam_id":76561199102391736,"connected_time":1164000000000,"state":"active","ping":47},{"user_id":388,"name":"I'mFromSpace","steam_id":76561198808969653,"connected_time":717000000000,"state":"active","ping":97}]},{"server_id":324,"name":"Uncletopia | Los Angeles | 3 | All Maps","name_short":"lax-3","host":"lax-1.us.uncletopia.com","port":27035,"enabled":true,"region":"us-west","cc":"us","latitude":33.94279,"longitude":-118.41004,"reserved":0,"last_update":"0001-01-01T00:00:00Z","name_a2s":"Uncletopia | Los Angeles | 3 | All Maps","protocol":17,"map":"pl_badwater","folder":"tf","game":"Team Fortress","app_id":440,"player_count":24,"max_players":24,"Bots":0,"server_type":"Dedicated","server_os":"Linux","password":true,"vac":true,"version":"7932396","steam_id":85568392924510198,"keywords":["nocrits","nodmgspread","payload","uncletopia"],"game_id":440,"stv_port":27036,"stv_name":"Uncletopia | Los Angeles | 3 | All Maps | STV","players":[{"user_id":662,"name":"‚ù§ Ashley ‚ù§","steam_id":76561198056428303,"connected_time":58000000000,"state":"active","ping":48},{"user_id":648,"name":"||BassMan||","steam_id":76561198279865229,"connected_time":1104000000000,"state":"active","ping":88},{"user_id":661,"name":"Nani","steam_id":76561198010230727,"connected_time":206000000000,"state":"active","ping":51},{"user_id":531,"name":"GhettoSmash","steam_id":76561198168864083,"connected_time":10574000000000,"state":"active","ping":75},{"user_id":638,"name":"HeathGeath","steam_id":76561198127484580,"connected_time":2249000000000,"state":"active","ping":46},{"user_id":576,"name":"meme","steam_id":76561199170771700,"connected_time":7427000000000,"state":"active","ping":54},{"user_id":590,"name":"Hindmost","steam_id":76561199081837220,"connected_time":6238000000000,"state":"active","ping":96},{"user_id":657,"name":"‚úß‚í∏‚ìò‚ìí‚ìò‚úß","steam_id":76561198090077268,"connected_time":291000000000,"state":"active","ping":81},{"user_id":631,"name":"Ockulus","steam_id":76561199069638460,"connected_time":3270000000000,"state":"active","ping":58},{"user_id":647,"name":"RainboomCrash","steam_id":76561198065612273,"connected_time":1514000000000,"state":"active","ping":66},{"user_id":652,"name":"Tosh","steam_id":76561198026948976,"connected_time":959000000000,"state":"active","ping":72},{"user_id":607,"name":"Evenaris","steam_id":76561198087544319,"connected_time":5167000000000,"state":"active","ping":48},{"user_id":642,"name":"‚ô• mastercoms ‚ô•","steam_id":76561198046110893,"connected_time":2100000000000,"state":"active","ping":89},{"user_id":634,"name":"Taffy","steam_id":76561198276612538,"connected_time":3075000000000,"state":"active","ping":58},{"user_id":658,"name":"WastefulTrash","steam_id":76561198119003597,"connected_time":287000000000,"state":"active","ping":81},{"user_id":655,"name":"menta fresca","steam_id":76561198086666486,"connected_time":351000000000,"state":"active","ping":59},{"user_id":639,"name":"m00n","steam_id":76561198344312142,"connected_time":2249000000000,"state":"active","ping":56},{"user_id":653,"name":"Ralph Kramden (Slim Charles)","steam_id":76561197981687895,"connected_time":820000000000,"state":"active","ping":57},{"user_id":645,"name":"WheelieChopper","steam_id":76561198070980426,"connected_time":1996000000000,"state":"active","ping":115},{"user_id":654,"name":"Killing_Moon","steam_id":76561198028185566,"connected_time":425000000000,"state":"active","ping":55},{"user_id":650,"name":"Robert_Cheeto","steam_id":76561198103638020,"connected_time":1070000000000,"state":"active","ping":58},{"user_id":651,"name":"Tom","steam_id":76561198139202942,"connected_time":1067000000000,"state":"active","ping":122},{"user_id":659,"name":"albert jones","steam_id":76561198404271005,"connected_time":282000000000,"state":"active","ping":54},{"user_id":660,"name":"Bob's your Uncle","steam_id":76561197995230744,"connected_time":278000000000,"state":"active","ping":119}]},{"server_id":25,"name":"Uncletopia | Los Angeles | 4 | Stopwatch Beta","name_short":"lax-4","host":"lax-1.us.uncletopia.com","port":27045,"enabled":true,"region":"us-west","cc":"us","latitude":33.94279,"longitude":-118.41004,"reserved":0,"last_update":"0001-01-01T00:00:00Z","name_a2s":"Uncletopia | Los Angeles | 4 | Stopwatch Beta","protocol":17,"map":"cp_granary","folder":"tf","game":"Team Fortress","app_id":440,"player_count":0,"max_players":24,"Bots":0,"server_type":"Dedicated","server_os":"Linux","password":true,"vac":true,"version":"7932396","steam_id":85568392924510199,"keywords":["cp","nocrits","nodmgspread","uncletopia"],"game_id":440,"stv_port":27046,"stv_name":"Uncletopia | Los Angeles | 4 | Stopwatch Beta | STV","players":null},{"server_id":11,"name":"Uncletopia | London | 1 | All Maps","name_short":"lon-1","host":"lon-1.uk.uncletopia.com","port":27015,"enabled":true,"region":"eu","cc":"gb","latitude":51.509865,"longitude":-0.118092,"reserved":0,"last_update":"0001-01-01T00:00:00Z","name_a2s":"Uncletopia | London | 1 | All Maps","protocol":17,"map":"koth_lakeside_final","folder":"tf","game":"Team Fortress","app_id":440,"player_count":0,"max_players":24,"Bots":0,"server_type":"Dedicated","server_os":"Linux","password":true,"vac":true,"version":"7932396","steam_id":85568392924367362,"keywords":["cp","nocrits","nodmgspread","uncletopia"],"game_id":440,"stv_port":27016,"stv_name":"Uncletopia | London | 1 | All Maps | STV","players":null},{"server_id":114,"name":"Uncletopia | London | 2 | All Maps","name_short":"lon-2","host":"lon-1.uk.uncletopia.com","port":27025,"enabled":true,"region":"eu","cc":"gb","latitude":51.509865,"longitude":-0.118092,"reserved":0,"last_update":"0001-01-01T00:00:00Z","name_a2s":"Uncletopia | London | 2 | All Maps","protocol":17,"map":"koth_highpass","folder":"tf","game":"Team Fortress","app_id":440,"player_count":0,"max_players":24,"Bots":0,"server_type":"Dedicated","server_os":"Linux","password":true,"vac":true,"version":"7932396","steam_id":85568392924470941,"keywords":["cp","nocrits","nodmgspread","uncletopia"],"game_id":440,"stv_port":27026,"stv_name":"Uncletopia | London | 2 | All Maps | STV","players":null},{"server_id":320,"name":"Uncletopia | London | 3 | All Maps","name_short":"lon-3","host":"lon-1.uk.uncletopia.com","port":27035,"enabled":true,"region":"eu","cc":"gb","latitude":51.509865,"longitude":-0.118092,"reserved":0,"last_update":"0001-01-01T00:00:00Z","name_a2s":"Uncletopia | London | 3 | All Maps","protocol":17,"map":"koth_highpass","folder":"tf","game":"Team Fortress","app_id":440,"player_count":0,"max_players":24,"Bots":0,"server_type":"Dedicated","server_os":"Linux","password":true,"vac":true,"version":"7932396","steam_id":85568392924510192,"keywords":["cp","nocrits","nodmgspread","uncletopia"],"game_id":440,"stv_port":27036,"stv_name":"Uncletopia | London | 3 | All Maps | STV","players":null},{"server_id":321,"name":"Uncletopia | London | 4 | All Maps","name_short":"lon-4","host":"lon-1.uk.uncletopia.com","port":27045,"enabled":true,"region":"eu","cc":"gb","latitude":51.509865,"longitude":-0.118092,"reserved":0,"last_update":"0001-01-01T00:00:00Z","name_a2s":"Uncletopia | London | 4 | All Maps","protocol":17,"map":"koth_harvest_final","folder":"tf","game":"Team Fortress","app_id":440,"player_count":4,"max_players":24,"Bots":0,"server_type":"Dedicated","server_os":"Linux","password":true,"vac":true,"version":"7932396","steam_id":85568392924510193,"keywords":["cp","nocrits","nodmgspread","uncletopia"],"game_id":440,"stv_port":27046,"stv_name":"Uncletopia | London | 4 | All Maps | STV","players":[{"user_id":513,"name":"Amongchaos","steam_id":76561199243261346,"connected_time":962000000000,"state":"active","ping":204},{"user_id":495,"name":"A_GingerIdiot","steam_id":76561198313306026,"connected_time":5829000000000,"state":"active","ping":53},{"user_id":511,"name":"yuno appreciator","steam_id":76561198083286511,"connected_time":1302000000000,"state":"active","ping":30},{"user_id":503,"name":"Bucket","steam_id":76561199165494885,"connected_time":3975000000000,"state":"active","ping":109}]},{"server_id":21,"name":"Uncletopia | London | 5 | All Maps","name_short":"lon-5","host":"lon-1.uk.uncletopia.com","port":27055,"enabled":true,"region":"eu","cc":"gb","latitude":51.509865,"longitude":-0.118092,"reserved":0,"last_update":"0001-01-01T00:00:00Z","name_a2s":"Uncletopia | London | 5 | All Maps","protocol":17,"map":"pl_snowycoast","folder":"tf","game":"Team Fortress","app_id":440,"player_count":0,"max_players":24,"Bots":0,"server_type":"Dedicated","server_os":"Linux","password":true,"vac":true,"version":"7932396","steam_id":85568392924742829,"keywords":["nocrits","nodmgspread","payload","uncletopia"],"game_id":440,"stv_port":27056,"stv_name":"Uncletopia | London | 5 | All Maps | STV","players":null},{"server_id":22,"name":"Uncletopia | London | 6 | All Maps","name_short":"lon-6","host":"lon-1.uk.uncletopia.com","port":27065,"enabled":true,"region":"eu","cc":"gb","latitude":51.509865,"longitude":-0.118092,"reserved":0,"last_update":"0001-01-01T00:00:00Z","name_a2s":"Uncletopia | London | 6 | All Maps","protocol":17,"map":"cp_altitude","folder":"tf","game":"Team Fortress","app_id":440,"player_count":0,"max_players":24,"Bots":0,"server_type":"Dedicated","server_os":"Linux","password":true,"vac":true,"version":"7932396","steam_id":85568392924742830,"keywords":["cp","nocrits","nodmgspread","uncletopia"],"game_id":440,"stv_port":27066,"stv_name":"Uncletopia | London | 6 | All Maps | STV","players":null},{"server_id":40,"name":"Uncletopia | London | 7 | No Payload","name_short":"lon-7","host":"lon-1.uk.uncletopia.com","port":27075,"enabled":true,"region":"eu","cc":"gb","latitude":51.509865,"longitude":-0.118092,"reserved":0,"last_update":"0001-01-01T00:00:00Z","name_a2s":"Uncletopia | London | 7 | No Payload","protocol":17,"map":"plr_hightower","folder":"tf","game":"Team Fortress","app_id":440,"player_count":2,"max_players":24,"Bots":0,"server_type":"Dedicated","server_os":"Linux","password":true,"vac":true,"version":"7932396","steam_id":85568392924964314,"keywords":["nocrits","nodmgspread","payload","uncletopia"],"game_id":440,"stv_port":27076,"stv_name":"Uncletopia | London | 7 | No Payload | STV","players":[{"user_id":396,"name":"Giovanni","steam_id":76561198072340223,"connected_time":817000000000,"state":"active","ping":87},{"user_id":394,"name":"daughter","steam_id":76561199469781018,"connected_time":1089000000000,"state":"active","ping":110}]},{"server_id":41,"name":"Uncletopia | London | 8 | Community","name_short":"lon-8","host":"lon-1.uk.uncletopia.com","port":27085,"enabled":true,"region":"eu","cc":"gb","latitude":51.509865,"longitude":-0.118092,"reserved":0,"last_update":"0001-01-01T00:00:00Z","name_a2s":"Uncletopia | London | 8 | Community","protocol":17,"map":"workshop/cp_sulfur_rc2.ugc619869471","folder":"tf","game":"Team Fortress","app_id":440,"player_count":0,"max_players":24,"Bots":0,"server_type":"Dedicated","server_os":"Linux","password":true,"vac":true,"version":"7932396","steam_id":85568392924964315,"keywords":["cp","nocrits","nodmgspread","uncletopia"],"game_id":440,"stv_port":27086,"stv_name":"Uncletopia | London | 8 | Community | STV","players":null},{"server_id":300,"name":"Uncletopia | Montr√©al | 1 | All Maps","name_short":"mtl-1","host":"mtl-1.ca.uncletopia.com","port":27015,"enabled":true,"region":"us-east","cc":"ca","latitude":45.50889,"longitude":-73.56167,"reserved":0,"last_update":"0001-01-01T00:00:00Z","name_a2s":"Uncletopia | Montr√©al | 1 | All Maps","protocol":17,"map":"pl_frontier_final","folder":"tf","game":"Team Fortress","app_id":440,"player_count":24,"max_players":24,"Bots":0,"server_type":"Dedicated","server_os":"Linux","password":true,"vac":true,"version":"7932396","steam_id":85568392924500087,"keywords":["nocrits","nodmgspread","payload","uncletopia"],"game_id":440,"stv_port":27016,"stv_name":"Uncletopia | Montr√©al | 1 | All Maps | STV","players":[{"user_id":62,"name":"Strangelove","steam_id":76561198353773611,"connected_time":293000000000,"state":"active","ping":88},{"user_id":44,"name":"Justin Case","steam_id":76561198051009126,"connected_time":2219000000000,"state":"active","ping":77},{"user_id":7,"name":"Slimeboy Enthusiast","steam_id":76561199200969139,"connected_time":3703000000000,"state":"active","ping":142},{"user_id":58,"name":"abcdefghijklmnopqrstuvwxyz","steam_id":76561198175741741,"connected_time":965000000000,"state":"active","ping":88},{"user_id":9,"name":"Ourple Guy","steam_id":76561198254206671,"connected_time":3461000000000,"state":"active","ping":87},{"user_id":10,"name":"Awkidoo1012","steam_id":76561198257391091,"connected_time":3454000000000,"state":"active","ping":97},{"user_id":11,"name":"[VIBES] The Wind Player","steam_id":76561198194563393,"connected_time":3427000000000,"state":"active","ping":87},{"user_id":12,"name":"King Cabbage","steam_id":76561198452945779,"connected_time":3398000000000,"state":"active","ping":124},{"user_id":40,"name":"EvilMrPotoo ÔΩ°‚óï‚Äø‚óïÔΩ°","steam_id":76561198012566870,"connected_time":2647000000000,"state":"active","ping":48},{"user_id":50,"name":"tooth","steam_id":76561197986437643,"connected_time":1942000000000,"state":"active","ping":59},{"user_id":45,"name":"popular loner","steam_id":76561198353975792,"connected_time":2210000000000,"state":"active","ping":90},{"user_id":60,"name":"Nobody","steam_id":76561198286486517,"connected_time":863000000000,"state":"active","ping":63},{"user_id":52,"name":"Frank Forearms.","steam_id":76561198225910596,"connected_time":1567000000000,"state":"active","ping":74},{"user_id":61,"name":"Paradox","steam_id":76561198284164847,"connected_time":579000000000,"state":"active","ping":65},{"user_id":42,"name":"Ka Xin Yu","steam_id":76561198057116531,"connected_time":2324000000000,"state":"active","ping":45},{"user_id":47,"name":"‚ôø","steam_id":76561198296145819,"connected_time":2191000000000,"state":"active","ping":91},{"user_id":25,"name":"RangerRiggs","steam_id":76561198116131144,"connected_time":3117000000000,"state":"active","ping":63},{"user_id":53,"name":"envy","steam_id":76561198099470277,"connected_time":1371000000000,"state":"active","ping":88},{"user_id":43,"name":"bobby  peanstalk","steam_id":76561198040495463,"connected_time":2322000000000,"state":"active","ping":61},{"user_id":29,"name":"King Sans","steam_id":76561198294198517,"connected_time":3018000000000,"state":"active","ping":47},{"user_id":30,"name":"UnderseaCentaur","steam_id":76561198131573340,"connected_time":2994000000000,"state":"active","ping":110},{"user_id":63,"name":"mr.edderkopper","steam_id":76561198152614478,"connected_time":228000000000,"state":"active","ping":71},{"user_id":35,"name":"AdarlansAssassin","steam_id":76561199389433139,"connected_time":2876000000000,"state":"active","ping":125},{"user_id":57,"name":"MamaLuigi","steam_id":76561199054368008,"connected_time":1135000000000,"state":"active","ping":82}]},{"server_id":301,"name":"Uncletopia | Montr√©al | 2 | All Maps","name_short":"mtl-2","host":"mtl-1.ca.uncletopia.com","port":27025,"enabled":true,"region":"us-east","cc":"ca","latitude":45.50889,"longitude":-73.56167,"reserved":0,"last_update":"0001-01-01T00:00:00Z","name_a2s":"Uncletopia | Montr√©al | 2 | All Maps","protocol":17,"map":"koth_cascade","folder":"tf","game":"Team Fortress","app_id":440,"player_count":4,"max_players":24,"Bots":0,"server_type":"Dedicated","server_os":"Linux","password":true,"vac":true,"version":"7932396","steam_id":85568392924500088,"keywords":["cp","nocrits","nodmgspread","uncletopia"],"game_id":440,"stv_port":27026,"stv_name":"Uncletopia | Montr√©al | 2 | All Maps | STV","players":[{"user_id":180,"name":"LIPOTRAS","steam_id":76561198380600657,"connected_time":818000000000,"state":"active","ping":126},{"user_id":182,"name":"TheSmolPopato","steam_id":76561199076606348,"connected_time":593000000000,"state":"active","ping":73},{"user_id":179,"name":"thatbedrockblock","steam_id":76561199069286524,"connected_time":826000000000,"state":"active","ping":118},{"user_id":169,"name":"Awesome Style Gaming","steam_id":76561198311537713,"connected_time":1902000000000,"state":"active","ping":84}]},{"server_id":302,"name":"Uncletopia | Montr√©al | 3 | All Maps","name_short":"mtl-3","host":"mtl-1.ca.uncletopia.com","port":27035,"enabled":true,"region":"us-east","cc":"ca","latitude":45.50889,"longitude":-73.56167,"reserved":0,"last_update":"0001-01-01T00:00:00Z","name_a2s":"Uncletopia | Montr√©al | 3 | All Maps","protocol":17,"map":"pl_pier","folder":"tf","game":"Team Fortress","app_id":440,"player_count":0,"max_players":24,"Bots":0,"server_type":"Dedicated","server_os":"Linux","password":true,"vac":true,"version":"7932396","steam_id":85568392924500089,"keywords":["nocrits","nodmgspread","payload","uncletopia"],"game_id":440,"stv_port":27036,"stv_name":"Uncletopia | Montr√©al | 3 | All Maps | STV","players":null},{"server_id":303,"name":"Uncletopia | Montr√©al | 4 | No Payload","name_short":"mtl-4","host":"mtl-1.ca.uncletopia.com","port":27045,"enabled":true,"region":"us-east","cc":"ca","latitude":45.50889,"longitude":-73.56167,"reserved":0,"last_update":"0001-01-01T00:00:00Z","name_a2s":"Uncletopia | Montr√©al | 4 | No Payload","protocol":17,"map":"cp_fastlane","folder":"tf","game":"Team Fortress","app_id":440,"player_count":0,"max_players":24,"Bots":0,"server_type":"Dedicated","server_os":"Linux","password":true,"vac":true,"version":"7932396","steam_id":85568392924500090,"keywords":["cp","nocrits","nodmgspread","uncletopia"],"game_id":440,"stv_port":27046,"stv_name":"Uncletopia | Montr√©al | 4 | No Payload | STV","players":null},{"server_id":13,"name":"Uncletopia | New York City | 1 | All Maps","name_short":"nyc-1","host":"nyc-1.us.uncletopia.com","port":27015,"enabled":true,"region":"us-east","cc":"us","latitude":40.73061,"longitude":-73.93524,"reserved":0,"last_update":"0001-01-01T00:00:00Z","name_a2s":"Uncletopia | New York City | 1 | All Maps","protocol":17,"map":"pl_barnblitz","folder":"tf","game":"Team Fortress","app_id":440,"player_count":24,"max_players":24,"Bots":0,"server_type":"Dedicated","server_os":"Linux","password":true,"vac":true,"version":"7932396","steam_id":85568392924469993,"keywords":["nocrits","nodmgspread","payload","uncletopia"],"game_id":440,"stv_port":27016,"stv_name":"Uncletopia | New York City | 1 | All Maps | STV","players":[{"user_id":128,"name":"Mak","steam_id":76561198856016840,"connected_time":1736000000000,"state":"active","ping":56},{"user_id":129,"name":"ElBentz","steam_id":76561199059582221,"connected_time":1714000000000,"state":"active","ping":120},{"user_id":95,"name":"Mr. Durian","steam_id":76561198093813212,"connected_time":3223000000000,"state":"active","ping":61},{"user_id":101,"name":"Flowers","steam_id":76561198031669899,"connected_time":2878000000000,"state":"active","ping":67},{"user_id":69,"name":"Gentoo Linux Gaming","steam_id":76561197999657118,"connected_time":5349000000000,"state":"active","ping":63},{"user_id":130,"name":"l4d2 marshall","steam_id":76561198042570322,"connected_time":1714000000000,"state":"active","ping":74},{"user_id":88,"name":"ROGUE-PLANET","steam_id":76561198116023052,"connected_time":3857000000000,"state":"active","ping":85},{"user_id":102,"name":"Xavier wulf","steam_id":76561198271931967,"connected_time":2876000000000,"state":"active","ping":75},{"user_id":140,"name":"Colin102004","steam_id":76561198202384334,"connected_time":406000000000,"state":"active","ping":42},{"user_id":103,"name":"AJTarcza","steam_id":76561198070800190,"connected_time":2871000000000,"state":"active","ping":75},{"user_id":133,"name":"Horrizan","steam_id":76561197965028480,"connected_time":899000000000,"state":"active","ping":85},{"user_id":91,"name":"triple_range_merge","steam_id":76561198991225026,"connected_time":3530000000000,"state":"active","ping":67},{"user_id":131,"name":"Makina","steam_id":76561198057475567,"connected_time":1708000000000,"state":"active","ping":92},{"user_id":139,"name":"PhlubbaDubba","steam_id":76561198203330154,"connected_time":437000000000,"state":"active","ping":57},{"user_id":126,"name":"someguycalledgoober","steam_id":76561199301554495,"connected_time":1864000000000,"state":"active","ping":84},{"user_id":89,"name":"PurpleProton","steam_id":76561198097403938,"connected_time":3795000000000,"state":"active","ping":65},{"user_id":98,"name":"That Sentry Is A Spy!","steam_id":76561198069395625,"connected_time":2913000000000,"state":"active","ping":62},{"user_id":136,"name":"acid","steam_id":76561198055855408,"connected_time":524000000000,"state":"active","ping":58},{"user_id":84,"name":"neil","steam_id":76561198122666918,"connected_time":4062000000000,"state":"active","ping":46},{"user_id":122,"name":"Keymaster","steam_id":76561198881514228,"connected_time":1984000000000,"state":"active","ping":61},{"user_id":94,"name":"4jess20","steam_id":76561199488852383,"connected_time":3260000000000,"state":"active","ping":61},{"user_id":132,"name":"Pizza","steam_id":76561198118748364,"connected_time":1451000000000,"state":"active","ping":76},{"user_id":106,"name":"Poop_toast","steam_id":76561199251933053,"connected_time":2835000000000,"state":"active","ping":120},{"user_id":138,"name":"Seagato","steam_id":76561197999346837,"connected_time":444000000000,"state":"active","ping":70}]},{"server_id":14,"name":"Uncletopia | New York City | 2 | All Maps","name_short":"nyc-2","host":"nyc-1.us.uncletopia.com","port":27025,"enabled":true,"region":"us-east","cc":"us","latitude":40.73061,"longitude":-73.93524,"reserved":0,"last_update":"0001-01-01T00:00:00Z","name_a2s":"Uncletopia | New York City | 2 | All Maps","protocol":17,"map":"pl_frontier_final","folder":"tf","game":"Team Fortress","app_id":440,"player_count":24,"max_players":24,"Bots":0,"server_type":"Dedicated","server_os":"Linux","password":true,"vac":true,"version":"7932396","steam_id":85568392924469994,"keywords":["nocrits","nodmgspread","payload","uncletopia"],"game_id":440,"stv_port":27026,"stv_name":"Uncletopia | New York City | 2 | All Maps | STV","players":[{"user_id":126,"name":"Talulah","steam_id":76561198348354629,"connected_time":884000000000,"state":"active","ping":105},{"user_id":142,"name":"novu","steam_id":76561198886997024,"connected_time":625000000000,"state":"active","ping":72},{"user_id":68,"name":"dog","steam_id":76561198263873491,"connected_time":6556000000000,"state":"active","ping":61},{"user_id":127,"name":"Squilliam Afton","steam_id":76561198945724920,"connected_time":872000000000,"state":"active","ping":72},{"user_id":143,"name":"MasterCrafter27","steam_id":76561198151035981,"connected_time":593000000000,"state":"active","ping":118},{"user_id":144,"name":"clin","steam_id":76561198081847001,"connected_time":584000000000,"state":"active","ping":49},{"user_id":145,"name":"BeerPowder","steam_id":76561198058129400,"connected_time":489000000000,"state":"active","ping":55},{"user_id":108,"name":"Snazzy_","steam_id":76561198014803098,"connected_time":3092000000000,"state":"active","ping":55},{"user_id":131,"name":"crusher1598","steam_id":76561199160459733,"connected_time":794000000000,"state":"active","ping":71},{"user_id":107,"name":"Shattered Glass","steam_id":76561198116835391,"connected_time":3157000000000,"state":"active","ping":93},{"user_id":132,"name":"Blashcorp","steam_id":76561199122593964,"connected_time":784000000000,"state":"active","ping":95},{"user_id":120,"name":"BradB","steam_id":76561199163905036,"connected_time":2063000000000,"state":"active","ping":86},{"user_id":118,"name":":)","steam_id":76561198093921290,"connected_time":2156000000000,"state":"active","ping":58},{"user_id":121,"name":"Moses","steam_id":76561198874531590,"connected_time":2052000000000,"state":"active","ping":59},{"user_id":134,"name":"Spiral Mountain","steam_id":76561198058683715,"connected_time":768000000000,"state":"active","ping":75},{"user_id":119,"name":"Ninty","steam_id":76561199364725776,"connected_time":2145000000000,"state":"active","ping":90},{"user_id":117,"name":"Machine Girl - SAD CLAPS","steam_id":76561198294013916,"connected_time":2222000000000,"state":"active","ping":45},{"user_id":135,"name":"dr. interracial","steam_id":76561198044034546,"connected_time":751000000000,"state":"active","ping":67},{"user_id":136,"name":"minihoog","steam_id":76561198102156780,"connected_time":751000000000,"state":"active","ping":67},{"user_id":123,"name":"Poi","steam_id":76561198176914898,"connected_time":1520000000000,"state":"active","ping":86},{"user_id":138,"name":"Novaside","steam_id":76561198079461961,"connected_time":733000000000,"state":"active","ping":85},{"user_id":140,"name":"Autumn Clover","steam_id":76561198012295314,"connected_time":723000000000,"state":"active","ping":72},{"user_id":84,"name":"Urbanzpinapple","steam_id":76561198115426938,"connected_time":5281000000000,"state":"active","ping":68},{"user_id":141,"name":"Fifthcrusade1","steam_id":76561198142136640,"connected_time":723000000000,"state":"active","ping":89}]},{"server_id":15,"name":"Uncletopia | New York City | 3 | Stopwatch Beta","name_short":"nyc-3","host":"nyc-1.us.uncletopia.com","port":27035,"enabled":true,"region":"us-east","cc":"us","latitude":40.73061,"longitude":-73.93524,"reserved":0,"last_update":"0001-01-01T00:00:00Z","name_a2s":"Uncletopia | New York City | 3 | Stopwatch Beta","protocol":17,"map":"workshop/koth_ashville_final.ugc2130459942","folder":"tf","game":"Team Fortress","app_id":440,"player_count":0,"max_players":24,"Bots":0,"server_type":"Dedicated","server_os":"Linux","password":true,"vac":true,"version":"7932396","steam_id":85568392924742820,"keywords":["cp","nocrits","nodmgspread","uncletopia"],"game_id":440,"stv_port":27036,"stv_name":"Uncletopia | New York City | 3 | Stopwatch Beta | STV","players":null},{"server_id":16,"name":"Uncletopia | New York City | 4 | Community","name_short":"nyc-4","host":"nyc-1.us.uncletopia.com","port":27045,"enabled":true,"region":"us-east","cc":"us","latitude":40.73061,"longitude":-73.93524,"reserved":0,"last_update":"0001-01-01T00:00:00Z","name_a2s":"Uncletopia | New York City | 4 | Community","protocol":17,"map":"workshop/pl_corrode_rc2.ugc546577989","folder":"tf","game":"Team Fortress","app_id":440,"player_count":23,"max_players":24,"Bots":0,"server_type":"Dedicated","server_os":"Linux","password":true,"vac":true,"version":"7932396","steam_id":85568392924742821,"keywords":["nocrits","nodmgspread","payload","uncletopia"],"game_id":440,"stv_port":27046,"stv_name":"Uncletopia | New York City | 4 | Community | STV","players":[{"user_id":148,"name":"the gaming dilo","steam_id":76561199481223967,"connected_time":7000000000,"state":"spawning","ping":129},{"user_id":134,"name":"jah","steam_id":76561198201973900,"connected_time":428000000000,"state":"active","ping":126},{"user_id":131,"name":"TacoBellSecurity","steam_id":76561198294513580,"connected_time":634000000000,"state":"active","ping":137},{"user_id":133,"name":"Low Poly Jerma","steam_id":76561198042689943,"connected_time":552000000000,"state":"active","ping":143},{"user_id":136,"name":"Feces","steam_id":76561198380219187,"connected_time":399000000000,"state":"active","ping":74},{"user_id":132,"name":"babe","steam_id":76561199057373810,"connected_time":611000000000,"state":"active","ping":54},{"user_id":145,"name":"PENIRP","steam_id":76561198282416087,"connected_time":269000000000,"state":"active","ping":69},{"user_id":26,"name":"Seagull","steam_id":76561197966722147,"connected_time":4371000000000,"state":"active","ping":64},{"user_id":130,"name":"Super Sand Lesbian","steam_id":76561198028157625,"connected_time":660000000000,"state":"active","ping":95},{"user_id":146,"name":"Bat Rastard","steam_id":76561198210957496,"connected_time":46000000000,"state":"active","ping":71},{"user_id":138,"name":"Thiodag","steam_id":76561198088165991,"connected_time":392000000000,"state":"active","ping":91},{"user_id":32,"name":"TeeDeeGee","steam_id":76561198316484504,"connected_time":4289000000000,"state":"active","ping":96},{"user_id":139,"name":"womthedom","steam_id":76561198088768287,"connected_time":387000000000,"state":"active","ping":75},{"user_id":121,"name":"orange porridge","steam_id":76561198044102244,"connected_time":2153000000000,"state":"active","ping":62},{"user_id":97,"name":"advent","steam_id":76561198136475311,"connected_time":2947000000000,"state":"active","ping":171},{"user_id":36,"name":"the beast of utah valley","steam_id":76561198156501004,"connected_time":4153000000000,"state":"active","ping":105},{"user_id":73,"name":"MonkaS Madlad","steam_id":76561198086575617,"connected_time":3264000000000,"state":"active","ping":56},{"user_id":140,"name":"boy56","steam_id":76561198183655999,"connected_time":357000000000,"state":"active","ping":85},{"user_id":123,"name":"Tidwell","steam_id":76561198037414410,"connected_time":2005000000000,"state":"active","ping":69},{"user_id":141,"name":"Beef_Fossil","steam_id":76561198974307976,"connected_time":356000000000,"state":"active","ping":104},{"user_id":147,"name":"pcdylan098","steam_id":76561199210489201,"connected_time":25000000000,"state":"spawning","ping":215},{"user_id":143,"name":"Darakrish","steam_id":76561198133126686,"connected_time":342000000000,"state":"active","ping":92},{"user_id":144,"name":"green demon","steam_id":76561198203353732,"connected_time":312000000000,"state":"active","ping":87}]},{"server_id":142,"name":"Uncletopia | S√£o Paulo | 1 | All Maps","name_short":"sao-1","host":"sao-1.br.uncletopia.com","port":27015,"enabled":true,"region":"sa","cc":"br","latitude":-23.533773,"longitude":-46.62529,"reserved":0,"last_update":"0001-01-01T00:00:00Z","name_a2s":"Uncletopia | S√£o Paulo | 1 | All Maps","protocol":17,"map":"pl_pier","folder":"tf","game":"Team Fortress","app_id":440,"player_count":0,"max_players":24,"Bots":0,"server_type":"Dedicated","server_os":"Linux","password":true,"vac":true,"version":"7932396","steam_id":85568392924469996,"keywords":["nocrits","nodmgspread","payload","uncletopia"],"game_id":440,"stv_port":27016,"stv_name":"Uncletopia | S√£o Paulo | 1 | All Maps | STV","players":null},{"server_id":143,"name":"Uncletopia | S√£o Paulo | 2 | All Maps","name_short":"sao-2","host":"sao-2.br.uncletopia.com","port":27015,"enabled":true,"region":"sa","cc":"br","latitude":-23.533773,"longitude":-46.62529,"reserved":0,"last_update":"0001-01-01T00:00:00Z","name_a2s":"Uncletopia | S√£o Paulo | 2 | All Maps","protocol":17,"map":"pl_badwater","folder":"tf","game":"Team Fortress","app_id":440,"player_count":0,"max_players":24,"Bots":0,"server_type":"Dedicated","server_os":"Linux","password":true,"vac":true,"version":"7932396","steam_id":85568392924485349,"keywords":["nocrits","nodmgspread","payload","uncletopia"],"game_id":440,"stv_port":27016,"stv_name":"Uncletopia | S√£o Paulo | 2 | All Maps | STV","players":null},{"server_id":7,"name":"Uncletopia | Seattle | 1 | All Maps","name_short":"sea-1","host":"sea-1.us.uncletopia.com","port":27015,"enabled":true,"region":"us-west","cc":"us","latitude":47.608013,"longitude":-122.33517,"reserved":0,"last_update":"0001-01-01T00:00:00Z","name_a2s":"Uncletopia | Seattle | 1 | All Maps","protocol":17,"map":"pl_swiftwater_final1","folder":"tf","game":"Team Fortress","app_id":440,"player_count":22,"max_players":24,"Bots":0,"server_type":"Dedicated","server_os":"Linux","password":true,"vac":true,"version":"7932396","steam_id":85568392924469997,"keywords":["nocrits","nodmgspread","payload","uncletopia"],"game_id":440,"stv_port":27016,"stv_name":"Uncletopia | Seattle | 1 | All Maps | STV","players":[{"user_id":716,"name":"ORANGE","steam_id":76561198000401769,"connected_time":106000000000,"state":"active","ping":45},{"user_id":692,"name":"Taco+Taco=Burrito","steam_id":76561198063128663,"connected_time":1862000000000,"state":"active","ping":98},{"user_id":675,"name":"NeptuneÀñ‚Å∫ÔΩ°Àö‚ãÜÀô‚ô•","steam_id":76561199054203198,"connected_time":3497000000000,"state":"active","ping":134},{"user_id":702,"name":"BlazedBunny","steam_id":76561198243610560,"connected_time":1332000000000,"state":"active","ping":72},{"user_id":653,"name":"Irisu","steam_id":76561198071168123,"connected_time":5552000000000,"state":"active","ping":59},{"user_id":677,"name":"lasky","steam_id":76561198017030029,"connected_time":3140000000000,"state":"active","ping":95},{"user_id":655,"name":"NAWWWWWWWWWWW","steam_id":76561198878913441,"connected_time":5338000000000,"state":"active","ping":74},{"user_id":665,"name":"dust | she/it","steam_id":76561198045218909,"connected_time":4611000000000,"state":"active","ping":39},{"user_id":654,"name":"HaphazardHazel","steam_id":76561198316812693,"connected_time":5367000000000,"state":"active","ping":130},{"user_id":688,"name":"YahYeeterson","steam_id":76561198120480906,"connected_time":2056000000000,"state":"active","ping":63},{"user_id":706,"name":"Ajax","steam_id":76561198071310833,"connected_time":1156000000000,"state":"active","ping":80},{"user_id":712,"name":"Cheezbeargur","steam_id":76561198164702899,"connected_time":925000000000,"state":"active","ping":95},{"user_id":589,"name":"The King of Piss World","steam_id":76561198082806956,"connected_time":7451000000000,"state":"active","ping":179},{"user_id":691,"name":"Arkus :watermelon:","steam_id":76561199092478198,"connected_time":1865000000000,"state":"active","ping":46},{"user_id":714,"name":"NEBULA","steam_id":76561198086878595,"connected_time":661000000000,"state":"active","ping":101},{"user_id":713,"name":"Cr0wD3r","steam_id":76561198153612764,"connected_time":826000000000,"state":"active","ping":89},{"user_id":715,"name":"Leonhard Euler","steam_id":76561199070141774,"connected_time":640000000000,"state":"active","ping":90},{"user_id":689,"name":"pizzalover_2014","steam_id":76561198870649125,"connected_time":2008000000000,"state":"active","ping":78},{"user_id":673,"name":"Pukei-Pukei","steam_id":76561197992722546,"connected_time":3780000000000,"state":"active","ping":88},{"user_id":682,"name":"Nukenfutz","steam_id":76561198135666783,"connected_time":2912000000000,"state":"active","ping":44},{"user_id":709,"name":"Dr.Doc","steam_id":76561198981911429,"connected_time":1130000000000,"state":"active","ping":111},{"user_id":710,"name":"bladees realest, saddest verse","steam_id":76561198098099826,"connected_time":1128000000000,"state":"active","ping":78}]},{"server_id":119,"name":"Uncletopia | Seattle | 2 | All Maps","name_short":"sea-2","host":"sea-1.us.uncletopia.com","port":27025,"enabled":true,"region":"us-west","cc":"us","latitude":47.608013,"longitude":-122.33517,"reserved":0,"last_update":"0001-01-01T00:00:00Z","name_a2s":"Uncletopia | Seattle | 2 | All Maps","protocol":17,"map":"pl_upward","folder":"tf","game":"Team Fortress","app_id":440,"player_count":24,"max_players":24,"Bots":0,"server_type":"Dedicated","server_os":"Linux","password":true,"vac":true,"version":"7932396","steam_id":85568392924469998,"keywords":["nocrits","nodmgspread","payload","uncletopia"],"game_id":440,"stv_port":27026,"stv_name":"Uncletopia | Seattle | 2 | All Maps | STV","players":[{"user_id":446,"name":"a cat plushie","steam_id":76561198080046542,"connected_time":1829000000000,"state":"active","ping":47},{"user_id":453,"name":"blueboy23","steam_id":76561199121889873,"connected_time":1011000000000,"state":"active","ping":48},{"user_id":452,"name":"Scut","steam_id":76561198973734291,"connected_time":1096000000000,"state":"active","ping":94},{"user_id":457,"name":"Wheaty","steam_id":76561198003553412,"connected_time":347000000000,"state":"active","ping":48},{"user_id":405,"name":"riSygneD","steam_id":76561198331618687,"connected_time":3770000000000,"state":"active","ping":62},{"user_id":456,"name":"?","steam_id":76561198209880837,"connected_time":686000000000,"state":"active","ping":45},{"user_id":461,"name":"Greskrendtregk","steam_id":76561197969553142,"connected_time":306000000000,"state":"active","ping":56},{"user_id":437,"name":"Potato Knishes","steam_id":76561198063539547,"connected_time":2253000000000,"state":"active","ping":60},{"user_id":459,"name":"reiidaya","steam_id":76561198325306660,"connected_time":320000000000,"state":"active","ping":144},{"user_id":458,"name":"Zer0Educati0n","steam_id":76561198093939709,"connected_time":328000000000,"state":"active","ping":92},{"user_id":450,"name":"LatinRhythms - 5 ref","steam_id":76561198025110751,"connected_time":1307000000000,"state":"active","ping":172},{"user_id":444,"name":"Jaydyn","steam_id":76561198140326797,"connected_time":1977000000000,"state":"active","ping":139},{"user_id":463,"name":"Lordus","steam_id":76561198160381729,"connected_time":46000000000,"state":"spawning","ping":63},{"user_id":395,"name":"ilun","steam_id":76561198042913843,"connected_time":4782000000000,"state":"active","ping":60},{"user_id":416,"name":"Tibetan Pop Star","steam_id":76561198844903984,"connected_time":3229000000000,"state":"active","ping":84},{"user_id":460,"name":"leumas","steam_id":76561198240408540,"connected_time":309000000000,"state":"active","ping":115},{"user_id":441,"name":"CashGordon","steam_id":76561197975594096,"connected_time":2095000000000,"state":"active","ping":42},{"user_id":455,"name":"chompmastr","steam_id":76561199121805899,"connected_time":933000000000,"state":"active","ping":69},{"user_id":420,"name":"Spaceman","steam_id":76561198349305249,"connected_time":3190000000000,"state":"active","ping":69},{"user_id":449,"name":"Copy","steam_id":76561198025031590,"connected_time":1324000000000,"state":"active","ping":48},{"user_id":403,"name":"Maid Knight","steam_id":76561198214370515,"connected_time":4055000000000,"state":"active","ping":97},{"user_id":310,"name":"LittleFieryOne","steam_id":76561198107463724,"connected_time":11292000000000,"state":"active","ping":115},{"user_id":431,"name":"Red Orbama","steam_id":76561198047002366,"connected_time":2507000000000,"state":"active","ping":52},{"user_id":462,"name":"CPTforever","steam_id":76561198237767198,"connected_time":297000000000,"state":"active","ping":90}]},{"server_id":406,"name":"Uncletopia | Seattle | 3 | Stopwatch Beta","name_short":"sea-3","host":"sea-1.us.uncletopia.com","port":27035,"enabled":true,"region":"us-west","cc":"us","latitude":47.608013,"longitude":-122.33517,"reserved":0,"last_update":"0001-01-01T00:00:00Z","name_a2s":"Uncletopia | Seattle | 3 | Stopwatch Beta","protocol":17,"map":"pl_borneo","folder":"tf","game":"Team Fortress","app_id":440,"player_count":0,"max_players":24,"Bots":0,"server_type":"Dedicated","server_os":"Linux","password":true,"vac":true,"version":"7932396","steam_id":85568392924515217,"keywords":["nocrits","nodmgspread","payload","uncletopia"],"game_id":440,"stv_port":27036,"stv_name":"Uncletopia | Seattle | 3 | Stopwatch Beta | STV","players":null},{"server_id":17,"name":"Uncletopia | San Francisco | 1 | All Maps","name_short":"sfo-1","host":"sfo-1.us.uncletopia.com","port":27015,"enabled":true,"region":"us-west","cc":"us","latitude":37.77397,"longitude":-122.4313,"reserved":0,"last_update":"0001-01-01T00:00:00Z","name_a2s":"Uncletopia | San Francisco | 1 | All Maps","protocol":17,"map":"cp_steel","folder":"tf","game":"Team Fortress","app_id":440,"player_count":24,"max_players":24,"Bots":0,"server_type":"Dedicated","server_os":"Linux","password":true,"vac":true,"version":"7932396","steam_id":85568392924469999,"keywords":["cp","nocrits","nodmgspread","uncletopia"],"game_id":440,"stv_port":27016,"stv_name":"Uncletopia | San Francisco | 1 | All Maps | STV","players":[{"user_id":333,"name":"5Picoseconds","steam_id":76561198048100823,"connected_time":2060000000000,"state":"active","ping":120},{"user_id":321,"name":"cass","steam_id":76561198074502046,"connected_time":2950000000000,"state":"active","ping":142},{"user_id":341,"name":"boomer","steam_id":76561198108761337,"connected_time":1246000000000,"state":"active","ping":58},{"user_id":214,"name":"Context","steam_id":76561197972634187,"connected_time":8492000000000,"state":"active","ping":39},{"user_id":339,"name":"Fiestaknight","steam_id":76561198037847385,"connected_time":1278000000000,"state":"active","ping":86},{"user_id":350,"name":"LockHeart","steam_id":76561198868205853,"connected_time":276000000000,"state":"active","ping":53},{"user_id":271,"name":"[DATS‚û°] Sugar Meowth","steam_id":76561197995251793,"connected_time":5500000000000,"state":"active","ping":58},{"user_id":326,"name":"nogoodnameshere","steam_id":76561199065926375,"connected_time":2539000000000,"state":"active","ping":72},{"user_id":331,"name":"[Industrial] A_HUMBLEBUMBLED","steam_id":76561198064771878,"connected_time":2078000000000,"state":"active","ping":51},{"user_id":347,"name":"merkury731","steam_id":76561198110565430,"connected_time":673000000000,"state":"active","ping":99},{"user_id":314,"name":"BrightOrangeMango","steam_id":76561198023144607,"connected_time":3148000000000,"state":"active","ping":70},{"user_id":256,"name":"Silly Shark","steam_id":76561198130714378,"connected_time":6034000000000,"state":"active","ping":75},{"user_id":283,"name":"greenpeace","steam_id":76561197983221708,"connected_time":4669000000000,"state":"active","ping":51},{"user_id":342,"name":"Orion","steam_id":76561198000418837,"connected_time":1246000000000,"state":"active","ping":95},{"user_id":351,"name":"minerkid2004","steam_id":76561198044262827,"connected_time":272000000000,"state":"active","ping":45},{"user_id":352,"name":"Argon","steam_id":76561199254804349,"connected_time":265000000000,"state":"active","ping":138},{"user_id":344,"name":"SilentScott","steam_id":76561198236688652,"connected_time":1212000000000,"state":"active","ping":83},{"user_id":262,"name":"lilixdust","steam_id":76561199391478575,"connected_time":5800000000000,"state":"active","ping":80},{"user_id":335,"name":"Emerald Blaziken","steam_id":76561198821943366,"connected_time":2004000000000,"state":"active","ping":80},{"user_id":348,"name":"Reggie","steam_id":76561198835737236,"connected_time":667000000000,"state":"active","ping":124},{"user_id":327,"name":"lilypad\u003c/3","steam_id":76561198094140669,"connected_time":2484000000000,"state":"active","ping":85},{"user_id":334,"name":"Ziddia","steam_id":76561198044734442,"connected_time":2045000000000,"state":"active","ping":102},{"user_id":309,"name":"Ian","steam_id":76561198159334435,"connected_time":3170000000000,"state":"active","ping":179},{"user_id":290,"name":"ball scratcher","steam_id":76561198133963493,"connected_time":4456000000000,"state":"active","ping":47}]},{"server_id":18,"name":"Uncletopia | San Francisco | 2 | All Maps","name_short":"sfo-2","host":"sfo-1.us.uncletopia.com","port":27025,"enabled":true,"region":"us-west","cc":"us","latitude":37.77397,"longitude":-122.4313,"reserved":0,"last_update":"0001-01-01T00:00:00Z","name_a2s":"Uncletopia | San Francisco | 2 | All Maps","protocol":17,"map":"pl_borneo","folder":"tf","game":"Team Fortress","app_id":440,"player_count":24,"max_players":24,"Bots":0,"server_type":"Dedicated","server_os":"Linux","password":true,"vac":true,"version":"7932396","steam_id":85568392924470000,"keywords":["nocrits","nodmgspread","payload","uncletopia"],"game_id":440,"stv_port":27026,"stv_name":"Uncletopia | San Francisco | 2 | All Maps | STV","players":[{"user_id":28,"name":"LEE","steam_id":76561199127408846,"connected_time":3595000000000,"state":"active","ping":64},{"user_id":48,"name":"1 Worst Steve Fox","steam_id":76561198263405297,"connected_time":2649000000000,"state":"active","ping":67},{"user_id":62,"name":"Seanvich","steam_id":76561198065805500,"connected_time":1045000000000,"state":"active","ping":104},{"user_id":20,"name":"Spare(8)Ball","steam_id":76561197982432995,"connected_time":3863000000000,"state":"active","ping":56},{"user_id":63,"name":"LarryOfAllTrades","steam_id":76561198325492137,"connected_time":930000000000,"state":"active","ping":66},{"user_id":16,"name":"PissBeam","steam_id":76561198830303485,"connected_time":4528000000000,"state":"active","ping":97},{"user_id":21,"name":"crack addict","steam_id":76561199338554815,"connected_time":3854000000000,"state":"active","ping":73},{"user_id":65,"name":"Jimjonjoe","steam_id":76561199195695913,"connected_time":369000000000,"state":"active","ping":101},{"user_id":50,"name":"dm_Thames enjoyer","steam_id":76561198129763115,"connected_time":2378000000000,"state":"active","ping":67},{"user_id":67,"name":"sincerelymagicmeister","steam_id":76561198393923543,"connected_time":172000000000,"state":"active","ping":69},{"user_id":52,"name":"MantisToboggan","steam_id":76561197969447887,"connected_time":2267000000000,"state":"active","ping":85},{"user_id":29,"name":"doug dimmadome","steam_id":76561198974533607,"connected_time":3591000000000,"state":"active","ping":67},{"user_id":57,"name":"SnazzyCelestial","steam_id":76561198328763813,"connected_time":1692000000000,"state":"active","ping":114},{"user_id":31,"name":"Sergitoo0","steam_id":76561199087039305,"connected_time":3572000000000,"state":"active","ping":44},{"user_id":32,"name":"Zigadox","steam_id":76561198079813479,"connected_time":3567000000000,"state":"active","ping":127},{"user_id":64,"name":"nascarfan1966","steam_id":76561198046972750,"connected_time":914000000000,"state":"active","ping":57},{"user_id":68,"name":"voidpuppy","steam_id":76561198799922000,"connected_time":142000000000,"state":"active","ping":102},{"user_id":60,"name":"lemonjack","steam_id":76561198277380277,"connected_time":1566000000000,"state":"active","ping":66},{"user_id":59,"name":"cargo","steam_id":76561198965511236,"connected_time":1593000000000,"state":"active","ping":51},{"user_id":37,"name":"Luckyy","steam_id":76561198069993865,"connected_time":3531000000000,"state":"active","ping":65},{"user_id":38,"name":"Dededoo","steam_id":76561198279033471,"connected_time":3529000000000,"state":"active","ping":108},{"user_id":66,"name":"Vortiger","steam_id":76561198275813176,"connected_time":359000000000,"state":"active","ping":52},{"user_id":53,"name":"sunny","steam_id":76561198069380992,"connected_time":2105000000000,"state":"active","ping":89},{"user_id":61,"name":"FartRomancer.exe","steam_id":76561197993536325,"connected_time":1425000000000,"state":"active","ping":58}]},{"server_id":19,"name":"Uncletopia | San Francisco | 3 | Stopwatch Beta","name_short":"sfo-3","host":"sfo-1.us.uncletopia.com","port":27035,"enabled":true,"region":"us-west","cc":"us","latitude":37.77397,"longitude":-122.4313,"reserved":0,"last_update":"0001-01-01T00:00:00Z","name_a2s":"Uncletopia | San Francisco | 3 | Stopwatch Beta","protocol":17,"map":"workshop/koth_product_final.ugc454272353","folder":"tf","game":"Team Fortress","app_id":440,"player_count":2,"max_players":24,"Bots":0,"server_type":"Dedicated","server_os":"Linux","password":true,"vac":true,"version":"7932396","steam_id":85568392924742824,"keywords":["cp","nocrits","nodmgspread","uncletopia"],"game_id":440,"stv_port":27036,"stv_name":"Uncletopia | San Francisco | 3 | Stopwatch Beta | STV","players":[{"user_id":13,"name":"monqueer","steam_id":76561199125615716,"connected_time":3332000000000,"state":"active","ping":116},{"user_id":18,"name":"Sleempreem","steam_id":76561198131987251,"connected_time":1091000000000,"state":"active","ping":38}]},{"server_id":20,"name":"Uncletopia | San Francisco | 4 | Community","name_short":"sfo-4","host":"sfo-1.us.uncletopia.com","port":27045,"enabled":true,"region":"us-west","cc":"us","latitude":37.77397,"longitude":-122.4313,"reserved":0,"last_update":"0001-01-01T00:00:00Z","name_a2s":"Uncletopia | San Francisco | 4 | Community","protocol":17,"map":"workshop/koth_kemptown_rc1.ugc767410655","folder":"tf","game":"Team Fortress","app_id":440,"player_count":1,"max_players":24,"Bots":0,"server_type":"Dedicated","server_os":"Linux","password":true,"vac":true,"version":"7932396","steam_id":85568392924742826,"keywords":["cp","nocrits","nodmgspread","uncletopia"],"game_id":440,"stv_port":27046,"stv_name":"Uncletopia | San Francisco | 4 | Community | STV","players":[{"user_id":14,"name":"bigman_boi556","steam_id":76561199383012156,"connected_time":81000000000,"state":"active","ping":93}]},{"server_id":141,"name":"Uncletopia | Sydney | 1 | All Maps","name_short":"syd-1","host":"syd-1.au.uncletopia.com","port":27015,"enabled":true,"region":"au","cc":"au","latitude":-33.865143,"longitude":151.2099,"reserved":0,"last_update":"0001-01-01T00:00:00Z","name_a2s":"Uncletopia | Sydney | 1 | All Maps","protocol":17,"map":"koth_cascade","folder":"tf","game":"Team Fortress","app_id":440,"player_count":0,"max_players":24,"Bots":0,"server_type":"Dedicated","server_os":"Linux","password":true,"vac":true,"version":"7932396","steam_id":85568392924470001,"keywords":["cp","nocrits","nodmgspread","uncletopia"],"game_id":440,"stv_port":27016,"stv_name":"Uncletopia | Sydney | 1 | All Maps | STV","players":null},{"server_id":123,"name":"Uncletopia | Sydney | 2 | All Maps","name_short":"syd-2","host":"syd-1.au.uncletopia.com","port":27025,"enabled":true,"region":"au","cc":"au","latitude":-33.865143,"longitude":151.2099,"reserved":0,"last_update":"0001-01-01T00:00:00Z","name_a2s":"Uncletopia | Sydney | 2 | All Maps","protocol":17,"map":"cp_sunshine","folder":"tf","game":"Team Fortress","app_id":440,"player_count":0,"max_players":24,"Bots":0,"server_type":"Dedicated","server_os":"Linux","password":true,"vac":true,"version":"7932396","steam_id":85568392924470002,"keywords":["cp","nocrits","nodmgspread","uncletopia"],"game_id":440,"stv_port":27026,"stv_name":"Uncletopia | Sydney | 2 | All Maps | STV","players":null},{"server_id":395,"name":"Uncletopia | Sydney | 3 | All Maps","name_short":"syd-3","host":"syd-1.au.uncletopia.com","port":27035,"enabled":true,"region":"au","cc":"au","latitude":-33.865143,"longitude":151.2099,"reserved":0,"last_update":"0001-01-01T00:00:00Z","name_a2s":"Uncletopia | Sydney | 3 | All Maps","protocol":17,"map":"pl_barnblitz","folder":"tf","game":"Team Fortress","app_id":440,"player_count":4,"max_players":24,"Bots":0,"server_type":"Dedicated","server_os":"Linux","password":true,"vac":true,"version":"7932396","steam_id":85568392925194467,"keywords":["nocrits","nodmgspread","payload","uncletopia"],"game_id":440,"stv_port":27036,"stv_name":"Uncletopia | Sydney | 3 | All Maps | STV","players":[{"user_id":4,"name":"boris gaming","steam_id":76561199191723168,"connected_time":857000000000,"state":"active","ping":77},{"user_id":5,"name":"Enter a profile name","steam_id":76561199071026753,"connected_time":844000000000,"state":"active","ping":69},{"user_id":6,"name":"tauin","steam_id":76561198376995364,"connected_time":749000000000,"state":"active","ping":97},{"user_id":8,"name":"Tees","steam_id":76561199174602317,"connected_time":2000000000,"state":"spawning","ping":48}]},{"server_id":396,"name":"Uncletopia | Sydney | 4 | All Maps","name_short":"syd-4","host":"syd-1.au.uncletopia.com","port":27045,"enabled":true,"region":"au","cc":"au","latitude":-33.865143,"longitude":151.2099,"reserved":0,"last_update":"0001-01-01T00:00:00Z","name_a2s":"Uncletopia | Sydney | 4 | All Maps","protocol":17,"map":"cp_sunshine","folder":"tf","game":"Team Fortress","app_id":440,"player_count":0,"max_players":24,"Bots":0,"server_type":"Dedicated","server_os":"Linux","password":true,"vac":true,"version":"7932396","steam_id":85568392925397958,"keywords":["cp","nocrits","nodmgspread","uncletopia"],"game_id":440,"stv_port":27046,"stv_name":"Uncletopia | Sydney | 4 | All Maps | STV","players":null},{"server_id":58,"name":"Uncletopia | Sydney | 5 | Stopwatch Beta","name_short":"syd-5","host":"syd-1.au.uncletopia.com","port":27055,"enabled":true,"region":"au","cc":"au","latitude":-33.865143,"longitude":151.2099,"reserved":0,"last_update":"0001-01-01T00:00:00Z","name_a2s":"Uncletopia | Sydney | 5 | Stopwatch Beta","protocol":17,"map":"pl_borneo","folder":"tf","game":"Team Fortress","app_id":440,"player_count":0,"max_players":24,"Bots":0,"server_type":"Dedicated","server_os":"Linux","password":true,"vac":true,"version":"7932396","steam_id":85568392925397959,"keywords":["nocrits","nodmgspread","payload","uncletopia"],"game_id":440,"stv_port":27056,"stv_name":"Uncletopia | Sydney | 5 | Stopwatch Beta | STV","players":null},{"server_id":59,"name":"Uncletopia | Sydney | 6 | Community","name_short":"syd-6","host":"syd-1.au.uncletopia.com","port":27065,"enabled":true,"region":"au","cc":"au","latitude":-33.865143,"longitude":151.2099,"reserved":0,"last_update":"0001-01-01T00:00:00Z","name_a2s":"Uncletopia | Sydney | 6 | Community","protocol":17,"map":"workshop/cp_glacier_rc6.ugc2905735376","folder":"tf","game":"Team Fortress","app_id":440,"player_count":0,"max_players":24,"Bots":0,"server_type":"Dedicated","server_os":"Linux","password":true,"vac":true,"version":"7932396","steam_id":85568392925397960,"keywords":["cp","nocrits","nodmgspread","uncletopia"],"game_id":440,"stv_port":27066,"stv_name":"Uncletopia | Sydney | 6 | Community | STV","players":null},{"server_id":49,"name":"Uncletopia | Warsaw | 1 | All Maps","name_short":"waw-1","host":"waw-1.pl.uncletopia.com","port":27015,"enabled":true,"region":"eu","cc":"pl","latitude":52.2297,"longitude":21.017532,"reserved":0,"last_update":"0001-01-01T00:00:00Z","name_a2s":"","protocol":0,"map":"","folder":"","game":"","app_id":0,"player_count":0,"max_players":0,"Bots":0,"server_type":"","server_os":"","password":false,"vac":false,"version":"","steam_id":0,"keywords":null,"game_id":0,"stv_port":0,"stv_name":"","players":null},{"server_id":50,"name":"Uncletopia | Warsaw | 2 | All Maps","name_short":"waw-2","host":"waw-1.pl.uncletopia.com","port":27025,"enabled":true,"region":"eu","cc":"pl","latitude":52.2297,"longitude":21.017532,"reserved":0,"last_update":"0001-01-01T00:00:00Z","name_a2s":"Uncletopia | Warsaw | 2 | All Maps","protocol":17,"map":"koth_highpass","folder":"tf","game":"Team Fortress","app_id":440,"player_count":0,"max_players":24,"Bots":0,"server_type":"Dedicated","server_os":"Linux","password":true,"vac":true,"version":"7932396","steam_id":85568392925397851,"keywords":["cp","nocrits","nodmgspread","uncletopia"],"game_id":440,"stv_port":27026,"stv_name":"Uncletopia | Warsaw | 2 | All Maps | STV","players":null},{"server_id":51,"name":"Uncletopia | Warsaw | 3 | All Maps","name_short":"waw-3","host":"waw-1.pl.uncletopia.com","port":27035,"enabled":true,"region":"eu","cc":"pl","latitude":52.2297,"longitude":21.017532,"reserved":0,"last_update":"0001-01-01T00:00:00Z","name_a2s":"Uncletopia | Warsaw | 3 | All Maps","protocol":17,"map":"koth_lakeside_final","folder":"tf","game":"Team Fortress","app_id":440,"player_count":0,"max_players":24,"Bots":0,"server_type":"Dedicated","server_os":"Linux","password":true,"vac":true,"version":"7932396","steam_id":85568392925397852,"keywords":["cp","nocrits","nodmgspread","uncletopia"],"game_id":440,"stv_port":27036,"stv_name":"Uncletopia | Warsaw | 3 | All Maps | STV","players":null},{"server_id":52,"name":"Uncletopia | Warsaw | 4 | All Maps","name_short":"waw-4","host":"waw-1.pl.uncletopia.com","port":27045,"enabled":true,"region":"eu","cc":"pl","latitude":52.2297,"longitude":21.017532,"reserved":0,"last_update":"0001-01-01T00:00:00Z","name_a2s":"Uncletopia | Warsaw | 4 | All Maps","protocol":17,"map":"koth_lakeside_final","folder":"tf","game":"Team Fortress","app_id":440,"player_count":0,"max_players":24,"Bots":0,"server_type":"Dedicated","server_os":"Linux","password":true,"vac":true,"version":"7932396","steam_id":85568392925397853,"keywords":["cp","nocrits","nodmgspread","uncletopia"],"game_id":440,"stv_port":27046,"stv_name":"Uncletopia | Warsaw | 4 | All Maps | STV","players":null},{"server_id":53,"name":"Uncletopia | Warsaw | 5 | Stopwatch Beta","name_short":"waw-5","host":"waw-1.pl.uncletopia.com","port":27055,"enabled":true,"region":"eu","cc":"pl","latitude":52.2297,"longitude":21.017532,"reserved":0,"last_update":"0001-01-01T00:00:00Z","name_a2s":"Uncletopia | Warsaw | 5 | Stopwatch Beta","protocol":17,"map":"workshop/koth_ramjam_rc1.ugc459778887","folder":"tf","game":"Team Fortress","app_id":440,"player_count":0,"max_players":24,"Bots":0,"server_type":"Dedicated","server_os":"Linux","password":true,"vac":true,"version":"7932396","steam_id":85568392925397854,"keywords":["cp","nocrits","nodmgspread","uncletopia"],"game_id":440,"stv_port":27056,"stv_name":"Uncletopia | Warsaw | 5 | Stopwatch Beta | STV","players":null},{"server_id":54,"name":"Uncletopia | Warsaw | 6 | Community","name_short":"waw-6","host":"waw-1.pl.uncletopia.com","port":27065,"enabled":true,"region":"eu","cc":"pl","latitude":52.2297,"longitude":21.017532,"reserved":0,"last_update":"0001-01-01T00:00:00Z","name_a2s":"Uncletopia | Warsaw | 6 | Community","protocol":17,"map":"workshop/koth_product_final.ugc454272353","folder":"tf","game":"Team Fortress","app_id":440,"player_count":0,"max_players":24,"Bots":0,"server_type":"Dedicated","server_os":"Linux","password":true,"vac":true,"version":"7932396","steam_id":85568392925397856,"keywords":["cp","nocrits","nodmgspread","uncletopia"],"game_id":440,"stv_port":27066,"stv_name":"Uncletopia | Warsaw | 6 | Community | STV","players":null}]}