{"status":true,"message":"","result":[{"server_id":9,"name":"Uncletopia | Atlanta | 1 | All Maps","name_short":"atl-1","host":"atl-1.us.uncletopia.com","port":27015,"enabled":true,"region":"us-east","cc":"us","latitude":33.753746,"longitude":-84.38633,"reserved":0,"last_update":"0001-01-01T00:00:00Z","name_a2s":"Uncletopia | Atlanta | 1 | All Maps","protocol":17,"map":"koth_highpass","folder":"tf","game":"Team Fortress","app_id":440,"player_count":0,"max_players":24,"Bots":0,"server_type":"Dedicated","server_os":"Linux","password":true,"vac":true,"version":"7757534","steam_id":85568392924469982,"keywords":["cp","nocrits","nodmgspread","uncletopia"],"game_id":440,"stv_port":27016,"stv_name":"Uncletopia | Atlanta | 1 | All Maps | STV","players":null},{"server_id":400,"name":"Uncletopia | Atlanta | 3 | Community","name_short":"atl-3","host":"atl-1.us.uncletopia.com","port":27035,"enabled":true,"region":"us-east","cc":"us","latitude":33.753746,"longitude":-84.38633,"reserved":0,"last_update":"0001-01-01T00:00:00Z","name_a2s":"Uncletopia | Atlanta | 3 | Community","protocol":17,"map":"workshop/cp_reckoner_rc6.ugc674719999","folder":"tf","game":"Team Fortress","app_id":440,"player_count":0,"max_players":24,"Bots":0,"server_type":"Dedicated","server_os":"Linux","password":true,"vac":true,"version":"7757534","steam_id":85568392924515187,"keywords":["cp","nocrits","nodmgspread","uncletopia"],"game_id":440,"stv_port":27036,"stv_name":"Uncletopia | Atlanta | 3 | Community | STV","players":null},{"server_id":401,"name":"Uncletopia | Atlanta | 4 | No Payload","name_short":"atl-4","host":"atl-1.us.uncletopia.com","port":27045,"enabled":true,"region":"us-east","cc":"us","latitude":33.753746,"longitude":-84.38633,"reserved":0,"last_update":"0001-01-01T00:00:00Z","name_a2s":"","protocol":0,"map":"","folder":"","game":"","app_id":0,"player_count":0,"max_players":0,"Bots":0,"server_type":"","server_os":"","password":false,"vac":false,"version":"","steam_id":0,"keywords":null,"game_id":0,"stv_port":0,"stv_name":"","players":null},{"server_id":2,"name":"Uncletopia | Chicago | 1 | All Maps","name_short":"chi-1","host":"chi-1.us.uncletopia.com","port":27015,"enabled":true,"region":"us-central","cc":"us","latitude":41.881832,"longitude":-87.62318,"reserved":0,"last_update":"0001-01-01T00:00:00Z","name_a2s":"Uncletopia | Chicago | 1 | All Maps","protocol":17,"map":"cp_process_final","folder":"tf","game":"Team Fortress","app_id":440,"player_count":23,"max_players":24,"Bots":0,"server_type":"Dedicated","server_os":"Linux","password":true,"vac":true,"version":"7757534","steam_id":85568392924469984,"keywords":["cp","nocrits","nodmgspread","uncletopia"],"game_id":440,"stv_port":27016,"stv_name":"Uncletopia | Chicago | 1 | All Maps | STV","players":[{"user_id":707,"name":"Six","steam_id":76561198052472822,"connected_time":1380000000000,"state":"active","ping":71},{"user_id":703,"name":"twitch.tv/Yoshi21 | TF2Pugs.com","steam_id":76561198002516729,"connected_time":1911000000000,"state":"active","ping":68},{"user_id":704,"name":"Fuel","steam_id":76561198115269587,"connected_time":1441000000000,"state":"active","ping":71},{"user_id":681,"name":"Gabinator32","steam_id":76561198872467183,"connected_time":2957000000000,"state":"active","ping":46},{"user_id":714,"name":"skaj","steam_id":76561198082278586,"connected_time":361000000000,"state":"active","ping":69},{"user_id":710,"name":"Stock Medic","steam_id":76561198065479730,"connected_time":1229000000000,"state":"active","ping":43},{"user_id":699,"name":"Riske","steam_id":76561198115840568,"connected_time":2291000000000,"state":"active","ping":69},{"user_id":638,"name":"joyeuxnoelle","steam_id":76561198062423120,"connected_time":4767000000000,"state":"active","ping":64},{"user_id":706,"name":"Maxxycat","steam_id":76561198194062681,"connected_time":1428000000000,"state":"active","ping":51},{"user_id":691,"name":"white ray","steam_id":76561198026664629,"connected_time":2754000000000,"state":"active","ping":55},{"user_id":700,"name":"With respect to x","steam_id":76561198088321636,"connected_time":2289000000000,"state":"active","ping":112},{"user_id":689,"name":"⛧","steam_id":76561198021308963,"connected_time":2833000000000,"state":"active","ping":63},{"user_id":712,"name":"Ye ( I Love Caulk ) West","steam_id":76561198068830312,"connected_time":707000000000,"state":"active","ping":46},{"user_id":682,"name":"Praxis","steam_id":76561197960794303,"connected_time":2945000000000,"state":"active","ping":106},{"user_id":686,"name":"World Famous Skater Sean Pablo","steam_id":76561197999261387,"connected_time":2867000000000,"state":"active","ping":87},{"user_id":718,"name":"rudy","steam_id":76561198088712799,"connected_time":153000000000,"state":"active","ping":71},{"user_id":715,"name":"Gary Budussy","steam_id":76561197969793969,"connected_time":229000000000,"state":"active","ping":69},{"user_id":702,"name":"Lac-77","steam_id":76561198127045046,"connected_time":2160000000000,"state":"active","ping":54},{"user_id":683,"name":"Wingz","steam_id":76561198135885865,"connected_time":2934000000000,"state":"active","ping":43},{"user_id":709,"name":"ᵖᵃᵖᵃ Lox","steam_id":76561198069393071,"connected_time":1361000000000,"state":"active","ping":72},{"user_id":637,"name":"debin","steam_id":76561198070711217,"connected_time":4798000000000,"state":"active","ping":45},{"user_id":717,"name":"heimdall","steam_id":76561198069380992,"connected_time":209000000000,"state":"active","ping":85},{"user_id":661,"name":"NOLSEY","steam_id":76561198108959504,"connected_time":4054000000000,"state":"active","ping":50}]},{"server_id":106,"name":"Uncletopia | Chicago | 2 | All Maps","name_short":"chi-2","host":"chi-1.us.uncletopia.com","port":27025,"enabled":true,"region":"us-central","cc":"us","latitude":41.881832,"longitude":-87.62318,"reserved":0,"last_update":"0001-01-01T00:00:00Z","name_a2s":"Uncletopia | Chicago | 2 | All Maps","protocol":17,"map":"cp_dustbowl","folder":"tf","game":"Team Fortress","app_id":440,"player_count":0,"max_players":24,"Bots":0,"server_type":"Dedicated","server_os":"Linux","password":true,"vac":true,"version":"7757534","steam_id":85568392924469985,"keywords":["cp","nocrits","nodmgspread","uncletopia"],"game_id":440,"stv_port":27026,"stv_name":"Uncletopia | Chicago | 2 | All Maps | STV","players":null},{"server_id":402,"name":"Uncletopia | Chicago | 3 | All Maps","name_short":"chi-3","host":"chi-1.us.uncletopia.com","port":27035,"enabled":true,"region":"us-central","cc":"us","latitude":41.881832,"longitude":-87.62318,"reserved":0,"last_update":"0001-01-01T00:00:00Z","name_a2s":"Uncletopia | Chicago | 3 | All Maps","protocol":17,"map":"pl_badwater","folder":"tf","game":"Team Fortress","app_id":440,"player_count":23,"max_players":24,"Bots":0,"server_type":"Dedicated","server_os":"Linux","password":true,"vac":true,"version":"7757534","steam_id":85568392924515191,"keywords":["nocrits","nodmgspread","payload","uncletopia"],"game_id":440,"stv_port":27036,"stv_name":"Uncletopia | Chicago | 3 | All Maps | STV","players":[{"user_id":614,"name":"nazuna","steam_id":76561198078395002,"connected_time":1799000000000,"state":"active","ping":60},{"user_id":637,"name":"Jack Studs","steam_id":76561198803014281,"connected_time":367000000000,"state":"active","ping":83},{"user_id":596,"name":"Excis","steam_id":76561198103598619,"connected_time":3255000000000,"state":"active","ping":50},{"user_id":606,"name":"player 2 role","steam_id":76561198173860681,"connected_time":2910000000000,"state":"active","ping":59},{"user_id":577,"name":"Maj. Problem","steam_id":76561198240148840,"connected_time":4963000000000,"state":"active","ping":88},{"user_id":616,"name":"sAven","steam_id":76561198139343389,"connected_time":1755000000000,"state":"active","ping":46},{"user_id":594,"name":"cixcin","steam_id":76561199215821942,"connected_time":3295000000000,"state":"active","ping":69},{"user_id":640,"name":"Clonetics","steam_id":76561197970897094,"connected_time":194000000000,"state":"active","ping":82},{"user_id":623,"name":"survivalist keeda","steam_id":76561198277979851,"connected_time":1338000000000,"state":"active","ping":90},{"user_id":595,"name":"i luv fat bitches","steam_id":76561198038291026,"connected_time":3294000000000,"state":"active","ping":60},{"user_id":624,"name":"⊰Aero⊱","steam_id":76561198084648457,"connected_time":1274000000000,"state":"active","ping":60},{"user_id":620,"name":"KillPact","steam_id":76561197976319415,"connected_time":1399000000000,"state":"active","ping":70},{"user_id":638,"name":"bkashooter","steam_id":76561198116877713,"connected_time":248000000000,"state":"active","ping":122},{"user_id":599,"name":"watchfull","steam_id":76561198433266742,"connected_time":3134000000000,"state":"active","ping":103},{"user_id":625,"name":"Orangecrust26","steam_id":76561199232443221,"connected_time":1272000000000,"state":"active","ping":86},{"user_id":626,"name":"Keelasher","steam_id":76561198076027990,"connected_time":1267000000000,"state":"active","ping":81},{"user_id":639,"name":"Wheat","steam_id":76561198106270789,"connected_time":222000000000,"state":"active","ping":62},{"user_id":636,"name":"deez ratz","steam_id":76561198864572366,"connected_time":496000000000,"state":"active","ping":96},{"user_id":643,"name":"Kromeousible","steam_id":76561198087317232,"connected_time":31000000000,"state":"active","ping":88},{"user_id":642,"name":"xFactr","steam_id":76561198129007422,"connected_time":141000000000,"state":"active","ping":58},{"user_id":629,"name":"Spoofle","steam_id":76561199003655066,"connected_time":890000000000,"state":"active","ping":99},{"user_id":631,"name":"zombaka123 (F2P)","steam_id":76561198895525987,"connected_time":738000000000,"state":"active","ping":174},{"user_id":632,"name":"loungemutt","steam_id":76561198059270127,"connected_time":731000000000,"state":"active","ping":70}]},{"server_id":403,"name":"Uncletopia | Chicago | 4 | All Maps","name_short":"chi-4","host":"chi-1.us.uncletopia.com","port":27045,"enabled":true,"region":"us-central","cc":"us","latitude":41.881832,"longitude":-87.62318,"reserved":0,"last_update":"0001-01-01T00:00:00Z","name_a2s":"Uncletopia | Chicago | 4 | All Maps","protocol":17,"map":"cp_dustbowl","folder":"tf","game":"Team Fortress","app_id":440,"player_count":0,"max_players":24,"Bots":0,"server_type":"Dedicated","server_os":"Linux","password":true,"vac":true,"version":"7757534","steam_id":85568392924515193,"keywords":["cp","nocrits","nodmgspread","uncletopia"],"game_id":440,"stv_port":27046,"stv_name":"Uncletopia | Chicago | 4 | All Maps | STV","players":null},{"server_id":36,"name":"Uncletopia | Chicago | 5 | All Maps","name_short":"chi-5","host":"chi-2.us.uncletopia.com","port":27015,"enabled":true,"region":"us-central","cc":"us","latitude":41.881832,"longitude":-87.62318,"reserved":0,"last_update":"0001-01-01T00:00:00Z","name_a2s":"Uncletopia | Chicago | 5 | All Maps","protocol":17,"map":"pl_upward","folder":"tf","game":"Team Fortress","app_id":440,"player_count":0,"max_players":24,"Bots":0,"server_type":"Dedicated","server_os":"Linux","password":true,"vac":true,"version":"7757534","steam_id":85568392924866362,"keywords":["nocrits","nodmgspread","payload","uncletopia"],"game_id":440,"stv_port":27016,"stv_name":"Uncletopia | Chicago | 5 | All Maps | STV","players":null},{"server_id":37,"name":"Uncletopia | Chicago | 6 | All Maps","name_short":"chi-6","host":"chi-2.us.uncletopia.com","port":27025,"enabled":true,"region":"us-central","cc":"us","latitude":41.881832,"longitude":-87.62318,"reserved":0,"last_update":"0001-01-01T00:00:00Z","name_a2s":"Uncletopia | Chicago | 6 | All Maps","protocol":17,"map":"koth_viaduct","folder":"tf","game":"Team Fortress","app_id":440,"player_count":15,"max_players":24,"Bots":0,"server_type":"Dedicated","server_os":"Linux","password":true,"vac":true,"version":"7757534","steam_id":85568392924866363,"keywords":["cp","nocrits","nodmgspread","uncletopia"],"game_id":440,"stv_port":27026,"stv_name":"Uncletopia | Chicago | 6 | All Maps | STV","players":[{"user_id":395,"name":"BUDWARD","steam_id":76561198014832479,"connected_time":2566000000000,"state":"active","ping":50},{"user_id":408,"name":"Savage","steam_id":76561198260358041,"connected_time":174000000000,"state":"active","ping":87},{"user_id":409,"name":"Nova","steam_id":76561198201444213,"connected_time":6000000000,"state":"active","ping":269},{"user_id":347,"name":"ZanoSkull","steam_id":76561198095644372,"connected_time":6305000000000,"state":"active","ping":66},{"user_id":391,"name":"Space Cops","steam_id":76561198032414253,"connected_time":2766000000000,"state":"active","ping":46},{"user_id":405,"name":"Pizza Party","steam_id":76561198165730754,"connected_time":1408000000000,"state":"active","ping":75},{"user_id":292,"name":"Windex","steam_id":76561198105561395,"connected_time":10709000000000,"state":"active","ping":77},{"user_id":406,"name":"Flubber","steam_id":76561198410725685,"connected_time":947000000000,"state":"active","ping":63},{"user_id":307,"name":"BattlePants","steam_id":76561198345056717,"connected_time":9074000000000,"state":"active","ping":80},{"user_id":374,"name":"Thirty Thirty","steam_id":76561197987242808,"connected_time":4053000000000,"state":"active","ping":86},{"user_id":393,"name":"harlowng","steam_id":76561198060542928,"connected_time":2604000000000,"state":"active","ping":118},{"user_id":407,"name":"Arnyx","steam_id":76561198163410409,"connected_time":509000000000,"state":"active","ping":59},{"user_id":401,"name":"makaveli","steam_id":76561198085310326,"connected_time":1882000000000,"state":"active","ping":63},{"user_id":402,"name":"Kielakeet™","steam_id":76561198236133422,"connected_time":1863000000000,"state":"active","ping":86},{"user_id":397,"name":"Fish Politics","steam_id":76561198214754864,"connected_time":2519000000000,"state":"active","ping":85}]},{"server_id":38,"name":"Uncletopia | Chicago | 7 | Stopwatch Beta","name_short":"chi-7","host":"chi-2.us.uncletopia.com","port":27035,"enabled":true,"region":"us-central","cc":"us","latitude":41.881832,"longitude":-87.62318,"reserved":0,"last_update":"0001-01-01T00:00:00Z","name_a2s":"Uncletopia | Chicago | 7 | Stopwatch Beta","protocol":17,"map":"pl_swiftwater_final1","folder":"tf","game":"Team Fortress","app_id":440,"player_count":0,"max_players":24,"Bots":0,"server_type":"Dedicated","server_os":"Linux","password":true,"vac":true,"version":"7757534","steam_id":85568392924866364,"keywords":["nocrits","nodmgspread","payload","uncletopia"],"game_id":440,"stv_port":27036,"stv_name":"Uncletopia | Chicago | 7 | Stopwatch Beta | STV","players":null},{"server_id":39,"name":"Uncletopia | Chicago | 8 | Community","name_short":"chi-8","host":"chi-2.us.uncletopia.com","port":27045,"enabled":true,"region":"us-central","cc":"us","latitude":41.881832,"longitude":-87.62318,"reserved":0,"last_update":"0001-01-01T00:00:00Z","name_a2s":"Uncletopia | Chicago | 8 | Community","protocol":17,"map":"workshop/koth_trenchfoot_b1a.ugc731436616","folder":"tf","game":"Team Fortress","app_id":440,"player_count":0,"max_players":24,"Bots":0,"server_type":"Dedicated","server_os":"Linux","password":true,"vac":true,"version":"7757534","steam_id":85568392924866365,"keywords":["cp","nocrits","nodmgspread","uncletopia"],"game_id":440,"stv_port":27046,"stv_name":"Uncletopia | Chicago | 8 | Community | STV","players":null},{"server_id":8,"name":"Uncletopia | Dallas | 1 | All Maps","name_short":"dal-1","host":"dal-1.us.uncletopia.com","port":27015,"enabled":true,"region":"us-central","cc":"us","latitude":32.779167,"longitude":-96.80889,"reserved":0,"last_update":"0001-01-01T00:00:00Z","name_a2s":"Uncletopia | Dallas | 1 | All Maps","protocol":17,"map":"pl_upward","folder":"tf","game":"Team Fortress","app_id":440,"player_count":24,"max_players":24,"Bots":0,"server_type":"Dedicated","server_os":"Linux","password":true,"vac":true,"version":"7757534","steam_id":85568392924469986,"keywords":["nocrits","nodmgspread","payload","uncletopia"],"game_id":440,"stv_port":27016,"stv_name":"Uncletopia | Dallas | 1 | All Maps | STV","players":[{"user_id":380,"name":"McSmitten","steam_id":76561198022358379,"connected_time":2000000000000,"state":"active","ping":76},{"user_id":371,"name":"sora","steam_id":76561198094256973,"connected_time":2406000000000,"state":"active","ping":84},{"user_id":379,"name":":3","steam_id":76561198008599033,"connected_time":2160000000000,"state":"active","ping":118},{"user_id":403,"name":"TheGeeNeez","steam_id":76561198128800690,"connected_time":1203000000000,"state":"active","ping":83},{"user_id":396,"name":"A Pack of Traffic Greens","steam_id":76561198111866305,"connected_time":1279000000000,"state":"active","ping":78},{"user_id":392,"name":"Shamrock Shake Oct.10.2020 @8pm","steam_id":76561198833313201,"connected_time":1363000000000,"state":"active","ping":89},{"user_id":414,"name":"AlvWhispery","steam_id":76561198850017423,"connected_time":32000000000,"state":"active","ping":75},{"user_id":409,"name":"one loud Honk","steam_id":76561198072502345,"connected_time":622000000000,"state":"active","ping":78},{"user_id":407,"name":"The Announcer's Feet","steam_id":76561199443456893,"connected_time":789000000000,"state":"active","ping":47},{"user_id":384,"name":"Bliztank | RGL.gg","steam_id":76561198019252798,"connected_time":1687000000000,"state":"active","ping":75},{"user_id":393,"name":"BeerDrinker49000000000","steam_id":76561198846515168,"connected_time":1321000000000,"state":"active","ping":72},{"user_id":404,"name":"The Weatherman is fucking dying","steam_id":76561198000445420,"connected_time":1171000000000,"state":"active","ping":84},{"user_id":398,"name":"big ol' buford","steam_id":76561198290675957,"connected_time":1247000000000,"state":"active","ping":37},{"user_id":408,"name":"PinguEnjoyer6","steam_id":76561199186723516,"connected_time":674000000000,"state":"active","ping":114},{"user_id":385,"name":"C papi","steam_id":76561198027779564,"connected_time":1681000000000,"state":"active","ping":60},{"user_id":397,"name":"1up Pup","steam_id":76561199212623416,"connected_time":1276000000000,"state":"active","ping":88},{"user_id":387,"name":"Vladikr1","steam_id":76561198401495362,"connected_time":1668000000000,"state":"active","ping":86},{"user_id":400,"name":"Drowse","steam_id":76561198029794548,"connected_time":1241000000000,"state":"active","ping":83},{"user_id":401,"name":"LtK","steam_id":76561197993180943,"connected_time":1237000000000,"state":"active","ping":31},{"user_id":410,"name":"Literally a Trans Woman","steam_id":76561198054639925,"connected_time":552000000000,"state":"active","ping":86},{"user_id":411,"name":"soft bostonian cute girl voice","steam_id":76561198050192689,"connected_time":458000000000,"state":"active","ping":81},{"user_id":412,"name":"M4 Sherman","steam_id":76561198011096132,"connected_time":435000000000,"state":"active","ping":85},{"user_id":413,"name":"victordead121","steam_id":76561199180843121,"connected_time":305000000000,"state":"active","ping":113},{"user_id":330,"name":"waffen's kid","steam_id":76561197972661434,"connected_time":5646000000000,"state":"active","ping":58}]},{"server_id":108,"name":"Uncletopia | Dallas | 2 | All Maps","name_short":"dal-2","host":"dal-1.us.uncletopia.com","port":27025,"enabled":true,"region":"us-central","cc":"us","latitude":32.779167,"longitude":-96.80889,"reserved":0,"last_update":"0001-01-01T00:00:00Z","name_a2s":"Uncletopia | Dallas | 2 | All Maps","protocol":17,"map":"pl_borneo","folder":"tf","game":"Team Fortress","app_id":440,"player_count":17,"max_players":24,"Bots":0,"server_type":"Dedicated","server_os":"Linux","password":true,"vac":true,"version":"7757534","steam_id":85568392924469988,"keywords":["nocrits","nodmgspread","payload","uncletopia"],"game_id":440,"stv_port":27026,"stv_name":"Uncletopia | Dallas | 2 | All Maps | STV","players":[{"user_id":467,"name":"Fever Dreams","steam_id":76561198116614620,"connected_time":1485000000000,"state":"active","ping":71},{"user_id":481,"name":"Dankey Kang","steam_id":76561198090232160,"connected_time":143000000000,"state":"active","ping":98},{"user_id":468,"name":"Qdude","steam_id":76561198045444111,"connected_time":1471000000000,"state":"active","ping":75},{"user_id":469,"name":"Needleworking lo1ers","steam_id":76561198098132770,"connected_time":1465000000000,"state":"active","ping":84},{"user_id":482,"name":"TF.jubjub","steam_id":76561197996052825,"connected_time":82000000000,"state":"active","ping":86},{"user_id":483,"name":"Dell Conagher (real)","steam_id":76561198220120368,"connected_time":81000000000,"state":"active","ping":31},{"user_id":470,"name":"Steve Roger Rogers","steam_id":76561198869241750,"connected_time":1457000000000,"state":"active","ping":84},{"user_id":473,"name":"Emperor Dankatine","steam_id":76561198044741086,"connected_time":1384000000000,"state":"active","ping":72},{"user_id":484,"name":"kitti","steam_id":76561198353348772,"connected_time":37000000000,"state":"active","ping":173},{"user_id":404,"name":"Etomb","steam_id":76561198210017208,"connected_time":6509000000000,"state":"active","ping":70},{"user_id":407,"name":"Knower","steam_id":76561198036213722,"connected_time":6179000000000,"state":"active","ping":80},{"user_id":485,"name":"big oog corp","steam_id":76561198138221795,"connected_time":20000000000,"state":"active","ping":85},{"user_id":457,"name":"Gay Cake","steam_id":76561198004388831,"connected_time":2771000000000,"state":"active","ping":88},{"user_id":474,"name":"ice cream (冰淇淋)","steam_id":76561198976530881,"connected_time":1351000000000,"state":"active","ping":60},{"user_id":478,"name":"ayaya?","steam_id":76561199000188109,"connected_time":988000000000,"state":"active","ping":82},{"user_id":476,"name":"Magma","steam_id":76561198167279375,"connected_time":1247000000000,"state":"active","ping":78},{"user_id":479,"name":"trash beast","steam_id":76561198015792736,"connected_time":959000000000,"state":"active","ping":75}]},{"server_id":5,"name":"Uncletopia | Frankfurt | 1 | All Maps","name_short":"frk-1","host":"frk-1.de.uncletopia.com","port":27015,"enabled":true,"region":"eu","cc":"de","latitude":50.110924,"longitude":8.682127,"reserved":0,"last_update":"0001-01-01T00:00:00Z","name_a2s":"Uncletopia | Frankfurt | 1 | All Maps","protocol":17,"map":"koth_highpass","folder":"tf","game":"Team Fortress","app_id":440,"player_count":0,"max_players":24,"Bots":0,"server_type":"Dedicated","server_os":"Linux","password":true,"vac":true,"version":"7757534","steam_id":85568392924469989,"keywords":["cp","nocrits","nodmgspread","uncletopia"],"game_id":440,"stv_port":27016,"stv_name":"Uncletopia | Frankfurt | 1 | All Maps | STV","players":null},{"server_id":110,"name":"Uncletopia | Frankfurt | 2 | All Maps","name_short":"frk-2","host":"frk-1.de.uncletopia.com","port":27025,"enabled":true,"region":"eu","cc":"de","latitude":50.110924,"longitude":8.682127,"reserved":0,"last_update":"0001-01-01T00:00:00Z","name_a2s":"Uncletopia | Frankfurt | 2 | All Maps","protocol":17,"map":"koth_lakeside_final","folder":"tf","game":"Team Fortress","app_id":440,"player_count":0,"max_players":24,"Bots":0,"server_type":"Dedicated","server_os":"Linux","password":true,"vac":true,"version":"7757534","steam_id":85568392924469990,"keywords":["cp","nocrits","nodmgspread","uncletopia"],"game_id":440,"stv_port":27026,"stv_name":"Uncletopia | Frankfurt | 2 | All Maps | STV","players":null},{"server_id":308,"name":"Uncletopia | Frankfurt | 3 | All Maps","name_short":"frk-3","host":"frk-1.de.uncletopia.com","port":27035,"enabled":true,"region":"eu","cc":"de","latitude":50.110924,"longitude":8.682127,"reserved":0,"last_update":"0001-01-01T00:00:00Z","name_a2s":"Uncletopia | Frankfurt | 3 | All Maps","protocol":17,"map":"cp_altitude","folder":"tf","game":"Team Fortress","app_id":440,"player_count":0,"max_players":24,"Bots":0,"server_type":"Dedicated","server_os":"Linux","password":true,"vac":true,"version":"7757534","steam_id":85568392924504274,"keywords":["cp","nocrits","nodmgspread","uncletopia"],"game_id":440,"stv_port":27036,"stv_name":"Uncletopia | Frankfurt | 3 | All Maps | STV","players":null},{"server_id":309,"name":"Uncletopia | Frankfurt | 4 | All Maps","name_short":"frk-4","host":"frk-1.de.uncletopia.com","port":27045,"enabled":true,"region":"eu","cc":"de","latitude":50.110924,"longitude":8.682127,"reserved":0,"last_update":"0001-01-01T00:00:00Z","name_a2s":"Uncletopia | Frankfurt | 4 | All Maps","protocol":17,"map":"cp_altitude","folder":"tf","game":"Team Fortress","app_id":440,"player_count":0,"max_players":24,"Bots":0,"server_type":"Dedicated","server_os":"Linux","password":true,"vac":true,"version":"7757534","steam_id":85568392924504275,"keywords":["cp","nocrits","nodmgspread","uncletopia"],"game_id":440,"stv_port":27046,"stv_name":"Uncletopia | Frankfurt | 4 | All Maps | STV","players":null},{"server_id":310,"name":"Uncletopia | Frankfurt | 5 | All Maps","name_short":"frk-5","host":"frk-1.de.uncletopia.com","port":27055,"enabled":true,"region":"eu","cc":"de","latitude":50.110924,"longitude":8.682127,"reserved":0,"last_update":"0001-01-01T00:00:00Z","name_a2s":"Uncletopia | Frankfurt | 5 | All Maps","protocol":17,"map":"cp_altitude","folder":"tf","game":"Team Fortress","app_id":440,"player_count":0,"max_players":24,"Bots":0,"server_type":"Dedicated","server_os":"Linux","password":true,"vac":true,"version":"7757534","steam_id":85568392924504277,"keywords":["cp","nocrits","nodmgspread","uncletopia"],"game_id":440,"stv_port":27056,"stv_name":"Uncletopia | Frankfurt | 5 | All Maps | STV","players":null},{"server_id":311,"name":"Uncletopia | Frankfurt | 6 | All Maps","name_short":"frk-6","host":"frk-1.de.uncletopia.com","port":27065,"enabled":true,"region":"eu","cc":"de","latitude":50.110924,"longitude":8.682127,"reserved":0,"last_update":"0001-01-01T00:00:00Z","name_a2s":"Uncletopia | Frankfurt | 6 | All Maps","protocol":17,"map":"koth_highpass","folder":"tf","game":"Team Fortress","app_id":440,"player_count":0,"max_players":24,"Bots":0,"server_type":"Dedicated","server_os":"Linux","password":true,"vac":true,"version":"7757534","steam_id":85568392924504278,"keywords":["cp","nocrits","nodmgspread","uncletopia"],"game_id":440,"stv_port":27066,"stv_name":"Uncletopia | Frankfurt | 6 | All Maps | STV","players":null},{"server_id":23,"name":"Uncletopia | Frankfurt | 7 | Stopwatch Beta","name_short":"frk-7","host":"frk-1.de.uncletopia.com","port":27075,"enabled":true,"region":"eu","cc":"de","latitude":50.110924,"longitude":8.682127,"reserved":0,"last_update":"0001-01-01T00:00:00Z","name_a2s":"Uncletopia | Frankfurt | 7 | Stopwatch Beta","protocol":17,"map":"pl_frontier_final","folder":"tf","game":"Team Fortress","app_id":440,"player_count":0,"max_players":24,"Bots":0,"server_type":"Dedicated","server_os":"Linux","password":true,"vac":true,"version":"7757534","steam_id":85568392924742827,"keywords":["nocrits","nodmgspread","payload","uncletopia"],"game_id":440,"stv_port":27076,"stv_name":"Uncletopia | Frankfurt | 7 | Stopwatch Beta | STV","players":null},{"server_id":24,"name":"Uncletopia | Frankfurt | 8 | Community","name_short":"frk-8","host":"frk-1.de.uncletopia.com","port":27085,"enabled":true,"region":"eu","cc":"de","latitude":50.110924,"longitude":8.682127,"reserved":0,"last_update":"0001-01-01T00:00:00Z","name_a2s":"Uncletopia | Frankfurt | 8 | Community","protocol":17,"map":"pl_badwater","folder":"tf","game":"Team Fortress","app_id":440,"player_count":0,"max_players":24,"Bots":0,"server_type":"Dedicated","server_os":"Linux","password":true,"vac":true,"version":"7757534","steam_id":85568392924742828,"keywords":["nocrits","nodmgspread","payload","uncletopia"],"game_id":440,"stv_port":27086,"stv_name":"Uncletopia | Frankfurt | 8 | Community | STV","players":null},{"server_id":202,"name":"Uncletopia | Hong Kong | 1 | All Maps","name_short":"hgk-1","host":"hgk-1.hk.uncletopia.com","port":27015,"enabled":true,"region":"asia","cc":"hk","latitude":22.302711,"longitude":114.177216,"reserved":0,"last_update":"0001-01-01T00:00:00Z","name_a2s":"Uncletopia | Hong Kong | 1 | All Maps","protocol":17,"map":"koth_cascade","folder":"tf","game":"Team Fortress","app_id":440,"player_count":0,"max_players":24,"Bots":0,"server_type":"Dedicated","server_os":"Linux","password":true,"vac":true,"version":"7757534","steam_id":85568392924494504,"keywords":["cp","nocrits","nodmgspread","uncletopia"],"game_id":440,"stv_port":27016,"stv_name":"Uncletopia | Hong Kong | 1 | All Maps | STV","players":null},{"server_id":1,"name":"Uncletopia | Los Angeles | 1 | All Maps","name_short":"lax-1","host":"lax-1.us.uncletopia.com","port":27015,"enabled":true,"region":"us-west","cc":"us","latitude":33.94279,"longitude":-118.41004,"reserved":0,"last_update":"0001-01-01T00:00:00Z","name_a2s":"Uncletopia | Los Angeles | 1 | All Maps","protocol":17,"map":"koth_harvest_final","folder":"tf","game":"Team Fortress","app_id":440,"player_count":0,"max_players":24,"Bots":0,"server_type":"Dedicated","server_os":"Linux","password":true,"vac":true,"version":"7757534","steam_id":85568392924469991,"keywords":["cp","nocrits","nodmgspread","uncletopia"],"game_id":440,"stv_port":27016,"stv_name":"Uncletopia | Los Angeles | 1 | All Maps | STV","players":null},{"server_id":112,"name":"Uncletopia | Los Angeles | 2 | All Maps","name_short":"lax-2","host":"lax-1.us.uncletopia.com","port":27025,"enabled":true,"region":"us-west","cc":"us","latitude":33.94279,"longitude":-118.41004,"reserved":0,"last_update":"0001-01-01T00:00:00Z","name_a2s":"Uncletopia | Los Angeles | 2 | All Maps","protocol":17,"map":"koth_cascade","folder":"tf","game":"Team Fortress","app_id":440,"player_count":0,"max_players":24,"Bots":0,"server_type":"Dedicated","server_os":"Linux","password":true,"vac":true,"version":"7757534","steam_id":85568392924469992,"keywords":["cp","nocrits","nodmgspread","uncletopia"],"game_id":440,"stv_port":27026,"stv_name":"Uncletopia | Los Angeles | 2 | All Maps | STV","players":null},{"server_id":324,"name":"Uncletopia | Los Angeles | 3 | All Maps","name_short":"lax-3","host":"lax-1.us.uncletopia.com","port":27035,"enabled":true,"region":"us-west","cc":"us","latitude":33.94279,"longitude":-118.41004,"reserved":0,"last_update":"0001-01-01T00:00:00Z","name_a2s":"Uncletopia | Los Angeles | 3 | All Maps","protocol":17,"map":"cp_sunshine","folder":"tf","game":"Team Fortress","app_id":440,"player_count":17,"max_players":24,"Bots":0,"server_type":"Dedicated","server_os":"Linux","password":true,"vac":true,"version":"7757534","steam_id":85568392924510198,"keywords":["cp","nocrits","nodmgspread","uncletopia"],"game_id":440,"stv_port":27036,"stv_name":"Uncletopia | Los Angeles | 3 | All Maps | STV","players":[{"user_id":268,"name":"Ash!❤","steam_id":76561198070398840,"connected_time":322000000000,"state":"active","ping":69},{"user_id":234,"name":"wee wiw gamewr","steam_id":76561198314221897,"connected_time":4150000000000,"state":"active","ping":75},{"user_id":266,"name":"PLak-PlaK","steam_id":76561198115688122,"connected_time":359000000000,"state":"active","ping":63},{"user_id":235,"name":"StrangeMachine","steam_id":76561198046628064,"connected_time":4145000000000,"state":"active","ping":68},{"user_id":236,"name":"Matisguy","steam_id":76561199020903681,"connected_time":4141000000000,"state":"active","ping":86},{"user_id":262,"name":"riri ᗜᴗᗜ","steam_id":76561198055462404,"connected_time":877000000000,"state":"active","ping":33},{"user_id":251,"name":"the man","steam_id":76561198389268114,"connected_time":2092000000000,"state":"active","ping":164},{"user_id":260,"name":"JustSomeBirb","steam_id":76561198357812204,"connected_time":964000000000,"state":"active","ping":63},{"user_id":242,"name":"Baby Llama","steam_id":76561198407155682,"connected_time":3013000000000,"state":"active","ping":69},{"user_id":263,"name":"A Glazed Donut","steam_id":76561198297536267,"connected_time":806000000000,"state":"active","ping":41},{"user_id":253,"name":"[FGCP] party hat","steam_id":76561198044268609,"connected_time":2033000000000,"state":"active","ping":110},{"user_id":267,"name":"EsQ","steam_id":76561198242699432,"connected_time":339000000000,"state":"active","ping":51},{"user_id":243,"name":"Sokky","steam_id":76561198001798544,"connected_time":3011000000000,"state":"active","ping":60},{"user_id":254,"name":"raya","steam_id":76561198051504581,"connected_time":2032000000000,"state":"active","ping":75},{"user_id":256,"name":"hakken","steam_id":76561199102391736,"connected_time":1193000000000,"state":"active","ping":45},{"user_id":264,"name":"PaintMyMeow","steam_id":76561198056860387,"connected_time":726000000000,"state":"active","ping":86},{"user_id":204,"name":"cjetson","steam_id":76561198074482272,"connected_time":6746000000000,"state":"active","ping":58}]},{"server_id":25,"name":"Uncletopia | Los Angeles | 4 | Stopwatch Beta","name_short":"lax-4","host":"lax-1.us.uncletopia.com","port":27045,"enabled":true,"region":"us-west","cc":"us","latitude":33.94279,"longitude":-118.41004,"reserved":0,"last_update":"0001-01-01T00:00:00Z","name_a2s":"Uncletopia | Los Angeles | 4 | Stopwatch Beta","protocol":17,"map":"pl_frontier_final","folder":"tf","game":"Team Fortress","app_id":440,"player_count":0,"max_players":24,"Bots":0,"server_type":"Dedicated","server_os":"Linux","password":true,"vac":true,"version":"7757534","steam_id":85568392924510199,"keywords":["nocrits","nodmgspread","payload","uncletopia"],"game_id":440,"stv_port":27046,"stv_name":"Uncletopia | Los Angeles | 4 | Stopwatch Beta | STV","players":null},{"server_id":11,"name":"Uncletopia | London | 1 | All Maps","name_short":"lon-1","host":"lon-1.uk.uncletopia.com","port":27015,"enabled":true,"region":"eu","cc":"gb","latitude":51.509865,"longitude":-0.118092,"reserved":0,"last_update":"0001-01-01T00:00:00Z","name_a2s":"Uncletopia | London | 1 | All Maps","protocol":17,"map":"koth_viaduct","folder":"tf","game":"Team Fortress","app_id":440,"player_count":0,"max_players":24,"Bots":0,"server_type":"Dedicated","server_os":"Linux","password":true,"vac":true,"version":"7757534","steam_id":85568392924367362,"keywords":["cp","nocrits","nodmgspread","uncletopia"],"game_id":440,"stv_port":27016,"stv_name":"Uncletopia | London | 1 | All Maps | STV","players":null},{"server_id":114,"name":"Uncletopia | London | 2 | All Maps","name_short":"lon-2","host":"lon-1.uk.uncletopia.com","port":27025,"enabled":true,"region":"eu","cc":"gb","latitude":51.509865,"longitude":-0.118092,"reserved":0,"last_update":"0001-01-01T00:00:00Z","name_a2s":"Uncletopia | London | 2 | All Maps","protocol":17,"map":"cp_dustbowl","folder":"tf","game":"Team Fortress","app_id":440,"player_count":0,"max_players":24,"Bots":0,"server_type":"Dedicated","server_os":"Linux","password":true,"vac":true,"version":"7757534","steam_id":85568392924470941,"keywords":["cp","nocrits","nodmgspread","uncletopia"],"game_id":440,"stv_port":27026,"stv_name":"Uncletopia | London | 2 | All Maps | STV","players":null},{"server_id":320,"name":"Uncletopia | London | 3 | All Maps","name_short":"lon-3","host":"lon-1.uk.uncletopia.com","port":27035,"enabled":true,"region":"eu","cc":"gb","latitude":51.509865,"longitude":-0.118092,"reserved":0,"last_update":"0001-01-01T00:00:00Z","name_a2s":"Uncletopia | London | 3 | All Maps","protocol":17,"map":"pl_badwater","folder":"tf","game":"Team Fortress","app_id":440,"player_count":0,"max_players":24,"Bots":0,"server_type":"Dedicated","server_os":"Linux","password":true,"vac":true,"version":"7757534","steam_id":85568392924510192,"keywords":["nocrits","nodmgspread","payload","uncletopia"],"game_id":440,"stv_port":27036,"stv_name":"Uncletopia | London | 3 | All Maps | STV","players":null},{"server_id":321,"name":"Uncletopia | London | 4 | All Maps","name_short":"lon-4","host":"lon-1.uk.uncletopia.com","port":27045,"enabled":true,"region":"eu","cc":"gb","latitude":51.509865,"longitude":-0.118092,"reserved":0,"last_update":"0001-01-01T00:00:00Z","name_a2s":"Uncletopia | London | 4 | All Maps","protocol":17,"map":"koth_viaduct","folder":"tf","game":"Team Fortress","app_id":440,"player_count":0,"max_players":24,"Bots":0,"server_type":"Dedicated","server_os":"Linux","password":true,"vac":true,"version":"7757534","steam_id":85568392924510193,"keywords":["cp","nocrits","nodmgspread","uncletopia"],"game_id":440,"stv_port":27046,"stv_name":"Uncletopia | London | 4 | All Maps | STV","players":null},{"server_id":21,"name":"Uncletopia | London | 5 | All Maps","name_short":"lon-5","host":"lon-1.uk.uncletopia.com","port":27055,"enabled":true,"region":"eu","cc":"gb","latitude":51.509865,"longitude":-0.118092,"reserved":0,"last_update":"0001-01-01T00:00:00Z","name_a2s":"Uncletopia | London | 5 | All Maps","protocol":17,"map":"pl_barnblitz","folder":"tf","game":"Team Fortress","app_id":440,"player_count":9,"max_players":24,"Bots":0,"server_type":"Dedicated","server_os":"Linux","password":true,"vac":true,"version":"7757534","steam_id":85568392924742829,"keywords":["nocrits","nodmgspread","payload","uncletopia"],"game_id":440,"stv_port":27056,"stv_name":"Uncletopia | London | 5 | All Maps | STV","players":[{"user_id":3,"name":"fried","steam_id":76561198307522022,"connected_time":3356000000000,"state":"active","ping":49},{"user_id":4,"name":"yeldad","steam_id":76561198447264153,"connected_time":2248000000000,"state":"active","ping":115},{"user_id":9,"name":"Mata","steam_id":76561198308191713,"connected_time":156000000000,"state":"active","ping":69},{"user_id":6,"name":"OffMilky","steam_id":76561198831440921,"connected_time":1119000000000,"state":"active","ping":26},{"user_id":7,"name":"Nerfan20 #SaveTF2","steam_id":76561198227391788,"connected_time":820000000000,"state":"active","ping":87},{"user_id":8,"name":"Con","steam_id":76561197961265458,"connected_time":789000000000,"state":"active","ping":128},{"user_id":10,"name":"getting another lethal injectio","steam_id":76561199414716848,"connected_time":127000000000,"state":"active","ping":64},{"user_id":11,"name":"posht0O  \u003e:)","steam_id":76561198106182078,"connected_time":114000000000,"state":"active","ping":105},{"user_id":12,"name":"sabaka jebanoia","steam_id":76561198147249160,"connected_time":53000000000,"state":"active","ping":105}]},{"server_id":22,"name":"Uncletopia | London | 6 | All Maps","name_short":"lon-6","host":"lon-1.uk.uncletopia.com","port":27065,"enabled":true,"region":"eu","cc":"gb","latitude":51.509865,"longitude":-0.118092,"reserved":0,"last_update":"0001-01-01T00:00:00Z","name_a2s":"Uncletopia | London | 6 | All Maps","protocol":17,"map":"koth_cascade","folder":"tf","game":"Team Fortress","app_id":440,"player_count":0,"max_players":24,"Bots":0,"server_type":"Dedicated","server_os":"Linux","password":true,"vac":true,"version":"7757534","steam_id":85568392924742830,"keywords":["cp","nocrits","nodmgspread","uncletopia"],"game_id":440,"stv_port":27066,"stv_name":"Uncletopia | London | 6 | All Maps | STV","players":null},{"server_id":40,"name":"Uncletopia | London | 7 | No Payload","name_short":"lon-7","host":"lon-1.uk.uncletopia.com","port":27075,"enabled":true,"region":"eu","cc":"gb","latitude":51.509865,"longitude":-0.118092,"reserved":0,"last_update":"0001-01-01T00:00:00Z","name_a2s":"Uncletopia | London | 7 | No Payload","protocol":17,"map":"cp_process_final","folder":"tf","game":"Team Fortress","app_id":440,"player_count":0,"max_players":24,"Bots":0,"server_type":"Dedicated","server_os":"Linux","password":true,"vac":true,"version":"7757534","steam_id":85568392924964314,"keywords":["cp","nocrits","nodmgspread","uncletopia"],"game_id":440,"stv_port":27076,"stv_name":"Uncletopia | London | 7 | No Payload | STV","players":null},{"server_id":41,"name":"Uncletopia | London | 8 | Community","name_short":"lon-8","host":"lon-1.uk.uncletopia.com","port":27085,"enabled":true,"region":"eu","cc":"gb","latitude":51.509865,"longitude":-0.118092,"reserved":0,"last_update":"0001-01-01T00:00:00Z","name_a2s":"Uncletopia | London | 8 | Community","protocol":17,"map":"pl_upward","folder":"tf","game":"Team Fortress","app_id":440,"player_count":0,"max_players":24,"Bots":0,"server_type":"Dedicated","server_os":"Linux","password":true,"vac":true,"version":"7757534","steam_id":85568392924964315,"keywords":["nocrits","nodmgspread","payload","uncletopia"],"game_id":440,"stv_port":27086,"stv_name":"Uncletopia | London | 8 | Community | STV","players":null},{"server_id":300,"name":"Uncletopia | Montréal | 1 | All Maps","name_short":"mtl-1","host":"mtl-1.ca.uncletopia.com","port":27015,"enabled":true,"region":"us-east","cc":"ca","latitude":45.50889,"longitude":-73.56167,"reserved":0,"last_update":"0001-01-01T00:00:00Z","name_a2s":"Uncletopia | Montréal | 1 | All Maps","protocol":17,"map":"koth_cascade","folder":"tf","game":"Team Fortress","app_id":440,"player_count":0,"max_players":24,"Bots":0,"server_type":"Dedicated","server_os":"Linux","password":true,"vac":true,"version":"7757534","steam_id":85568392924500087,"keywords":["cp","nocrits","nodmgspread","uncletopia"],"game_id":440,"stv_port":27016,"stv_name":"Uncletopia | Montréal | 1 | All Maps | STV","players":null},{"server_id":301,"name":"Uncletopia | Montréal | 2 | All Maps","name_short":"mtl-2","host":"mtl-1.ca.uncletopia.com","port":27025,"enabled":true,"region":"us-east","cc":"ca","latitude":45.50889,"longitude":-73.56167,"reserved":0,"last_update":"0001-01-01T00:00:00Z","name_a2s":"Uncletopia | Montréal | 2 | All Maps","protocol":17,"map":"koth_highpass","folder":"tf","game":"Team Fortress","app_id":440,"player_count":0,"max_players":24,"Bots":0,"server_type":"Dedicated","server_os":"Linux","password":true,"vac":true,"version":"7757534","steam_id":85568392924500088,"keywords":["cp","nocrits","nodmgspread","uncletopia"],"game_id":440,"stv_port":27026,"stv_name":"Uncletopia | Montréal | 2 | All Maps | STV","players":null},{"server_id":302,"name":"Uncletopia | Montréal | 3 | All Maps","name_short":"mtl-3","host":"mtl-1.ca.uncletopia.com","port":27035,"enabled":true,"region":"us-east","cc":"ca","latitude":45.50889,"longitude":-73.56167,"reserved":0,"last_update":"0001-01-01T00:00:00Z","name_a2s":"Uncletopia | Montréal | 3 | All Maps","protocol":17,"map":"cp_altitude","folder":"tf","game":"Team Fortress","app_id":440,"player_count":0,"max_players":24,"Bots":0,"server_type":"Dedicated","server_os":"Linux","password":true,"vac":true,"version":"7757534","steam_id":85568392924500089,"keywords":["cp","nocrits","nodmgspread","uncletopia"],"game_id":440,"stv_port":27036,"stv_name":"Uncletopia | Montréal | 3 | All Maps | STV","players":null},{"server_id":303,"name":"Uncletopia | Montréal | 4 | No Payload","name_short":"mtl-4","host":"mtl-1.ca.uncletopia.com","port":27045,"enabled":true,"region":"us-east","cc":"ca","latitude":45.50889,"longitude":-73.56167,"reserved":0,"last_update":"0001-01-01T00:00:00Z","name_a2s":"Uncletopia | Montréal | 4 | No Payload","protocol":17,"map":"koth_lazarus","folder":"tf","game":"Team Fortress","app_id":440,"player_count":0,"max_players":24,"Bots":0,"server_type":"Dedicated","server_os":"Linux","password":true,"vac":true,"version":"7757534","steam_id":85568392924500090,"keywords":["cp","nocrits","nodmgspread","uncletopia"],"game_id":440,"stv_port":27046,"stv_name":"Uncletopia | Montréal | 4 | No Payload | STV","players":null},{"server_id":13,"name":"Uncletopia | New York City | 1 | All Maps","name_short":"nyc-1","host":"nyc-1.us.uncletopia.com","port":27015,"enabled":true,"region":"us-east","cc":"us","latitude":40.73061,"longitude":-73.93524,"reserved":0,"last_update":"0001-01-01T00:00:00Z","name_a2s":"Uncletopia | New York City | 1 | All Maps","protocol":17,"map":"koth_lakeside_final","folder":"tf","game":"Team Fortress","app_id":440,"player_count":0,"max_players":24,"Bots":0,"server_type":"Dedicated","server_os":"Linux","password":true,"vac":true,"version":"7757534","steam_id":85568392924469993,"keywords":["cp","nocrits","nodmgspread","uncletopia"],"game_id":440,"stv_port":27016,"stv_name":"Uncletopia | New York City | 1 | All Maps | STV","players":null},{"server_id":14,"name":"Uncletopia | New York City | 2 | All Maps","name_short":"nyc-2","host":"nyc-1.us.uncletopia.com","port":27025,"enabled":true,"region":"us-east","cc":"us","latitude":40.73061,"longitude":-73.93524,"reserved":0,"last_update":"0001-01-01T00:00:00Z","name_a2s":"Uncletopia | New York City | 2 | All Maps","protocol":17,"map":"pl_barnblitz","folder":"tf","game":"Team Fortress","app_id":440,"player_count":0,"max_players":24,"Bots":0,"server_type":"Dedicated","server_os":"Linux","password":true,"vac":true,"version":"7757534","steam_id":85568392924469994,"keywords":["nocrits","nodmgspread","payload","uncletopia"],"game_id":440,"stv_port":27026,"stv_name":"Uncletopia | New York City | 2 | All Maps | STV","players":null},{"server_id":15,"name":"Uncletopia | New York City | 3 | Stopwatch Beta","name_short":"nyc-3","host":"nyc-1.us.uncletopia.com","port":27035,"enabled":true,"region":"us-east","cc":"us","latitude":40.73061,"longitude":-73.93524,"reserved":0,"last_update":"0001-01-01T00:00:00Z","name_a2s":"Uncletopia | New York City | 3 | Stopwatch Beta","protocol":17,"map":"workshop/pl_vigil_rc9.ugc1266210012","folder":"tf","game":"Team Fortress","app_id":440,"player_count":0,"max_players":24,"Bots":0,"server_type":"Dedicated","server_os":"Linux","password":true,"vac":true,"version":"7757534","steam_id":85568392924742820,"keywords":["nocrits","nodmgspread","payload","uncletopia"],"game_id":440,"stv_port":27036,"stv_name":"Uncletopia | New York City | 3 | Stopwatch Beta | STV","players":null},{"server_id":16,"name":"Uncletopia | New York City | 4 | Community","name_short":"nyc-4","host":"nyc-1.us.uncletopia.com","port":27045,"enabled":true,"region":"us-east","cc":"us","latitude":40.73061,"longitude":-73.93524,"reserved":0,"last_update":"0001-01-01T00:00:00Z","name_a2s":"Uncletopia | New York City | 4 | Community","protocol":17,"map":"workshop/cp_croissant_final.ugc458840209","folder":"tf","game":"Team Fortress","app_id":440,"player_count":0,"max_players":24,"Bots":0,"server_type":"Dedicated","server_os":"Linux","password":true,"vac":true,"version":"7757534","steam_id":85568392924742821,"keywords":["cp","nocrits","nodmgspread","uncletopia"],"game_id":440,"stv_port":27046,"stv_name":"Uncletopia | New York City | 4 | Community | STV","players":null},{"server_id":142,"name":"Uncletopia | São Paulo | 1 | All Maps","name_short":"sao-1","host":"sao-1.br.uncletopia.com","port":27015,"enabled":true,"region":"sa","cc":"br","latitude":-23.533773,"longitude":-46.62529,"reserved":0,"last_update":"0001-01-01T00:00:00Z","name_a2s":"Uncletopia | São Paulo | 1 | All Maps","protocol":17,"map":"koth_cascade","folder":"tf","game":"Team Fortress","app_id":440,"player_count":0,"max_players":24,"Bots":0,"server_type":"Dedicated","server_os":"Linux","password":true,"vac":true,"version":"7757534","steam_id":85568392924469996,"keywords":["cp","nocrits","nodmgspread","uncletopia"],"game_id":440,"stv_port":27016,"stv_name":"Uncletopia | São Paulo | 1 | All Maps | STV","players":null},{"server_id":143,"name":"Uncletopia | São Paulo | 2 | All Maps","name_short":"sao-2","host":"sao-2.br.uncletopia.com","port":27015,"enabled":true,"region":"sa","cc":"br","latitude":-23.533773,"longitude":-46.62529,"reserved":0,"last_update":"0001-01-01T00:00:00Z","name_a2s":"Uncletopia | São Paulo | 2 | All Maps","protocol":17,"map":"pl_barnblitz","folder":"tf","game":"Team Fortress","app_id":440,"player_count":0,"max_players":24,"Bots":0,"server_type":"Dedicated","server_os":"Linux","password":true,"vac":true,"version":"7757534","steam_id":85568392924485349,"keywords":["nocrits","nodmgspread","payload","uncletopia"],"game_id":440,"stv_port":27016,"stv_name":"Uncletopia | São Paulo | 2 | All Maps | STV","players":null},{"server_id":7,"name":"Uncletopia | Seattle | 1 | All Maps","name_short":"sea-1","host":"sea-1.us.uncletopia.com","port":27015,"enabled":true,"region":"us-west","cc":"us","latitude":47.608013,"longitude":-122.33517,"reserved":0,"last_update":"0001-01-01T00:00:00Z","name_a2s":"Uncletopia | Seattle | 1 | All Maps","protocol":17,"map":"pl_barnblitz","folder":"tf","game":"Team Fortress","app_id":440,"player_count":24,"max_players":24,"Bots":0,"server_type":"Dedicated","server_os":"Linux","password":true,"vac":true,"version":"7757534","steam_id":85568392924469997,"keywords":["nocrits","nodmgspread","payload","uncletopia"],"game_id":440,"stv_port":27016,"stv_name":"Uncletopia | Seattle | 1 | All Maps | STV","players":[{"user_id":922,"name":"Cam(era)","steam_id":76561198285054047,"connected_time":1177000000000,"state":"active","ping":83},{"user_id":916,"name":"Just ate a big mac ama","steam_id":76561198857237473,"connected_time":2608000000000,"state":"active","ping":52},{"user_id":905,"name":"Oh No! It's Twister!","steam_id":76561198016791916,"connected_time":3798000000000,"state":"active","ping":75},{"user_id":936,"name":"a crazy hobo","steam_id":76561198289650060,"connected_time":377000000000,"state":"active","ping":88},{"user_id":886,"name":"Dr. Karl, the AUS Science Guy","steam_id":76561198031278747,"connected_time":5367000000000,"state":"active","ping":46},{"user_id":932,"name":"Dr. Bodacious","steam_id":76561199122205825,"connected_time":677000000000,"state":"active","ping":68},{"user_id":918,"name":"fwoov","steam_id":76561198129166260,"connected_time":2100000000000,"state":"active","ping":83},{"user_id":910,"name":"mike","steam_id":76561198163265338,"connected_time":2911000000000,"state":"active","ping":44},{"user_id":930,"name":"taco bell fire sauce","steam_id":76561198046073848,"connected_time":728000000000,"state":"active","ping":47},{"user_id":904,"name":"Camohno","steam_id":76561198283519918,"connected_time":3866000000000,"state":"active","ping":69},{"user_id":919,"name":"ich bin glenn quagmire","steam_id":76561198234581744,"connected_time":1994000000000,"state":"active","ping":88},{"user_id":885,"name":"gorlab","steam_id":76561198025089694,"connected_time":5371000000000,"state":"active","ping":69},{"user_id":927,"name":"shane","steam_id":76561198060491451,"connected_time":917000000000,"state":"active","ping":85},{"user_id":926,"name":"I'm on a Boat!","steam_id":76561199001748822,"connected_time":927000000000,"state":"active","ping":44},{"user_id":870,"name":"Ayayahuasca","steam_id":76561199002906056,"connected_time":6986000000000,"state":"active","ping":51},{"user_id":937,"name":"rlty","steam_id":76561198009395055,"connected_time":111000000000,"state":"active","ping":120},{"user_id":933,"name":"Resident Thrussy Lender","steam_id":76561198071790583,"connected_time":650000000000,"state":"active","ping":112},{"user_id":917,"name":"goldhed","steam_id":76561198051751133,"connected_time":2332000000000,"state":"active","ping":51},{"user_id":935,"name":"seats","steam_id":76561197998756039,"connected_time":593000000000,"state":"active","ping":76},{"user_id":876,"name":"mmmBoyo","steam_id":76561198821360261,"connected_time":6791000000000,"state":"active","ping":56},{"user_id":913,"name":"クールエイドマン","steam_id":76561198111645213,"connected_time":2849000000000,"state":"active","ping":76},{"user_id":908,"name":"rat gets the cheese","steam_id":76561198031234032,"connected_time":3188000000000,"state":"active","ping":101},{"user_id":914,"name":"gamerweed5","steam_id":76561198087651151,"connected_time":2835000000000,"state":"active","ping":179},{"user_id":923,"name":"Bubbamanme","steam_id":76561198119778504,"connected_time":1177000000000,"state":"active","ping":56}]},{"server_id":119,"name":"Uncletopia | Seattle | 2 | All Maps","name_short":"sea-2","host":"sea-1.us.uncletopia.com","port":27025,"enabled":true,"region":"us-west","cc":"us","latitude":47.608013,"longitude":-122.33517,"reserved":0,"last_update":"0001-01-01T00:00:00Z","name_a2s":"Uncletopia | Seattle | 2 | All Maps","protocol":17,"map":"koth_cascade","folder":"tf","game":"Team Fortress","app_id":440,"player_count":24,"max_players":24,"Bots":0,"server_type":"Dedicated","server_os":"Linux","password":true,"vac":true,"version":"7757534","steam_id":85568392924469998,"keywords":["cp","nocrits","nodmgspread","uncletopia"],"game_id":440,"stv_port":27026,"stv_name":"Uncletopia | Seattle | 2 | All Maps | STV","players":[{"user_id":589,"name":"kilometers","steam_id":76561198090642147,"connected_time":1334000000000,"state":"active","ping":88},{"user_id":497,"name":"Uncle Feathers McGraw","steam_id":76561198046442707,"connected_time":5683000000000,"state":"active","ping":46},{"user_id":590,"name":"matto1120","steam_id":76561198201321499,"connected_time":1325000000000,"state":"active","ping":90},{"user_id":595,"name":"mub","steam_id":76561197961943948,"connected_time":986000000000,"state":"active","ping":45},{"user_id":592,"name":"Frenchfry_Addict","steam_id":76561199156867989,"connected_time":1081000000000,"state":"active","ping":72},{"user_id":587,"name":"walker","steam_id":76561198031669769,"connected_time":1437000000000,"state":"active","ping":122},{"user_id":604,"name":"Sweatpants","steam_id":76561198097188001,"connected_time":617000000000,"state":"active","ping":49},{"user_id":554,"name":"dP | I'm in a Wookie Suit","steam_id":76561198083307644,"connected_time":2988000000000,"state":"active","ping":57},{"user_id":601,"name":"Algerian Egirl :3c","steam_id":76561198349345477,"connected_time":890000000000,"state":"active","ping":103},{"user_id":594,"name":"gman gaming","steam_id":76561198000744865,"connected_time":1013000000000,"state":"active","ping":47},{"user_id":495,"name":"Lmao Zedong","steam_id":76561198043765829,"connected_time":6797000000000,"state":"active","ping":55},{"user_id":579,"name":"kaeru","steam_id":76561198043789098,"connected_time":1771000000000,"state":"active","ping":70},{"user_id":588,"name":"mommy","steam_id":76561198129195009,"connected_time":1382000000000,"state":"active","ping":63},{"user_id":564,"name":"Leidon","steam_id":76561198078386945,"connected_time":2333000000000,"state":"active","ping":80},{"user_id":555,"name":"Nobuunga","steam_id":76561198100614981,"connected_time":2886000000000,"state":"active","ping":60},{"user_id":556,"name":"tender mike","steam_id":76561198058821622,"connected_time":2873000000000,"state":"active","ping":90},{"user_id":602,"name":"Sinister","steam_id":76561198023493258,"connected_time":882000000000,"state":"active","ping":98},{"user_id":596,"name":"Yogurt Raisins","steam_id":76561198172748357,"connected_time":973000000000,"state":"active","ping":73},{"user_id":500,"name":"CheeseyJoe","steam_id":76561198062182044,"connected_time":5666000000000,"state":"active","ping":59},{"user_id":578,"name":"JTuu","steam_id":76561198030606396,"connected_time":1780000000000,"state":"active","ping":43},{"user_id":581,"name":"SYMBOL_YT","steam_id":76561198848655517,"connected_time":1681000000000,"state":"active","ping":63},{"user_id":585,"name":"swarm","steam_id":76561198019435762,"connected_time":1520000000000,"state":"active","ping":60},{"user_id":583,"name":"NoNoWire","steam_id":76561198106308056,"connected_time":1583000000000,"state":"active","ping":84},{"user_id":603,"name":"A B1 Battle Droid","steam_id":76561198050678984,"connected_time":860000000000,"state":"active","ping":90}]},{"server_id":406,"name":"Uncletopia | Seattle | 3 | Stopwatch Beta","name_short":"sea-3","host":"sea-1.us.uncletopia.com","port":27035,"enabled":true,"region":"us-west","cc":"us","latitude":47.608013,"longitude":-122.33517,"reserved":0,"last_update":"0001-01-01T00:00:00Z","name_a2s":"Uncletopia | Seattle | 3 | Stopwatch Beta","protocol":17,"map":"workshop/koth_bagel_rc5.ugc2514036946","folder":"tf","game":"Team Fortress","app_id":440,"player_count":0,"max_players":24,"Bots":0,"server_type":"Dedicated","server_os":"Linux","password":true,"vac":true,"version":"7757534","steam_id":85568392924515217,"keywords":["cp","nocrits","nodmgspread","uncletopia"],"game_id":440,"stv_port":27036,"stv_name":"Uncletopia | Seattle | 3 | Stopwatch Beta | STV","players":null},{"server_id":17,"name":"Uncletopia | San Francisco | 1 | All Maps","name_short":"sfo-1","host":"sfo-1.us.uncletopia.com","port":27015,"enabled":true,"region":"us-west","cc":"us","latitude":37.77397,"longitude":-122.4313,"reserved":0,"last_update":"0001-01-01T00:00:00Z","name_a2s":"Uncletopia | San Francisco | 1 | All Maps","protocol":17,"map":"pl_frontier_final","folder":"tf","game":"Team Fortress","app_id":440,"player_count":14,"max_players":24,"Bots":0,"server_type":"Dedicated","server_os":"Linux","password":true,"vac":true,"version":"7757534","steam_id":85568392924469999,"keywords":["nocrits","nodmgspread","payload","uncletopia"],"game_id":440,"stv_port":27016,"stv_name":"Uncletopia | San Francisco | 1 | All Maps | STV","players":[{"user_id":858,"name":"smeasly","steam_id":76561198028718812,"connected_time":302000000000,"state":"active","ping":60},{"user_id":855,"name":"【Crime】","steam_id":76561198319631200,"connected_time":502000000000,"state":"active","ping":56},{"user_id":863,"name":"Rallo","steam_id":76561198324357861,"connected_time":99000000000,"state":"active","ping":101},{"user_id":859,"name":"fruit brute fiend","steam_id":76561198811500361,"connected_time":224000000000,"state":"active","ping":70},{"user_id":860,"name":"Aster","steam_id":76561198817982061,"connected_time":218000000000,"state":"active","ping":69},{"user_id":841,"name":"早上好CHINA#1WARRIOR冰淇\ufffd\ufffd","steam_id":76561198964722163,"connected_time":2349000000000,"state":"active","ping":68},{"user_id":861,"name":"ningameking76","steam_id":76561198321900951,"connected_time":214000000000,"state":"active","ping":69},{"user_id":862,"name":"Charles","steam_id":76561199062542449,"connected_time":204000000000,"state":"active","ping":79},{"user_id":844,"name":"oohho","steam_id":76561198073707607,"connected_time":1960000000000,"state":"active","ping":45},{"user_id":842,"name":"need_a_hobby","steam_id":76561198988764495,"connected_time":2321000000000,"state":"active","ping":94},{"user_id":828,"name":"Blank_Sicon","steam_id":76561198887041407,"connected_time":3399000000000,"state":"active","ping":99},{"user_id":809,"name":"Shnakes","steam_id":76561198201649518,"connected_time":4957000000000,"state":"active","ping":61},{"user_id":834,"name":"CheeseCake488","steam_id":76561199407617942,"connected_time":3105000000000,"state":"active","ping":109},{"user_id":849,"name":"PonYOOOOOOO","steam_id":76561199067424111,"connected_time":1613000000000,"state":"active","ping":61}]},{"server_id":18,"name":"Uncletopia | San Francisco | 2 | All Maps","name_short":"sfo-2","host":"sfo-1.us.uncletopia.com","port":27025,"enabled":true,"region":"us-west","cc":"us","latitude":37.77397,"longitude":-122.4313,"reserved":0,"last_update":"0001-01-01T00:00:00Z","name_a2s":"Uncletopia | San Francisco | 2 | All Maps","protocol":17,"map":"koth_lakeside_final","folder":"tf","game":"Team Fortress","app_id":440,"player_count":2,"max_players":24,"Bots":0,"server_type":"Dedicated","server_os":"Linux","password":true,"vac":true,"version":"7757534","steam_id":85568392924470000,"keywords":["cp","nocrits","nodmgspread","uncletopia"],"game_id":440,"stv_port":27026,"stv_name":"Uncletopia | San Francisco | 2 | All Maps | STV","players":[{"user_id":126,"name":"burnt taco help ah ah its to ho","steam_id":76561198076331478,"connected_time":126000000000,"state":"active","ping":32},{"user_id":127,"name":"Froager(Frog+Frager)","steam_id":76561198081791096,"connected_time":81000000000,"state":"active","ping":48}]},{"server_id":19,"name":"Uncletopia | San Francisco | 3 | Stopwatch Beta","name_short":"sfo-3","host":"sfo-1.us.uncletopia.com","port":27035,"enabled":true,"region":"us-west","cc":"us","latitude":37.77397,"longitude":-122.4313,"reserved":0,"last_update":"0001-01-01T00:00:00Z","name_a2s":"Uncletopia | San Francisco | 3 | Stopwatch Beta","protocol":17,"map":"pl_borneo","folder":"tf","game":"Team Fortress","app_id":440,"player_count":0,"max_players":24,"Bots":0,"server_type":"Dedicated","server_os":"Linux","password":true,"vac":true,"version":"7757534","steam_id":85568392924742824,"keywords":["nocrits","nodmgspread","payload","uncletopia"],"game_id":440,"stv_port":27036,"stv_name":"Uncletopia | San Francisco | 3 | Stopwatch Beta | STV","players":null},{"server_id":20,"name":"Uncletopia | San Francisco | 4 | Community","name_short":"sfo-4","host":"sfo-1.us.uncletopia.com","port":27045,"enabled":true,"region":"us-west","cc":"us","latitude":37.77397,"longitude":-122.4313,"reserved":0,"last_update":"0001-01-01T00:00:00Z","name_a2s":"Uncletopia | San Francisco | 4 | Community","protocol":17,"map":"workshop/cp_propaganda_b18.ugc1603743849","folder":"tf","game":"Team Fortress","app_id":440,"player_count":24,"max_players":24,"Bots":0,"server_type":"Dedicated","server_os":"Linux","password":true,"vac":true,"version":"7757534","steam_id":85568392924742826,"keywords":["cp","nocrits","nodmgspread","uncletopia"],"game_id":440,"stv_port":27046,"stv_name":"Uncletopia | San Francisco | 4 | Community | STV","players":[{"user_id":67,"name":"ZungryWare","steam_id":76561198033158968,"connected_time":3314000000000,"state":"active","ping":45},{"user_id":62,"name":"HammerHead","steam_id":76561197975668646,"connected_time":3528000000000,"state":"active","ping":77},{"user_id":75,"name":"Akkawi","steam_id":76561198203159952,"connected_time":2808000000000,"state":"active","ping":55},{"user_id":18,"name":"jorts","steam_id":76561199041179985,"connected_time":7280000000000,"state":"active","ping":73},{"user_id":96,"name":"squash","steam_id":76561198150281353,"connected_time":1154000000000,"state":"active","ping":74},{"user_id":57,"name":"brk","steam_id":76561198079634017,"connected_time":4613000000000,"state":"active","ping":63},{"user_id":107,"name":"Fargo","steam_id":76561198044703931,"connected_time":206000000000,"state":"active","ping":74},{"user_id":99,"name":"p9 delight","steam_id":76561197980280272,"connected_time":883000000000,"state":"active","ping":62},{"user_id":108,"name":"Soviet Mexican Bear","steam_id":76561198296350977,"connected_time":46000000000,"state":"spawning","ping":457},{"user_id":86,"name":"Double Donker","steam_id":76561198209881263,"connected_time":2243000000000,"state":"active","ping":58},{"user_id":106,"name":"Land0","steam_id":76561198321264704,"connected_time":355000000000,"state":"active","ping":59},{"user_id":93,"name":"Cinna Mon","steam_id":76561198005840633,"connected_time":2026000000000,"state":"active","ping":65},{"user_id":28,"name":"Antzen","steam_id":76561198041343470,"connected_time":6871000000000,"state":"active","ping":53},{"user_id":91,"name":"RowdyMan420","steam_id":76561198354195935,"connected_time":2168000000000,"state":"active","ping":60},{"user_id":110,"name":"SofaKing","steam_id":76561198176691859,"connected_time":19000000000,"state":"spawning","ping":216},{"user_id":73,"name":"Gamorean Guard","steam_id":76561198816240237,"connected_time":2951000000000,"state":"active","ping":62},{"user_id":74,"name":"djpeanutbutter100","steam_id":76561199310046764,"connected_time":2937000000000,"state":"active","ping":69},{"user_id":89,"name":"Barn.Jones1992","steam_id":76561198197981309,"connected_time":2210000000000,"state":"active","ping":60},{"user_id":83,"name":"June","steam_id":76561198141803658,"connected_time":2524000000000,"state":"active","ping":65},{"user_id":61,"name":"me","steam_id":76561199468285784,"connected_time":3746000000000,"state":"active","ping":41},{"user_id":94,"name":"One Horned Bitch Destroyer","steam_id":76561198045810191,"connected_time":1958000000000,"state":"active","ping":58},{"user_id":80,"name":"rorywashere /ᐠ - ˕ -マ Ⳋ","steam_id":76561198065825165,"connected_time":2616000000000,"state":"active","ping":97},{"user_id":98,"name":"Hsepirn","steam_id":76561198152395431,"connected_time":928000000000,"state":"active","ping":67}]},{"server_id":141,"name":"Uncletopia | Sydney | 1 | All Maps","name_short":"syd-1","host":"syd-1.au.uncletopia.com","port":27015,"enabled":true,"region":"au","cc":"au","latitude":-33.865143,"longitude":151.2099,"reserved":0,"last_update":"0001-01-01T00:00:00Z","name_a2s":"Uncletopia | Sydney | 1 | All Maps","protocol":17,"map":"pl_goldrush","folder":"tf","game":"Team Fortress","app_id":440,"player_count":24,"max_players":24,"Bots":0,"server_type":"Dedicated","server_os":"Linux","password":true,"vac":true,"version":"7757534","steam_id":85568392924470001,"keywords":["nocrits","nodmgspread","payload","uncletopia"],"game_id":440,"stv_port":27016,"stv_name":"Uncletopia | Sydney | 1 | All Maps | STV","players":[{"user_id":405,"name":"Consolidated Fart","steam_id":76561198924101909,"connected_time":2723000000000,"state":"active","ping":68},{"user_id":444,"name":"bocky2","steam_id":76561198053972551,"connected_time":794000000000,"state":"active","ping":63},{"user_id":457,"name":"lem","steam_id":76561199119233603,"connected_time":351000000000,"state":"active","ping":58},{"user_id":429,"name":"SUSHIMAN","steam_id":76561199089989428,"connected_time":1707000000000,"state":"active","ping":92},{"user_id":442,"name":"DIY Miracle","steam_id":76561198046228152,"connected_time":886000000000,"state":"active","ping":67},{"user_id":407,"name":"Raven","steam_id":76561198428025966,"connected_time":2679000000000,"state":"active","ping":59},{"user_id":451,"name":"lemur","steam_id":76561198278239170,"connected_time":508000000000,"state":"active","ping":91},{"user_id":433,"name":"bowser","steam_id":76561198271462646,"connected_time":1543000000000,"state":"active","ping":82},{"user_id":336,"name":"Empr","steam_id":76561198024387396,"connected_time":8890000000000,"state":"active","ping":64},{"user_id":464,"name":"UpsideDown","steam_id":76561199099672129,"connected_time":87000000000,"state":"active","ping":45},{"user_id":456,"name":"Z.O.E. Nemo","steam_id":76561198054096076,"connected_time":359000000000,"state":"active","ping":45},{"user_id":458,"name":"Cup","steam_id":76561198038485845,"connected_time":266000000000,"state":"active","ping":30},{"user_id":411,"name":"Bobby Bigman","steam_id":76561198044679656,"connected_time":2554000000000,"state":"active","ping":66},{"user_id":423,"name":"Just Brando","steam_id":76561198914415738,"connected_time":2106000000000,"state":"active","ping":60},{"user_id":434,"name":"StoneGhost","steam_id":76561198154177852,"connected_time":1499000000000,"state":"active","ping":45},{"user_id":452,"name":"arsebumbutt","steam_id":76561198031293430,"connected_time":497000000000,"state":"active","ping":90},{"user_id":459,"name":"liam","steam_id":76561198046239819,"connected_time":237000000000,"state":"active","ping":85},{"user_id":460,"name":"ADUCK","steam_id":76561198249887912,"connected_time":216000000000,"state":"active","ping":68},{"user_id":447,"name":"The Goon","steam_id":76561198434696450,"connected_time":697000000000,"state":"active","ping":166},{"user_id":439,"name":"Noble Chernobyl","steam_id":76561198011803825,"connected_time":1228000000000,"state":"active","ping":52},{"user_id":425,"name":"Hooded","steam_id":76561199013174498,"connected_time":2091000000000,"state":"active","ping":75},{"user_id":441,"name":"Abraham Lincoln","steam_id":76561198095292515,"connected_time":1157000000000,"state":"active","ping":70},{"user_id":461,"name":"Zacy","steam_id":76561198114841670,"connected_time":203000000000,"state":"active","ping":119},{"user_id":395,"name":"pepsi_bottle","steam_id":76561199123087971,"connected_time":3379000000000,"state":"active","ping":73}]},{"server_id":123,"name":"Uncletopia | Sydney | 2 | All Maps","name_short":"syd-2","host":"syd-1.au.uncletopia.com","port":27025,"enabled":true,"region":"au","cc":"au","latitude":-33.865143,"longitude":151.2099,"reserved":0,"last_update":"0001-01-01T00:00:00Z","name_a2s":"Uncletopia | Sydney | 2 | All Maps","protocol":17,"map":"pl_pier","folder":"tf","game":"Team Fortress","app_id":440,"player_count":24,"max_players":24,"Bots":0,"server_type":"Dedicated","server_os":"Linux","password":true,"vac":true,"version":"7757534","steam_id":85568392924470002,"keywords":["nocrits","nodmgspread","payload","uncletopia"],"game_id":440,"stv_port":27026,"stv_name":"Uncletopia | Sydney | 2 | All Maps | STV","players":[{"user_id":187,"name":"Cris.p bacon","steam_id":76561199230423491,"connected_time":1794000000000,"state":"active","ping":108},{"user_id":175,"name":"Matt","steam_id":76561198006791420,"connected_time":2587000000000,"state":"active","ping":99},{"user_id":189,"name":"Hot Car Resident","steam_id":76561198967034272,"connected_time":1745000000000,"state":"active","ping":66},{"user_id":205,"name":"FrontlineNinja","steam_id":76561198046731954,"connected_time":637000000000,"state":"active","ping":44},{"user_id":196,"name":"Morgenstern","steam_id":76561198253080474,"connected_time":1452000000000,"state":"active","ping":72},{"user_id":206,"name":"wombraider","steam_id":76561199375834537,"connected_time":609000000000,"state":"active","ping":126},{"user_id":199,"name":"Bookbro88","steam_id":76561199149780486,"connected_time":1356000000000,"state":"active","ping":81},{"user_id":139,"name":"( ͡° ͜ʖ ͡°)","steam_id":76561199262196710,"connected_time":5590000000000,"state":"active","ping":43},{"user_id":156,"name":"payn.","steam_id":76561199277321828,"connected_time":4377000000000,"state":"active","ping":60},{"user_id":149,"name":"zzzzzzz","steam_id":76561198066726621,"connected_time":4793000000000,"state":"active","ping":48},{"user_id":154,"name":"CoolJosh3k | YouTube","steam_id":76561197997407342,"connected_time":4463000000000,"state":"active","ping":54},{"user_id":200,"name":"ron","steam_id":76561198072560017,"connected_time":1339000000000,"state":"active","ping":54},{"user_id":201,"name":"Inkluigi85","steam_id":76561199143736913,"connected_time":1336000000000,"state":"active","ping":89},{"user_id":207,"name":"Dingo","steam_id":76561198315774295,"connected_time":391000000000,"state":"active","ping":63},{"user_id":141,"name":"Muffin","steam_id":76561198075391119,"connected_time":5504000000000,"state":"active","ping":52},{"user_id":173,"name":"Gamma","steam_id":76561198281131757,"connected_time":2784000000000,"state":"active","ping":65},{"user_id":202,"name":"Robbie","steam_id":76561198150894900,"connected_time":1151000000000,"state":"active","ping":70},{"user_id":153,"name":"AmethystDragon10","steam_id":76561198412979983,"connected_time":4495000000000,"state":"active","ping":89},{"user_id":194,"name":"mrquestables","steam_id":76561198954911129,"connected_time":1569000000000,"state":"active","ping":76},{"user_id":208,"name":"Locker633","steam_id":76561198132624042,"connected_time":234000000000,"state":"active","ping":90},{"user_id":128,"name":"doctor morbin' (real)","steam_id":76561199365241695,"connected_time":6824000000000,"state":"active","ping":129},{"user_id":204,"name":"The Bisoneer TF2","steam_id":76561199446773766,"connected_time":886000000000,"state":"active","ping":98},{"user_id":160,"name":"Pew pew pew!","steam_id":76561198004120277,"connected_time":3753000000000,"state":"active","ping":45},{"user_id":185,"name":"KnowZero","steam_id":76561198095752015,"connected_time":2036000000000,"state":"active","ping":63}]},{"server_id":395,"name":"Uncletopia | Sydney | 3 | All Maps","name_short":"syd-3","host":"syd-1.au.uncletopia.com","port":27035,"enabled":true,"region":"au","cc":"au","latitude":-33.865143,"longitude":151.2099,"reserved":0,"last_update":"0001-01-01T00:00:00Z","name_a2s":"Uncletopia | Sydney | 3 | All Maps","protocol":17,"map":"cp_dustbowl","folder":"tf","game":"Team Fortress","app_id":440,"player_count":0,"max_players":24,"Bots":0,"server_type":"Dedicated","server_os":"Linux","password":true,"vac":true,"version":"7757534","steam_id":85568392925194467,"keywords":["cp","nocrits","nodmgspread","uncletopia"],"game_id":440,"stv_port":27036,"stv_name":"Uncletopia | Sydney | 3 | All Maps | STV","players":null},{"server_id":396,"name":"Uncletopia | Sydney | 4 | All Maps","name_short":"syd-4","host":"syd-1.au.uncletopia.com","port":27045,"enabled":true,"region":"au","cc":"au","latitude":-33.865143,"longitude":151.2099,"reserved":0,"last_update":"0001-01-01T00:00:00Z","name_a2s":"Uncletopia | Sydney | 4 | All Maps","protocol":17,"map":"koth_lakeside_final","folder":"tf","game":"Team Fortress","app_id":440,"player_count":0,"max_players":24,"Bots":0,"server_type":"Dedicated","server_os":"Linux","password":true,"vac":true,"version":"7757534","steam_id":85568392925397958,"keywords":["cp","nocrits","nodmgspread","uncletopia"],"game_id":440,"stv_port":27046,"stv_name":"Uncletopia | Sydney | 4 | All Maps | STV","players":null},{"server_id":58,"name":"Uncletopia | Sydney | 5 | Stopwatch Beta","name_short":"syd-5","host":"syd-1.au.uncletopia.com","port":27055,"enabled":true,"region":"au","cc":"au","latitude":-33.865143,"longitude":151.2099,"reserved":0,"last_update":"0001-01-01T00:00:00Z","name_a2s":"Uncletopia | Sydney | 5 | Stopwatch Beta","protocol":17,"map":"pl_upward","folder":"tf","game":"Team Fortress","app_id":440,"player_count":0,"max_players":24,"Bots":0,"server_type":"Dedicated","server_os":"Linux","password":true,"vac":true,"version":"7757534","steam_id":85568392925397959,"keywords":["nocrits","nodmgspread","payload","uncletopia"],"game_id":440,"stv_port":27056,"stv_name":"Uncletopia | Sydney | 5 | Stopwatch Beta | STV","players":null},{"server_id":59,"name":"Uncletopia | Sydney | 6 | Community","name_short":"syd-6","host":"syd-1.au.uncletopia.com","port":27065,"enabled":true,"region":"au","cc":"au","latitude":-33.865143,"longitude":151.2099,"reserved":0,"last_update":"0001-01-01T00:00:00Z","name_a2s":"Uncletopia | Sydney | 6 | Community","protocol":17,"map":"workshop/koth_product_final.ugc454272353","folder":"tf","game":"Team Fortress","app_id":440,"player_count":0,"max_players":24,"Bots":0,"server_type":"Dedicated","server_os":"Linux","password":true,"vac":true,"version":"7757534","steam_id":85568392925397960,"keywords":["cp","nocrits","nodmgspread","uncletopia"],"game_id":440,"stv_port":27066,"stv_name":"Uncletopia | Sydney | 6 | Community | STV","players":null},{"server_id":49,"name":"Uncletopia | Warsaw | 1 | All Maps","name_short":"waw-1","host":"waw-1.pl.uncletopia.com","port":27015,"enabled":true,"region":"eu","cc":"pl","latitude":52.2297,"longitude":21.017532,"reserved":0,"last_update":"0001-01-01T00:00:00Z","name_a2s":"","protocol":0,"map":"","folder":"","game":"","app_id":0,"player_count":0,"max_players":0,"Bots":0,"server_type":"","server_os":"","password":false,"vac":false,"version":"","steam_id":0,"keywords":null,"game_id":0,"stv_port":0,"stv_name":"","players":null},{"server_id":50,"name":"Uncletopia | Warsaw | 2 | All Maps","name_short":"waw-2","host":"waw-1.pl.uncletopia.com","port":27025,"enabled":true,"region":"eu","cc":"pl","latitude":52.2297,"longitude":21.017532,"reserved":0,"last_update":"0001-01-01T00:00:00Z","name_a2s":"Uncletopia | Warsaw | 2 | All Maps","protocol":17,"map":"cp_process_final","folder":"tf","game":"Team Fortress","app_id":440,"player_count":0,"max_players":24,"Bots":0,"server_type":"Dedicated","server_os":"Linux","password":true,"vac":true,"version":"7757534","steam_id":85568392925397851,"keywords":["cp","nocrits","nodmgspread","uncletopia"],"game_id":440,"stv_port":27026,"stv_name":"Uncletopia | Warsaw | 2 | All Maps | STV","players":null},{"server_id":51,"name":"Uncletopia | Warsaw | 3 | All Maps","name_short":"waw-3","host":"waw-1.pl.uncletopia.com","port":27035,"enabled":true,"region":"eu","cc":"pl","latitude":52.2297,"longitude":21.017532,"reserved":0,"last_update":"0001-01-01T00:00:00Z","name_a2s":"Uncletopia | Warsaw | 3 | All Maps","protocol":17,"map":"pl_barnblitz","folder":"tf","game":"Team Fortress","app_id":440,"player_count":0,"max_players":24,"Bots":0,"server_type":"Dedicated","server_os":"Linux","password":true,"vac":true,"version":"7757534","steam_id":85568392925397852,"keywords":["nocrits","nodmgspread","payload","uncletopia"],"game_id":440,"stv_port":27036,"stv_name":"Uncletopia | Warsaw | 3 | All Maps | STV","players":null},{"server_id":52,"name":"Uncletopia | Warsaw | 4 | All Maps","name_short":"waw-4","host":"waw-1.pl.uncletopia.com","port":27045,"enabled":true,"region":"eu","cc":"pl","latitude":52.2297,"longitude":21.017532,"reserved":0,"last_update":"0001-01-01T00:00:00Z","name_a2s":"Uncletopia | Warsaw | 4 | All Maps","protocol":17,"map":"pl_snowycoast","folder":"tf","game":"Team Fortress","app_id":440,"player_count":0,"max_players":24,"Bots":0,"server_type":"Dedicated","server_os":"Linux","password":true,"vac":true,"version":"7757534","steam_id":85568392925397853,"keywords":["nocrits","nodmgspread","payload","uncletopia"],"game_id":440,"stv_port":27046,"stv_name":"Uncletopia | Warsaw | 4 | All Maps | STV","players":null},{"server_id":53,"name":"Uncletopia | Warsaw | 5 | Stopwatch Beta","name_short":"waw-5","host":"waw-1.pl.uncletopia.com","port":27055,"enabled":true,"region":"eu","cc":"pl","latitude":52.2297,"longitude":21.017532,"reserved":0,"last_update":"0001-01-01T00:00:00Z","name_a2s":"Uncletopia | Warsaw | 5 | Stopwatch Beta","protocol":17,"map":"pl_barnblitz","folder":"tf","game":"Team Fortress","app_id":440,"player_count":0,"max_players":24,"Bots":0,"server_type":"Dedicated","server_os":"Linux","password":true,"vac":true,"version":"7757534","steam_id":85568392925397854,"keywords":["nocrits","nodmgspread","payload","uncletopia"],"game_id":440,"stv_port":27056,"stv_name":"Uncletopia | Warsaw | 5 | Stopwatch Beta | STV","players":null},{"server_id":54,"name":"Uncletopia | Warsaw | 6 | Community","name_short":"waw-6","host":"waw-1.pl.uncletopia.com","port":27065,"enabled":true,"region":"eu","cc":"pl","latitude":52.2297,"longitude":21.017532,"reserved":0,"last_update":"0001-01-01T00:00:00Z","name_a2s":"Uncletopia | Warsaw | 6 | Community","protocol":17,"map":"pl_swiftwater_final1","folder":"tf","game":"Team Fortress","app_id":440,"player_count":0,"max_players":24,"Bots":0,"server_type":"Dedicated","server_os":"Linux","password":true,"vac":true,"version":"7757534","steam_id":85568392925397856,"keywords":["nocrits","nodmgspread","payload","uncletopia"],"game_id":440,"stv_port":27066,"stv_name":"Uncletopia | Warsaw | 6 | Community | STV","players":null}]}