{"status":true,"message":"","result":[{"server_id":9,"name":"Uncletopia | Atlanta | 1 | All Maps","name_short":"atl-1","host":"atl-1.us.uncletopia.com","port":27015,"enabled":true,"region":"us-east","cc":"us","latitude":33.753746,"longitude":-84.38633,"reserved":0,"last_update":"0001-01-01T00:00:00Z","name_a2s":"Uncletopia | Atlanta | 1 | All Maps","protocol":17,"map":"cp_powerhouse","folder":"tf","game":"Team Fortress","app_id":440,"player_count":24,"max_players":24,"Bots":0,"server_type":"Dedicated","server_os":"Linux","password":true,"vac":true,"version":"7961495","steam_id":85568392924469982,"keywords":["cp","nocrits","nodmgspread","uncletopia"],"game_id":440,"stv_port":27016,"stv_name":"Uncletopia | Atlanta | 1 | All Maps | STV","players":null},{"server_id":104,"name":"Uncletopia | Atlanta | 2 | All Maps","name_short":"atl-2","host":"atl-1.us.uncletopia.com","port":27025,"enabled":true,"region":"us-east","cc":"us","latitude":33.753746,"longitude":-84.38633,"reserved":0,"last_update":"0001-01-01T00:00:00Z","name_a2s":"Uncletopia | Atlanta | 2 | All Maps","protocol":17,"map":"pl_frontier_final","folder":"tf","game":"Team Fortress","app_id":440,"player_count":24,"max_players":24,"Bots":0,"server_type":"Dedicated","server_os":"Linux","password":true,"vac":true,"version":"7961495","steam_id":85568392924469983,"keywords":["nocrits","nodmgspread","payload","uncletopia"],"game_id":440,"stv_port":27026,"stv_name":"Uncletopia | Atlanta | 2 | All Maps | STV","players":null},{"server_id":400,"name":"Uncletopia | Atlanta | 3 | All Maps","name_short":"atl-3","host":"atl-1.us.uncletopia.com","port":27035,"enabled":true,"region":"us-east","cc":"us","latitude":33.753746,"longitude":-84.38633,"reserved":0,"last_update":"0001-01-01T00:00:00Z","name_a2s":"Uncletopia | Atlanta | 3 | All Maps","protocol":17,"map":"koth_lakeside_final","folder":"tf","game":"Team Fortress","app_id":440,"player_count":0,"max_players":24,"Bots":0,"server_type":"Dedicated","server_os":"Linux","password":true,"vac":true,"version":"7961495","steam_id":85568392924515187,"keywords":["cp","nocrits","nodmgspread","uncletopia"],"game_id":440,"stv_port":27036,"stv_name":"Uncletopia | Atlanta | 3 | All Maps | STV","players":null},{"server_id":401,"name":"Uncletopia | Atlanta | 4 | Community","name_short":"atl-4","host":"atl-1.us.uncletopia.com","port":27045,"enabled":true,"region":"us-east","cc":"us","latitude":33.753746,"longitude":-84.38633,"reserved":0,"last_update":"0001-01-01T00:00:00Z","name_a2s":"Uncletopia | Atlanta | 4 | Community","protocol":17,"map":"cp_dustbowl","folder":"tf","game":"Team Fortress","app_id":440,"player_count":0,"max_players":24,"Bots":0,"server_type":"Dedicated","server_os":"Linux","password":true,"vac":true,"version":"7961495","steam_id":85568392924515188,"keywords":["cp","nocrits","nodmgspread","uncletopia"],"game_id":440,"stv_port":27046,"stv_name":"Uncletopia | Atlanta | 4 | Community | STV","players":null},{"server_id":2,"name":"Uncletopia | Chicago | 1 | All Maps","name_short":"chi-1","host":"chi-1.us.uncletopia.com","port":27015,"enabled":true,"region":"us-central","cc":"us","latitude":41.881832,"longitude":-87.62318,"reserved":0,"last_update":"0001-01-01T00:00:00Z","name_a2s":"Uncletopia | Chicago | 1 | All Maps","protocol":17,"map":"pl_borneo","folder":"tf","game":"Team Fortress","app_id":440,"player_count":24,"max_players":24,"Bots":0,"server_type":"Dedicated","server_os":"Linux","password":true,"vac":true,"version":"7961495","steam_id":85568392924469984,"keywords":["nocrits","nodmgspread","payload","uncletopia"],"game_id":440,"stv_port":27016,"stv_name":"Uncletopia | Chicago | 1 | All Maps | STV","players":[{"user_id":3,"name":"fireman","steam_id":76561198148199120,"connected_time":2268000000000,"state":"active","ping":86},{"user_id":39,"name":"Ark","steam_id":76561198053000340,"connected_time":1589000000000,"state":"active","ping":58},{"user_id":17,"name":"tsbro40","steam_id":76561199455605580,"connected_time":2197000000000,"state":"active","ping":89},{"user_id":6,"name":"dirty tuna","steam_id":76561198021535785,"connected_time":2261000000000,"state":"active","ping":76},{"user_id":54,"name":"Dr_Riddler","steam_id":76561198139493285,"connected_time":370000000000,"state":"active","ping":91},{"user_id":51,"name":"JAKandBEL","steam_id":76561198213060931,"connected_time":517000000000,"state":"active","ping":62},{"user_id":50,"name":"CheesyNacho","steam_id":76561198350445456,"connected_time":527000000000,"state":"active","ping":75},{"user_id":58,"name":"Craig Isonychia","steam_id":76561198272013678,"connected_time":12000000000,"state":"spawning","ping":55},{"user_id":40,"name":"SanitysEdge","steam_id":76561198130732813,"connected_time":1588000000000,"state":"active","ping":104},{"user_id":13,"name":"Clean Lines","steam_id":76561197960691518,"connected_time":2222000000000,"state":"active","ping":50},{"user_id":41,"name":"anakin ballstomper","steam_id":76561198184814466,"connected_time":1493000000000,"state":"active","ping":90},{"user_id":18,"name":"Plant Enthusiast","steam_id":76561198045718960,"connected_time":2186000000000,"state":"active","ping":62},{"user_id":16,"name":"C-Moon","steam_id":76561198093688740,"connected_time":2212000000000,"state":"active","ping":75},{"user_id":53,"name":"melon","steam_id":76561199014039702,"connected_time":414000000000,"state":"active","ping":59},{"user_id":52,"name":"Pog Mudfish","steam_id":76561198133727997,"connected_time":491000000000,"state":"active","ping":94},{"user_id":57,"name":"manscaped lawnmower 2.0","steam_id":76561199052840531,"connected_time":194000000000,"state":"active","ping":56},{"user_id":34,"name":"get scrongled, idiot","steam_id":76561198115874625,"connected_time":1788000000000,"state":"active","ping":111},{"user_id":56,"name":"SHADOW","steam_id":76561198207768148,"connected_time":262000000000,"state":"active","ping":106},{"user_id":25,"name":"Mephistopheles","steam_id":76561198253731826,"connected_time":2107000000000,"state":"active","ping":53},{"user_id":26,"name":"LittleFieryOne","steam_id":76561198107463724,"connected_time":2093000000000,"state":"active","ping":61},{"user_id":49,"name":"Maverick","steam_id":76561198322829814,"connected_time":541000000000,"state":"active","ping":81},{"user_id":45,"name":"the spy from team fortress 2","steam_id":76561198047797306,"connected_time":1146000000000,"state":"active","ping":63},{"user_id":29,"name":"Echolu","steam_id":76561198158613750,"connected_time":2061000000000,"state":"active","ping":108},{"user_id":31,"name":"steakfarmasian","steam_id":76561198212754036,"connected_time":1951000000000,"state":"active","ping":53}]},{"server_id":106,"name":"Uncletopia | Chicago | 2 | All Maps","name_short":"chi-2","host":"chi-1.us.uncletopia.com","port":27025,"enabled":true,"region":"us-central","cc":"us","latitude":41.881832,"longitude":-87.62318,"reserved":0,"last_update":"0001-01-01T00:00:00Z","name_a2s":"Uncletopia | Chicago | 2 | All Maps","protocol":17,"map":"pl_badwater","folder":"tf","game":"Team Fortress","app_id":440,"player_count":24,"max_players":24,"Bots":0,"server_type":"Dedicated","server_os":"Linux","password":true,"vac":true,"version":"7961495","steam_id":85568392924469985,"keywords":["nocrits","nodmgspread","payload","uncletopia"],"game_id":440,"stv_port":27026,"stv_name":"Uncletopia | Chicago | 2 | All Maps | STV","players":[{"user_id":13,"name":"Lunartik","steam_id":76561199004827382,"connected_time":2036000000000,"state":"active","ping":68},{"user_id":48,"name":"Johnny Lawrence #JohnnyMaxxing","steam_id":76561199367141671,"connected_time":186000000000,"state":"active","ping":60},{"user_id":46,"name":"dipp","steam_id":76561198395577807,"connected_time":306000000000,"state":"active","ping":66},{"user_id":39,"name":"Chris","steam_id":76561198361826368,"connected_time":1206000000000,"state":"active","ping":96},{"user_id":40,"name":"nav","steam_id":76561198872608266,"connected_time":1074000000000,"state":"active","ping":78},{"user_id":11,"name":"[NAME-REDACTED]","steam_id":76561198035682975,"connected_time":2193000000000,"state":"active","ping":90},{"user_id":18,"name":"Fightin Cow","steam_id":76561198080941486,"connected_time":1872000000000,"state":"active","ping":77},{"user_id":20,"name":"Joseph.Biden.1942","steam_id":76561198046532308,"connected_time":1717000000000,"state":"active","ping":101},{"user_id":21,"name":"french fries?","steam_id":76561199238480644,"connected_time":1707000000000,"state":"active","ping":76},{"user_id":23,"name":"nae nae goblin68","steam_id":76561199115259028,"connected_time":1674000000000,"state":"active","ping":105},{"user_id":24,"name":"Mr.Kevin120","steam_id":76561199186919096,"connected_time":1660000000000,"state":"active","ping":92},{"user_id":25,"name":"Buddy_boi_man","steam_id":76561199158344783,"connected_time":1656000000000,"state":"active","ping":64},{"user_id":26,"name":"El Bondin","steam_id":76561198820792434,"connected_time":1648000000000,"state":"active","ping":101},{"user_id":27,"name":"Gobl1n","steam_id":76561198808610991,"connected_time":1591000000000,"state":"active","ping":77},{"user_id":28,"name":"Malaflub_55","steam_id":76561199112453790,"connected_time":1569000000000,"state":"active","ping":68},{"user_id":37,"name":"Letters","steam_id":76561198035508148,"connected_time":1472000000000,"state":"active","ping":96},{"user_id":30,"name":"duster","steam_id":76561198148357768,"connected_time":1560000000000,"state":"active","ping":63},{"user_id":31,"name":"The Pestilence","steam_id":76561199081252282,"connected_time":1531000000000,"state":"active","ping":68},{"user_id":42,"name":"Chernov","steam_id":76561198014463424,"connected_time":991000000000,"state":"active","ping":60},{"user_id":33,"name":"ryan","steam_id":76561198141875225,"connected_time":1515000000000,"state":"active","ping":62},{"user_id":34,"name":"mulliganjon2020","steam_id":76561199091193870,"connected_time":1512000000000,"state":"active","ping":97},{"user_id":35,"name":"ExplosiveGamer21","steam_id":76561198132370955,"connected_time":1499000000000,"state":"active","ping":112},{"user_id":41,"name":"Crunchy","steam_id":76561198060342804,"connected_time":1035000000000,"state":"active","ping":80},{"user_id":43,"name":"squaggles!","steam_id":76561197994995011,"connected_time":991000000000,"state":"active","ping":55}]},{"server_id":402,"name":"Uncletopia | Chicago | 3 | All Maps","name_short":"chi-3","host":"chi-1.us.uncletopia.com","port":27035,"enabled":true,"region":"us-central","cc":"us","latitude":41.881832,"longitude":-87.62318,"reserved":0,"last_update":"0001-01-01T00:00:00Z","name_a2s":"Uncletopia | Chicago | 3 | All Maps","protocol":17,"map":"pl_barnblitz","folder":"tf","game":"Team Fortress","app_id":440,"player_count":24,"max_players":24,"Bots":0,"server_type":"Dedicated","server_os":"Linux","password":true,"vac":true,"version":"7961495","steam_id":85568392924515191,"keywords":["nocrits","nodmgspread","payload","uncletopia"],"game_id":440,"stv_port":27036,"stv_name":"Uncletopia | Chicago | 3 | All Maps | STV","players":[{"user_id":46,"name":"bruiseraaron","steam_id":76561198020092380,"connected_time":268000000000,"state":"active","ping":60},{"user_id":4,"name":"King's Disease","steam_id":76561198076639682,"connected_time":2243000000000,"state":"active","ping":75},{"user_id":5,"name":"corntent","steam_id":76561198824847948,"connected_time":2240000000000,"state":"active","ping":58},{"user_id":45,"name":"sibling bane üü† „ÉÑ","steam_id":76561198196769297,"connected_time":300000000000,"state":"active","ping":58},{"user_id":52,"name":"Walkiing","steam_id":76561198074473413,"connected_time":187000000000,"state":"active","ping":42},{"user_id":9,"name":"Lia_Rein","steam_id":76561198151569597,"connected_time":2230000000000,"state":"active","ping":150},{"user_id":49,"name":"Kantamoe","steam_id":76561198046661611,"connected_time":202000000000,"state":"active","ping":96},{"user_id":13,"name":";3","steam_id":76561198164460801,"connected_time":2216000000000,"state":"active","ping":75},{"user_id":59,"name":"Robin","steam_id":76561198121165149,"connected_time":119000000000,"state":"active","ping":32},{"user_id":14,"name":"‚úßÔΩ•Ôæühooligan!!","steam_id":76561198874149130,"connected_time":2215000000000,"state":"active","ping":71},{"user_id":48,"name":"vanta","steam_id":76561198084317504,"connected_time":218000000000,"state":"active","ping":47},{"user_id":16,"name":"Novu","steam_id":76561198886997024,"connected_time":2199000000000,"state":"active","ping":88},{"user_id":18,"name":"OHGODBEES!","steam_id":76561198000653374,"connected_time":2195000000000,"state":"active","ping":117},{"user_id":47,"name":"--_Cook_--","steam_id":76561198080855748,"connected_time":268000000000,"state":"active","ping":47},{"user_id":54,"name":"frim le yousse","steam_id":76561198107765260,"connected_time":181000000000,"state":"active","ping":103},{"user_id":21,"name":"._o\u003c","steam_id":76561198313364985,"connected_time":2194000000000,"state":"active","ping":88},{"user_id":22,"name":"-|FG|- Hamilkar Barca","steam_id":76561198091666474,"connected_time":2194000000000,"state":"active","ping":66},{"user_id":23,"name":"rapscallion","steam_id":76561198188722751,"connected_time":2191000000000,"state":"active","ping":92},{"user_id":25,"name":"mario","steam_id":76561198148282278,"connected_time":2188000000000,"state":"active","ping":67},{"user_id":30,"name":"[82DK] Ike","steam_id":76561198135256526,"connected_time":2150000000000,"state":"active","ping":88},{"user_id":28,"name":"Oopsie Daisy ‚ùã","steam_id":76561198042144492,"connected_time":2181000000000,"state":"active","ping":73},{"user_id":57,"name":"yes","steam_id":76561198183373721,"connected_time":160000000000,"state":"active","ping":62},{"user_id":37,"name":"neeK","steam_id":76561198106571410,"connected_time":1238000000000,"state":"active","ping":95},{"user_id":58,"name":"NEW ROMANCE","steam_id":76561198072179483,"connected_time":160000000000,"state":"active","ping":90}]},{"server_id":403,"name":"Uncletopia | Chicago | 4 | All Maps","name_short":"chi-4","host":"chi-1.us.uncletopia.com","port":27045,"enabled":true,"region":"us-central","cc":"us","latitude":41.881832,"longitude":-87.62318,"reserved":0,"last_update":"0001-01-01T00:00:00Z","name_a2s":"Uncletopia | Chicago | 4 | All Maps","protocol":17,"map":"cp_mountainlab","folder":"tf","game":"Team Fortress","app_id":440,"player_count":18,"max_players":24,"Bots":0,"server_type":"Dedicated","server_os":"Linux","password":true,"vac":true,"version":"7961495","steam_id":85568392924515193,"keywords":["cp","nocrits","nodmgspread","uncletopia"],"game_id":440,"stv_port":27046,"stv_name":"Uncletopia | Chicago | 4 | All Maps | STV","players":[{"user_id":61,"name":"crunchy obama","steam_id":76561198044485217,"connected_time":4000000000,"state":"spawning","ping":90},{"user_id":4,"name":"503","steam_id":76561198211225164,"connected_time":2232000000000,"state":"active","ping":86},{"user_id":12,"name":"Fumohuxi Viriphyto","steam_id":76561198369395636,"connected_time":2217000000000,"state":"active","ping":88},{"user_id":58,"name":"SES3","steam_id":76561198054380259,"connected_time":57000000000,"state":"active","ping":71},{"user_id":7,"name":"C4K3","steam_id":76561197996963285,"connected_time":2228000000000,"state":"active","ping":83},{"user_id":59,"name":"double xp weekend","steam_id":76561198052950547,"connected_time":10000000000,"state":"active","ping":168},{"user_id":60,"name":"Coptimus10","steam_id":76561199074912882,"connected_time":9000000000,"state":"spawning","ping":74},{"user_id":43,"name":"A Can of AriZona Green Tea","steam_id":76561198062481133,"connected_time":1096000000000,"state":"active","ping":70},{"user_id":50,"name":"King Ass Ripper","steam_id":76561198407602830,"connected_time":717000000000,"state":"active","ping":67},{"user_id":51,"name":"DIRT LORD","steam_id":76561198044727114,"connected_time":714000000000,"state":"active","ping":67},{"user_id":36,"name":"Okpar","steam_id":76561199221067945,"connected_time":1492000000000,"state":"active","ping":95},{"user_id":52,"name":"Hydroxianchaos","steam_id":76561198043786828,"connected_time":709000000000,"state":"active","ping":62},{"user_id":41,"name":"RangerRiggs","steam_id":76561198116131144,"connected_time":1243000000000,"state":"active","ping":41},{"user_id":28,"name":"The Foolish Samurai","steam_id":76561198094494945,"connected_time":2118000000000,"state":"active","ping":105},{"user_id":22,"name":"Artgrendadier","steam_id":76561198063305359,"connected_time":2171000000000,"state":"active","ping":65},{"user_id":53,"name":"Nic0","steam_id":76561198305690218,"connected_time":707000000000,"state":"active","ping":61},{"user_id":45,"name":"[El Fail] MR.BadassMCLee","steam_id":76561198043787818,"connected_time":1058000000000,"state":"active","ping":105},{"user_id":37,"name":"conner","steam_id":76561198052911241,"connected_time":1486000000000,"state":"active","ping":71}]},{"server_id":36,"name":"Uncletopia | Chicago | 5 | All Maps","name_short":"chi-5","host":"chi-2.us.uncletopia.com","port":27015,"enabled":true,"region":"us-central","cc":"us","latitude":41.881832,"longitude":-87.62318,"reserved":0,"last_update":"0001-01-01T00:00:00Z","name_a2s":"Uncletopia | Chicago | 5 | All Maps","protocol":17,"map":"cp_snakewater_final1","folder":"tf","game":"Team Fortress","app_id":440,"player_count":1,"max_players":24,"Bots":0,"server_type":"Dedicated","server_os":"Linux","password":true,"vac":true,"version":"7961495","steam_id":85568392924866362,"keywords":["cp","nocrits","nodmgspread","uncletopia"],"game_id":440,"stv_port":27016,"stv_name":"Uncletopia | Chicago | 5 | All Maps | STV","players":[{"user_id":7,"name":"Jack-O-Bonnie Gaming","steam_id":76561199122465263,"connected_time":1015000000000,"state":"active","ping":60}]},{"server_id":37,"name":"Uncletopia | Chicago | 6 | All Maps","name_short":"chi-6","host":"chi-2.us.uncletopia.com","port":27025,"enabled":true,"region":"us-central","cc":"us","latitude":41.881832,"longitude":-87.62318,"reserved":0,"last_update":"0001-01-01T00:00:00Z","name_a2s":"Uncletopia | Chicago | 6 | All Maps","protocol":17,"map":"pl_barnblitz","folder":"tf","game":"Team Fortress","app_id":440,"player_count":24,"max_players":24,"Bots":0,"server_type":"Dedicated","server_os":"Linux","password":true,"vac":true,"version":"7961495","steam_id":85568392924866363,"keywords":["nocrits","nodmgspread","payload","uncletopia"],"game_id":440,"stv_port":27026,"stv_name":"Uncletopia | Chicago | 6 | All Maps | STV","players":[{"user_id":50,"name":"capeeKo","steam_id":76561197970346623,"connected_time":407000000000,"state":"active","ping":76},{"user_id":12,"name":"Sirebellum","steam_id":76561199012778952,"connected_time":2037000000000,"state":"active","ping":57},{"user_id":5,"name":"-=Bits=-Dinkleberg","steam_id":76561198080367616,"connected_time":2195000000000,"state":"active","ping":84},{"user_id":41,"name":"Kushy","steam_id":76561198045290635,"connected_time":1186000000000,"state":"active","ping":83},{"user_id":24,"name":"Lil' Diabeetus","steam_id":76561198330119627,"connected_time":1527000000000,"state":"active","ping":75},{"user_id":26,"name":"Bim","steam_id":76561198155979811,"connected_time":1408000000000,"state":"active","ping":80},{"user_id":13,"name":"God's Drunkest Driver","steam_id":76561199174579733,"connected_time":1955000000000,"state":"active","ping":79},{"user_id":45,"name":"HemoTox","steam_id":76561197999713466,"connected_time":1003000000000,"state":"active","ping":70},{"user_id":27,"name":"SLEW OF DOGS","steam_id":76561197993237529,"connected_time":1400000000000,"state":"active","ping":80},{"user_id":29,"name":"RuinLucky","steam_id":76561199481172481,"connected_time":1325000000000,"state":"active","ping":88},{"user_id":30,"name":"general.b","steam_id":76561198162480519,"connected_time":1322000000000,"state":"active","ping":58},{"user_id":21,"name":"Timeitself","steam_id":76561199063479850,"connected_time":1685000000000,"state":"active","ping":75},{"user_id":47,"name":"Jack","steam_id":76561198254716942,"connected_time":522000000000,"state":"active","ping":65},{"user_id":48,"name":"tesagi","steam_id":76561198026664629,"connected_time":460000000000,"state":"active","ping":49},{"user_id":51,"name":"Hank Hill","steam_id":76561199083888017,"connected_time":286000000000,"state":"active","ping":124},{"user_id":49,"name":"Mog","steam_id":76561198025575870,"connected_time":459000000000,"state":"active","ping":57},{"user_id":33,"name":"w a l k  q u i e t","steam_id":76561198143453873,"connected_time":1290000000000,"state":"active","ping":53},{"user_id":34,"name":"Torensz64(But weezer)","steam_id":76561198239036482,"connected_time":1287000000000,"state":"active","ping":53},{"user_id":35,"name":"Discourse","steam_id":76561198984286678,"connected_time":1277000000000,"state":"active","ping":60},{"user_id":46,"name":"root","steam_id":76561198001727518,"connected_time":947000000000,"state":"active","ping":83},{"user_id":42,"name":"ZofoJackson","steam_id":76561197998366861,"connected_time":1183000000000,"state":"active","ping":55},{"user_id":43,"name":"I am on top","steam_id":76561199013232548,"connected_time":1028000000000,"state":"active","ping":191},{"user_id":39,"name":"1tsR0B0T","steam_id":76561198324525822,"connected_time":1228000000000,"state":"active","ping":97},{"user_id":40,"name":"”æ‚Ç≥V≈Ç…Ü‚±§","steam_id":76561198093034965,"connected_time":1218000000000,"state":"active","ping":58}]},{"server_id":38,"name":"Uncletopia | Chicago | 7 | Stopwatch Beta","name_short":"chi-7","host":"chi-2.us.uncletopia.com","port":27035,"enabled":true,"region":"us-central","cc":"us","latitude":41.881832,"longitude":-87.62318,"reserved":0,"last_update":"0001-01-01T00:00:00Z","name_a2s":"Uncletopia | Chicago | 7 | Stopwatch Beta","protocol":17,"map":"cp_gullywash_final1","folder":"tf","game":"Team Fortress","app_id":440,"player_count":0,"max_players":24,"Bots":0,"server_type":"Dedicated","server_os":"Linux","password":true,"vac":true,"version":"7961495","steam_id":85568392924866364,"keywords":["cp","nocrits","nodmgspread","uncletopia"],"game_id":440,"stv_port":27036,"stv_name":"Uncletopia | Chicago | 7 | Stopwatch Beta | STV","players":null},{"server_id":39,"name":"Uncletopia | Chicago | 8 | Community","name_short":"chi-8","host":"chi-2.us.uncletopia.com","port":27045,"enabled":true,"region":"us-central","cc":"us","latitude":41.881832,"longitude":-87.62318,"reserved":0,"last_update":"0001-01-01T00:00:00Z","name_a2s":"Uncletopia | Chicago | 8 | Community","protocol":17,"map":"pl_barnblitz","folder":"tf","game":"Team Fortress","app_id":440,"player_count":5,"max_players":24,"Bots":0,"server_type":"Dedicated","server_os":"Linux","password":true,"vac":true,"version":"7961495","steam_id":85568392924866365,"keywords":["nocrits","nodmgspread","payload","uncletopia"],"game_id":440,"stv_port":27046,"stv_name":"Uncletopia | Chicago | 8 | Community | STV","players":[{"user_id":4,"name":"DR BOOM","steam_id":76561199122112514,"connected_time":586000000000,"state":"active","ping":56},{"user_id":5,"name":"Jesusbabygirl777","steam_id":76561198987708961,"connected_time":521000000000,"state":"active","ping":82},{"user_id":6,"name":"Yayifications","steam_id":76561198066227208,"connected_time":392000000000,"state":"active","ping":85},{"user_id":8,"name":"lx_smoke_xl","steam_id":76561199485453065,"connected_time":69000000000,"state":"active","ping":95},{"user_id":9,"name":"ice dragon gamer","steam_id":76561198873820157,"connected_time":44000000000,"state":"active","ping":126}]},{"server_id":8,"name":"Uncletopia | Dallas | 1 | All Maps","name_short":"dal-1","host":"dal-1.us.uncletopia.com","port":27015,"enabled":true,"region":"us-central","cc":"us","latitude":32.779167,"longitude":-96.80889,"reserved":0,"last_update":"0001-01-01T00:00:00Z","name_a2s":"Uncletopia | Dallas | 1 | All Maps","protocol":17,"map":"pl_borneo","folder":"tf","game":"Team Fortress","app_id":440,"player_count":24,"max_players":24,"Bots":0,"server_type":"Dedicated","server_os":"Linux","password":true,"vac":true,"version":"7961495","steam_id":85568392924469986,"keywords":["nocrits","nodmgspread","payload","uncletopia"],"game_id":440,"stv_port":27016,"stv_name":"Uncletopia | Dallas | 1 | All Maps | STV","players":[{"user_id":44,"name":"Spaceman","steam_id":76561198098025074,"connected_time":588000000000,"state":"active","ping":59},{"user_id":45,"name":"Angelica Pickles","steam_id":76561198052391179,"connected_time":506000000000,"state":"active","ping":123},{"user_id":5,"name":"Dirtbike rider","steam_id":76561198030457066,"connected_time":2182000000000,"state":"active","ping":63},{"user_id":6,"name":"Levi","steam_id":76561198089832776,"connected_time":2178000000000,"state":"active","ping":52},{"user_id":42,"name":"TheAsianMeatball","steam_id":76561198336926133,"connected_time":1032000000000,"state":"active","ping":69},{"user_id":8,"name":"Moonflower ‚ú¶","steam_id":76561198191782483,"connected_time":2176000000000,"state":"active","ping":49},{"user_id":49,"name":"Willham","steam_id":76561198065755781,"connected_time":211000000000,"state":"active","ping":94},{"user_id":40,"name":"Pulp Free Fiction","steam_id":76561198095396514,"connected_time":1064000000000,"state":"active","ping":155},{"user_id":48,"name":"Gibby","steam_id":76561199336569123,"connected_time":215000000000,"state":"active","ping":129},{"user_id":12,"name":"JUCE","steam_id":76561198057835518,"connected_time":2171000000000,"state":"active","ping":59},{"user_id":47,"name":"Bread Makes you Fat","steam_id":76561198985126532,"connected_time":221000000000,"state":"active","ping":48},{"user_id":21,"name":"Kirby.exe","steam_id":76561198242714582,"connected_time":2152000000000,"state":"active","ping":56},{"user_id":15,"name":"WastefulTrash","steam_id":76561198119003597,"connected_time":2167000000000,"state":"active","ping":54},{"user_id":37,"name":"AL???","steam_id":76561198381136912,"connected_time":1086000000000,"state":"active","ping":76},{"user_id":17,"name":"Chilihuahua","steam_id":76561198004929152,"connected_time":2162000000000,"state":"active","ping":102},{"user_id":18,"name":"airballer","steam_id":76561198165899125,"connected_time":2161000000000,"state":"active","ping":164},{"user_id":50,"name":"ducky","steam_id":76561198007764271,"connected_time":208000000000,"state":"active","ping":48},{"user_id":32,"name":"sebjzy ‚ô•","steam_id":76561198009959034,"connected_time":1878000000000,"state":"active","ping":56},{"user_id":30,"name":"loser","steam_id":76561198259380127,"connected_time":1963000000000,"state":"active","ping":77},{"user_id":24,"name":"Abysa.","steam_id":76561198424398862,"connected_time":2148000000000,"state":"active","ping":155},{"user_id":25,"name":"KaosInfinite","steam_id":76561198009126350,"connected_time":2127000000000,"state":"active","ping":80},{"user_id":27,"name":"bobbymcbobington","steam_id":76561199089411172,"connected_time":2117000000000,"state":"active","ping":120},{"user_id":41,"name":"Trolley","steam_id":76561198106695948,"connected_time":1064000000000,"state":"active","ping":73},{"user_id":29,"name":"Aerobro","steam_id":76561198033530996,"connected_time":2104000000000,"state":"active","ping":69}]},{"server_id":108,"name":"Uncletopia | Dallas | 2 | All Maps","name_short":"dal-2","host":"dal-1.us.uncletopia.com","port":27025,"enabled":true,"region":"us-central","cc":"us","latitude":32.779167,"longitude":-96.80889,"reserved":0,"last_update":"0001-01-01T00:00:00Z","name_a2s":"Uncletopia | Dallas | 2 | All Maps","protocol":17,"map":"pl_borneo","folder":"tf","game":"Team Fortress","app_id":440,"player_count":24,"max_players":24,"Bots":0,"server_type":"Dedicated","server_os":"Linux","password":true,"vac":true,"version":"7961495","steam_id":85568392924469988,"keywords":["nocrits","nodmgspread","payload","uncletopia"],"game_id":440,"stv_port":27026,"stv_name":"Uncletopia | Dallas | 2 | All Maps | STV","players":[{"user_id":9,"name":"[/\u003c] Potassium_","steam_id":76561199085021046,"connected_time":2093000000000,"state":"active","ping":708},{"user_id":10,"name":"Your Local Festive Furry","steam_id":76561199030190462,"connected_time":2035000000000,"state":"active","ping":82},{"user_id":21,"name":"Dryruins","steam_id":76561198927146689,"connected_time":1020000000000,"state":"active","ping":88},{"user_id":22,"name":"yeyoi","steam_id":76561198069821885,"connected_time":865000000000,"state":"active","ping":94},{"user_id":16,"name":"Workplace Daydreamer","steam_id":76561199230019748,"connected_time":1210000000000,"state":"active","ping":75},{"user_id":46,"name":"cringeass nae-nae girl","steam_id":76561198108753857,"connected_time":50000000000,"state":"active","ping":68},{"user_id":23,"name":"Kenku","steam_id":76561199086762926,"connected_time":849000000000,"state":"active","ping":67},{"user_id":24,"name":"Holp","steam_id":76561199019186848,"connected_time":783000000000,"state":"active","ping":84},{"user_id":25,"name":"Sauce","steam_id":76561198398722419,"connected_time":641000000000,"state":"active","ping":67},{"user_id":26,"name":"Smalls","steam_id":76561198046081504,"connected_time":637000000000,"state":"active","ping":55},{"user_id":27,"name":"Dabbledornk","steam_id":76561198065241300,"connected_time":616000000000,"state":"active","ping":73},{"user_id":43,"name":"Mellou","steam_id":76561198212048740,"connected_time":190000000000,"state":"active","ping":48},{"user_id":29,"name":"Kermit","steam_id":76561198034559979,"connected_time":574000000000,"state":"active","ping":85},{"user_id":30,"name":"PintSized","steam_id":76561199077031492,"connected_time":566000000000,"state":"active","ping":86},{"user_id":38,"name":"H.","steam_id":76561198074951179,"connected_time":472000000000,"state":"active","ping":64},{"user_id":42,"name":"ShrekExpert","steam_id":76561198099991218,"connected_time":408000000000,"state":"active","ping":86},{"user_id":33,"name":"spacetoven","steam_id":76561198115821131,"connected_time":520000000000,"state":"active","ping":82},{"user_id":34,"name":"Mediocre Gaming","steam_id":76561199230467980,"connected_time":517000000000,"state":"active","ping":87},{"user_id":47,"name":"tg cid","steam_id":76561197961277967,"connected_time":50000000000,"state":"active","ping":57},{"user_id":36,"name":"CryshireWithAK","steam_id":76561198857908089,"connected_time":482000000000,"state":"active","ping":100},{"user_id":39,"name":"Stryder","steam_id":76561199387418697,"connected_time":466000000000,"state":"active","ping":71},{"user_id":40,"name":"Wolbey","steam_id":76561198042148095,"connected_time":462000000000,"state":"active","ping":82},{"user_id":41,"name":"Tokyoghoul","steam_id":76561198374759967,"connected_time":454000000000,"state":"active","ping":102},{"user_id":44,"name":"Cris Patt (real)","steam_id":76561199362872879,"connected_time":190000000000,"state":"active","ping":60}]},{"server_id":404,"name":"Uncletopia | Dallas | 3 | All Maps","name_short":"dal-3","host":"dal-1.us.uncletopia.com","port":27035,"enabled":true,"region":"us-central","cc":"us","latitude":32.779167,"longitude":-96.80889,"reserved":0,"last_update":"0001-01-01T00:00:00Z","name_a2s":"Uncletopia | Dallas | 3 | All Maps","protocol":17,"map":"cp_sunshine","folder":"tf","game":"Team Fortress","app_id":440,"player_count":0,"max_players":24,"Bots":0,"server_type":"Dedicated","server_os":"Linux","password":true,"vac":true,"version":"7961495","steam_id":85568392924515219,"keywords":["cp","nocrits","nodmgspread","uncletopia"],"game_id":440,"stv_port":27036,"stv_name":"Uncletopia | Dallas | 3 | All Maps | STV","players":null},{"server_id":405,"name":"Uncletopia | Dallas | 4 | Community","name_short":"dal-4","host":"dal-1.us.uncletopia.com","port":27045,"enabled":true,"region":"us-central","cc":"us","latitude":32.779167,"longitude":-96.80889,"reserved":0,"last_update":"0001-01-01T00:00:00Z","name_a2s":"Uncletopia | Dallas | 4 | Community","protocol":17,"map":"koth_lakeside_final","folder":"tf","game":"Team Fortress","app_id":440,"player_count":0,"max_players":24,"Bots":0,"server_type":"Dedicated","server_os":"Linux","password":true,"vac":true,"version":"7961495","steam_id":85568392924515220,"keywords":["cp","nocrits","nodmgspread","uncletopia"],"game_id":440,"stv_port":27046,"stv_name":"Uncletopia | Dallas | 4 | Community | STV","players":null},{"server_id":5,"name":"Uncletopia | Frankfurt | 1 | All Maps","name_short":"frk-1","host":"frk-1.de.uncletopia.com","port":27015,"enabled":true,"region":"eu","cc":"de","latitude":50.110924,"longitude":8.682127,"reserved":0,"last_update":"0001-01-01T00:00:00Z","name_a2s":"Uncletopia | Frankfurt | 1 | All Maps","protocol":17,"map":"pl_badwater","folder":"tf","game":"Team Fortress","app_id":440,"player_count":24,"max_players":24,"Bots":0,"server_type":"Dedicated","server_os":"Linux","password":true,"vac":true,"version":"7961495","steam_id":85568392924469989,"keywords":["nocrits","nodmgspread","payload","uncletopia"],"game_id":440,"stv_port":27016,"stv_name":"Uncletopia | Frankfurt | 1 | All Maps | STV","players":[{"user_id":3,"name":"alcoholic 7blak","steam_id":76561198078928120,"connected_time":2268000000000,"state":"active","ping":76},{"user_id":42,"name":"NeiroüëΩ·ó©YY ·í™·ó∞·ó©O","steam_id":76561198046743985,"connected_time":1198000000000,"state":"active","ping":75},{"user_id":39,"name":"randompixel","steam_id":76561198003941207,"connected_time":1226000000000,"state":"active","ping":67},{"user_id":41,"name":"Duke Nukem Facts!","steam_id":76561199013457963,"connected_time":1207000000000,"state":"active","ping":60},{"user_id":27,"name":"Mza28","steam_id":76561198873993324,"connected_time":2194000000000,"state":"active","ping":61},{"user_id":9,"name":"homixidefrostu666","steam_id":76561198870286073,"connected_time":2244000000000,"state":"active","ping":60},{"user_id":51,"name":"DaiDaiMu :3","steam_id":76561198052794823,"connected_time":666000000000,"state":"active","ping":61},{"user_id":11,"name":"lazern","steam_id":76561198049983016,"connected_time":2230000000000,"state":"active","ping":91},{"user_id":22,"name":"beeper","steam_id":76561198130416479,"connected_time":2201000000000,"state":"active","ping":48},{"user_id":13,"name":"eple","steam_id":76561198017686306,"connected_time":2220000000000,"state":"active","ping":58},{"user_id":52,"name":"H2n9","steam_id":76561198055811259,"connected_time":649000000000,"state":"active","ping":68},{"user_id":55,"name":"Superiumentarius","steam_id":76561198081642249,"connected_time":573000000000,"state":"active","ping":45},{"user_id":58,"name":"marci","steam_id":76561198159593026,"connected_time":428000000000,"state":"active","ping":60},{"user_id":43,"name":"Fluffy Tuffy","steam_id":76561198106495563,"connected_time":1198000000000,"state":"active","ping":130},{"user_id":56,"name":"Predrag218","steam_id":76561199242439630,"connected_time":565000000000,"state":"active","ping":116},{"user_id":50,"name":"Nokah","steam_id":76561198973184361,"connected_time":670000000000,"state":"active","ping":69},{"user_id":45,"name":"hammythegreat #SaveTF2","steam_id":76561198079526946,"connected_time":1175000000000,"state":"active","ping":174},{"user_id":57,"name":"mocca","steam_id":76561198045388806,"connected_time":552000000000,"state":"active","ping":62},{"user_id":31,"name":"flr","steam_id":76561198249327786,"connected_time":1984000000000,"state":"active","ping":74},{"user_id":49,"name":"Arthur","steam_id":76561198066109166,"connected_time":746000000000,"state":"active","ping":77},{"user_id":26,"name":"Funny Cat Song","steam_id":76561199229682408,"connected_time":2196000000000,"state":"active","ping":54},{"user_id":28,"name":"oh boy","steam_id":76561198083615367,"connected_time":2194000000000,"state":"active","ping":49},{"user_id":59,"name":"‚ô• kill me ‚ô•","steam_id":76561199491663929,"connected_time":401000000000,"state":"active","ping":89},{"user_id":60,"name":"Emilia  ‚Ä¢  „Åà„Åø„Çä„ÅÇ","steam_id":76561198146573908,"connected_time":70000000000,"state":"active","ping":233}]},{"server_id":110,"name":"Uncletopia | Frankfurt | 2 | All Maps","name_short":"frk-2","host":"frk-1.de.uncletopia.com","port":27025,"enabled":true,"region":"eu","cc":"de","latitude":50.110924,"longitude":8.682127,"reserved":0,"last_update":"0001-01-01T00:00:00Z","name_a2s":"Uncletopia | Frankfurt | 2 | All Maps","protocol":17,"map":"plr_hightower","folder":"tf","game":"Team Fortress","app_id":440,"player_count":11,"max_players":24,"Bots":0,"server_type":"Dedicated","server_os":"Linux","password":true,"vac":true,"version":"7961495","steam_id":85568392924469990,"keywords":["nocrits","nodmgspread","payload","uncletopia"],"game_id":440,"stv_port":27026,"stv_name":"Uncletopia | Frankfurt | 2 | All Maps | STV","players":[{"user_id":41,"name":"Suetolog","steam_id":76561199053090212,"connected_time":68000000000,"state":"active","ping":52},{"user_id":42,"name":"lidl","steam_id":76561198895235231,"connected_time":26000000000,"state":"active","ping":62},{"user_id":35,"name":"Spooky","steam_id":76561198086467025,"connected_time":1158000000000,"state":"active","ping":68},{"user_id":7,"name":"Microsoft Excel","steam_id":76561198043903309,"connected_time":2237000000000,"state":"active","ping":59},{"user_id":38,"name":"Itou Aya","steam_id":76561198439893168,"connected_time":969000000000,"state":"active","ping":99},{"user_id":11,"name":"Finnish sniper","steam_id":76561199226847880,"connected_time":2226000000000,"state":"active","ping":102},{"user_id":22,"name":"Turek","steam_id":76561198280066503,"connected_time":2124000000000,"state":"active","ping":72},{"user_id":37,"name":"FURRY FEMBOYS DM ME","steam_id":76561198404802175,"connected_time":1043000000000,"state":"active","ping":172},{"user_id":39,"name":"HUGO","steam_id":76561198317134996,"connected_time":874000000000,"state":"active","ping":75},{"user_id":26,"name":"Gugu","steam_id":76561198161822358,"connected_time":2112000000000,"state":"active","ping":55},{"user_id":29,"name":"SeeYouSpaceRobot","steam_id":76561198454018197,"connected_time":2083000000000,"state":"active","ping":61}]},{"server_id":308,"name":"Uncletopia | Frankfurt | 3 | All Maps","name_short":"frk-3","host":"frk-1.de.uncletopia.com","port":27035,"enabled":true,"region":"eu","cc":"de","latitude":50.110924,"longitude":8.682127,"reserved":0,"last_update":"0001-01-01T00:00:00Z","name_a2s":"Uncletopia | Frankfurt | 3 | All Maps","protocol":17,"map":"koth_viaduct","folder":"tf","game":"Team Fortress","app_id":440,"player_count":0,"max_players":24,"Bots":0,"server_type":"Dedicated","server_os":"Linux","password":true,"vac":true,"version":"7961495","steam_id":85568392924504274,"keywords":["cp","nocrits","nodmgspread","uncletopia"],"game_id":440,"stv_port":27036,"stv_name":"Uncletopia | Frankfurt | 3 | All Maps | STV","players":null},{"server_id":309,"name":"Uncletopia | Frankfurt | 4 | All Maps","name_short":"frk-4","host":"frk-1.de.uncletopia.com","port":27045,"enabled":true,"region":"eu","cc":"de","latitude":50.110924,"longitude":8.682127,"reserved":0,"last_update":"0001-01-01T00:00:00Z","name_a2s":"Uncletopia | Frankfurt | 4 | All Maps","protocol":17,"map":"cp_dustbowl","folder":"tf","game":"Team Fortress","app_id":440,"player_count":2,"max_players":24,"Bots":0,"server_type":"Dedicated","server_os":"Linux","password":true,"vac":true,"version":"7961495","steam_id":85568392924504275,"keywords":["cp","nocrits","nodmgspread","uncletopia"],"game_id":440,"stv_port":27046,"stv_name":"Uncletopia | Frankfurt | 4 | All Maps | STV","players":[{"user_id":10,"name":"Maoma112","steam_id":76561199012536447,"connected_time":806000000000,"state":"active","ping":85},{"user_id":11,"name":"üó°üó°üó°","steam_id":76561198427247304,"connected_time":803000000000,"state":"active","ping":85}]},{"server_id":310,"name":"Uncletopia | Frankfurt | 5 | All Maps","name_short":"frk-5","host":"frk-1.de.uncletopia.com","port":27055,"enabled":true,"region":"eu","cc":"de","latitude":50.110924,"longitude":8.682127,"reserved":0,"last_update":"0001-01-01T00:00:00Z","name_a2s":"Uncletopia | Frankfurt | 5 | All Maps","protocol":17,"map":"pl_swiftwater_final1","folder":"tf","game":"Team Fortress","app_id":440,"player_count":0,"max_players":24,"Bots":0,"server_type":"Dedicated","server_os":"Linux","password":true,"vac":true,"version":"7961495","steam_id":85568392924504277,"keywords":["nocrits","nodmgspread","payload","uncletopia"],"game_id":440,"stv_port":27056,"stv_name":"Uncletopia | Frankfurt | 5 | All Maps | STV","players":null},{"server_id":311,"name":"Uncletopia | Frankfurt | 6 | All Maps","name_short":"frk-6","host":"frk-1.de.uncletopia.com","port":27065,"enabled":true,"region":"eu","cc":"de","latitude":50.110924,"longitude":8.682127,"reserved":0,"last_update":"0001-01-01T00:00:00Z","name_a2s":"Uncletopia | Frankfurt | 6 | All Maps","protocol":17,"map":"pl_borneo","folder":"tf","game":"Team Fortress","app_id":440,"player_count":24,"max_players":24,"Bots":0,"server_type":"Dedicated","server_os":"Linux","password":true,"vac":true,"version":"7961495","steam_id":85568392924504278,"keywords":["nocrits","nodmgspread","payload","uncletopia"],"game_id":440,"stv_port":27066,"stv_name":"Uncletopia | Frankfurt | 6 | All Maps | STV","players":[{"user_id":8,"name":"fp","steam_id":76561198817940142,"connected_time":2157000000000,"state":"active","ping":48},{"user_id":4,"name":"Jon (ebic gamer)","steam_id":76561199380849468,"connected_time":2202000000000,"state":"active","ping":64},{"user_id":5,"name":"Bill Carr","steam_id":76561198110033943,"connected_time":2202000000000,"state":"active","ping":45},{"user_id":22,"name":"tone","steam_id":76561197975301462,"connected_time":1887000000000,"state":"active","ping":81},{"user_id":55,"name":"noot","steam_id":76561198148074472,"connected_time":146000000000,"state":"active","ping":30},{"user_id":9,"name":"coella","steam_id":76561198442803577,"connected_time":2154000000000,"state":"active","ping":77},{"user_id":10,"name":"Philosophos_Alpha","steam_id":76561198951264580,"connected_time":2149000000000,"state":"active","ping":102},{"user_id":11,"name":"Marquis de Hoto","steam_id":76561198080687708,"connected_time":2144000000000,"state":"active","ping":56},{"user_id":49,"name":"Niyaah","steam_id":76561198110209191,"connected_time":437000000000,"state":"active","ping":75},{"user_id":15,"name":"Macoda","steam_id":76561198061487030,"connected_time":2043000000000,"state":"active","ping":79},{"user_id":48,"name":"Doctor Marijuana","steam_id":76561198288289879,"connected_time":467000000000,"state":"active","ping":65},{"user_id":47,"name":"gx71","steam_id":76561198035112358,"connected_time":490000000000,"state":"active","ping":58},{"user_id":18,"name":"filthy ‚òÜ","steam_id":76561198089069719,"connected_time":2002000000000,"state":"active","ping":62},{"user_id":50,"name":"dmEngineer_tf2 #SaveTF2","steam_id":76561199388956338,"connected_time":429000000000,"state":"active","ping":73},{"user_id":20,"name":"Belts the Puppet","steam_id":76561198322969864,"connected_time":1952000000000,"state":"active","ping":152},{"user_id":30,"name":"The Bucket","steam_id":76561199131973613,"connected_time":1837000000000,"state":"active","ping":105},{"user_id":44,"name":"MANBOYBOYBOYMAN","steam_id":76561198097612561,"connected_time":763000000000,"state":"active","ping":75},{"user_id":37,"name":"Real (Real)","steam_id":76561198323425034,"connected_time":1360000000000,"state":"active","ping":72},{"user_id":36,"name":"Flashback","steam_id":76561197973978552,"connected_time":1463000000000,"state":"active","ping":61},{"user_id":35,"name":"2BCD","steam_id":76561198178254946,"connected_time":1524000000000,"state":"active","ping":62},{"user_id":51,"name":"jonas","steam_id":76561199441196540,"connected_time":416000000000,"state":"active","ping":60},{"user_id":46,"name":"FilipeLuk","steam_id":76561198150675438,"connected_time":536000000000,"state":"active","ping":63},{"user_id":52,"name":"kubanamaxa","steam_id":76561198154315656,"connected_time":406000000000,"state":"active","ping":88},{"user_id":34,"name":"Yayx","steam_id":76561198078780040,"connected_time":1686000000000,"state":"active","ping":59}]},{"server_id":23,"name":"Uncletopia | Frankfurt | 7 | Stopwatch Beta","name_short":"frk-7","host":"frk-1.de.uncletopia.com","port":27075,"enabled":true,"region":"eu","cc":"de","latitude":50.110924,"longitude":8.682127,"reserved":0,"last_update":"0001-01-01T00:00:00Z","name_a2s":"Uncletopia | Frankfurt | 7 | Stopwatch Beta","protocol":17,"map":"pl_frontier_final","folder":"tf","game":"Team Fortress","app_id":440,"player_count":0,"max_players":24,"Bots":0,"server_type":"Dedicated","server_os":"Linux","password":true,"vac":true,"version":"7961495","steam_id":85568392924742827,"keywords":["nocrits","nodmgspread","payload","uncletopia"],"game_id":440,"stv_port":27076,"stv_name":"Uncletopia | Frankfurt | 7 | Stopwatch Beta | STV","players":null},{"server_id":24,"name":"Uncletopia | Frankfurt | 8 | Community","name_short":"frk-8","host":"frk-1.de.uncletopia.com","port":27085,"enabled":true,"region":"eu","cc":"de","latitude":50.110924,"longitude":8.682127,"reserved":0,"last_update":"0001-01-01T00:00:00Z","name_a2s":"Uncletopia | Frankfurt | 8 | Community","protocol":17,"map":"koth_highpass","folder":"tf","game":"Team Fortress","app_id":440,"player_count":0,"max_players":24,"Bots":0,"server_type":"Dedicated","server_os":"Linux","password":true,"vac":true,"version":"7961495","steam_id":85568392924742828,"keywords":["cp","nocrits","nodmgspread","uncletopia"],"game_id":440,"stv_port":27086,"stv_name":"Uncletopia | Frankfurt | 8 | Community | STV","players":null},{"server_id":202,"name":"Uncletopia | Hong Kong | 1 | All Maps","name_short":"hgk-1","host":"hgk-1.hk.uncletopia.com","port":27015,"enabled":true,"region":"asia","cc":"hk","latitude":22.302711,"longitude":114.177216,"reserved":0,"last_update":"0001-01-01T00:00:00Z","name_a2s":"Uncletopia | Hong Kong | 1 | All Maps","protocol":17,"map":"pl_barnblitz","folder":"tf","game":"Team Fortress","app_id":440,"player_count":0,"max_players":24,"Bots":0,"server_type":"Dedicated","server_os":"Linux","password":true,"vac":true,"version":"7961495","steam_id":85568392924494504,"keywords":["nocrits","nodmgspread","payload","uncletopia"],"game_id":440,"stv_port":27016,"stv_name":"Uncletopia | Hong Kong | 1 | All Maps | STV","players":null},{"server_id":1,"name":"Uncletopia | Los Angeles | 1 | All Maps","name_short":"lax-1","host":"lax-1.us.uncletopia.com","port":27015,"enabled":true,"region":"us-west","cc":"us","latitude":33.94279,"longitude":-118.41004,"reserved":0,"last_update":"0001-01-01T00:00:00Z","name_a2s":"Uncletopia | Los Angeles | 1 | All Maps","protocol":17,"map":"pl_badwater","folder":"tf","game":"Team Fortress","app_id":440,"player_count":19,"max_players":24,"Bots":0,"server_type":"Dedicated","server_os":"Linux","password":true,"vac":true,"version":"7961495","steam_id":85568392924469991,"keywords":["nocrits","nodmgspread","payload","uncletopia"],"game_id":440,"stv_port":27016,"stv_name":"Uncletopia | Los Angeles | 1 | All Maps | STV","players":[{"user_id":52,"name":"rune simpa","steam_id":76561198046174848,"connected_time":686000000000,"state":"active","ping":99},{"user_id":34,"name":"Ryle","steam_id":76561198216682264,"connected_time":2484000000000,"state":"active","ping":44},{"user_id":32,"name":"Sgt. Eclair","steam_id":76561198156384194,"connected_time":2655000000000,"state":"active","ping":47},{"user_id":14,"name":"Altruisticailuridae","steam_id":76561198335295596,"connected_time":3254000000000,"state":"active","ping":53},{"user_id":40,"name":"Duk","steam_id":76561198450692568,"connected_time":2085000000000,"state":"active","ping":117},{"user_id":51,"name":"Rodgedan","steam_id":76561198226236524,"connected_time":816000000000,"state":"active","ping":126},{"user_id":61,"name":"Red Metal","steam_id":76561198362722560,"connected_time":36000000000,"state":"active","ping":74},{"user_id":11,"name":"Tmiracle","steam_id":76561198052375275,"connected_time":3267000000000,"state":"active","ping":47},{"user_id":57,"name":"adult tim","steam_id":76561198075510786,"connected_time":236000000000,"state":"active","ping":85},{"user_id":15,"name":"usedhalfcart","steam_id":76561198072621852,"connected_time":3254000000000,"state":"active","ping":88},{"user_id":16,"name":"Lonlily","steam_id":76561198130418647,"connected_time":3250000000000,"state":"active","ping":61},{"user_id":56,"name":"KingMarcel","steam_id":76561199079200901,"connected_time":284000000000,"state":"active","ping":88},{"user_id":59,"name":"kebo","steam_id":76561198237159430,"connected_time":149000000000,"state":"active","ping":61},{"user_id":19,"name":"riSygneD","steam_id":76561198331618687,"connected_time":3212000000000,"state":"active","ping":33},{"user_id":42,"name":"vee the fenn","steam_id":76561198049510832,"connected_time":2026000000000,"state":"active","ping":56},{"user_id":60,"name":"Rodrick Knee","steam_id":76561198283021062,"connected_time":100000000000,"state":"active","ping":130},{"user_id":55,"name":"Loogus","steam_id":76561198811561721,"connected_time":323000000000,"state":"active","ping":59},{"user_id":62,"name":"sunny","steam_id":76561198069380992,"connected_time":27000000000,"state":"active","ping":77},{"user_id":45,"name":"‚ô•ur :3 medic gf‚ô• (51ref/hr)","steam_id":76561198816778484,"connected_time":1778000000000,"state":"active","ping":113}]},{"server_id":112,"name":"Uncletopia | Los Angeles | 2 | All Maps","name_short":"lax-2","host":"lax-1.us.uncletopia.com","port":27025,"enabled":true,"region":"us-west","cc":"us","latitude":33.94279,"longitude":-118.41004,"reserved":0,"last_update":"0001-01-01T00:00:00Z","name_a2s":"Uncletopia | Los Angeles | 2 | All Maps","protocol":17,"map":"pl_barnblitz","folder":"tf","game":"Team Fortress","app_id":440,"player_count":0,"max_players":24,"Bots":0,"server_type":"Dedicated","server_os":"Linux","password":true,"vac":true,"version":"7961495","steam_id":85568392924469992,"keywords":["nocrits","nodmgspread","payload","uncletopia"],"game_id":440,"stv_port":27026,"stv_name":"Uncletopia | Los Angeles | 2 | All Maps | STV","players":null},{"server_id":324,"name":"Uncletopia | Los Angeles | 3 | All Maps","name_short":"lax-3","host":"lax-1.us.uncletopia.com","port":27035,"enabled":true,"region":"us-west","cc":"us","latitude":33.94279,"longitude":-118.41004,"reserved":0,"last_update":"0001-01-01T00:00:00Z","name_a2s":"Uncletopia | Los Angeles | 3 | All Maps","protocol":17,"map":"koth_viaduct","folder":"tf","game":"Team Fortress","app_id":440,"player_count":0,"max_players":24,"Bots":0,"server_type":"Dedicated","server_os":"Linux","password":true,"vac":true,"version":"7961495","steam_id":85568392924510198,"keywords":["cp","nocrits","nodmgspread","uncletopia"],"game_id":440,"stv_port":27036,"stv_name":"Uncletopia | Los Angeles | 3 | All Maps | STV","players":null},{"server_id":25,"name":"Uncletopia | Los Angeles | 4 | Stopwatch","name_short":"lax-4","host":"lax-1.us.uncletopia.com","port":27045,"enabled":true,"region":"us-west","cc":"us","latitude":33.94279,"longitude":-118.41004,"reserved":0,"last_update":"0001-01-01T00:00:00Z","name_a2s":"Uncletopia | Los Angeles | 4 | Stopwatch","protocol":17,"map":"koth_cascade","folder":"tf","game":"Team Fortress","app_id":440,"player_count":0,"max_players":24,"Bots":0,"server_type":"Dedicated","server_os":"Linux","password":true,"vac":true,"version":"7961495","steam_id":85568392924510199,"keywords":["cp","nocrits","nodmgspread","uncletopia"],"game_id":440,"stv_port":27046,"stv_name":"Uncletopia | Los Angeles | 4 | Stopwatch | STV","players":null},{"server_id":11,"name":"Uncletopia | London | 1 | All Maps","name_short":"lon-1","host":"lon-1.uk.uncletopia.com","port":27015,"enabled":true,"region":"eu","cc":"gb","latitude":51.509865,"longitude":-0.118092,"reserved":0,"last_update":"0001-01-01T00:00:00Z","name_a2s":"Uncletopia | London | 1 | All Maps","protocol":17,"map":"pl_pier","folder":"tf","game":"Team Fortress","app_id":440,"player_count":24,"max_players":24,"Bots":0,"server_type":"Dedicated","server_os":"Linux","password":true,"vac":true,"version":"7961495","steam_id":85568392924367362,"keywords":["nocrits","nodmgspread","payload","uncletopia"],"game_id":440,"stv_port":27016,"stv_name":"Uncletopia | London | 1 | All Maps | STV","players":[{"user_id":55,"name":"Eric Catman","steam_id":76561198802117294,"connected_time":380000000000,"state":"active","ping":73},{"user_id":4,"name":"Habimbi","steam_id":76561198047271252,"connected_time":2284000000000,"state":"active","ping":72},{"user_id":5,"name":"etc","steam_id":76561197998394797,"connected_time":2280000000000,"state":"active","ping":53},{"user_id":6,"name":"Slifer the GiantEnemy SkyDragon","steam_id":76561198062255803,"connected_time":2275000000000,"state":"active","ping":74},{"user_id":7,"name":"teddy","steam_id":76561198007436837,"connected_time":2274000000000,"state":"active","ping":44},{"user_id":51,"name":"Dat Fat Cat","steam_id":76561198058652558,"connected_time":905000000000,"state":"active","ping":44},{"user_id":9,"name":"The Subway Scientist","steam_id":76561198193757646,"connected_time":2264000000000,"state":"active","ping":46},{"user_id":10,"name":"Prome","steam_id":76561199050383942,"connected_time":2259000000000,"state":"active","ping":50},{"user_id":11,"name":"Sandshee","steam_id":76561198088574666,"connected_time":2258000000000,"state":"active","ping":45},{"user_id":39,"name":"thekoolest88","steam_id":76561199022415672,"connected_time":1640000000000,"state":"active","ping":135},{"user_id":13,"name":"badrobot","steam_id":76561198322878356,"connected_time":2252000000000,"state":"active","ping":105},{"user_id":57,"name":"cora","steam_id":76561199474154775,"connected_time":358000000000,"state":"active","ping":59},{"user_id":54,"name":"OceanMan","steam_id":76561198391833371,"connected_time":382000000000,"state":"active","ping":43},{"user_id":52,"name":"bowchika wowa #SlavaUkraine","steam_id":76561198159564550,"connected_time":400000000000,"state":"active","ping":73},{"user_id":53,"name":"remi, she wrote.","steam_id":76561198044045655,"connected_time":391000000000,"state":"active","ping":72},{"user_id":41,"name":"anal annihilator","steam_id":76561198298436329,"connected_time":1338000000000,"state":"active","ping":59},{"user_id":19,"name":"DiscoTraveler","steam_id":76561199240168088,"connected_time":2230000000000,"state":"active","ping":118},{"user_id":49,"name":"N5LH","steam_id":76561199112528775,"connected_time":1109000000000,"state":"active","ping":123},{"user_id":42,"name":"Minimi","steam_id":76561198873850443,"connected_time":1332000000000,"state":"active","ping":44},{"user_id":47,"name":"Pinkchup","steam_id":76561198106802803,"connected_time":1154000000000,"state":"active","ping":78},{"user_id":23,"name":"Dead Kitten","steam_id":76561198152132092,"connected_time":2219000000000,"state":"active","ping":80},{"user_id":50,"name":"Wikk","steam_id":76561199006349076,"connected_time":1051000000000,"state":"active","ping":55},{"user_id":56,"name":"Puss in Boots","steam_id":76561198211599767,"connected_time":371000000000,"state":"active","ping":52},{"user_id":40,"name":"Krucial","steam_id":76561198144464665,"connected_time":1592000000000,"state":"active","ping":69}]},{"server_id":114,"name":"Uncletopia | London | 2 | All Maps","name_short":"lon-2","host":"lon-1.uk.uncletopia.com","port":27025,"enabled":true,"region":"eu","cc":"gb","latitude":51.509865,"longitude":-0.118092,"reserved":0,"last_update":"0001-01-01T00:00:00Z","name_a2s":"Uncletopia | London | 2 | All Maps","protocol":17,"map":"pl_borneo","folder":"tf","game":"Team Fortress","app_id":440,"player_count":0,"max_players":24,"Bots":0,"server_type":"Dedicated","server_os":"Linux","password":true,"vac":true,"version":"7961495","steam_id":85568392924470941,"keywords":["nocrits","nodmgspread","payload","uncletopia"],"game_id":440,"stv_port":27026,"stv_name":"Uncletopia | London | 2 | All Maps | STV","players":null},{"server_id":320,"name":"Uncletopia | London | 3 | All Maps","name_short":"lon-3","host":"lon-1.uk.uncletopia.com","port":27035,"enabled":true,"region":"eu","cc":"gb","latitude":51.509865,"longitude":-0.118092,"reserved":0,"last_update":"0001-01-01T00:00:00Z","name_a2s":"Uncletopia | London | 3 | All Maps","protocol":17,"map":"pl_badwater","folder":"tf","game":"Team Fortress","app_id":440,"player_count":5,"max_players":24,"Bots":0,"server_type":"Dedicated","server_os":"Linux","password":true,"vac":true,"version":"7961495","steam_id":85568392924510192,"keywords":["nocrits","nodmgspread","payload","uncletopia"],"game_id":440,"stv_port":27036,"stv_name":"Uncletopia | London | 3 | All Maps | STV","players":[{"user_id":38,"name":"Tx_madmash","steam_id":76561198924656512,"connected_time":192000000000,"state":"active","ping":178},{"user_id":39,"name":"zoinks!","steam_id":76561198068645362,"connected_time":99000000000,"state":"active","ping":33},{"user_id":33,"name":"DoomerDodie","steam_id":76561198177853490,"connected_time":691000000000,"state":"active","ping":60},{"user_id":18,"name":"Ic3pie","steam_id":76561198396482401,"connected_time":1809000000000,"state":"active","ping":115},{"user_id":21,"name":"wha-","steam_id":76561198106010102,"connected_time":1725000000000,"state":"active","ping":102}]},{"server_id":321,"name":"Uncletopia | London | 4 | All Maps","name_short":"lon-4","host":"lon-1.uk.uncletopia.com","port":27045,"enabled":true,"region":"eu","cc":"gb","latitude":51.509865,"longitude":-0.118092,"reserved":0,"last_update":"0001-01-01T00:00:00Z","name_a2s":"Uncletopia | London | 4 | All Maps","protocol":17,"map":"pl_upward","folder":"tf","game":"Team Fortress","app_id":440,"player_count":24,"max_players":24,"Bots":0,"server_type":"Dedicated","server_os":"Linux","password":true,"vac":true,"version":"7961495","steam_id":85568392924510193,"keywords":["nocrits","nodmgspread","payload","uncletopia"],"game_id":440,"stv_port":27046,"stv_name":"Uncletopia | London | 4 | All Maps | STV","players":[{"user_id":14,"name":"DJ_Not_Guilty","steam_id":76561198074369317,"connected_time":1888000000000,"state":"active","ping":54},{"user_id":10,"name":"cowb√∂y","steam_id":76561198048990716,"connected_time":2176000000000,"state":"active","ping":94},{"user_id":12,"name":"Banatical Bean","steam_id":76561198122356617,"connected_time":2064000000000,"state":"active","ping":63},{"user_id":51,"name":"dumbest bitch","steam_id":76561198097712283,"connected_time":345000000000,"state":"active","ping":74},{"user_id":13,"name":"Raine","steam_id":76561198098860903,"connected_time":2047000000000,"state":"active","ping":60},{"user_id":62,"name":"Klorophyte","steam_id":76561198885112655,"connected_time":194000000000,"state":"active","ping":97},{"user_id":17,"name":"Goblin Tinkerer","steam_id":76561199195214616,"connected_time":1619000000000,"state":"active","ping":48},{"user_id":18,"name":"femboy enjoyer","steam_id":76561199041737814,"connected_time":1562000000000,"state":"active","ping":45},{"user_id":28,"name":"j√π xiƒì","steam_id":76561198096189399,"connected_time":1360000000000,"state":"active","ping":61},{"user_id":21,"name":"ksg","steam_id":76561198042894236,"connected_time":1507000000000,"state":"active","ping":71},{"user_id":23,"name":"Ascended Noob","steam_id":76561198079411460,"connected_time":1472000000000,"state":"active","ping":48},{"user_id":24,"name":"Proud Jojo Fan #TF2SP","steam_id":76561198847327216,"connected_time":1433000000000,"state":"active","ping":68},{"user_id":36,"name":"debil","steam_id":76561198160047415,"connected_time":1017000000000,"state":"active","ping":76},{"user_id":37,"name":"Plop_","steam_id":76561198112567921,"connected_time":1006000000000,"state":"active","ping":41},{"user_id":48,"name":"Jopar","steam_id":76561198892206410,"connected_time":737000000000,"state":"active","ping":129},{"user_id":38,"name":"wes","steam_id":76561198067000117,"connected_time":989000000000,"state":"active","ping":75},{"user_id":31,"name":"Malina, The Sour Demon","steam_id":76561198127874126,"connected_time":1212000000000,"state":"active","ping":61},{"user_id":46,"name":"Lou Von Kra","steam_id":76561198348685213,"connected_time":836000000000,"state":"active","ping":86},{"user_id":34,"name":"Shourai","steam_id":76561198201192634,"connected_time":1167000000000,"state":"active","ping":37},{"user_id":49,"name":"zeen","steam_id":76561198141020179,"connected_time":504000000000,"state":"active","ping":77},{"user_id":50,"name":"CherrBear","steam_id":76561198047197341,"connected_time":375000000000,"state":"active","ping":58},{"user_id":43,"name":"The Cockless One","steam_id":76561198808891599,"connected_time":918000000000,"state":"active","ping":82},{"user_id":44,"name":"Reflector","steam_id":76561198078999855,"connected_time":907000000000,"state":"active","ping":134},{"user_id":54,"name":"r06u3","steam_id":76561198254099253,"connected_time":298000000000,"state":"active","ping":174}]},{"server_id":21,"name":"Uncletopia | London | 5 | All Maps","name_short":"lon-5","host":"lon-1.uk.uncletopia.com","port":27055,"enabled":true,"region":"eu","cc":"gb","latitude":51.509865,"longitude":-0.118092,"reserved":0,"last_update":"0001-01-01T00:00:00Z","name_a2s":"Uncletopia | London | 5 | All Maps","protocol":17,"map":"pl_frontier_final","folder":"tf","game":"Team Fortress","app_id":440,"player_count":24,"max_players":24,"Bots":0,"server_type":"Dedicated","server_os":"Linux","password":true,"vac":true,"version":"7961495","steam_id":85568392924742829,"keywords":["nocrits","nodmgspread","payload","uncletopia"],"game_id":440,"stv_port":27056,"stv_name":"Uncletopia | London | 5 | All Maps | STV","players":[{"user_id":3,"name":"kill pyro main with rock","steam_id":76561198072320671,"connected_time":2241000000000,"state":"active","ping":35},{"user_id":4,"name":"Small Rat","steam_id":76561197970114051,"connected_time":2240000000000,"state":"active","ping":42},{"user_id":5,"name":"Fandovec03","steam_id":76561198252567650,"connected_time":2235000000000,"state":"active","ping":60},{"user_id":52,"name":"Saul Quiz-Man","steam_id":76561198353226972,"connected_time":523000000000,"state":"active","ping":63},{"user_id":42,"name":"Syd","steam_id":76561198020515027,"connected_time":1461000000000,"state":"active","ping":62},{"user_id":53,"name":"bruh","steam_id":76561197993922244,"connected_time":522000000000,"state":"active","ping":60},{"user_id":59,"name":"Cava","steam_id":76561198054840118,"connected_time":26000000000,"state":"active","ping":59},{"user_id":58,"name":"ham","steam_id":76561198092186935,"connected_time":312000000000,"state":"active","ping":47},{"user_id":56,"name":"Faustino","steam_id":76561198061771785,"connected_time":397000000000,"state":"active","ping":82},{"user_id":50,"name":"C0nfirm3d","steam_id":76561198156847117,"connected_time":791000000000,"state":"active","ping":66},{"user_id":13,"name":"the.jam.987","steam_id":76561199074484992,"connected_time":2213000000000,"state":"active","ping":71},{"user_id":14,"name":"Mobster Tortoise","steam_id":76561199036837091,"connected_time":2212000000000,"state":"active","ping":88},{"user_id":15,"name":"HealthHazard","steam_id":76561198212549753,"connected_time":2201000000000,"state":"active","ping":49},{"user_id":16,"name":"CCPodz","steam_id":76561199143506502,"connected_time":2197000000000,"state":"active","ping":143},{"user_id":51,"name":"Tummy","steam_id":76561198045654910,"connected_time":570000000000,"state":"active","ping":44},{"user_id":44,"name":"Rony.","steam_id":76561198242110020,"connected_time":1311000000000,"state":"active","ping":104},{"user_id":19,"name":"Kenny Savage","steam_id":76561199049383900,"connected_time":2188000000000,"state":"active","ping":77},{"user_id":28,"name":"Moon","steam_id":76561198808108594,"connected_time":2166000000000,"state":"active","ping":92},{"user_id":39,"name":"gibb (official)","steam_id":76561198074097655,"connected_time":1576000000000,"state":"active","ping":43},{"user_id":23,"name":"Benzo Fury","steam_id":76561198025259336,"connected_time":2180000000000,"state":"active","ping":42},{"user_id":55,"name":"The Pissquisitor","steam_id":76561199177598615,"connected_time":496000000000,"state":"active","ping":70},{"user_id":25,"name":"Hercules","steam_id":76561198041164170,"connected_time":2179000000000,"state":"active","ping":60},{"user_id":26,"name":"Cage, Nicolas","steam_id":76561198061714753,"connected_time":2179000000000,"state":"active","ping":84},{"user_id":46,"name":"COOL_JEANS","steam_id":76561199086227946,"connected_time":1247000000000,"state":"active","ping":111}]},{"server_id":22,"name":"Uncletopia | London | 6 | All Maps","name_short":"lon-6","host":"lon-1.uk.uncletopia.com","port":27065,"enabled":true,"region":"eu","cc":"gb","latitude":51.509865,"longitude":-0.118092,"reserved":0,"last_update":"0001-01-01T00:00:00Z","name_a2s":"Uncletopia | London | 6 | All Maps","protocol":17,"map":"koth_lakeside_final","folder":"tf","game":"Team Fortress","app_id":440,"player_count":0,"max_players":24,"Bots":0,"server_type":"Dedicated","server_os":"Linux","password":true,"vac":true,"version":"7961495","steam_id":85568392924742830,"keywords":["cp","nocrits","nodmgspread","uncletopia"],"game_id":440,"stv_port":27066,"stv_name":"Uncletopia | London | 6 | All Maps | STV","players":null},{"server_id":40,"name":"Uncletopia | London | 7 | No Payload","name_short":"lon-7","host":"lon-1.uk.uncletopia.com","port":27075,"enabled":true,"region":"eu","cc":"gb","latitude":51.509865,"longitude":-0.118092,"reserved":0,"last_update":"0001-01-01T00:00:00Z","name_a2s":"Uncletopia | London | 7 | No Payload","protocol":17,"map":"cp_altitude","folder":"tf","game":"Team Fortress","app_id":440,"player_count":0,"max_players":24,"Bots":0,"server_type":"Dedicated","server_os":"Linux","password":true,"vac":true,"version":"7961495","steam_id":85568392924964314,"keywords":["cp","nocrits","nodmgspread","uncletopia"],"game_id":440,"stv_port":27076,"stv_name":"Uncletopia | London | 7 | No Payload | STV","players":null},{"server_id":41,"name":"Uncletopia | London | 8 | Community","name_short":"lon-8","host":"lon-1.uk.uncletopia.com","port":27085,"enabled":true,"region":"eu","cc":"gb","latitude":51.509865,"longitude":-0.118092,"reserved":0,"last_update":"0001-01-01T00:00:00Z","name_a2s":"Uncletopia | London | 8 | Community","protocol":17,"map":"workshop/pl_emerge_rc2.ugc888027758","folder":"tf","game":"Team Fortress","app_id":440,"player_count":0,"max_players":24,"Bots":0,"server_type":"Dedicated","server_os":"Linux","password":true,"vac":true,"version":"7961495","steam_id":85568392924964315,"keywords":["nocrits","nodmgspread","payload","uncletopia"],"game_id":440,"stv_port":27086,"stv_name":"Uncletopia | London | 8 | Community | STV","players":null},{"server_id":300,"name":"Uncletopia | Montr√©al | 1 | All Maps","name_short":"mtl-1","host":"mtl-1.ca.uncletopia.com","port":27015,"enabled":true,"region":"us-east","cc":"ca","latitude":45.50889,"longitude":-73.56167,"reserved":0,"last_update":"0001-01-01T00:00:00Z","name_a2s":"","protocol":0,"map":"","folder":"","game":"","app_id":0,"player_count":0,"max_players":0,"Bots":0,"server_type":"","server_os":"","password":false,"vac":false,"version":"","steam_id":0,"keywords":null,"game_id":0,"stv_port":0,"stv_name":"","players":null},{"server_id":301,"name":"Uncletopia | Montr√©al | 2 | All Maps","name_short":"mtl-2","host":"mtl-1.ca.uncletopia.com","port":27025,"enabled":true,"region":"us-east","cc":"ca","latitude":45.50889,"longitude":-73.56167,"reserved":0,"last_update":"0001-01-01T00:00:00Z","name_a2s":"","protocol":0,"map":"","folder":"","game":"","app_id":0,"player_count":0,"max_players":0,"Bots":0,"server_type":"","server_os":"","password":false,"vac":false,"version":"","steam_id":0,"keywords":null,"game_id":0,"stv_port":0,"stv_name":"","players":null},{"server_id":302,"name":"Uncletopia | Montr√©al | 3 | All Maps","name_short":"mtl-3","host":"mtl-1.ca.uncletopia.com","port":27035,"enabled":true,"region":"us-east","cc":"ca","latitude":45.50889,"longitude":-73.56167,"reserved":0,"last_update":"0001-01-01T00:00:00Z","name_a2s":"","protocol":0,"map":"","folder":"","game":"","app_id":0,"player_count":0,"max_players":0,"Bots":0,"server_type":"","server_os":"","password":false,"vac":false,"version":"","steam_id":0,"keywords":null,"game_id":0,"stv_port":0,"stv_name":"","players":null},{"server_id":303,"name":"Uncletopia | Montr√©al | 4 | No Payload","name_short":"mtl-4","host":"mtl-1.ca.uncletopia.com","port":27045,"enabled":true,"region":"us-east","cc":"ca","latitude":45.50889,"longitude":-73.56167,"reserved":0,"last_update":"0001-01-01T00:00:00Z","name_a2s":"","protocol":0,"map":"","folder":"","game":"","app_id":0,"player_count":0,"max_players":0,"Bots":0,"server_type":"","server_os":"","password":false,"vac":false,"version":"","steam_id":0,"keywords":null,"game_id":0,"stv_port":0,"stv_name":"","players":null},{"server_id":13,"name":"Uncletopia | New York City | 1 | All Maps","name_short":"nyc-1","host":"nyc-1.us.uncletopia.com","port":27015,"enabled":true,"region":"us-east","cc":"us","latitude":40.73061,"longitude":-73.93524,"reserved":0,"last_update":"0001-01-01T00:00:00Z","name_a2s":"Uncletopia | New York City | 1 | All Maps","protocol":17,"map":"koth_nucleus","folder":"tf","game":"Team Fortress","app_id":440,"player_count":24,"max_players":24,"Bots":0,"server_type":"Dedicated","server_os":"Linux","password":true,"vac":true,"version":"7961495","steam_id":85568392924469993,"keywords":["cp","nocrits","nodmgspread","uncletopia"],"game_id":440,"stv_port":27016,"stv_name":"Uncletopia | New York City | 1 | All Maps | STV","players":[{"user_id":59,"name":"Im Groot","steam_id":76561198294943420,"connected_time":91000000000,"state":"active","ping":87},{"user_id":4,"name":"roman","steam_id":76561198170066797,"connected_time":2302000000000,"state":"active","ping":55},{"user_id":5,"name":"salaam alaikum whut da heeell","steam_id":76561198326620513,"connected_time":2293000000000,"state":"active","ping":51},{"user_id":6,"name":"Ejaculation Zach","steam_id":76561198203765200,"connected_time":2291000000000,"state":"active","ping":75},{"user_id":7,"name":"TheGingerOne","steam_id":76561198354203847,"connected_time":2290000000000,"state":"active","ping":85},{"user_id":8,"name":"MaidofLight","steam_id":76561198069010944,"connected_time":2288000000000,"state":"active","ping":86},{"user_id":53,"name":"Bee","steam_id":76561198074681324,"connected_time":494000000000,"state":"active","ping":47},{"user_id":51,"name":"Space Viking","steam_id":76561199013736960,"connected_time":581000000000,"state":"active","ping":67},{"user_id":58,"name":"crying","steam_id":76561198337783795,"connected_time":99000000000,"state":"active","ping":49},{"user_id":12,"name":"High School Nudical","steam_id":76561198172120615,"connected_time":2283000000000,"state":"active","ping":34},{"user_id":39,"name":"vandeer","steam_id":76561198120124007,"connected_time":1445000000000,"state":"active","ping":92},{"user_id":14,"name":"Courtney Dickinson","steam_id":76561198061528590,"connected_time":2279000000000,"state":"active","ping":60},{"user_id":60,"name":"Fredrick","steam_id":76561197981419964,"connected_time":72000000000,"state":"active","ping":44},{"user_id":50,"name":"epsilene","steam_id":76561198027468624,"connected_time":603000000000,"state":"active","ping":39},{"user_id":61,"name":"toastman","steam_id":76561198207073088,"connected_time":66000000000,"state":"active","ping":77},{"user_id":47,"name":"the gay bud light can","steam_id":76561199491889281,"connected_time":862000000000,"state":"active","ping":79},{"user_id":48,"name":"Bajanga.co","steam_id":76561199122049654,"connected_time":725000000000,"state":"active","ping":70},{"user_id":54,"name":"Top Frog","steam_id":76561198072793446,"connected_time":292000000000,"state":"active","ping":73},{"user_id":22,"name":"souVern","steam_id":76561198046940771,"connected_time":2265000000000,"state":"active","ping":82},{"user_id":45,"name":"Rango","steam_id":76561198104086771,"connected_time":1225000000000,"state":"active","ping":106},{"user_id":24,"name":"meowfang","steam_id":76561198123056791,"connected_time":2262000000000,"state":"active","ping":59},{"user_id":25,"name":"whatisupdoq","steam_id":76561199057743412,"connected_time":2260000000000,"state":"active","ping":71},{"user_id":57,"name":"Nerrrd_","steam_id":76561198870129960,"connected_time":229000000000,"state":"active","ping":45},{"user_id":62,"name":"metal fingers","steam_id":76561198823526581,"connected_time":65000000000,"state":"active","ping":74}]},{"server_id":14,"name":"Uncletopia | New York City | 2 | All Maps","name_short":"nyc-2","host":"nyc-1.us.uncletopia.com","port":27025,"enabled":true,"region":"us-east","cc":"us","latitude":40.73061,"longitude":-73.93524,"reserved":0,"last_update":"0001-01-01T00:00:00Z","name_a2s":"Uncletopia | New York City | 2 | All Maps","protocol":17,"map":"pl_frontier_final","folder":"tf","game":"Team Fortress","app_id":440,"player_count":24,"max_players":24,"Bots":0,"server_type":"Dedicated","server_os":"Linux","password":true,"vac":true,"version":"7961495","steam_id":85568392924469994,"keywords":["nocrits","nodmgspread","payload","uncletopia"],"game_id":440,"stv_port":27026,"stv_name":"Uncletopia | New York City | 2 | All Maps | STV","players":[{"user_id":3,"name":"Milkraccoon","steam_id":76561198027061016,"connected_time":2277000000000,"state":"active","ping":73},{"user_id":4,"name":"F2P Rights Activist","steam_id":76561199012786293,"connected_time":2182000000000,"state":"active","ping":83},{"user_id":5,"name":"lushtakular","steam_id":76561198840080823,"connected_time":2080000000000,"state":"active","ping":116},{"user_id":6,"name":"Bee_Pirate","steam_id":76561199000599111,"connected_time":2068000000000,"state":"active","ping":65},{"user_id":42,"name":"Detective Rectum ‚ô°","steam_id":76561198018558677,"connected_time":730000000000,"state":"active","ping":72},{"user_id":47,"name":"Fiendish Frog","steam_id":76561198029478821,"connected_time":441000000000,"state":"active","ping":77},{"user_id":10,"name":"2cats_2curious","steam_id":76561198027143149,"connected_time":1921000000000,"state":"active","ping":67},{"user_id":52,"name":"bagel cream cheese","steam_id":76561198017954785,"connected_time":238000000000,"state":"active","ping":86},{"user_id":49,"name":"Shrebbie","steam_id":76561198875230824,"connected_time":322000000000,"state":"active","ping":53},{"user_id":14,"name":"BeerPowder","steam_id":76561198058129400,"connected_time":1638000000000,"state":"active","ping":51},{"user_id":50,"name":"Bother","steam_id":76561198336750909,"connected_time":299000000000,"state":"active","ping":39},{"user_id":16,"name":"Estrogen Bundle","steam_id":76561198086733903,"connected_time":1586000000000,"state":"active","ping":46},{"user_id":36,"name":"shoxidizer","steam_id":76561198981983698,"connected_time":976000000000,"state":"active","ping":73},{"user_id":18,"name":"MDD","steam_id":76561197998850659,"connected_time":1513000000000,"state":"active","ping":70},{"user_id":37,"name":"Gamer Princess","steam_id":76561198048205270,"connected_time":878000000000,"state":"active","ping":65},{"user_id":41,"name":"dnaak","steam_id":76561197960489193,"connected_time":775000000000,"state":"active","ping":64},{"user_id":48,"name":"Vee (very cool)","steam_id":76561198330432889,"connected_time":399000000000,"state":"active","ping":77},{"user_id":39,"name":"1000 Gigglebytes of clown girls","steam_id":76561198290719848,"connected_time":781000000000,"state":"active","ping":89},{"user_id":46,"name":"Decolour","steam_id":76561199045608372,"connected_time":617000000000,"state":"active","ping":60},{"user_id":25,"name":"Dum_Bass(Fish)","steam_id":76561197988105207,"connected_time":1449000000000,"state":"active","ping":63},{"user_id":26,"name":"BonkEnjoyer","steam_id":76561198867061077,"connected_time":1428000000000,"state":"active","ping":87},{"user_id":53,"name":"—ïœÖ„Äê ï‚Ä¢·¥•‚Ä¢ î„Äë","steam_id":76561198071233302,"connected_time":232000000000,"state":"active","ping":113},{"user_id":40,"name":"Let Œµ \u003e 0","steam_id":76561198111790388,"connected_time":781000000000,"state":"active","ping":102},{"user_id":32,"name":"Freyja","steam_id":76561198207412177,"connected_time":1384000000000,"state":"active","ping":93}]},{"server_id":15,"name":"Uncletopia | New York City | 3 | Stopwatch Beta","name_short":"nyc-3","host":"nyc-1.us.uncletopia.com","port":27035,"enabled":true,"region":"us-east","cc":"us","latitude":40.73061,"longitude":-73.93524,"reserved":0,"last_update":"0001-01-01T00:00:00Z","name_a2s":"Uncletopia | New York City | 3 | Stopwatch Beta","protocol":17,"map":"koth_lakeside_final","folder":"tf","game":"Team Fortress","app_id":440,"player_count":2,"max_players":24,"Bots":0,"server_type":"Dedicated","server_os":"Linux","password":true,"vac":true,"version":"7961495","steam_id":85568392924742820,"keywords":["cp","nocrits","nodmgspread","uncletopia"],"game_id":440,"stv_port":27036,"stv_name":"Uncletopia | New York City | 3 | Stopwatch Beta | STV","players":[{"user_id":3,"name":"Zalcannon","steam_id":76561198409950668,"connected_time":815000000000,"state":"active","ping":54},{"user_id":5,"name":"Bungled","steam_id":76561199144068534,"connected_time":600000000000,"state":"active","ping":77}]},{"server_id":16,"name":"Uncletopia | New York City | 4 | Community","name_short":"nyc-4","host":"nyc-1.us.uncletopia.com","port":27045,"enabled":true,"region":"us-east","cc":"us","latitude":40.73061,"longitude":-73.93524,"reserved":0,"last_update":"0001-01-01T00:00:00Z","name_a2s":"Uncletopia | New York City | 4 | Community","protocol":17,"map":"cp_process_final","folder":"tf","game":"Team Fortress","app_id":440,"player_count":0,"max_players":24,"Bots":0,"server_type":"Dedicated","server_os":"Linux","password":true,"vac":true,"version":"7961495","steam_id":85568392924742821,"keywords":["cp","nocrits","nodmgspread","uncletopia"],"game_id":440,"stv_port":27046,"stv_name":"Uncletopia | New York City | 4 | Community | STV","players":null},{"server_id":142,"name":"Uncletopia | S√£o Paulo | 1 | All Maps","name_short":"sao-1","host":"sao-1.br.uncletopia.com","port":27015,"enabled":true,"region":"sa","cc":"br","latitude":-23.533773,"longitude":-46.62529,"reserved":0,"last_update":"0001-01-01T00:00:00Z","name_a2s":"Uncletopia | S√£o Paulo | 1 | All Maps","protocol":17,"map":"koth_highpass","folder":"tf","game":"Team Fortress","app_id":440,"player_count":0,"max_players":24,"Bots":0,"server_type":"Dedicated","server_os":"Linux","password":true,"vac":true,"version":"7961495","steam_id":85568392924469996,"keywords":["cp","nocrits","nodmgspread","uncletopia"],"game_id":440,"stv_port":27016,"stv_name":"Uncletopia | S√£o Paulo | 1 | All Maps | STV","players":null},{"server_id":143,"name":"Uncletopia | S√£o Paulo | 2 | Community","name_short":"sao-2","host":"sao-2.br.uncletopia.com","port":27015,"enabled":true,"region":"sa","cc":"br","latitude":-23.533773,"longitude":-46.62529,"reserved":0,"last_update":"0001-01-01T00:00:00Z","name_a2s":"Uncletopia | S√£o Paulo | 2 | Community","protocol":17,"map":"pl_frontier_final","folder":"tf","game":"Team Fortress","app_id":440,"player_count":0,"max_players":24,"Bots":0,"server_type":"Dedicated","server_os":"Linux","password":true,"vac":true,"version":"7961495","steam_id":85568392924485349,"keywords":["nocrits","nodmgspread","payload","uncletopia"],"game_id":440,"stv_port":27016,"stv_name":"Uncletopia | S√£o Paulo | 2 | Community | STV","players":null},{"server_id":7,"name":"Uncletopia | Seattle | 1 | All Maps","name_short":"sea-1","host":"sea-1.us.uncletopia.com","port":27015,"enabled":true,"region":"us-west","cc":"us","latitude":47.608013,"longitude":-122.33517,"reserved":0,"last_update":"0001-01-01T00:00:00Z","name_a2s":"Uncletopia | Seattle | 1 | All Maps","protocol":17,"map":"cp_mountainlab","folder":"tf","game":"Team Fortress","app_id":440,"player_count":24,"max_players":24,"Bots":0,"server_type":"Dedicated","server_os":"Linux","password":true,"vac":true,"version":"7961495","steam_id":85568392924469997,"keywords":["cp","nocrits","nodmgspread","uncletopia"],"game_id":440,"stv_port":27016,"stv_name":"Uncletopia | Seattle | 1 | All Maps | STV","players":[{"user_id":32,"name":"Goose","steam_id":76561198036774894,"connected_time":3037000000000,"state":"active","ping":63},{"user_id":46,"name":"braindead","steam_id":76561199127423378,"connected_time":1621000000000,"state":"active","ping":76},{"user_id":65,"name":"Yurei","steam_id":76561198088750661,"connected_time":34000000000,"state":"spawning","ping":71},{"user_id":61,"name":"exephur","steam_id":76561198135763234,"connected_time":120000000000,"state":"active","ping":63},{"user_id":56,"name":"Retesaurus","steam_id":76561198045189319,"connected_time":852000000000,"state":"active","ping":75},{"user_id":63,"name":"CaptainCracka","steam_id":76561198339551977,"connected_time":101000000000,"state":"active","ping":89},{"user_id":62,"name":"Saint Pablo","steam_id":76561198083300159,"connected_time":115000000000,"state":"active","ping":69},{"user_id":57,"name":"ed LFB","steam_id":76561198080475712,"connected_time":850000000000,"state":"active","ping":72},{"user_id":12,"name":"WaffleWithNoToppings","steam_id":76561199088280111,"connected_time":3291000000000,"state":"active","ping":46},{"user_id":47,"name":"Daz","steam_id":76561198041431938,"connected_time":1595000000000,"state":"active","ping":51},{"user_id":45,"name":"Salty","steam_id":76561198044750949,"connected_time":1781000000000,"state":"active","ping":55},{"user_id":42,"name":"McSpazatron","steam_id":76561198955942148,"connected_time":2508000000000,"state":"active","ping":67},{"user_id":51,"name":"rat gets the cheese","steam_id":76561198031234032,"connected_time":1402000000000,"state":"active","ping":94},{"user_id":66,"name":"Tripll-L","steam_id":76561197998077437,"connected_time":32000000000,"state":"spawning","ping":64},{"user_id":18,"name":"Meso","steam_id":76561199088153190,"connected_time":3244000000000,"state":"active","ping":54},{"user_id":20,"name":"slushy :))","steam_id":76561198135281802,"connected_time":3217000000000,"state":"active","ping":30},{"user_id":58,"name":"evilOlive","steam_id":76561198106222025,"connected_time":491000000000,"state":"active","ping":76},{"user_id":55,"name":"SnoDot","steam_id":76561198062209970,"connected_time":1062000000000,"state":"active","ping":34},{"user_id":25,"name":"iamtheSpicer","steam_id":76561198263557044,"connected_time":3193000000000,"state":"active","ping":102},{"user_id":53,"name":"hatsune miku","steam_id":76561199445009981,"connected_time":1388000000000,"state":"active","ping":42},{"user_id":54,"name":"WalkedInPoisonIvyNowImIt/She","steam_id":76561198085813708,"connected_time":1386000000000,"state":"active","ping":120},{"user_id":28,"name":"Five","steam_id":76561198026640473,"connected_time":3151000000000,"state":"active","ping":50},{"user_id":29,"name":"BL√òRG","steam_id":76561198036126673,"connected_time":3132000000000,"state":"active","ping":84},{"user_id":35,"name":"toes","steam_id":76561198221151676,"connected_time":2837000000000,"state":"active","ping":50}]},{"server_id":119,"name":"Uncletopia | Seattle | 2 | All Maps","name_short":"sea-2","host":"sea-1.us.uncletopia.com","port":27025,"enabled":true,"region":"us-west","cc":"us","latitude":47.608013,"longitude":-122.33517,"reserved":0,"last_update":"0001-01-01T00:00:00Z","name_a2s":"Uncletopia | Seattle | 2 | All Maps","protocol":17,"map":"pl_swiftwater_final1","folder":"tf","game":"Team Fortress","app_id":440,"player_count":15,"max_players":24,"Bots":0,"server_type":"Dedicated","server_os":"Linux","password":true,"vac":true,"version":"7961495","steam_id":85568392924469998,"keywords":["nocrits","nodmgspread","payload","uncletopia"],"game_id":440,"stv_port":27026,"stv_name":"Uncletopia | Seattle | 2 | All Maps | STV","players":[{"user_id":3,"name":"26O3 Ê•µÂÖâÈù¢Á¥ó","steam_id":76561198964074985,"connected_time":3105000000000,"state":"active","ping":56},{"user_id":42,"name":"Spy (I Love spy)","steam_id":76561199138738952,"connected_time":316000000000,"state":"active","ping":121},{"user_id":43,"name":"Green eggs and ham","steam_id":76561198043507340,"connected_time":236000000000,"state":"active","ping":55},{"user_id":37,"name":"da chronic","steam_id":76561198806800054,"connected_time":560000000000,"state":"active","ping":94},{"user_id":25,"name":"MxProf","steam_id":76561198044519572,"connected_time":762000000000,"state":"active","ping":60},{"user_id":45,"name":"Mario","steam_id":76561198321794277,"connected_time":68000000000,"state":"active","ping":88},{"user_id":19,"name":"SnailYT","steam_id":76561198332040385,"connected_time":1171000000000,"state":"active","ping":57},{"user_id":20,"name":"rad killl raccoon","steam_id":76561198980975595,"connected_time":1045000000000,"state":"active","ping":57},{"user_id":30,"name":"|2nd-AD| AttackPelican ‡πëÔ≠•","steam_id":76561198353278175,"connected_time":652000000000,"state":"active","ping":125},{"user_id":24,"name":"Zombie Rehabilitation","steam_id":76561197962848916,"connected_time":836000000000,"state":"active","ping":30},{"user_id":46,"name":"Silly Shark","steam_id":76561198130714378,"connected_time":62000000000,"state":"active","ping":64},{"user_id":28,"name":"tqman","steam_id":76561199031963925,"connected_time":680000000000,"state":"active","ping":49},{"user_id":29,"name":"ImagineExisting","steam_id":76561198860261731,"connected_time":667000000000,"state":"active","ping":66},{"user_id":32,"name":"Jams and Bread","steam_id":76561199240243522,"connected_time":646000000000,"state":"active","ping":73},{"user_id":33,"name":"PinguEnjoyer6","steam_id":76561199186723516,"connected_time":645000000000,"state":"active","ping":67}]},{"server_id":406,"name":"Uncletopia | Seattle | 3 | Stopwatch","name_short":"sea-3","host":"sea-1.us.uncletopia.com","port":27035,"enabled":true,"region":"us-west","cc":"us","latitude":47.608013,"longitude":-122.33517,"reserved":0,"last_update":"0001-01-01T00:00:00Z","name_a2s":"Uncletopia | Seattle | 3 | Stopwatch","protocol":17,"map":"cp_dustbowl","folder":"tf","game":"Team Fortress","app_id":440,"player_count":0,"max_players":24,"Bots":0,"server_type":"Dedicated","server_os":"Linux","password":true,"vac":true,"version":"7961495","steam_id":85568392924515217,"keywords":["cp","nocrits","nodmgspread","uncletopia"],"game_id":440,"stv_port":27036,"stv_name":"Uncletopia | Seattle | 3 | Stopwatch | STV","players":null},{"server_id":17,"name":"Uncletopia | San Francisco | 1 | All Maps","name_short":"sfo-1","host":"sfo-1.us.uncletopia.com","port":27015,"enabled":true,"region":"us-west","cc":"us","latitude":37.77397,"longitude":-122.4313,"reserved":0,"last_update":"0001-01-01T00:00:00Z","name_a2s":"Uncletopia | San Francisco | 1 | All Maps","protocol":17,"map":"pl_frontier_final","folder":"tf","game":"Team Fortress","app_id":440,"player_count":14,"max_players":24,"Bots":0,"server_type":"Dedicated","server_os":"Linux","password":true,"vac":true,"version":"7961495","steam_id":85568392924469999,"keywords":["nocrits","nodmgspread","payload","uncletopia"],"game_id":440,"stv_port":27016,"stv_name":"Uncletopia | San Francisco | 1 | All Maps | STV","players":[{"user_id":16,"name":"Thequirka","steam_id":76561198968058652,"connected_time":1914000000000,"state":"active","ping":62},{"user_id":19,"name":"Knock on the sky and listen","steam_id":76561198077597130,"connected_time":1489000000000,"state":"active","ping":52},{"user_id":34,"name":"pabbott123110","steam_id":76561199231739796,"connected_time":194000000000,"state":"active","ping":137},{"user_id":30,"name":"Rusty_Cheech","steam_id":76561198808236778,"connected_time":475000000000,"state":"active","ping":78},{"user_id":20,"name":"A 7/10","steam_id":76561198075814864,"connected_time":1463000000000,"state":"active","ping":114},{"user_id":35,"name":"TheLogannator","steam_id":76561198141957314,"connected_time":180000000000,"state":"active","ping":83},{"user_id":27,"name":"Combustionaut","steam_id":76561198164877813,"connected_time":563000000000,"state":"active","ping":71},{"user_id":25,"name":"Elite_Friendly","steam_id":76561198819972127,"connected_time":996000000000,"state":"active","ping":75},{"user_id":28,"name":"The Undertaker","steam_id":76561198186304318,"connected_time":560000000000,"state":"active","ping":116},{"user_id":29,"name":"Office","steam_id":76561198059380714,"connected_time":554000000000,"state":"active","ping":234},{"user_id":32,"name":"Controv","steam_id":76561199098463662,"connected_time":277000000000,"state":"active","ping":111},{"user_id":33,"name":"imng","steam_id":76561198014988031,"connected_time":269000000000,"state":"active","ping":110},{"user_id":36,"name":"Fran√ßois Vi√®te","steam_id":76561198072975518,"connected_time":106000000000,"state":"active","ping":100},{"user_id":37,"name":"Still Alive","steam_id":76561198042523000,"connected_time":88000000000,"state":"active","ping":98}]},{"server_id":18,"name":"Uncletopia | San Francisco | 2 | All Maps","name_short":"sfo-2","host":"sfo-1.us.uncletopia.com","port":27025,"enabled":true,"region":"us-west","cc":"us","latitude":37.77397,"longitude":-122.4313,"reserved":0,"last_update":"0001-01-01T00:00:00Z","name_a2s":"Uncletopia | San Francisco | 2 | All Maps","protocol":17,"map":"cp_steel","folder":"tf","game":"Team Fortress","app_id":440,"player_count":23,"max_players":24,"Bots":0,"server_type":"Dedicated","server_os":"Linux","password":true,"vac":true,"version":"7961495","steam_id":85568392924470000,"keywords":["cp","nocrits","nodmgspread","uncletopia"],"game_id":440,"stv_port":27026,"stv_name":"Uncletopia | San Francisco | 2 | All Maps | STV","players":[{"user_id":43,"name":"Walmus","steam_id":76561198111416393,"connected_time":1028000000000,"state":"active","ping":65},{"user_id":4,"name":"Quigi","steam_id":76561198144645874,"connected_time":3283000000000,"state":"active","ping":71},{"user_id":45,"name":"gayest MF DOOM fan","steam_id":76561198065801979,"connected_time":1007000000000,"state":"active","ping":120},{"user_id":57,"name":"DuragGod69","steam_id":76561198067814426,"connected_time":212000000000,"state":"active","ping":97},{"user_id":50,"name":"Mike Bean Burritos","steam_id":76561198173430607,"connected_time":382000000000,"state":"active","ping":62},{"user_id":51,"name":"rafael.avila.cossio","steam_id":76561199137883880,"connected_time":368000000000,"state":"active","ping":118},{"user_id":9,"name":"Matches_","steam_id":76561198048925904,"connected_time":3247000000000,"state":"active","ping":75},{"user_id":41,"name":"HiddenEgg","steam_id":76561199045105518,"connected_time":1550000000000,"state":"active","ping":66},{"user_id":42,"name":"UÃÅntermensch","steam_id":76561198149634242,"connected_time":1045000000000,"state":"active","ping":86},{"user_id":12,"name":"tomandjerry085","steam_id":76561198800789071,"connected_time":3230000000000,"state":"active","ping":55},{"user_id":13,"name":"squart guy","steam_id":76561199411560141,"connected_time":3210000000000,"state":"active","ping":59},{"user_id":14,"name":"dudememe666","steam_id":76561199208963540,"connected_time":3139000000000,"state":"active","ping":87},{"user_id":44,"name":"Bobby Dazzler È≠îÈêò","steam_id":76561198007405067,"connected_time":1026000000000,"state":"active","ping":75},{"user_id":52,"name":"Risky","steam_id":76561198231029328,"connected_time":350000000000,"state":"active","ping":54},{"user_id":19,"name":"Zomwashroomz","steam_id":76561198131316167,"connected_time":3054000000000,"state":"active","ping":60},{"user_id":22,"name":"Excalibrine","steam_id":76561198129312118,"connected_time":3034000000000,"state":"active","ping":56},{"user_id":59,"name":"Mr.Pan","steam_id":76561198069030613,"connected_time":144000000000,"state":"active","ping":73},{"user_id":58,"name":"Soda","steam_id":76561198219209367,"connected_time":169000000000,"state":"active","ping":63},{"user_id":63,"name":"sam1521","steam_id":76561198027264163,"connected_time":46000000000,"state":"active","ping":105},{"user_id":46,"name":"gorb eternal","steam_id":76561198187903966,"connected_time":979000000000,"state":"active","ping":56},{"user_id":29,"name":"cool beans","steam_id":76561198045758072,"connected_time":2871000000000,"state":"active","ping":50},{"user_id":61,"name":"BirBinGo","steam_id":76561198356529600,"connected_time":139000000000,"state":"active","ping":121},{"user_id":62,"name":"xfinitycablebox","steam_id":76561198317433700,"connected_time":136000000000,"state":"active","ping":103}]},{"server_id":19,"name":"Uncletopia | San Francisco | 3 | Stopwatch","name_short":"sfo-3","host":"sfo-1.us.uncletopia.com","port":27035,"enabled":true,"region":"us-west","cc":"us","latitude":37.77397,"longitude":-122.4313,"reserved":0,"last_update":"0001-01-01T00:00:00Z","name_a2s":"Uncletopia | San Francisco | 3 | Stopwatch","protocol":17,"map":"pl_barnblitz","folder":"tf","game":"Team Fortress","app_id":440,"player_count":0,"max_players":24,"Bots":0,"server_type":"Dedicated","server_os":"Linux","password":true,"vac":true,"version":"7961495","steam_id":85568392924742824,"keywords":["nocrits","nodmgspread","payload","uncletopia"],"game_id":440,"stv_port":27036,"stv_name":"Uncletopia | San Francisco | 3 | Stopwatch | STV","players":null},{"server_id":20,"name":"Uncletopia | San Francisco | 4 | Community","name_short":"sfo-4","host":"sfo-1.us.uncletopia.com","port":27045,"enabled":true,"region":"us-west","cc":"us","latitude":37.77397,"longitude":-122.4313,"reserved":0,"last_update":"0001-01-01T00:00:00Z","name_a2s":"Uncletopia | San Francisco | 4 | Community","protocol":17,"map":"cp_snakewater_final1","folder":"tf","game":"Team Fortress","app_id":440,"player_count":0,"max_players":24,"Bots":0,"server_type":"Dedicated","server_os":"Linux","password":true,"vac":true,"version":"7961495","steam_id":85568392924742826,"keywords":["cp","nocrits","nodmgspread","uncletopia"],"game_id":440,"stv_port":27046,"stv_name":"Uncletopia | San Francisco | 4 | Community | STV","players":null},{"server_id":141,"name":"Uncletopia | Sydney | 1 | All Maps","name_short":"syd-1","host":"syd-1.au.uncletopia.com","port":27015,"enabled":true,"region":"au","cc":"au","latitude":-33.865143,"longitude":151.2099,"reserved":0,"last_update":"0001-01-01T00:00:00Z","name_a2s":"Uncletopia | Sydney | 1 | All Maps","protocol":17,"map":"koth_viaduct","folder":"tf","game":"Team Fortress","app_id":440,"player_count":0,"max_players":24,"Bots":0,"server_type":"Dedicated","server_os":"Linux","password":true,"vac":true,"version":"7961495","steam_id":85568392924470001,"keywords":["cp","nocrits","nodmgspread","uncletopia"],"game_id":440,"stv_port":27016,"stv_name":"Uncletopia | Sydney | 1 | All Maps | STV","players":null},{"server_id":123,"name":"Uncletopia | Sydney | 2 | All Maps","name_short":"syd-2","host":"syd-1.au.uncletopia.com","port":27025,"enabled":true,"region":"au","cc":"au","latitude":-33.865143,"longitude":151.2099,"reserved":0,"last_update":"0001-01-01T00:00:00Z","name_a2s":"Uncletopia | Sydney | 2 | All Maps","protocol":17,"map":"koth_viaduct","folder":"tf","game":"Team Fortress","app_id":440,"player_count":0,"max_players":24,"Bots":0,"server_type":"Dedicated","server_os":"Linux","password":true,"vac":true,"version":"7961495","steam_id":85568392924470002,"keywords":["cp","nocrits","nodmgspread","uncletopia"],"game_id":440,"stv_port":27026,"stv_name":"Uncletopia | Sydney | 2 | All Maps | STV","players":null},{"server_id":395,"name":"Uncletopia | Sydney | 3 | All Maps","name_short":"syd-3","host":"syd-1.au.uncletopia.com","port":27035,"enabled":true,"region":"au","cc":"au","latitude":-33.865143,"longitude":151.2099,"reserved":0,"last_update":"0001-01-01T00:00:00Z","name_a2s":"Uncletopia | Sydney | 3 | All Maps","protocol":17,"map":"pl_borneo","folder":"tf","game":"Team Fortress","app_id":440,"player_count":0,"max_players":24,"Bots":0,"server_type":"Dedicated","server_os":"Linux","password":true,"vac":true,"version":"7961495","steam_id":85568392925194467,"keywords":["nocrits","nodmgspread","payload","uncletopia"],"game_id":440,"stv_port":27036,"stv_name":"Uncletopia | Sydney | 3 | All Maps | STV","players":null},{"server_id":396,"name":"Uncletopia | Sydney | 4 | All Maps","name_short":"syd-4","host":"syd-1.au.uncletopia.com","port":27045,"enabled":true,"region":"au","cc":"au","latitude":-33.865143,"longitude":151.2099,"reserved":0,"last_update":"0001-01-01T00:00:00Z","name_a2s":"Uncletopia | Sydney | 4 | All Maps","protocol":17,"map":"pl_barnblitz","folder":"tf","game":"Team Fortress","app_id":440,"player_count":0,"max_players":24,"Bots":0,"server_type":"Dedicated","server_os":"Linux","password":true,"vac":true,"version":"7961495","steam_id":85568392925397958,"keywords":["nocrits","nodmgspread","payload","uncletopia"],"game_id":440,"stv_port":27046,"stv_name":"Uncletopia | Sydney | 4 | All Maps | STV","players":null},{"server_id":58,"name":"Uncletopia | Sydney | 5 | Stopwatch Beta","name_short":"syd-5","host":"syd-1.au.uncletopia.com","port":27055,"enabled":true,"region":"au","cc":"au","latitude":-33.865143,"longitude":151.2099,"reserved":0,"last_update":"0001-01-01T00:00:00Z","name_a2s":"Uncletopia | Sydney | 5 | Stopwatch Beta","protocol":17,"map":"pl_frontier_final","folder":"tf","game":"Team Fortress","app_id":440,"player_count":0,"max_players":24,"Bots":0,"server_type":"Dedicated","server_os":"Linux","password":true,"vac":true,"version":"7961495","steam_id":85568392925397959,"keywords":["nocrits","nodmgspread","payload","uncletopia"],"game_id":440,"stv_port":27056,"stv_name":"Uncletopia | Sydney | 5 | Stopwatch Beta | STV","players":null},{"server_id":59,"name":"Uncletopia | Sydney | 6 | Community","name_short":"syd-6","host":"syd-1.au.uncletopia.com","port":27065,"enabled":true,"region":"au","cc":"au","latitude":-33.865143,"longitude":151.2099,"reserved":0,"last_update":"0001-01-01T00:00:00Z","name_a2s":"Uncletopia | Sydney | 6 | Community","protocol":17,"map":"pl_swiftwater_final1","folder":"tf","game":"Team Fortress","app_id":440,"player_count":0,"max_players":24,"Bots":0,"server_type":"Dedicated","server_os":"Linux","password":true,"vac":true,"version":"7961495","steam_id":85568392925397960,"keywords":["nocrits","nodmgspread","payload","uncletopia"],"game_id":440,"stv_port":27066,"stv_name":"Uncletopia | Sydney | 6 | Community | STV","players":null},{"server_id":49,"name":"Uncletopia | Warsaw | 1 | All Maps","name_short":"waw-1","host":"waw-1.pl.uncletopia.com","port":27015,"enabled":true,"region":"eu","cc":"pl","latitude":52.2297,"longitude":21.017532,"reserved":0,"last_update":"0001-01-01T00:00:00Z","name_a2s":"Uncletopia | Warsaw | 1 | All Maps","protocol":17,"map":"pl_upward","folder":"tf","game":"Team Fortress","app_id":440,"player_count":0,"max_players":24,"Bots":0,"server_type":"Dedicated","server_os":"Linux","password":true,"vac":true,"version":"7961495","steam_id":85568392925397850,"keywords":["nocrits","nodmgspread","payload","uncletopia"],"game_id":440,"stv_port":27016,"stv_name":"Uncletopia | Warsaw | 1 | All Maps | STV","players":null},{"server_id":50,"name":"Uncletopia | Warsaw | 2 | All Maps","name_short":"waw-2","host":"waw-1.pl.uncletopia.com","port":27025,"enabled":true,"region":"eu","cc":"pl","latitude":52.2297,"longitude":21.017532,"reserved":0,"last_update":"0001-01-01T00:00:00Z","name_a2s":"Uncletopia | Warsaw | 2 | All Maps","protocol":17,"map":"pl_badwater","folder":"tf","game":"Team Fortress","app_id":440,"player_count":0,"max_players":24,"Bots":0,"server_type":"Dedicated","server_os":"Linux","password":true,"vac":true,"version":"7961495","steam_id":85568392925397851,"keywords":["nocrits","nodmgspread","payload","uncletopia"],"game_id":440,"stv_port":27026,"stv_name":"Uncletopia | Warsaw | 2 | All Maps | STV","players":null},{"server_id":51,"name":"Uncletopia | Warsaw | 3 | All Maps","name_short":"waw-3","host":"waw-1.pl.uncletopia.com","port":27035,"enabled":true,"region":"eu","cc":"pl","latitude":52.2297,"longitude":21.017532,"reserved":0,"last_update":"0001-01-01T00:00:00Z","name_a2s":"Uncletopia | Warsaw | 3 | All Maps","protocol":17,"map":"cp_process_final","folder":"tf","game":"Team Fortress","app_id":440,"player_count":0,"max_players":24,"Bots":0,"server_type":"Dedicated","server_os":"Linux","password":true,"vac":true,"version":"7961495","steam_id":85568392925397852,"keywords":["cp","nocrits","nodmgspread","uncletopia"],"game_id":440,"stv_port":27036,"stv_name":"Uncletopia | Warsaw | 3 | All Maps | STV","players":null},{"server_id":52,"name":"Uncletopia | Warsaw | 4 | All Maps","name_short":"waw-4","host":"waw-1.pl.uncletopia.com","port":27045,"enabled":true,"region":"eu","cc":"pl","latitude":52.2297,"longitude":21.017532,"reserved":0,"last_update":"0001-01-01T00:00:00Z","name_a2s":"Uncletopia | Warsaw | 4 | All Maps","protocol":17,"map":"pl_badwater","folder":"tf","game":"Team Fortress","app_id":440,"player_count":0,"max_players":24,"Bots":0,"server_type":"Dedicated","server_os":"Linux","password":true,"vac":true,"version":"7961495","steam_id":85568392925397853,"keywords":["nocrits","nodmgspread","payload","uncletopia"],"game_id":440,"stv_port":27046,"stv_name":"Uncletopia | Warsaw | 4 | All Maps | STV","players":null},{"server_id":53,"name":"Uncletopia | Warsaw | 5 | Stopwatch Beta","name_short":"waw-5","host":"waw-1.pl.uncletopia.com","port":27055,"enabled":true,"region":"eu","cc":"pl","latitude":52.2297,"longitude":21.017532,"reserved":0,"last_update":"0001-01-01T00:00:00Z","name_a2s":"Uncletopia | Warsaw | 5 | Stopwatch Beta","protocol":17,"map":"pl_snowycoast","folder":"tf","game":"Team Fortress","app_id":440,"player_count":0,"max_players":24,"Bots":0,"server_type":"Dedicated","server_os":"Linux","password":true,"vac":true,"version":"7961495","steam_id":85568392925397854,"keywords":["nocrits","nodmgspread","payload","uncletopia"],"game_id":440,"stv_port":27056,"stv_name":"Uncletopia | Warsaw | 5 | Stopwatch Beta | STV","players":null},{"server_id":54,"name":"Uncletopia | Warsaw | 6 | Community","name_short":"waw-6","host":"waw-1.pl.uncletopia.com","port":27065,"enabled":true,"region":"eu","cc":"pl","latitude":52.2297,"longitude":21.017532,"reserved":0,"last_update":"0001-01-01T00:00:00Z","name_a2s":"Uncletopia | Warsaw | 6 | Community","protocol":17,"map":"pl_borneo","folder":"tf","game":"Team Fortress","app_id":440,"player_count":0,"max_players":24,"Bots":0,"server_type":"Dedicated","server_os":"Linux","password":true,"vac":true,"version":"7961495","steam_id":85568392925397856,"keywords":["nocrits","nodmgspread","payload","uncletopia"],"game_id":440,"stv_port":27066,"stv_name":"Uncletopia | Warsaw | 6 | Community | STV","players":null}]}