{"status":true,"message":"","result":[{"server_id":9,"name":"Uncletopia | Atlanta | 1 | All Maps","name_short":"atl-1","host":"atl-1.us.uncletopia.com","port":27015,"enabled":true,"region":"us-east","cc":"us","latitude":33.753746,"longitude":-84.38633,"reserved":0,"last_update":"0001-01-01T00:00:00Z","name_a2s":"Uncletopia | Atlanta | 1 | All Maps","protocol":17,"map":"cp_dustbowl","folder":"tf","game":"Team Fortress","app_id":440,"player_count":9,"max_players":24,"Bots":0,"server_type":"Dedicated","server_os":"Linux","password":true,"vac":true,"version":"7932396","steam_id":85568392924469982,"keywords":["cp","nocrits","nodmgspread","uncletopia"],"game_id":440,"stv_port":27016,"stv_name":"Uncletopia | Atlanta | 1 | All Maps | STV","players":[{"user_id":532,"name":"Zombiehunter11","steam_id":76561198237517830,"connected_time":454000000000,"state":"active","ping":91},{"user_id":534,"name":"Luigi in Jail","steam_id":76561198095907157,"connected_time":373000000000,"state":"active","ping":75},{"user_id":529,"name":"TheSmolPopato","steam_id":76561199076606348,"connected_time":1303000000000,"state":"active","ping":86},{"user_id":535,"name":"Marvelous","steam_id":76561199083888017,"connected_time":368000000000,"state":"active","ping":123},{"user_id":538,"name":"Aubergine","steam_id":76561198091211296,"connected_time":209000000000,"state":"active","ping":84},{"user_id":539,"name":"bony","steam_id":76561198241893988,"connected_time":182000000000,"state":"active","ping":63},{"user_id":540,"name":"TheBlackScottishMetallix","steam_id":76561199406667630,"connected_time":158000000000,"state":"active","ping":110},{"user_id":541,"name":"breathing meat donut","steam_id":76561198123566649,"connected_time":24000000000,"state":"spawning","ping":113},{"user_id":332,"name":"FOrce of nature","steam_id":76561198390522839,"connected_time":8178000000000,"state":"active","ping":92}]},{"server_id":104,"name":"Uncletopia | Atlanta | 2 | All Maps","name_short":"atl-2","host":"atl-1.us.uncletopia.com","port":27025,"enabled":true,"region":"us-east","cc":"us","latitude":33.753746,"longitude":-84.38633,"reserved":0,"last_update":"0001-01-01T00:00:00Z","name_a2s":"Uncletopia | Atlanta | 2 | All Maps","protocol":17,"map":"pl_borneo","folder":"tf","game":"Team Fortress","app_id":440,"player_count":0,"max_players":24,"Bots":0,"server_type":"Dedicated","server_os":"Linux","password":true,"vac":true,"version":"7932396","steam_id":85568392924469983,"keywords":["nocrits","nodmgspread","payload","uncletopia"],"game_id":440,"stv_port":27026,"stv_name":"Uncletopia | Atlanta | 2 | All Maps | STV","players":null},{"server_id":400,"name":"Uncletopia | Atlanta | 3 | Community","name_short":"atl-3","host":"atl-1.us.uncletopia.com","port":27035,"enabled":true,"region":"us-east","cc":"us","latitude":33.753746,"longitude":-84.38633,"reserved":0,"last_update":"0001-01-01T00:00:00Z","name_a2s":"Uncletopia | Atlanta | 3 | Community","protocol":17,"map":"workshop/koth_trenchfoot_b1a.ugc731436616","folder":"tf","game":"Team Fortress","app_id":440,"player_count":0,"max_players":24,"Bots":0,"server_type":"Dedicated","server_os":"Linux","password":true,"vac":true,"version":"7932396","steam_id":85568392924515187,"keywords":["cp","nocrits","nodmgspread","uncletopia"],"game_id":440,"stv_port":27036,"stv_name":"Uncletopia | Atlanta | 3 | Community | STV","players":null},{"server_id":401,"name":"Uncletopia | Atlanta | 4 | No Payload","name_short":"atl-4","host":"atl-1.us.uncletopia.com","port":27045,"enabled":true,"region":"us-east","cc":"us","latitude":33.753746,"longitude":-84.38633,"reserved":0,"last_update":"0001-01-01T00:00:00Z","name_a2s":"","protocol":0,"map":"","folder":"","game":"","app_id":0,"player_count":0,"max_players":0,"Bots":0,"server_type":"","server_os":"","password":false,"vac":false,"version":"","steam_id":0,"keywords":null,"game_id":0,"stv_port":0,"stv_name":"","players":null},{"server_id":2,"name":"Uncletopia | Chicago | 1 | All Maps","name_short":"chi-1","host":"chi-1.us.uncletopia.com","port":27015,"enabled":true,"region":"us-central","cc":"us","latitude":41.881832,"longitude":-87.62318,"reserved":0,"last_update":"0001-01-01T00:00:00Z","name_a2s":"Uncletopia | Chicago | 1 | All Maps","protocol":17,"map":"pl_pier","folder":"tf","game":"Team Fortress","app_id":440,"player_count":24,"max_players":24,"Bots":0,"server_type":"Dedicated","server_os":"Linux","password":true,"vac":true,"version":"7932396","steam_id":85568392924469984,"keywords":["nocrits","nodmgspread","payload","uncletopia"],"game_id":440,"stv_port":27016,"stv_name":"Uncletopia | Chicago | 1 | All Maps | STV","players":[{"user_id":828,"name":"kite","steam_id":76561198346516392,"connected_time":2333000000000,"state":"active","ping":68},{"user_id":842,"name":"DFR DeezNoodlez","steam_id":76561198246700372,"connected_time":1004000000000,"state":"active","ping":74},{"user_id":831,"name":"rose","steam_id":76561198048882285,"connected_time":2080000000000,"state":"active","ping":60},{"user_id":843,"name":"DFR spoonful","steam_id":76561198927517471,"connected_time":1004000000000,"state":"active","ping":70},{"user_id":844,"name":"Snom","steam_id":76561198333827920,"connected_time":1004000000000,"state":"active","ping":95},{"user_id":781,"name":"loser","steam_id":76561198259380127,"connected_time":6442000000000,"state":"active","ping":57},{"user_id":836,"name":"BigDeac","steam_id":76561198091237274,"connected_time":1713000000000,"state":"active","ping":57},{"user_id":773,"name":"Lost","steam_id":76561198093713427,"connected_time":6662000000000,"state":"active","ping":60},{"user_id":851,"name":"...like clockwork","steam_id":76561198904898274,"connected_time":109000000000,"state":"active","ping":92},{"user_id":827,"name":"Mank","steam_id":76561198189421005,"connected_time":2789000000000,"state":"active","ping":46},{"user_id":846,"name":"Zippy","steam_id":76561198279229422,"connected_time":991000000000,"state":"active","ping":59},{"user_id":849,"name":"Obese Pete","steam_id":76561198203443358,"connected_time":161000000000,"state":"active","ping":86},{"user_id":839,"name":"ATL1 | TheRealMud","steam_id":76561198138312993,"connected_time":1035000000000,"state":"active","ping":76},{"user_id":826,"name":"car","steam_id":76561198999217575,"connected_time":2845000000000,"state":"active","ping":75},{"user_id":847,"name":"ARegularJohnDoe","steam_id":76561198015020139,"connected_time":990000000000,"state":"active","ping":60},{"user_id":833,"name":"DragonFalcon™","steam_id":76561198044559930,"connected_time":1852000000000,"state":"active","ping":84},{"user_id":829,"name":"Sophie","steam_id":76561198170408057,"connected_time":2267000000000,"state":"active","ping":60},{"user_id":838,"name":"Liquid Oxycodone","steam_id":76561198154162664,"connected_time":1037000000000,"state":"active","ping":72},{"user_id":835,"name":"noah","steam_id":76561198173310157,"connected_time":1778000000000,"state":"active","ping":53},{"user_id":727,"name":"Wizard Raccoon","steam_id":76561198072562591,"connected_time":11133000000000,"state":"active","ping":90},{"user_id":728,"name":"L + Ratio","steam_id":76561198263786953,"connected_time":11133000000000,"state":"active","ping":78},{"user_id":850,"name":"Acehay14","steam_id":76561198052373291,"connected_time":146000000000,"state":"active","ping":62},{"user_id":848,"name":"Lorberry","steam_id":76561198023706058,"connected_time":933000000000,"state":"active","ping":32},{"user_id":840,"name":"crusty musty","steam_id":76561198319442494,"connected_time":1034000000000,"state":"active","ping":112}]},{"server_id":106,"name":"Uncletopia | Chicago | 2 | All Maps","name_short":"chi-2","host":"chi-1.us.uncletopia.com","port":27025,"enabled":true,"region":"us-central","cc":"us","latitude":41.881832,"longitude":-87.62318,"reserved":0,"last_update":"0001-01-01T00:00:00Z","name_a2s":"Uncletopia | Chicago | 2 | All Maps","protocol":17,"map":"cp_mercenarypark","folder":"tf","game":"Team Fortress","app_id":440,"player_count":24,"max_players":24,"Bots":0,"server_type":"Dedicated","server_os":"Linux","password":true,"vac":true,"version":"7932396","steam_id":85568392924469985,"keywords":["cp","nocrits","nodmgspread","uncletopia"],"game_id":440,"stv_port":27026,"stv_name":"Uncletopia | Chicago | 2 | All Maps | STV","players":[{"user_id":842,"name":"Ghost Lord","steam_id":76561198088956723,"connected_time":202000000000,"state":"active","ping":95},{"user_id":843,"name":"Just Dez","steam_id":76561199327664719,"connected_time":167000000000,"state":"active","ping":133},{"user_id":783,"name":"Six Piece Chicken McNobody","steam_id":76561198129848222,"connected_time":4452000000000,"state":"active","ping":63},{"user_id":847,"name":"lolstar64","steam_id":76561198048565155,"connected_time":106000000000,"state":"active","ping":71},{"user_id":841,"name":"Happy Yaoi Friday","steam_id":76561198111290441,"connected_time":238000000000,"state":"active","ping":56},{"user_id":845,"name":"bigbird","steam_id":76561199205908479,"connected_time":157000000000,"state":"active","ping":71},{"user_id":846,"name":"ultralisk52","steam_id":76561198051666604,"connected_time":145000000000,"state":"active","ping":61},{"user_id":837,"name":"Snowy 79","steam_id":76561198944639546,"connected_time":1139000000000,"state":"active","ping":63},{"user_id":853,"name":"finger","steam_id":76561198023564158,"connected_time":41000000000,"state":"active","ping":65},{"user_id":840,"name":"honked off the bobo","steam_id":76561198123287268,"connected_time":260000000000,"state":"active","ping":45},{"user_id":848,"name":"aaaahhhhhhh","steam_id":76561198131360063,"connected_time":96000000000,"state":"active","ping":69},{"user_id":800,"name":"Cheers! I'll drink to that","steam_id":76561198112705880,"connected_time":3202000000000,"state":"active","ping":94},{"user_id":825,"name":"LinkStorm","steam_id":76561198202772455,"connected_time":1872000000000,"state":"active","ping":70},{"user_id":850,"name":"bing soy","steam_id":76561199093824429,"connected_time":81000000000,"state":"active","ping":80},{"user_id":832,"name":"Nathan","steam_id":76561199132214008,"connected_time":1690000000000,"state":"active","ping":98},{"user_id":839,"name":"urlrot","steam_id":76561198079318421,"connected_time":1059000000000,"state":"active","ping":85},{"user_id":851,"name":"Lucide","steam_id":76561197998530400,"connected_time":79000000000,"state":"active","ping":101},{"user_id":801,"name":"McKraken","steam_id":76561198080478933,"connected_time":3190000000000,"state":"active","ping":56},{"user_id":807,"name":"CrunchCisco","steam_id":76561199162724832,"connected_time":3042000000000,"state":"active","ping":81},{"user_id":822,"name":"Fobby #Savetf2","steam_id":76561198047681469,"connected_time":2120000000000,"state":"active","ping":64},{"user_id":818,"name":"Lindes","steam_id":76561198132472867,"connected_time":2456000000000,"state":"active","ping":44},{"user_id":838,"name":"Uwasatchi","steam_id":76561198011501261,"connected_time":1083000000000,"state":"active","ping":60},{"user_id":852,"name":"FRANKY!!!","steam_id":76561199211305343,"connected_time":71000000000,"state":"active","ping":99},{"user_id":816,"name":"HUNGRY DOGS EAT FASTER","steam_id":76561198040440984,"connected_time":2733000000000,"state":"active","ping":71}]},{"server_id":402,"name":"Uncletopia | Chicago | 3 | All Maps","name_short":"chi-3","host":"chi-1.us.uncletopia.com","port":27035,"enabled":true,"region":"us-central","cc":"us","latitude":41.881832,"longitude":-87.62318,"reserved":0,"last_update":"0001-01-01T00:00:00Z","name_a2s":"Uncletopia | Chicago | 3 | All Maps","protocol":17,"map":"pl_upward","folder":"tf","game":"Team Fortress","app_id":440,"player_count":24,"max_players":24,"Bots":0,"server_type":"Dedicated","server_os":"Linux","password":true,"vac":true,"version":"7932396","steam_id":85568392924515191,"keywords":["nocrits","nodmgspread","payload","uncletopia"],"game_id":440,"stv_port":27036,"stv_name":"Uncletopia | Chicago | 3 | All Maps | STV","players":[{"user_id":420,"name":"CapnKris22","steam_id":76561198049010994,"connected_time":912000000000,"state":"active","ping":72},{"user_id":251,"name":"DoubleX2000","steam_id":76561198164134387,"connected_time":13658000000000,"state":"active","ping":112},{"user_id":417,"name":"Toastee","steam_id":76561198085410969,"connected_time":1181000000000,"state":"active","ping":44},{"user_id":419,"name":"Rudy","steam_id":76561198013456828,"connected_time":1111000000000,"state":"active","ping":60},{"user_id":368,"name":"Pourpel","steam_id":76561198059125470,"connected_time":4011000000000,"state":"active","ping":71},{"user_id":378,"name":"Law","steam_id":76561199059063560,"connected_time":3202000000000,"state":"active","ping":77},{"user_id":401,"name":"koolamundo","steam_id":76561198101705890,"connected_time":1984000000000,"state":"active","ping":70},{"user_id":422,"name":"Mengle","steam_id":76561198001953684,"connected_time":390000000000,"state":"active","ping":63},{"user_id":354,"name":"Alecto","steam_id":76561198042476864,"connected_time":4868000000000,"state":"active","ping":45},{"user_id":240,"name":"Digitic","steam_id":76561198080295536,"connected_time":14273000000000,"state":"active","ping":79},{"user_id":407,"name":"Jaydyn","steam_id":76561198140326797,"connected_time":1644000000000,"state":"active","ping":85},{"user_id":390,"name":"Thrackzog","steam_id":76561198183203745,"connected_time":2617000000000,"state":"active","ping":60},{"user_id":425,"name":"hank_goofopolis","steam_id":76561198042394402,"connected_time":135000000000,"state":"active","ping":61},{"user_id":426,"name":"Tri-Dot","steam_id":76561199075186597,"connected_time":110000000000,"state":"active","ping":66},{"user_id":367,"name":"MarsionQuin","steam_id":76561199086790535,"connected_time":4099000000000,"state":"active","ping":85},{"user_id":403,"name":"jerma enthusiast","steam_id":76561198359466264,"connected_time":1861000000000,"state":"active","ping":77},{"user_id":392,"name":"Menthol Cop","steam_id":76561198179817985,"connected_time":2608000000000,"state":"active","ping":78},{"user_id":424,"name":"tim-","steam_id":76561199119101315,"connected_time":238000000000,"state":"active","ping":66},{"user_id":383,"name":"Your Loyal Familiar","steam_id":76561198106476075,"connected_time":2944000000000,"state":"active","ping":78},{"user_id":414,"name":"orion","steam_id":76561198958251492,"connected_time":1256000000000,"state":"active","ping":65},{"user_id":410,"name":"totally not a pile of beans","steam_id":76561198119851931,"connected_time":1605000000000,"state":"active","ping":83},{"user_id":411,"name":"0vii","steam_id":76561198117084598,"connected_time":1551000000000,"state":"active","ping":69},{"user_id":415,"name":"Model CHP-3Y","steam_id":76561198107806145,"connected_time":1249000000000,"state":"active","ping":85},{"user_id":398,"name":"ElZeto","steam_id":76561198252322622,"connected_time":2296000000000,"state":"active","ping":104}]},{"server_id":403,"name":"Uncletopia | Chicago | 4 | All Maps","name_short":"chi-4","host":"chi-1.us.uncletopia.com","port":27045,"enabled":true,"region":"us-central","cc":"us","latitude":41.881832,"longitude":-87.62318,"reserved":0,"last_update":"0001-01-01T00:00:00Z","name_a2s":"Uncletopia | Chicago | 4 | All Maps","protocol":17,"map":"pl_borneo","folder":"tf","game":"Team Fortress","app_id":440,"player_count":24,"max_players":24,"Bots":0,"server_type":"Dedicated","server_os":"Linux","password":true,"vac":true,"version":"7932396","steam_id":85568392924515193,"keywords":["nocrits","nodmgspread","payload","uncletopia"],"game_id":440,"stv_port":27046,"stv_name":"Uncletopia | Chicago | 4 | All Maps | STV","players":[{"user_id":454,"name":"eat Pant","steam_id":76561197974965536,"connected_time":856000000000,"state":"active","ping":63},{"user_id":420,"name":"Horrizan","steam_id":76561197965028480,"connected_time":3256000000000,"state":"active","ping":85},{"user_id":439,"name":"oof aim small brain","steam_id":76561198079925551,"connected_time":1803000000000,"state":"active","ping":62},{"user_id":461,"name":"farfalle","steam_id":76561198882758067,"connected_time":279000000000,"state":"active","ping":41},{"user_id":414,"name":"wunkem","steam_id":76561198055948497,"connected_time":3960000000000,"state":"active","ping":68},{"user_id":435,"name":"Wolf Hat","steam_id":76561198099996051,"connected_time":2208000000000,"state":"active","ping":68},{"user_id":375,"name":"duck, duck, LOVE","steam_id":76561198010706701,"connected_time":7414000000000,"state":"active","ping":70},{"user_id":376,"name":"gorf?","steam_id":76561198142286417,"connected_time":7412000000000,"state":"active","ping":59},{"user_id":438,"name":"Truffles","steam_id":76561198095868800,"connected_time":1902000000000,"state":"active","ping":83},{"user_id":462,"name":"Grand","steam_id":76561198290143399,"connected_time":159000000000,"state":"active","ping":73},{"user_id":440,"name":"DanW","steam_id":76561198143707391,"connected_time":1761000000000,"state":"active","ping":64},{"user_id":447,"name":"The One True Luke","steam_id":76561198180891187,"connected_time":1525000000000,"state":"active","ping":67},{"user_id":464,"name":"captainspatklz","steam_id":76561198432167270,"connected_time":30000000000,"state":"active","ping":77},{"user_id":445,"name":"Bheem","steam_id":76561198170453459,"connected_time":1544000000000,"state":"active","ping":83},{"user_id":402,"name":"Ayylmao","steam_id":76561198104780147,"connected_time":4600000000000,"state":"active","ping":46},{"user_id":429,"name":"EddieTheScrub","steam_id":76561198928903110,"connected_time":2804000000000,"state":"active","ping":53},{"user_id":362,"name":"Swash","steam_id":76561197969421355,"connected_time":8744000000000,"state":"active","ping":47},{"user_id":451,"name":"trobin120","steam_id":76561199122420273,"connected_time":1323000000000,"state":"active","ping":60},{"user_id":463,"name":"hej","steam_id":76561197996366940,"connected_time":65000000000,"state":"active","ping":60},{"user_id":450,"name":"Wuh oh","steam_id":76561198151746084,"connected_time":1369000000000,"state":"active","ping":76},{"user_id":452,"name":"Commodore","steam_id":76561198042112852,"connected_time":921000000000,"state":"active","ping":75},{"user_id":400,"name":"chunguspilled","steam_id":76561198263122601,"connected_time":4763000000000,"state":"active","ping":52},{"user_id":460,"name":"But First You've Got To Get Mad","steam_id":76561197973496224,"connected_time":302000000000,"state":"active","ping":66},{"user_id":366,"name":"Lia_Rein","steam_id":76561198151569597,"connected_time":8348000000000,"state":"active","ping":149}]},{"server_id":36,"name":"Uncletopia | Chicago | 5 | All Maps","name_short":"chi-5","host":"chi-2.us.uncletopia.com","port":27015,"enabled":true,"region":"us-central","cc":"us","latitude":41.881832,"longitude":-87.62318,"reserved":0,"last_update":"0001-01-01T00:00:00Z","name_a2s":"Uncletopia | Chicago | 5 | All Maps","protocol":17,"map":"pl_barnblitz","folder":"tf","game":"Team Fortress","app_id":440,"player_count":24,"max_players":24,"Bots":0,"server_type":"Dedicated","server_os":"Linux","password":true,"vac":true,"version":"7932396","steam_id":85568392924866362,"keywords":["nocrits","nodmgspread","payload","uncletopia"],"game_id":440,"stv_port":27016,"stv_name":"Uncletopia | Chicago | 5 | All Maps | STV","players":[{"user_id":418,"name":"wheresgeorge","steam_id":76561198986281248,"connected_time":4378000000000,"state":"active","ping":87},{"user_id":438,"name":"msay","steam_id":76561198170888029,"connected_time":3417000000000,"state":"active","ping":102},{"user_id":463,"name":"Wiscipline","steam_id":76561198019206178,"connected_time":1589000000000,"state":"active","ping":77},{"user_id":475,"name":"Nikki","steam_id":76561199485086969,"connected_time":103000000000,"state":"active","ping":107},{"user_id":431,"name":"[DOOR] Jacob","steam_id":76561198004630011,"connected_time":4172000000000,"state":"active","ping":57},{"user_id":445,"name":"Viokik","steam_id":76561198408846602,"connected_time":2767000000000,"state":"active","ping":65},{"user_id":464,"name":"`o2","steam_id":76561197992030936,"connected_time":1564000000000,"state":"active","ping":66},{"user_id":433,"name":"Techo","steam_id":76561199169405285,"connected_time":3989000000000,"state":"active","ping":104},{"user_id":414,"name":"Stapler","steam_id":76561198099295077,"connected_time":4781000000000,"state":"active","ping":100},{"user_id":394,"name":"6t26j","steam_id":76561198278282836,"connected_time":6289000000000,"state":"active","ping":49},{"user_id":465,"name":"rachel epiphet","steam_id":76561198380018244,"connected_time":1551000000000,"state":"active","ping":77},{"user_id":426,"name":"Joey Lemons","steam_id":76561198068104187,"connected_time":4260000000000,"state":"active","ping":32},{"user_id":457,"name":"Limitless","steam_id":76561198057139998,"connected_time":2256000000000,"state":"active","ping":78},{"user_id":442,"name":"LProduct","steam_id":76561199442139670,"connected_time":3128000000000,"state":"active","ping":129},{"user_id":470,"name":"Prsm","steam_id":76561198053344995,"connected_time":1078000000000,"state":"active","ping":56},{"user_id":422,"name":"pajayay","steam_id":76561198065040540,"connected_time":4294000000000,"state":"active","ping":73},{"user_id":474,"name":"Onyx","steam_id":76561198275349640,"connected_time":303000000000,"state":"active","ping":88},{"user_id":472,"name":"Marsupial Jones","steam_id":76561198058963406,"connected_time":482000000000,"state":"active","ping":99},{"user_id":467,"name":"conner","steam_id":76561198052911241,"connected_time":1485000000000,"state":"active","ping":75},{"user_id":375,"name":"Java_Siege_","steam_id":76561199090000728,"connected_time":8542000000000,"state":"active","ping":77},{"user_id":454,"name":"GoldtoothFour","steam_id":76561198055529332,"connected_time":2403000000000,"state":"active","ping":57},{"user_id":468,"name":"Sahalanthro","steam_id":76561199073298722,"connected_time":1273000000000,"state":"active","ping":84},{"user_id":456,"name":"hashmap","steam_id":76561198043794014,"connected_time":2335000000000,"state":"active","ping":47},{"user_id":429,"name":"the Light Beast","steam_id":76561198111975583,"connected_time":4240000000000,"state":"active","ping":81}]},{"server_id":37,"name":"Uncletopia | Chicago | 6 | All Maps","name_short":"chi-6","host":"chi-2.us.uncletopia.com","port":27025,"enabled":true,"region":"us-central","cc":"us","latitude":41.881832,"longitude":-87.62318,"reserved":0,"last_update":"0001-01-01T00:00:00Z","name_a2s":"Uncletopia | Chicago | 6 | All Maps","protocol":17,"map":"pl_goldrush","folder":"tf","game":"Team Fortress","app_id":440,"player_count":24,"max_players":24,"Bots":0,"server_type":"Dedicated","server_os":"Linux","password":true,"vac":true,"version":"7932396","steam_id":85568392924866363,"keywords":["nocrits","nodmgspread","payload","uncletopia"],"game_id":440,"stv_port":27026,"stv_name":"Uncletopia | Chicago | 6 | All Maps | STV","players":[{"user_id":563,"name":"Provocator","steam_id":76561197961830410,"connected_time":670000000000,"state":"active","ping":73},{"user_id":529,"name":"Vladikr1","steam_id":76561198401495362,"connected_time":3758000000000,"state":"active","ping":61},{"user_id":557,"name":"only a spoonful","steam_id":76561198113180616,"connected_time":1019000000000,"state":"active","ping":70},{"user_id":550,"name":"Stranger in a Strange Land","steam_id":76561198049843671,"connected_time":1887000000000,"state":"active","ping":58},{"user_id":528,"name":"fish LFT :)","steam_id":76561198054070811,"connected_time":4068000000000,"state":"active","ping":104},{"user_id":531,"name":"katryna","steam_id":76561198023440304,"connected_time":3430000000000,"state":"active","ping":55},{"user_id":544,"name":"Galmart","steam_id":76561199122036524,"connected_time":2319000000000,"state":"active","ping":75},{"user_id":545,"name":"Lincs","steam_id":76561198049851872,"connected_time":2262000000000,"state":"active","ping":82},{"user_id":472,"name":"IMM0RTAL","steam_id":76561198013747901,"connected_time":7924000000000,"state":"active","ping":67},{"user_id":509,"name":"Walrusto","steam_id":76561198829644616,"connected_time":5111000000000,"state":"active","ping":76},{"user_id":558,"name":"Still Alive","steam_id":76561198042523000,"connected_time":974000000000,"state":"active","ping":59},{"user_id":534,"name":"carrot cake","steam_id":76561198055174915,"connected_time":3348000000000,"state":"active","ping":68},{"user_id":491,"name":"trappy (washed)","steam_id":76561198402801140,"connected_time":6292000000000,"state":"active","ping":57},{"user_id":547,"name":"Help","steam_id":76561198316494223,"connected_time":2149000000000,"state":"active","ping":99},{"user_id":527,"name":"Xx_haZe_xX","steam_id":76561198243743666,"connected_time":4400000000000,"state":"active","ping":116},{"user_id":560,"name":"Vega","steam_id":76561198057374871,"connected_time":919000000000,"state":"active","ping":62},{"user_id":386,"name":"daemon","steam_id":76561198001541433,"connected_time":14980000000000,"state":"active","ping":58},{"user_id":483,"name":"squash the beef","steam_id":76561198277163301,"connected_time":7079000000000,"state":"active","ping":63},{"user_id":496,"name":"Skeleton Hotel","steam_id":76561198041704727,"connected_time":6174000000000,"state":"active","ping":60},{"user_id":552,"name":"HOTA","steam_id":76561199002778841,"connected_time":1844000000000,"state":"active","ping":74},{"user_id":554,"name":"krill issue","steam_id":76561199013461400,"connected_time":1132000000000,"state":"active","ping":82},{"user_id":522,"name":"AnonymousCritter","steam_id":76561198864475187,"connected_time":4659000000000,"state":"active","ping":53},{"user_id":542,"name":"V!CT!M","steam_id":76561198962721502,"connected_time":2557000000000,"state":"active","ping":71},{"user_id":562,"name":"maze ring","steam_id":76561198068443860,"connected_time":898000000000,"state":"active","ping":45}]},{"server_id":38,"name":"Uncletopia | Chicago | 7 | Stopwatch Beta","name_short":"chi-7","host":"chi-2.us.uncletopia.com","port":27035,"enabled":true,"region":"us-central","cc":"us","latitude":41.881832,"longitude":-87.62318,"reserved":0,"last_update":"0001-01-01T00:00:00Z","name_a2s":"Uncletopia | Chicago | 7 | Stopwatch Beta","protocol":17,"map":"pl_borneo","folder":"tf","game":"Team Fortress","app_id":440,"player_count":0,"max_players":24,"Bots":0,"server_type":"Dedicated","server_os":"Linux","password":true,"vac":true,"version":"7932396","steam_id":85568392924866364,"keywords":["nocrits","nodmgspread","payload","uncletopia"],"game_id":440,"stv_port":27036,"stv_name":"Uncletopia | Chicago | 7 | Stopwatch Beta | STV","players":null},{"server_id":39,"name":"Uncletopia | Chicago | 8 | Community","name_short":"chi-8","host":"chi-2.us.uncletopia.com","port":27045,"enabled":true,"region":"us-central","cc":"us","latitude":41.881832,"longitude":-87.62318,"reserved":0,"last_update":"0001-01-01T00:00:00Z","name_a2s":"Uncletopia | Chicago | 8 | Community","protocol":17,"map":"workshop/koth_slaughter_rc1.ugc1712845210","folder":"tf","game":"Team Fortress","app_id":440,"player_count":22,"max_players":24,"Bots":0,"server_type":"Dedicated","server_os":"Linux","password":true,"vac":true,"version":"7932396","steam_id":85568392924866365,"keywords":["cp","nocrits","nodmgspread","uncletopia"],"game_id":440,"stv_port":27046,"stv_name":"Uncletopia | Chicago | 8 | Community | STV","players":[{"user_id":547,"name":"SleepyCanary","steam_id":76561198071770434,"connected_time":4596000000000,"state":"spawning","ping":227},{"user_id":577,"name":"Ghworg","steam_id":76561198324891401,"connected_time":1823000000000,"state":"active","ping":50},{"user_id":568,"name":"Nessie is my Waifu","steam_id":76561198076021620,"connected_time":3061000000000,"state":"active","ping":78},{"user_id":583,"name":"I. C. Wiener","steam_id":76561198062777610,"connected_time":885000000000,"state":"spawning","ping":192},{"user_id":584,"name":"QuakAtack","steam_id":76561198870770157,"connected_time":880000000000,"state":"spawning","ping":120},{"user_id":585,"name":"super-oofio64","steam_id":76561198954052123,"connected_time":833000000000,"state":"active","ping":144},{"user_id":590,"name":"Jork","steam_id":76561198121415366,"connected_time":659000000000,"state":"spawning","ping":162},{"user_id":598,"name":"Grandma Goku","steam_id":76561198129597384,"connected_time":44000000000,"state":"active","ping":119},{"user_id":534,"name":"Tom Crúaich","steam_id":76561197999439911,"connected_time":5298000000000,"state":"active","ping":75},{"user_id":599,"name":"Trans gremlin Avery","steam_id":76561199035402139,"connected_time":34000000000,"state":"active","ping":137},{"user_id":588,"name":"legopirate10","steam_id":76561198178827241,"connected_time":689000000000,"state":"spawning","ping":214},{"user_id":548,"name":"Eggregis-Thumbs","steam_id":76561198310566277,"connected_time":4596000000000,"state":"active","ping":66},{"user_id":549,"name":"SodaKid_7","steam_id":76561198079419485,"connected_time":4569000000000,"state":"spawning","ping":99},{"user_id":582,"name":"the pest","steam_id":76561198826298849,"connected_time":1338000000000,"state":"active","ping":89},{"user_id":589,"name":"Dragoon","steam_id":76561198211973253,"connected_time":681000000000,"state":"spawning","ping":231},{"user_id":579,"name":"TheSquirrelofHuscurl","steam_id":76561198073379623,"connected_time":1626000000000,"state":"active","ping":116},{"user_id":591,"name":"Skiddy","steam_id":76561198125942665,"connected_time":639000000000,"state":"active","ping":74},{"user_id":578,"name":"GiraffeMan","steam_id":76561198042104084,"connected_time":1807000000000,"state":"active","ping":66},{"user_id":592,"name":"OctillionaireSigmaMale","steam_id":76561198816005207,"connected_time":585000000000,"state":"spawning","ping":198},{"user_id":594,"name":"Ollie and Cookie","steam_id":76561198136307214,"connected_time":550000000000,"state":"active","ping":76},{"user_id":595,"name":"*Gage*","steam_id":76561197975233869,"connected_time":504000000000,"state":"spawning","ping":87},{"user_id":565,"name":"OttotheTomato","steam_id":76561198272610597,"connected_time":3334000000000,"state":"active","ping":145}]},{"server_id":8,"name":"Uncletopia | Dallas | 1 | All Maps","name_short":"dal-1","host":"dal-1.us.uncletopia.com","port":27015,"enabled":true,"region":"us-central","cc":"us","latitude":32.779167,"longitude":-96.80889,"reserved":0,"last_update":"0001-01-01T00:00:00Z","name_a2s":"Uncletopia | Dallas | 1 | All Maps","protocol":17,"map":"koth_viaduct","folder":"tf","game":"Team Fortress","app_id":440,"player_count":24,"max_players":24,"Bots":0,"server_type":"Dedicated","server_os":"Linux","password":true,"vac":true,"version":"7932396","steam_id":85568392924469986,"keywords":["cp","nocrits","nodmgspread","uncletopia"],"game_id":440,"stv_port":27016,"stv_name":"Uncletopia | Dallas | 1 | All Maps | STV","players":[{"user_id":456,"name":"ChottoAMinute","steam_id":76561198873157775,"connected_time":186000000000,"state":"active","ping":45},{"user_id":420,"name":"Ping","steam_id":76561198072947773,"connected_time":2946000000000,"state":"active","ping":61},{"user_id":434,"name":"ShapedSilver","steam_id":76561199073305310,"connected_time":2593000000000,"state":"active","ping":39},{"user_id":447,"name":"Siev","steam_id":76561198000518937,"connected_time":1350000000000,"state":"active","ping":58},{"user_id":443,"name":"Sagertooth","steam_id":76561198060863894,"connected_time":1769000000000,"state":"active","ping":47},{"user_id":396,"name":"Fletcher","steam_id":76561198317846538,"connected_time":5583000000000,"state":"active","ping":76},{"user_id":448,"name":"Bird","steam_id":76561198231624620,"connected_time":1344000000000,"state":"active","ping":64},{"user_id":442,"name":"Some Stupid Name","steam_id":76561198065575548,"connected_time":2180000000000,"state":"active","ping":87},{"user_id":433,"name":"Ghetto Smosh Fan","steam_id":76561198097272509,"connected_time":2601000000000,"state":"active","ping":54},{"user_id":449,"name":"LampMan","steam_id":76561198079857527,"connected_time":1341000000000,"state":"active","ping":56},{"user_id":445,"name":"GLG MUTT","steam_id":76561198147785541,"connected_time":1504000000000,"state":"active","ping":55},{"user_id":417,"name":"GLG.Liz","steam_id":76561198021957956,"connected_time":3570000000000,"state":"active","ping":51},{"user_id":422,"name":"BurritoCat","steam_id":76561198059822805,"connected_time":2910000000000,"state":"active","ping":93},{"user_id":429,"name":"Squiliam","steam_id":76561198025278006,"connected_time":2775000000000,"state":"active","ping":43},{"user_id":446,"name":"skinhub.com Pretz","steam_id":76561198801873766,"connected_time":1503000000000,"state":"active","ping":72},{"user_id":450,"name":"Mr.Nostalgic","steam_id":76561198083240822,"connected_time":1320000000000,"state":"active","ping":94},{"user_id":423,"name":"Kushkatt","steam_id":76561198058397659,"connected_time":2899000000000,"state":"active","ping":70},{"user_id":424,"name":"REspecWizard","steam_id":76561198097950624,"connected_time":2898000000000,"state":"active","ping":86},{"user_id":425,"name":"mer5277","steam_id":76561198192171041,"connected_time":2865000000000,"state":"active","ping":114},{"user_id":400,"name":"LittleFieryOne","steam_id":76561198107463724,"connected_time":5517000000000,"state":"active","ping":83},{"user_id":451,"name":"cypherzero","steam_id":76561199182960322,"connected_time":1319000000000,"state":"active","ping":82},{"user_id":379,"name":"Reague","steam_id":76561199092175631,"connected_time":6695000000000,"state":"active","ping":73},{"user_id":454,"name":"ya","steam_id":76561198070934685,"connected_time":929000000000,"state":"active","ping":49},{"user_id":440,"name":"Frank Fortain","steam_id":76561198953613972,"connected_time":2265000000000,"state":"active","ping":45}]},{"server_id":108,"name":"Uncletopia | Dallas | 2 | All Maps","name_short":"dal-2","host":"dal-1.us.uncletopia.com","port":27025,"enabled":true,"region":"us-central","cc":"us","latitude":32.779167,"longitude":-96.80889,"reserved":0,"last_update":"0001-01-01T00:00:00Z","name_a2s":"Uncletopia | Dallas | 2 | All Maps","protocol":17,"map":"pl_borneo","folder":"tf","game":"Team Fortress","app_id":440,"player_count":24,"max_players":24,"Bots":0,"server_type":"Dedicated","server_os":"Linux","password":true,"vac":true,"version":"7932396","steam_id":85568392924469988,"keywords":["nocrits","nodmgspread","payload","uncletopia"],"game_id":440,"stv_port":27026,"stv_name":"Uncletopia | Dallas | 2 | All Maps | STV","players":[{"user_id":267,"name":"ThisBeMe","steam_id":76561199282571894,"connected_time":1990000000000,"state":"active","ping":168},{"user_id":270,"name":"Bunni","steam_id":76561198065169997,"connected_time":1385000000000,"state":"active","ping":104},{"user_id":199,"name":"aisu","steam_id":76561198043768507,"connected_time":7768000000000,"state":"active","ping":76},{"user_id":263,"name":"Booboo Kitty","steam_id":76561198192459727,"connected_time":2083000000000,"state":"active","ping":90},{"user_id":277,"name":"peppercorn bill","steam_id":76561198870780777,"connected_time":151000000000,"state":"active","ping":61},{"user_id":276,"name":"fernando","steam_id":76561198142586591,"connected_time":204000000000,"state":"active","ping":68},{"user_id":273,"name":"Tanuki with a gun.","steam_id":76561198027487285,"connected_time":957000000000,"state":"active","ping":87},{"user_id":278,"name":"xLeoparrd","steam_id":76561198940657194,"connected_time":146000000000,"state":"active","ping":56},{"user_id":239,"name":"Clumsy","steam_id":76561198056345245,"connected_time":4999000000000,"state":"active","ping":67},{"user_id":257,"name":"HAT-WEARING™ Maggot Gamer Cat","steam_id":76561197973992705,"connected_time":3507000000000,"state":"active","ping":95},{"user_id":268,"name":"Gamerfan64","steam_id":76561198801410962,"connected_time":1864000000000,"state":"active","ping":49},{"user_id":236,"name":"SizableChap","steam_id":76561199148162904,"connected_time":5207000000000,"state":"active","ping":68},{"user_id":279,"name":"Felipe Ramirez 2013","steam_id":76561198150497397,"connected_time":146000000000,"state":"active","ping":88},{"user_id":274,"name":"Monky duh luppy","steam_id":76561198035410427,"connected_time":471000000000,"state":"active","ping":83},{"user_id":272,"name":"Useless","steam_id":76561198117206414,"connected_time":1301000000000,"state":"active","ping":48},{"user_id":259,"name":"ChicoTopic","steam_id":76561198327083342,"connected_time":2858000000000,"state":"active","ping":44},{"user_id":246,"name":"5mech","steam_id":76561198979167520,"connected_time":4452000000000,"state":"active","ping":57},{"user_id":261,"name":"bendera","steam_id":76561197965486503,"connected_time":2777000000000,"state":"active","ping":85},{"user_id":280,"name":"icarus","steam_id":76561199381574038,"connected_time":131000000000,"state":"active","ping":97},{"user_id":275,"name":"Dr Oshawott","steam_id":76561198042021629,"connected_time":408000000000,"state":"active","ping":87},{"user_id":266,"name":"bird doctor","steam_id":76561199144340440,"connected_time":2035000000000,"state":"active","ping":60},{"user_id":242,"name":"RockMan","steam_id":76561199228684720,"connected_time":4816000000000,"state":"active","ping":61},{"user_id":281,"name":"ash","steam_id":76561198127890645,"connected_time":93000000000,"state":"active","ping":80},{"user_id":88,"name":"nori_420","steam_id":76561199117134203,"connected_time":17361000000000,"state":"active","ping":89}]},{"server_id":5,"name":"Uncletopia | Frankfurt | 1 | All Maps","name_short":"frk-1","host":"frk-1.de.uncletopia.com","port":27015,"enabled":true,"region":"eu","cc":"de","latitude":50.110924,"longitude":8.682127,"reserved":0,"last_update":"0001-01-01T00:00:00Z","name_a2s":"Uncletopia | Frankfurt | 1 | All Maps","protocol":17,"map":"koth_highpass","folder":"tf","game":"Team Fortress","app_id":440,"player_count":0,"max_players":24,"Bots":0,"server_type":"Dedicated","server_os":"Linux","password":true,"vac":true,"version":"7932396","steam_id":85568392924469989,"keywords":["cp","nocrits","nodmgspread","uncletopia"],"game_id":440,"stv_port":27016,"stv_name":"Uncletopia | Frankfurt | 1 | All Maps | STV","players":null},{"server_id":110,"name":"Uncletopia | Frankfurt | 2 | All Maps","name_short":"frk-2","host":"frk-1.de.uncletopia.com","port":27025,"enabled":true,"region":"eu","cc":"de","latitude":50.110924,"longitude":8.682127,"reserved":0,"last_update":"0001-01-01T00:00:00Z","name_a2s":"Uncletopia | Frankfurt | 2 | All Maps","protocol":17,"map":"pl_pier","folder":"tf","game":"Team Fortress","app_id":440,"player_count":0,"max_players":24,"Bots":0,"server_type":"Dedicated","server_os":"Linux","password":true,"vac":true,"version":"7932396","steam_id":85568392924469990,"keywords":["nocrits","nodmgspread","payload","uncletopia"],"game_id":440,"stv_port":27026,"stv_name":"Uncletopia | Frankfurt | 2 | All Maps | STV","players":null},{"server_id":308,"name":"Uncletopia | Frankfurt | 3 | All Maps","name_short":"frk-3","host":"frk-1.de.uncletopia.com","port":27035,"enabled":true,"region":"eu","cc":"de","latitude":50.110924,"longitude":8.682127,"reserved":0,"last_update":"0001-01-01T00:00:00Z","name_a2s":"Uncletopia | Frankfurt | 3 | All Maps","protocol":17,"map":"koth_cascade","folder":"tf","game":"Team Fortress","app_id":440,"player_count":0,"max_players":24,"Bots":0,"server_type":"Dedicated","server_os":"Linux","password":true,"vac":true,"version":"7932396","steam_id":85568392924504274,"keywords":["cp","nocrits","nodmgspread","uncletopia"],"game_id":440,"stv_port":27036,"stv_name":"Uncletopia | Frankfurt | 3 | All Maps | STV","players":null},{"server_id":309,"name":"Uncletopia | Frankfurt | 4 | All Maps","name_short":"frk-4","host":"frk-1.de.uncletopia.com","port":27045,"enabled":true,"region":"eu","cc":"de","latitude":50.110924,"longitude":8.682127,"reserved":0,"last_update":"0001-01-01T00:00:00Z","name_a2s":"Uncletopia | Frankfurt | 4 | All Maps","protocol":17,"map":"pl_snowycoast","folder":"tf","game":"Team Fortress","app_id":440,"player_count":0,"max_players":24,"Bots":0,"server_type":"Dedicated","server_os":"Linux","password":true,"vac":true,"version":"7932396","steam_id":85568392924504275,"keywords":["nocrits","nodmgspread","payload","uncletopia"],"game_id":440,"stv_port":27046,"stv_name":"Uncletopia | Frankfurt | 4 | All Maps | STV","players":null},{"server_id":310,"name":"Uncletopia | Frankfurt | 5 | All Maps","name_short":"frk-5","host":"frk-1.de.uncletopia.com","port":27055,"enabled":true,"region":"eu","cc":"de","latitude":50.110924,"longitude":8.682127,"reserved":0,"last_update":"0001-01-01T00:00:00Z","name_a2s":"Uncletopia | Frankfurt | 5 | All Maps","protocol":17,"map":"koth_highpass","folder":"tf","game":"Team Fortress","app_id":440,"player_count":0,"max_players":24,"Bots":0,"server_type":"Dedicated","server_os":"Linux","password":true,"vac":true,"version":"7932396","steam_id":85568392924504277,"keywords":["cp","nocrits","nodmgspread","uncletopia"],"game_id":440,"stv_port":27056,"stv_name":"Uncletopia | Frankfurt | 5 | All Maps | STV","players":null},{"server_id":311,"name":"Uncletopia | Frankfurt | 6 | All Maps","name_short":"frk-6","host":"frk-1.de.uncletopia.com","port":27065,"enabled":true,"region":"eu","cc":"de","latitude":50.110924,"longitude":8.682127,"reserved":0,"last_update":"0001-01-01T00:00:00Z","name_a2s":"Uncletopia | Frankfurt | 6 | All Maps","protocol":17,"map":"koth_highpass","folder":"tf","game":"Team Fortress","app_id":440,"player_count":0,"max_players":24,"Bots":0,"server_type":"Dedicated","server_os":"Linux","password":true,"vac":true,"version":"7932396","steam_id":85568392924504278,"keywords":["cp","nocrits","nodmgspread","uncletopia"],"game_id":440,"stv_port":27066,"stv_name":"Uncletopia | Frankfurt | 6 | All Maps | STV","players":null},{"server_id":23,"name":"Uncletopia | Frankfurt | 7 | Stopwatch Beta","name_short":"frk-7","host":"frk-1.de.uncletopia.com","port":27075,"enabled":true,"region":"eu","cc":"de","latitude":50.110924,"longitude":8.682127,"reserved":0,"last_update":"0001-01-01T00:00:00Z","name_a2s":"Uncletopia | Frankfurt | 7 | Stopwatch Beta","protocol":17,"map":"pl_snowycoast","folder":"tf","game":"Team Fortress","app_id":440,"player_count":0,"max_players":24,"Bots":0,"server_type":"Dedicated","server_os":"Linux","password":true,"vac":true,"version":"7932396","steam_id":85568392924742827,"keywords":["nocrits","nodmgspread","payload","uncletopia"],"game_id":440,"stv_port":27076,"stv_name":"Uncletopia | Frankfurt | 7 | Stopwatch Beta | STV","players":null},{"server_id":24,"name":"Uncletopia | Frankfurt | 8 | Community","name_short":"frk-8","host":"frk-1.de.uncletopia.com","port":27085,"enabled":true,"region":"eu","cc":"de","latitude":50.110924,"longitude":8.682127,"reserved":0,"last_update":"0001-01-01T00:00:00Z","name_a2s":"Uncletopia | Frankfurt | 8 | Community","protocol":17,"map":"workshop/koth_ashville_final.ugc2130459942","folder":"tf","game":"Team Fortress","app_id":440,"player_count":0,"max_players":24,"Bots":0,"server_type":"Dedicated","server_os":"Linux","password":true,"vac":true,"version":"7932396","steam_id":85568392924742828,"keywords":["cp","nocrits","nodmgspread","uncletopia"],"game_id":440,"stv_port":27086,"stv_name":"Uncletopia | Frankfurt | 8 | Community | STV","players":null},{"server_id":202,"name":"Uncletopia | Hong Kong | 1 | All Maps","name_short":"hgk-1","host":"hgk-1.hk.uncletopia.com","port":27015,"enabled":true,"region":"asia","cc":"hk","latitude":22.302711,"longitude":114.177216,"reserved":0,"last_update":"0001-01-01T00:00:00Z","name_a2s":"Uncletopia | Hong Kong | 1 | All Maps","protocol":17,"map":"koth_cascade","folder":"tf","game":"Team Fortress","app_id":440,"player_count":5,"max_players":24,"Bots":0,"server_type":"Dedicated","server_os":"Linux","password":true,"vac":true,"version":"7932396","steam_id":85568392924494504,"keywords":["cp","nocrits","nodmgspread","uncletopia"],"game_id":440,"stv_port":27016,"stv_name":"Uncletopia | Hong Kong | 1 | All Maps | STV","players":[{"user_id":20,"name":"Coffeethecat","steam_id":76561198983462827,"connected_time":879000000000,"state":"active","ping":149},{"user_id":19,"name":"Fluffythecat","steam_id":76561199183363276,"connected_time":934000000000,"state":"active","ping":84},{"user_id":21,"name":"Kek","steam_id":76561199004616229,"connected_time":744000000000,"state":"active","ping":97},{"user_id":24,"name":"MS PowerPoint","steam_id":76561198369523192,"connected_time":311000000000,"state":"active","ping":58},{"user_id":25,"name":"Karmax343 (F2P no talk)","steam_id":76561199060582825,"connected_time":109000000000,"state":"active","ping":78}]},{"server_id":1,"name":"Uncletopia | Los Angeles | 1 | All Maps","name_short":"lax-1","host":"lax-1.us.uncletopia.com","port":27015,"enabled":true,"region":"us-west","cc":"us","latitude":33.94279,"longitude":-118.41004,"reserved":0,"last_update":"0001-01-01T00:00:00Z","name_a2s":"Uncletopia | Los Angeles | 1 | All Maps","protocol":17,"map":"pl_badwater","folder":"tf","game":"Team Fortress","app_id":440,"player_count":24,"max_players":24,"Bots":0,"server_type":"Dedicated","server_os":"Linux","password":true,"vac":true,"version":"7932396","steam_id":85568392924469991,"keywords":["nocrits","nodmgspread","payload","uncletopia"],"game_id":440,"stv_port":27016,"stv_name":"Uncletopia | Los Angeles | 1 | All Maps | STV","players":[{"user_id":312,"name":"Freeholes","steam_id":76561198044424614,"connected_time":793000000000,"state":"active","ping":62},{"user_id":290,"name":"Hayduke","steam_id":76561197991394366,"connected_time":1470000000000,"state":"active","ping":113},{"user_id":313,"name":"Odd Life","steam_id":76561198244979998,"connected_time":770000000000,"state":"active","ping":57},{"user_id":259,"name":"UnusualTofu","steam_id":76561198060103750,"connected_time":3657000000000,"state":"active","ping":60},{"user_id":242,"name":"Ralph Kramden (Slim Charles)","steam_id":76561197981687895,"connected_time":4393000000000,"state":"active","ping":59},{"user_id":318,"name":"Major Woody","steam_id":76561198835541533,"connected_time":448000000000,"state":"active","ping":104},{"user_id":286,"name":"Bedside table, on the kangaroo","steam_id":76561198044277932,"connected_time":1841000000000,"state":"active","ping":98},{"user_id":296,"name":"Marcusduh","steam_id":76561199478554304,"connected_time":1216000000000,"state":"active","ping":94},{"user_id":292,"name":"Dog Goggles","steam_id":76561197995233692,"connected_time":1384000000000,"state":"active","ping":130},{"user_id":320,"name":"soupy","steam_id":76561197974283797,"connected_time":392000000000,"state":"active","ping":92},{"user_id":263,"name":"..flop","steam_id":76561197989058876,"connected_time":3620000000000,"state":"active","ping":82},{"user_id":319,"name":"IanFishooks","steam_id":76561199403427527,"connected_time":433000000000,"state":"active","ping":114},{"user_id":321,"name":"Dingus","steam_id":76561198263707757,"connected_time":380000000000,"state":"active","ping":104},{"user_id":289,"name":"xbox record that","steam_id":76561198150117455,"connected_time":1564000000000,"state":"active","ping":55},{"user_id":280,"name":"vioxynteris","steam_id":76561198161428666,"connected_time":2487000000000,"state":"active","ping":31},{"user_id":282,"name":"porksoda","steam_id":76561198021451377,"connected_time":2023000000000,"state":"active","ping":75},{"user_id":322,"name":"havarti gaming","steam_id":76561198069895678,"connected_time":304000000000,"state":"active","ping":97},{"user_id":298,"name":"Herr Müller","steam_id":76561198064876829,"connected_time":1119000000000,"state":"active","ping":121},{"user_id":299,"name":"CrystalClear","steam_id":76561198210417120,"connected_time":1055000000000,"state":"active","ping":69},{"user_id":307,"name":"Vault","steam_id":76561199451006289,"connected_time":906000000000,"state":"active","ping":117},{"user_id":238,"name":"WaveSmash","steam_id":76561198208785485,"connected_time":4606000000000,"state":"active","ping":84},{"user_id":323,"name":"drevott74","steam_id":76561199262592779,"connected_time":302000000000,"state":"active","ping":90},{"user_id":301,"name":"Space360","steam_id":76561198106743284,"connected_time":1034000000000,"state":"active","ping":83},{"user_id":325,"name":"Mr. Yoshida","steam_id":76561198263829831,"connected_time":200000000000,"state":"active","ping":81}]},{"server_id":112,"name":"Uncletopia | Los Angeles | 2 | All Maps","name_short":"lax-2","host":"lax-1.us.uncletopia.com","port":27025,"enabled":true,"region":"us-west","cc":"us","latitude":33.94279,"longitude":-118.41004,"reserved":0,"last_update":"0001-01-01T00:00:00Z","name_a2s":"Uncletopia | Los Angeles | 2 | All Maps","protocol":17,"map":"pl_upward","folder":"tf","game":"Team Fortress","app_id":440,"player_count":24,"max_players":24,"Bots":0,"server_type":"Dedicated","server_os":"Linux","password":true,"vac":true,"version":"7932396","steam_id":85568392924469992,"keywords":["nocrits","nodmgspread","payload","uncletopia"],"game_id":440,"stv_port":27026,"stv_name":"Uncletopia | Los Angeles | 2 | All Maps | STV","players":[{"user_id":427,"name":"wlfgng","steam_id":76561198316639499,"connected_time":659000000000,"state":"active","ping":46},{"user_id":407,"name":"Waffle Boy","steam_id":76561198404883652,"connected_time":1934000000000,"state":"active","ping":49},{"user_id":389,"name":"FaceLaces","steam_id":76561198194417725,"connected_time":3470000000000,"state":"active","ping":58},{"user_id":417,"name":"SquidFurBrains","steam_id":76561198293899688,"connected_time":1220000000000,"state":"active","ping":80},{"user_id":423,"name":"dairy delinquent","steam_id":76561198971552734,"connected_time":944000000000,"state":"active","ping":38},{"user_id":418,"name":"RUF","steam_id":76561198062315805,"connected_time":1160000000000,"state":"active","ping":56},{"user_id":400,"name":"ThatGuyNamedWil","steam_id":76561198400336801,"connected_time":2187000000000,"state":"active","ping":84},{"user_id":371,"name":"123","steam_id":76561198106308056,"connected_time":4175000000000,"state":"active","ping":176},{"user_id":429,"name":"DrWilloughby","steam_id":76561198095260357,"connected_time":536000000000,"state":"active","ping":66},{"user_id":421,"name":"perc 10","steam_id":76561198116471653,"connected_time":966000000000,"state":"active","ping":54},{"user_id":410,"name":"Scrampled Aigs","steam_id":76561198014526583,"connected_time":1677000000000,"state":"active","ping":90},{"user_id":431,"name":"Squatter1","steam_id":76561198078987734,"connected_time":423000000000,"state":"active","ping":77},{"user_id":433,"name":"the gunk","steam_id":76561198157429441,"connected_time":352000000000,"state":"active","ping":83},{"user_id":374,"name":"riSygneD","steam_id":76561198331618687,"connected_time":4091000000000,"state":"active","ping":36},{"user_id":428,"name":"Galactamarx","steam_id":76561198028065755,"connected_time":551000000000,"state":"active","ping":98},{"user_id":424,"name":"beeble!","steam_id":76561198219538525,"connected_time":938000000000,"state":"active","ping":87},{"user_id":395,"name":"lord setch","steam_id":76561198252328518,"connected_time":2769000000000,"state":"active","ping":59},{"user_id":403,"name":"Mario (sad demo arc)","steam_id":76561198123454475,"connected_time":2111000000000,"state":"active","ping":77},{"user_id":404,"name":"Bearingtonn","steam_id":76561198338949704,"connected_time":2086000000000,"state":"active","ping":81},{"user_id":435,"name":"An00bis","steam_id":76561198044084508,"connected_time":169000000000,"state":"active","ping":56},{"user_id":434,"name":"Sarbanes-Oxley","steam_id":76561197975898479,"connected_time":286000000000,"state":"active","ping":82},{"user_id":419,"name":"Lucas","steam_id":76561198399704604,"connected_time":1152000000000,"state":"active","ping":70},{"user_id":414,"name":"Moonlily","steam_id":76561198852670061,"connected_time":1617000000000,"state":"active","ping":93},{"user_id":420,"name":"Paper Clipp","steam_id":76561199065796296,"connected_time":1108000000000,"state":"active","ping":61}]},{"server_id":324,"name":"Uncletopia | Los Angeles | 3 | All Maps","name_short":"lax-3","host":"lax-1.us.uncletopia.com","port":27035,"enabled":true,"region":"us-west","cc":"us","latitude":33.94279,"longitude":-118.41004,"reserved":0,"last_update":"0001-01-01T00:00:00Z","name_a2s":"Uncletopia | Los Angeles | 3 | All Maps","protocol":17,"map":"cp_snakewater_final1","folder":"tf","game":"Team Fortress","app_id":440,"player_count":24,"max_players":24,"Bots":0,"server_type":"Dedicated","server_os":"Linux","password":true,"vac":true,"version":"7932396","steam_id":85568392924510198,"keywords":["cp","nocrits","nodmgspread","uncletopia"],"game_id":440,"stv_port":27036,"stv_name":"Uncletopia | Los Angeles | 3 | All Maps | STV","players":[{"user_id":410,"name":"Robert_Cheeto","steam_id":76561198103638020,"connected_time":676000000000,"state":"active","ping":65},{"user_id":332,"name":"Nyges","steam_id":76561198139236154,"connected_time":5310000000000,"state":"active","ping":54},{"user_id":417,"name":"ronald","steam_id":76561197960691622,"connected_time":243000000000,"state":"active","ping":84},{"user_id":398,"name":"Doppelgänger","steam_id":76561198036730436,"connected_time":1262000000000,"state":"active","ping":55},{"user_id":404,"name":"Conbud","steam_id":76561198046954825,"connected_time":1136000000000,"state":"active","ping":108},{"user_id":400,"name":"Major Depression","steam_id":76561198018103878,"connected_time":1236000000000,"state":"active","ping":116},{"user_id":412,"name":"Vàl","steam_id":76561198118751831,"connected_time":535000000000,"state":"active","ping":86},{"user_id":396,"name":"interloper","steam_id":76561198042518244,"connected_time":1313000000000,"state":"active","ping":146},{"user_id":348,"name":"i havent had sex since 2003","steam_id":76561198168114366,"connected_time":3560000000000,"state":"active","ping":118},{"user_id":357,"name":"DoctorDucky","steam_id":76561198356434380,"connected_time":3026000000000,"state":"active","ping":55},{"user_id":378,"name":"danny screamo","steam_id":76561198064312388,"connected_time":2072000000000,"state":"active","ping":58},{"user_id":395,"name":"wiseacre","steam_id":76561198072515851,"connected_time":1404000000000,"state":"active","ping":55},{"user_id":321,"name":"gunch","steam_id":76561198109948247,"connected_time":6480000000000,"state":"active","ping":93},{"user_id":390,"name":"shakoiwa","steam_id":76561199059441773,"connected_time":1636000000000,"state":"active","ping":49},{"user_id":337,"name":"SanitysEdge","steam_id":76561198130732813,"connected_time":4837000000000,"state":"active","ping":51},{"user_id":397,"name":"Red","steam_id":76561198009772689,"connected_time":1280000000000,"state":"active","ping":107},{"user_id":416,"name":"breakfast","steam_id":76561198043712978,"connected_time":356000000000,"state":"active","ping":66},{"user_id":415,"name":"Smooth™","steam_id":76561197995866050,"connected_time":406000000000,"state":"active","ping":129},{"user_id":401,"name":"devamar","steam_id":76561198069115467,"connected_time":1220000000000,"state":"active","ping":44},{"user_id":387,"name":"Defeat","steam_id":76561198065203818,"connected_time":1763000000000,"state":"active","ping":69},{"user_id":326,"name":"selling rice","steam_id":76561198063357023,"connected_time":5622000000000,"state":"active","ping":59},{"user_id":391,"name":"Phaze","steam_id":76561198025267071,"connected_time":1602000000000,"state":"active","ping":86},{"user_id":414,"name":"Inferior_Elmo","steam_id":76561199001464241,"connected_time":481000000000,"state":"active","ping":69},{"user_id":403,"name":"JoshDuMan","steam_id":76561198049901965,"connected_time":1155000000000,"state":"active","ping":125}]},{"server_id":25,"name":"Uncletopia | Los Angeles | 4 | Stopwatch Beta","name_short":"lax-4","host":"lax-1.us.uncletopia.com","port":27045,"enabled":true,"region":"us-west","cc":"us","latitude":33.94279,"longitude":-118.41004,"reserved":0,"last_update":"0001-01-01T00:00:00Z","name_a2s":"Uncletopia | Los Angeles | 4 | Stopwatch Beta","protocol":17,"map":"cp_metalworks","folder":"tf","game":"Team Fortress","app_id":440,"player_count":23,"max_players":24,"Bots":0,"server_type":"Dedicated","server_os":"Linux","password":true,"vac":true,"version":"7932396","steam_id":85568392924510199,"keywords":["cp","nocrits","nodmgspread","uncletopia"],"game_id":440,"stv_port":27046,"stv_name":"Uncletopia | Los Angeles | 4 | Stopwatch Beta | STV","players":[{"user_id":109,"name":"sirkelilimon","steam_id":76561199012980765,"connected_time":907000000000,"state":"active","ping":59},{"user_id":110,"name":"MrRobbins","steam_id":76561199171169987,"connected_time":829000000000,"state":"active","ping":125},{"user_id":103,"name":"Type Three Dabeetus","steam_id":76561198062710038,"connected_time":1793000000000,"state":"active","ping":58},{"user_id":86,"name":"Misty Blu ✿","steam_id":76561198011442255,"connected_time":2911000000000,"state":"active","ping":45},{"user_id":114,"name":"AudaCD","steam_id":76561198202775853,"connected_time":661000000000,"state":"active","ping":90},{"user_id":111,"name":"SCUD missile up your ass","steam_id":76561198066452726,"connected_time":797000000000,"state":"active","ping":53},{"user_id":120,"name":"FluffyPugs101|Ham Mafia|","steam_id":76561199096413234,"connected_time":400000000000,"state":"active","ping":140},{"user_id":92,"name":"Joe Nathan","steam_id":76561198041030399,"connected_time":2442000000000,"state":"active","ping":84},{"user_id":97,"name":"Ankh","steam_id":76561198274219552,"connected_time":2076000000000,"state":"active","ping":99},{"user_id":121,"name":"Yule","steam_id":76561198087404667,"connected_time":354000000000,"state":"active","ping":46},{"user_id":91,"name":"nicok04.gamer","steam_id":76561198423082703,"connected_time":2485000000000,"state":"active","ping":80},{"user_id":68,"name":"Mr_Moose","steam_id":76561198152815154,"connected_time":5183000000000,"state":"active","ping":80},{"user_id":115,"name":"naturia","steam_id":76561198092317849,"connected_time":643000000000,"state":"active","ping":40},{"user_id":116,"name":"-_-","steam_id":76561198048754646,"connected_time":640000000000,"state":"active","ping":42},{"user_id":122,"name":"kite man","steam_id":76561198156336213,"connected_time":319000000000,"state":"active","ping":60},{"user_id":98,"name":"Silverink","steam_id":76561198218858829,"connected_time":2060000000000,"state":"active","ping":102},{"user_id":38,"name":"Allison Ghost ⸻⸻⸻⸺⸺","steam_id":76561198053851548,"connected_time":6807000000000,"state":"active","ping":85},{"user_id":42,"name":"Battle Engineer","steam_id":76561198145396989,"connected_time":6704000000000,"state":"active","ping":43},{"user_id":100,"name":"Lemon_Boy","steam_id":76561199023562349,"connected_time":2023000000000,"state":"active","ping":74},{"user_id":101,"name":"ORANG3","steam_id":76561198227046928,"connected_time":1972000000000,"state":"active","ping":89},{"user_id":118,"name":"sams","steam_id":76561199093161260,"connected_time":630000000000,"state":"active","ping":70},{"user_id":119,"name":"YakRuski","steam_id":76561198286058297,"connected_time":626000000000,"state":"active","ping":109},{"user_id":107,"name":"Wandows95","steam_id":76561198029042032,"connected_time":1433000000000,"state":"active","ping":70}]},{"server_id":11,"name":"Uncletopia | London | 1 | All Maps","name_short":"lon-1","host":"lon-1.uk.uncletopia.com","port":27015,"enabled":true,"region":"eu","cc":"gb","latitude":51.509865,"longitude":-0.118092,"reserved":0,"last_update":"0001-01-01T00:00:00Z","name_a2s":"Uncletopia | London | 1 | All Maps","protocol":17,"map":"koth_cascade","folder":"tf","game":"Team Fortress","app_id":440,"player_count":0,"max_players":24,"Bots":0,"server_type":"Dedicated","server_os":"Linux","password":true,"vac":true,"version":"7932396","steam_id":85568392924367362,"keywords":["cp","nocrits","nodmgspread","uncletopia"],"game_id":440,"stv_port":27016,"stv_name":"Uncletopia | London | 1 | All Maps | STV","players":null},{"server_id":114,"name":"Uncletopia | London | 2 | All Maps","name_short":"lon-2","host":"lon-1.uk.uncletopia.com","port":27025,"enabled":true,"region":"eu","cc":"gb","latitude":51.509865,"longitude":-0.118092,"reserved":0,"last_update":"0001-01-01T00:00:00Z","name_a2s":"Uncletopia | London | 2 | All Maps","protocol":17,"map":"koth_lakeside_final","folder":"tf","game":"Team Fortress","app_id":440,"player_count":0,"max_players":24,"Bots":0,"server_type":"Dedicated","server_os":"Linux","password":true,"vac":true,"version":"7932396","steam_id":85568392924470941,"keywords":["cp","nocrits","nodmgspread","uncletopia"],"game_id":440,"stv_port":27026,"stv_name":"Uncletopia | London | 2 | All Maps | STV","players":null},{"server_id":320,"name":"Uncletopia | London | 3 | All Maps","name_short":"lon-3","host":"lon-1.uk.uncletopia.com","port":27035,"enabled":true,"region":"eu","cc":"gb","latitude":51.509865,"longitude":-0.118092,"reserved":0,"last_update":"0001-01-01T00:00:00Z","name_a2s":"Uncletopia | London | 3 | All Maps","protocol":17,"map":"pl_upward","folder":"tf","game":"Team Fortress","app_id":440,"player_count":0,"max_players":24,"Bots":0,"server_type":"Dedicated","server_os":"Linux","password":true,"vac":true,"version":"7932396","steam_id":85568392924510192,"keywords":["nocrits","nodmgspread","payload","uncletopia"],"game_id":440,"stv_port":27036,"stv_name":"Uncletopia | London | 3 | All Maps | STV","players":null},{"server_id":321,"name":"Uncletopia | London | 4 | All Maps","name_short":"lon-4","host":"lon-1.uk.uncletopia.com","port":27045,"enabled":true,"region":"eu","cc":"gb","latitude":51.509865,"longitude":-0.118092,"reserved":0,"last_update":"0001-01-01T00:00:00Z","name_a2s":"Uncletopia | London | 4 | All Maps","protocol":17,"map":"pl_barnblitz","folder":"tf","game":"Team Fortress","app_id":440,"player_count":0,"max_players":24,"Bots":0,"server_type":"Dedicated","server_os":"Linux","password":true,"vac":true,"version":"7932396","steam_id":85568392924510193,"keywords":["nocrits","nodmgspread","payload","uncletopia"],"game_id":440,"stv_port":27046,"stv_name":"Uncletopia | London | 4 | All Maps | STV","players":null},{"server_id":21,"name":"Uncletopia | London | 5 | All Maps","name_short":"lon-5","host":"lon-1.uk.uncletopia.com","port":27055,"enabled":true,"region":"eu","cc":"gb","latitude":51.509865,"longitude":-0.118092,"reserved":0,"last_update":"0001-01-01T00:00:00Z","name_a2s":"Uncletopia | London | 5 | All Maps","protocol":17,"map":"pl_badwater","folder":"tf","game":"Team Fortress","app_id":440,"player_count":0,"max_players":24,"Bots":0,"server_type":"Dedicated","server_os":"Linux","password":true,"vac":true,"version":"7932396","steam_id":85568392924742829,"keywords":["nocrits","nodmgspread","payload","uncletopia"],"game_id":440,"stv_port":27056,"stv_name":"Uncletopia | London | 5 | All Maps | STV","players":null},{"server_id":22,"name":"Uncletopia | London | 6 | All Maps","name_short":"lon-6","host":"lon-1.uk.uncletopia.com","port":27065,"enabled":true,"region":"eu","cc":"gb","latitude":51.509865,"longitude":-0.118092,"reserved":0,"last_update":"0001-01-01T00:00:00Z","name_a2s":"Uncletopia | London | 6 | All Maps","protocol":17,"map":"pl_upward","folder":"tf","game":"Team Fortress","app_id":440,"player_count":0,"max_players":24,"Bots":0,"server_type":"Dedicated","server_os":"Linux","password":true,"vac":true,"version":"7932396","steam_id":85568392924742830,"keywords":["nocrits","nodmgspread","payload","uncletopia"],"game_id":440,"stv_port":27066,"stv_name":"Uncletopia | London | 6 | All Maps | STV","players":null},{"server_id":40,"name":"Uncletopia | London | 7 | No Payload","name_short":"lon-7","host":"lon-1.uk.uncletopia.com","port":27075,"enabled":true,"region":"eu","cc":"gb","latitude":51.509865,"longitude":-0.118092,"reserved":0,"last_update":"0001-01-01T00:00:00Z","name_a2s":"Uncletopia | London | 7 | No Payload","protocol":17,"map":"koth_lazarus","folder":"tf","game":"Team Fortress","app_id":440,"player_count":0,"max_players":24,"Bots":0,"server_type":"Dedicated","server_os":"Linux","password":true,"vac":true,"version":"7932396","steam_id":85568392924964314,"keywords":["cp","nocrits","nodmgspread","uncletopia"],"game_id":440,"stv_port":27076,"stv_name":"Uncletopia | London | 7 | No Payload | STV","players":null},{"server_id":41,"name":"Uncletopia | London | 8 | Community","name_short":"lon-8","host":"lon-1.uk.uncletopia.com","port":27085,"enabled":true,"region":"eu","cc":"gb","latitude":51.509865,"longitude":-0.118092,"reserved":0,"last_update":"0001-01-01T00:00:00Z","name_a2s":"Uncletopia | London | 8 | Community","protocol":17,"map":"workshop/koth_trenchfoot_b1a.ugc731436616","folder":"tf","game":"Team Fortress","app_id":440,"player_count":0,"max_players":24,"Bots":0,"server_type":"Dedicated","server_os":"Linux","password":true,"vac":true,"version":"7932396","steam_id":85568392924964315,"keywords":["cp","nocrits","nodmgspread","uncletopia"],"game_id":440,"stv_port":27086,"stv_name":"Uncletopia | London | 8 | Community | STV","players":null},{"server_id":300,"name":"Uncletopia | Montréal | 1 | All Maps","name_short":"mtl-1","host":"mtl-1.ca.uncletopia.com","port":27015,"enabled":true,"region":"us-east","cc":"ca","latitude":45.50889,"longitude":-73.56167,"reserved":0,"last_update":"0001-01-01T00:00:00Z","name_a2s":"Uncletopia | Montréal | 1 | All Maps","protocol":17,"map":"koth_cascade","folder":"tf","game":"Team Fortress","app_id":440,"player_count":0,"max_players":24,"Bots":0,"server_type":"Dedicated","server_os":"Linux","password":true,"vac":true,"version":"7932396","steam_id":85568392924500087,"keywords":["cp","nocrits","nodmgspread","uncletopia"],"game_id":440,"stv_port":27016,"stv_name":"Uncletopia | Montréal | 1 | All Maps | STV","players":null},{"server_id":301,"name":"Uncletopia | Montréal | 2 | All Maps","name_short":"mtl-2","host":"mtl-1.ca.uncletopia.com","port":27025,"enabled":true,"region":"us-east","cc":"ca","latitude":45.50889,"longitude":-73.56167,"reserved":0,"last_update":"0001-01-01T00:00:00Z","name_a2s":"Uncletopia | Montréal | 2 | All Maps","protocol":17,"map":"koth_lakeside_final","folder":"tf","game":"Team Fortress","app_id":440,"player_count":0,"max_players":24,"Bots":0,"server_type":"Dedicated","server_os":"Linux","password":true,"vac":true,"version":"7932396","steam_id":85568392924500088,"keywords":["cp","nocrits","nodmgspread","uncletopia"],"game_id":440,"stv_port":27026,"stv_name":"Uncletopia | Montréal | 2 | All Maps | STV","players":null},{"server_id":302,"name":"Uncletopia | Montréal | 3 | All Maps","name_short":"mtl-3","host":"mtl-1.ca.uncletopia.com","port":27035,"enabled":true,"region":"us-east","cc":"ca","latitude":45.50889,"longitude":-73.56167,"reserved":0,"last_update":"0001-01-01T00:00:00Z","name_a2s":"Uncletopia | Montréal | 3 | All Maps","protocol":17,"map":"koth_cascade","folder":"tf","game":"Team Fortress","app_id":440,"player_count":0,"max_players":24,"Bots":0,"server_type":"Dedicated","server_os":"Linux","password":true,"vac":true,"version":"7932396","steam_id":85568392924500089,"keywords":["cp","nocrits","nodmgspread","uncletopia"],"game_id":440,"stv_port":27036,"stv_name":"Uncletopia | Montréal | 3 | All Maps | STV","players":null},{"server_id":303,"name":"Uncletopia | Montréal | 4 | No Payload","name_short":"mtl-4","host":"mtl-1.ca.uncletopia.com","port":27045,"enabled":true,"region":"us-east","cc":"ca","latitude":45.50889,"longitude":-73.56167,"reserved":0,"last_update":"0001-01-01T00:00:00Z","name_a2s":"Uncletopia | Montréal | 4 | No Payload","protocol":17,"map":"cp_dustbowl","folder":"tf","game":"Team Fortress","app_id":440,"player_count":0,"max_players":24,"Bots":0,"server_type":"Dedicated","server_os":"Linux","password":true,"vac":true,"version":"7932396","steam_id":85568392924500090,"keywords":["cp","nocrits","nodmgspread","uncletopia"],"game_id":440,"stv_port":27046,"stv_name":"Uncletopia | Montréal | 4 | No Payload | STV","players":null},{"server_id":13,"name":"Uncletopia | New York City | 1 | All Maps","name_short":"nyc-1","host":"nyc-1.us.uncletopia.com","port":27015,"enabled":true,"region":"us-east","cc":"us","latitude":40.73061,"longitude":-73.93524,"reserved":0,"last_update":"0001-01-01T00:00:00Z","name_a2s":"Uncletopia | New York City | 1 | All Maps","protocol":17,"map":"koth_nucleus","folder":"tf","game":"Team Fortress","app_id":440,"player_count":23,"max_players":24,"Bots":0,"server_type":"Dedicated","server_os":"Linux","password":true,"vac":true,"version":"7932396","steam_id":85568392924469993,"keywords":["cp","nocrits","nodmgspread","uncletopia"],"game_id":440,"stv_port":27016,"stv_name":"Uncletopia | New York City | 1 | All Maps | STV","players":[{"user_id":514,"name":"The Blind People","steam_id":76561198008387855,"connected_time":1085000000000,"state":"active","ping":42},{"user_id":495,"name":"killerdragon130","steam_id":76561198899790922,"connected_time":2077000000000,"state":"active","ping":87},{"user_id":524,"name":"Mint Jelly","steam_id":76561197991286751,"connected_time":281000000000,"state":"active","ping":61},{"user_id":485,"name":"mm","steam_id":76561198841559088,"connected_time":3142000000000,"state":"active","ping":46},{"user_id":497,"name":"Stamos","steam_id":76561198036236781,"connected_time":2048000000000,"state":"active","ping":74},{"user_id":512,"name":"hannah1","steam_id":76561198094801861,"connected_time":1133000000000,"state":"active","ping":86},{"user_id":499,"name":"Fiendish Frog","steam_id":76561198029478821,"connected_time":1980000000000,"state":"active","ping":58},{"user_id":501,"name":"Sprit ♥","steam_id":76561198268780781,"connected_time":1861000000000,"state":"active","ping":60},{"user_id":502,"name":"Capn' Crunk","steam_id":76561198848399887,"connected_time":1843000000000,"state":"active","ping":45},{"user_id":509,"name":"Truly Cryo","steam_id":76561198347497484,"connected_time":1686000000000,"state":"active","ping":71},{"user_id":521,"name":"Sticks","steam_id":76561199013914575,"connected_time":821000000000,"state":"active","ping":52},{"user_id":504,"name":"Snoogs","steam_id":76561198444880931,"connected_time":1807000000000,"state":"active","ping":65},{"user_id":486,"name":"H₂SeGamez","steam_id":76561198250471340,"connected_time":3136000000000,"state":"active","ping":69},{"user_id":492,"name":"Yoshimelon","steam_id":76561198253054325,"connected_time":2861000000000,"state":"active","ping":77},{"user_id":386,"name":"Periculosum PhD in Funny","steam_id":76561198123370914,"connected_time":11997000000000,"state":"active","ping":88},{"user_id":522,"name":"alsnsls","steam_id":76561199237778098,"connected_time":702000000000,"state":"active","ping":48},{"user_id":487,"name":"-W3E- grim10465","steam_id":76561198045698581,"connected_time":3134000000000,"state":"active","ping":30},{"user_id":520,"name":"Stormartillery","steam_id":76561198408982577,"connected_time":836000000000,"state":"active","ping":62},{"user_id":518,"name":"Bewen","steam_id":76561198325334261,"connected_time":894000000000,"state":"active","ping":44},{"user_id":513,"name":"HeavenHearst","steam_id":76561198066083947,"connected_time":1126000000000,"state":"active","ping":51},{"user_id":525,"name":"Jill","steam_id":76561198002518984,"connected_time":188000000000,"state":"active","ping":125},{"user_id":523,"name":"disciple of steezus christ","steam_id":76561198042706568,"connected_time":455000000000,"state":"active","ping":134},{"user_id":494,"name":"Blazing Hyena","steam_id":76561199121852680,"connected_time":2241000000000,"state":"active","ping":117}]},{"server_id":14,"name":"Uncletopia | New York City | 2 | All Maps","name_short":"nyc-2","host":"nyc-1.us.uncletopia.com","port":27025,"enabled":true,"region":"us-east","cc":"us","latitude":40.73061,"longitude":-73.93524,"reserved":0,"last_update":"0001-01-01T00:00:00Z","name_a2s":"Uncletopia | New York City | 2 | All Maps","protocol":17,"map":"cp_process_final","folder":"tf","game":"Team Fortress","app_id":440,"player_count":20,"max_players":24,"Bots":0,"server_type":"Dedicated","server_os":"Linux","password":true,"vac":true,"version":"7932396","steam_id":85568392924469994,"keywords":["cp","nocrits","nodmgspread","uncletopia"],"game_id":440,"stv_port":27026,"stv_name":"Uncletopia | New York City | 2 | All Maps | STV","players":[{"user_id":447,"name":"Jane ✿ Doe","steam_id":76561199096964288,"connected_time":38000000000,"state":"active","ping":60},{"user_id":448,"name":"reilykopf","steam_id":76561199210394445,"connected_time":36000000000,"state":"spawning","ping":101},{"user_id":449,"name":"chilis baby back ribs","steam_id":76561198813516435,"connected_time":28000000000,"state":"active","ping":97},{"user_id":446,"name":"Riandox","steam_id":76561198130577326,"connected_time":224000000000,"state":"active","ping":65},{"user_id":450,"name":"Ash40000","steam_id":76561198092841526,"connected_time":15000000000,"state":"active","ping":74},{"user_id":442,"name":"Ch'en","steam_id":76561199107269778,"connected_time":623000000000,"state":"active","ping":116},{"user_id":410,"name":"Foonut","steam_id":76561198075740574,"connected_time":2616000000000,"state":"active","ping":73},{"user_id":433,"name":"Bill","steam_id":76561198075391501,"connected_time":1191000000000,"state":"active","ping":75},{"user_id":427,"name":"Zack","steam_id":76561198308083836,"connected_time":1494000000000,"state":"active","ping":53},{"user_id":445,"name":"David De Bergerac","steam_id":76561198010306294,"connected_time":509000000000,"state":"active","ping":86},{"user_id":443,"name":"(IKON) MOVEMENT PLAYER","steam_id":76561198157892089,"connected_time":602000000000,"state":"active","ping":87},{"user_id":444,"name":"Thunder Humper","steam_id":76561197988549488,"connected_time":595000000000,"state":"active","ping":153},{"user_id":438,"name":"FearThePenguin","steam_id":76561197995200228,"connected_time":936000000000,"state":"active","ping":63},{"user_id":419,"name":"n00dles","steam_id":76561198062517391,"connected_time":2311000000000,"state":"active","ping":68},{"user_id":420,"name":"Foreign","steam_id":76561198206848004,"connected_time":2308000000000,"state":"active","ping":106},{"user_id":400,"name":"Pizza","steam_id":76561198118748364,"connected_time":3675000000000,"state":"active","ping":76},{"user_id":421,"name":"w-money","steam_id":76561198021742086,"connected_time":2007000000000,"state":"active","ping":120},{"user_id":436,"name":"Dakota Sutcliffe","steam_id":76561198170660959,"connected_time":1087000000000,"state":"active","ping":64},{"user_id":439,"name":"t-money","steam_id":76561198297199903,"connected_time":932000000000,"state":"active","ping":126},{"user_id":385,"name":"nerd","steam_id":76561198964101426,"connected_time":4486000000000,"state":"active","ping":32}]},{"server_id":15,"name":"Uncletopia | New York City | 3 | Stopwatch Beta","name_short":"nyc-3","host":"nyc-1.us.uncletopia.com","port":27035,"enabled":true,"region":"us-east","cc":"us","latitude":40.73061,"longitude":-73.93524,"reserved":0,"last_update":"0001-01-01T00:00:00Z","name_a2s":"Uncletopia | New York City | 3 | Stopwatch Beta","protocol":17,"map":"workshop/koth_clearcut_b15.ugc2107050255","folder":"tf","game":"Team Fortress","app_id":440,"player_count":0,"max_players":24,"Bots":0,"server_type":"Dedicated","server_os":"Linux","password":true,"vac":true,"version":"7932396","steam_id":85568392924742820,"keywords":["cp","nocrits","nodmgspread","uncletopia"],"game_id":440,"stv_port":27036,"stv_name":"Uncletopia | New York City | 3 | Stopwatch Beta | STV","players":null},{"server_id":16,"name":"Uncletopia | New York City | 4 | Community","name_short":"nyc-4","host":"nyc-1.us.uncletopia.com","port":27045,"enabled":true,"region":"us-east","cc":"us","latitude":40.73061,"longitude":-73.93524,"reserved":0,"last_update":"0001-01-01T00:00:00Z","name_a2s":"Uncletopia | New York City | 4 | Community","protocol":17,"map":"workshop/koth_ramjam_rc1.ugc459778887","folder":"tf","game":"Team Fortress","app_id":440,"player_count":0,"max_players":24,"Bots":0,"server_type":"Dedicated","server_os":"Linux","password":true,"vac":true,"version":"7932396","steam_id":85568392924742821,"keywords":["cp","nocrits","nodmgspread","uncletopia"],"game_id":440,"stv_port":27046,"stv_name":"Uncletopia | New York City | 4 | Community | STV","players":null},{"server_id":142,"name":"Uncletopia | São Paulo | 1 | All Maps","name_short":"sao-1","host":"sao-1.br.uncletopia.com","port":27015,"enabled":true,"region":"sa","cc":"br","latitude":-23.533773,"longitude":-46.62529,"reserved":0,"last_update":"0001-01-01T00:00:00Z","name_a2s":"Uncletopia | São Paulo | 1 | All Maps","protocol":17,"map":"koth_cascade","folder":"tf","game":"Team Fortress","app_id":440,"player_count":0,"max_players":24,"Bots":0,"server_type":"Dedicated","server_os":"Linux","password":true,"vac":true,"version":"7932396","steam_id":85568392924469996,"keywords":["cp","nocrits","nodmgspread","uncletopia"],"game_id":440,"stv_port":27016,"stv_name":"Uncletopia | São Paulo | 1 | All Maps | STV","players":null},{"server_id":143,"name":"Uncletopia | São Paulo | 2 | All Maps","name_short":"sao-2","host":"sao-2.br.uncletopia.com","port":27015,"enabled":true,"region":"sa","cc":"br","latitude":-23.533773,"longitude":-46.62529,"reserved":0,"last_update":"0001-01-01T00:00:00Z","name_a2s":"Uncletopia | São Paulo | 2 | All Maps","protocol":17,"map":"cp_sunshine","folder":"tf","game":"Team Fortress","app_id":440,"player_count":0,"max_players":24,"Bots":0,"server_type":"Dedicated","server_os":"Linux","password":true,"vac":true,"version":"7932396","steam_id":85568392924485349,"keywords":["cp","nocrits","nodmgspread","uncletopia"],"game_id":440,"stv_port":27016,"stv_name":"Uncletopia | São Paulo | 2 | All Maps | STV","players":null},{"server_id":7,"name":"Uncletopia | Seattle | 1 | All Maps","name_short":"sea-1","host":"sea-1.us.uncletopia.com","port":27015,"enabled":true,"region":"us-west","cc":"us","latitude":47.608013,"longitude":-122.33517,"reserved":0,"last_update":"0001-01-01T00:00:00Z","name_a2s":"Uncletopia | Seattle | 1 | All Maps","protocol":17,"map":"pl_barnblitz","folder":"tf","game":"Team Fortress","app_id":440,"player_count":24,"max_players":24,"Bots":0,"server_type":"Dedicated","server_os":"Linux","password":true,"vac":true,"version":"7932396","steam_id":85568392924469997,"keywords":["nocrits","nodmgspread","payload","uncletopia"],"game_id":440,"stv_port":27016,"stv_name":"Uncletopia | Seattle | 1 | All Maps | STV","players":[{"user_id":254,"name":"InterplanetaryGentlemann","steam_id":76561198146559390,"connected_time":12629000000000,"state":"active","ping":45},{"user_id":426,"name":"Church929","steam_id":76561198448793329,"connected_time":3089000000000,"state":"active","ping":51},{"user_id":418,"name":"Google","steam_id":76561198857237473,"connected_time":3183000000000,"state":"active","ping":48},{"user_id":448,"name":"io_est","steam_id":76561198079538952,"connected_time":727000000000,"state":"active","ping":54},{"user_id":439,"name":"Walter White","steam_id":76561199102963294,"connected_time":1495000000000,"state":"active","ping":76},{"user_id":449,"name":"SnailYT","steam_id":76561198332040385,"connected_time":600000000000,"state":"active","ping":60},{"user_id":446,"name":"zzrat","steam_id":76561198014925415,"connected_time":1253000000000,"state":"active","ping":57},{"user_id":291,"name":"Alphaarmy01","steam_id":76561198818913025,"connected_time":10266000000000,"state":"active","ping":118},{"user_id":419,"name":"lox","steam_id":76561198288531493,"connected_time":3182000000000,"state":"active","ping":52},{"user_id":429,"name":"TROY","steam_id":76561197983852176,"connected_time":3001000000000,"state":"active","ping":75},{"user_id":447,"name":"mub","steam_id":76561197961943948,"connected_time":1097000000000,"state":"active","ping":46},{"user_id":450,"name":"sissy fuckdoll $","steam_id":76561199064932372,"connected_time":485000000000,"state":"active","ping":75},{"user_id":425,"name":"selvhat","steam_id":76561198114225509,"connected_time":3134000000000,"state":"active","ping":77},{"user_id":453,"name":"makeshift_burrito","steam_id":76561198042510825,"connected_time":375000000000,"state":"active","ping":73},{"user_id":452,"name":"Res Ipsa","steam_id":76561198041349210,"connected_time":385000000000,"state":"active","ping":74},{"user_id":396,"name":"Mignyanne :3","steam_id":76561198048754056,"connected_time":4975000000000,"state":"active","ping":62},{"user_id":433,"name":"bishiro","steam_id":76561198129564488,"connected_time":2524000000000,"state":"active","ping":59},{"user_id":394,"name":"CashGordon","steam_id":76561197975594096,"connected_time":5047000000000,"state":"active","ping":41},{"user_id":417,"name":"Tom Skirrett","steam_id":76561198014600788,"connected_time":3193000000000,"state":"active","ping":73},{"user_id":442,"name":"R5-D4","steam_id":76561198025196439,"connected_time":1426000000000,"state":"active","ping":66},{"user_id":412,"name":"SoldMyKidneyForCollege","steam_id":76561198096329559,"connected_time":4154000000000,"state":"active","ping":94},{"user_id":443,"name":"lusty","steam_id":76561198138478947,"connected_time":1426000000000,"state":"active","ping":45},{"user_id":445,"name":"rat gets the cheese","steam_id":76561198031234032,"connected_time":1340000000000,"state":"active","ping":105},{"user_id":428,"name":"Jae","steam_id":76561198060026844,"connected_time":3077000000000,"state":"active","ping":113}]},{"server_id":119,"name":"Uncletopia | Seattle | 2 | All Maps","name_short":"sea-2","host":"sea-1.us.uncletopia.com","port":27025,"enabled":true,"region":"us-west","cc":"us","latitude":47.608013,"longitude":-122.33517,"reserved":0,"last_update":"0001-01-01T00:00:00Z","name_a2s":"Uncletopia | Seattle | 2 | All Maps","protocol":17,"map":"pl_swiftwater_final1","folder":"tf","game":"Team Fortress","app_id":440,"player_count":24,"max_players":24,"Bots":0,"server_type":"Dedicated","server_os":"Linux","password":true,"vac":true,"version":"7932396","steam_id":85568392924469998,"keywords":["nocrits","nodmgspread","payload","uncletopia"],"game_id":440,"stv_port":27026,"stv_name":"Uncletopia | Seattle | 2 | All Maps | STV","players":[{"user_id":716,"name":"HideOnTate","steam_id":76561198209880837,"connected_time":8764000000000,"state":"active","ping":45},{"user_id":770,"name":"viciousbeatmaker","steam_id":76561198086876652,"connected_time":5515000000000,"state":"active","ping":76},{"user_id":812,"name":"you think you know me","steam_id":76561198131166135,"connected_time":2492000000000,"state":"active","ping":39},{"user_id":791,"name":"PillCosby","steam_id":76561199396184696,"connected_time":4118000000000,"state":"active","ping":47},{"user_id":804,"name":"Barton","steam_id":76561198203088523,"connected_time":3304000000000,"state":"active","ping":65},{"user_id":837,"name":"too funky ᗜˬᗜ","steam_id":76561199120399776,"connected_time":214000000000,"state":"active","ping":69},{"user_id":827,"name":"Arizona Killer","steam_id":76561198110345484,"connected_time":1092000000000,"state":"active","ping":64},{"user_id":744,"name":"ejschild745","steam_id":76561199013388867,"connected_time":7502000000000,"state":"active","ping":71},{"user_id":814,"name":"Norriss","steam_id":76561198920296293,"connected_time":2042000000000,"state":"active","ping":44},{"user_id":687,"name":"a cat plushie","steam_id":76561198080046542,"connected_time":11035000000000,"state":"active","ping":47},{"user_id":835,"name":"Mr8bittripper","steam_id":76561198133894229,"connected_time":353000000000,"state":"active","ping":45},{"user_id":828,"name":"el muchacho","steam_id":76561198282632562,"connected_time":829000000000,"state":"active","ping":117},{"user_id":815,"name":"SmallErection","steam_id":76561198071770147,"connected_time":1975000000000,"state":"active","ping":62},{"user_id":831,"name":"Veil","steam_id":76561198041286321,"connected_time":740000000000,"state":"active","ping":45},{"user_id":788,"name":"Santicules","steam_id":76561198209373536,"connected_time":4180000000000,"state":"active","ping":105},{"user_id":625,"name":"a single goal","steam_id":76561198042913843,"connected_time":15006000000000,"state":"active","ping":59},{"user_id":810,"name":"amarok","steam_id":76561198954000327,"connected_time":2664000000000,"state":"active","ping":64},{"user_id":833,"name":"Hawksgamer","steam_id":76561198152405941,"connected_time":441000000000,"state":"active","ping":62},{"user_id":832,"name":"Shazzy","steam_id":76561198145460523,"connected_time":639000000000,"state":"active","ping":45},{"user_id":836,"name":"Florist","steam_id":76561198009121060,"connected_time":270000000000,"state":"active","ping":47},{"user_id":825,"name":"i.love.ants.321","steam_id":76561198169755734,"connected_time":1336000000000,"state":"active","ping":74},{"user_id":817,"name":"Seriously Bruh","steam_id":76561198070408485,"connected_time":1933000000000,"state":"active","ping":61},{"user_id":709,"name":"beam man","steam_id":76561198060567341,"connected_time":9852000000000,"state":"active","ping":110},{"user_id":803,"name":"jorts","steam_id":76561199041179985,"connected_time":3391000000000,"state":"active","ping":58}]},{"server_id":406,"name":"Uncletopia | Seattle | 3 | Stopwatch Beta","name_short":"sea-3","host":"sea-1.us.uncletopia.com","port":27035,"enabled":true,"region":"us-west","cc":"us","latitude":47.608013,"longitude":-122.33517,"reserved":0,"last_update":"0001-01-01T00:00:00Z","name_a2s":"Uncletopia | Seattle | 3 | Stopwatch Beta","protocol":17,"map":"workshop/koth_bagel_rc6.ugc2514036946","folder":"tf","game":"Team Fortress","app_id":440,"player_count":1,"max_players":24,"Bots":0,"server_type":"Dedicated","server_os":"Linux","password":true,"vac":true,"version":"7932396","steam_id":85568392924515217,"keywords":["cp","nocrits","nodmgspread","uncletopia"],"game_id":440,"stv_port":27036,"stv_name":"Uncletopia | Seattle | 3 | Stopwatch Beta | STV","players":[{"user_id":13,"name":"miscellaneous","steam_id":76561199436642954,"connected_time":55000000000,"state":"active","ping":63}]},{"server_id":17,"name":"Uncletopia | San Francisco | 1 | All Maps","name_short":"sfo-1","host":"sfo-1.us.uncletopia.com","port":27015,"enabled":true,"region":"us-west","cc":"us","latitude":37.77397,"longitude":-122.4313,"reserved":0,"last_update":"0001-01-01T00:00:00Z","name_a2s":"Uncletopia | San Francisco | 1 | All Maps","protocol":17,"map":"pl_badwater","folder":"tf","game":"Team Fortress","app_id":440,"player_count":24,"max_players":24,"Bots":0,"server_type":"Dedicated","server_os":"Linux","password":true,"vac":true,"version":"7932396","steam_id":85568392924469999,"keywords":["nocrits","nodmgspread","payload","uncletopia"],"game_id":440,"stv_port":27016,"stv_name":"Uncletopia | San Francisco | 1 | All Maps | STV","players":[{"user_id":223,"name":"I'm a easy kill","steam_id":76561199092023746,"connected_time":2523000000000,"state":"active","ping":63},{"user_id":215,"name":"Miro","steam_id":76561198936412406,"connected_time":3624000000000,"state":"active","ping":129},{"user_id":234,"name":"BL00DFUCKER1","steam_id":76561198085036623,"connected_time":1743000000000,"state":"active","ping":125},{"user_id":243,"name":"gameboy advance sp","steam_id":76561198166589402,"connected_time":776000000000,"state":"active","ping":45},{"user_id":202,"name":"Funbearable ʕ •ᴥ•ʔ","steam_id":76561197968272094,"connected_time":4260000000000,"state":"active","ping":60},{"user_id":235,"name":"The Horselords and Animal Gods","steam_id":76561197975094050,"connected_time":1704000000000,"state":"active","ping":57},{"user_id":244,"name":"croissantcrusader","steam_id":76561198813533235,"connected_time":640000000000,"state":"active","ping":98},{"user_id":236,"name":"stboncho","steam_id":76561198172275301,"connected_time":1690000000000,"state":"active","ping":59},{"user_id":250,"name":"Amowlm","steam_id":76561198149821826,"connected_time":308000000000,"state":"active","ping":82},{"user_id":242,"name":"ForAPessimistImPrettyOptimistic","steam_id":76561198170128009,"connected_time":831000000000,"state":"active","ping":55},{"user_id":217,"name":"joe biden","steam_id":76561198861436861,"connected_time":3459000000000,"state":"active","ping":43},{"user_id":211,"name":"corrupted spy","steam_id":76561198018689620,"connected_time":4013000000000,"state":"active","ping":70},{"user_id":241,"name":"Emperor Mollusk","steam_id":76561197972382839,"connected_time":1249000000000,"state":"active","ping":76},{"user_id":249,"name":"Flex Pexico","steam_id":76561198041838930,"connected_time":377000000000,"state":"active","ping":55},{"user_id":239,"name":"mndbrkn","steam_id":76561198054390505,"connected_time":1424000000000,"state":"active","ping":99},{"user_id":238,"name":"Just a Good Friend","steam_id":76561198140052403,"connected_time":1440000000000,"state":"active","ping":42},{"user_id":246,"name":"Mr Happy","steam_id":76561198067689328,"connected_time":525000000000,"state":"active","ping":95},{"user_id":216,"name":"malon milk","steam_id":76561198042558913,"connected_time":3585000000000,"state":"active","ping":126},{"user_id":240,"name":"Jpzarde","steam_id":76561197978240364,"connected_time":1319000000000,"state":"active","ping":91},{"user_id":218,"name":"kermitcreeper(ZAZA)","steam_id":76561199222829972,"connected_time":3323000000000,"state":"active","ping":106},{"user_id":191,"name":"BongBlaster69","steam_id":76561198316811893,"connected_time":5423000000000,"state":"active","ping":58},{"user_id":248,"name":"Manila Folders","steam_id":76561198212083128,"connected_time":500000000000,"state":"active","ping":102},{"user_id":251,"name":"big car","steam_id":76561198067082350,"connected_time":192000000000,"state":"active","ping":47},{"user_id":220,"name":"Zen56","steam_id":76561198074554894,"connected_time":3245000000000,"state":"active","ping":94}]},{"server_id":18,"name":"Uncletopia | San Francisco | 2 | All Maps","name_short":"sfo-2","host":"sfo-1.us.uncletopia.com","port":27025,"enabled":true,"region":"us-west","cc":"us","latitude":37.77397,"longitude":-122.4313,"reserved":0,"last_update":"0001-01-01T00:00:00Z","name_a2s":"Uncletopia | San Francisco | 2 | All Maps","protocol":17,"map":"pl_barnblitz","folder":"tf","game":"Team Fortress","app_id":440,"player_count":24,"max_players":24,"Bots":0,"server_type":"Dedicated","server_os":"Linux","password":true,"vac":true,"version":"7932396","steam_id":85568392924470000,"keywords":["nocrits","nodmgspread","payload","uncletopia"],"game_id":440,"stv_port":27026,"stv_name":"Uncletopia | San Francisco | 2 | All Maps | STV","players":[{"user_id":257,"name":"Tuna!","steam_id":76561198354590331,"connected_time":2050000000000,"state":"active","ping":71},{"user_id":271,"name":"trackpad gaming | f2p","steam_id":76561198840414371,"connected_time":775000000000,"state":"active","ping":61},{"user_id":272,"name":"The premium licking experience","steam_id":76561199213456232,"connected_time":774000000000,"state":"active","ping":56},{"user_id":280,"name":"snowflake","steam_id":76561198082315370,"connected_time":451000000000,"state":"active","ping":71},{"user_id":258,"name":"Why?","steam_id":76561198798253745,"connected_time":1863000000000,"state":"active","ping":75},{"user_id":273,"name":"Master Cannoli","steam_id":76561198272327518,"connected_time":766000000000,"state":"active","ping":58},{"user_id":279,"name":"DerpyDewott","steam_id":76561198132860765,"connected_time":638000000000,"state":"active","ping":78},{"user_id":248,"name":"BreadGod","steam_id":76561198050665205,"connected_time":2274000000000,"state":"active","ping":108},{"user_id":249,"name":"rad killl raccoon","steam_id":76561198980975595,"connected_time":2268000000000,"state":"active","ping":80},{"user_id":275,"name":"Crass","steam_id":76561198111535108,"connected_time":742000000000,"state":"active","ping":97},{"user_id":251,"name":"supcupman","steam_id":76561198051513866,"connected_time":2258000000000,"state":"active","ping":64},{"user_id":232,"name":"lili","steam_id":76561199391478575,"connected_time":3094000000000,"state":"active","ping":85},{"user_id":259,"name":"SvicidalBug","steam_id":76561198221390504,"connected_time":1728000000000,"state":"active","ping":87},{"user_id":266,"name":"Mico (Mico)","steam_id":76561198125462953,"connected_time":1352000000000,"state":"active","ping":60},{"user_id":267,"name":"Hannah","steam_id":76561199142959128,"connected_time":1114000000000,"state":"active","ping":72},{"user_id":219,"name":"G. Howard Dee","steam_id":76561198058382812,"connected_time":4130000000000,"state":"active","ping":60},{"user_id":268,"name":"Axelonemillion15","steam_id":76561198421342282,"connected_time":1043000000000,"state":"active","ping":73},{"user_id":282,"name":"{AVG} Xx_Half-Life2fan420_xX","steam_id":76561199231634222,"connected_time":354000000000,"state":"active","ping":99},{"user_id":264,"name":"mac_cheese","steam_id":76561198071334162,"connected_time":1469000000000,"state":"active","ping":75},{"user_id":277,"name":"Lucky","steam_id":76561199108883530,"connected_time":724000000000,"state":"active","ping":141},{"user_id":281,"name":"bigbuffmen Gaming","steam_id":76561198334977151,"connected_time":430000000000,"state":"active","ping":52},{"user_id":278,"name":"PaidProgramming","steam_id":76561198329193255,"connected_time":720000000000,"state":"active","ping":106},{"user_id":283,"name":"Chairdog","steam_id":76561197980385816,"connected_time":353000000000,"state":"active","ping":68},{"user_id":284,"name":"[ G R * T T Y ]","steam_id":76561198048986218,"connected_time":44000000000,"state":"spawning","ping":58}]},{"server_id":19,"name":"Uncletopia | San Francisco | 3 | Stopwatch Beta","name_short":"sfo-3","host":"sfo-1.us.uncletopia.com","port":27035,"enabled":true,"region":"us-west","cc":"us","latitude":37.77397,"longitude":-122.4313,"reserved":0,"last_update":"0001-01-01T00:00:00Z","name_a2s":"Uncletopia | San Francisco | 3 | Stopwatch Beta","protocol":17,"map":"workshop/koth_product_final.ugc454272353","folder":"tf","game":"Team Fortress","app_id":440,"player_count":15,"max_players":24,"Bots":0,"server_type":"Dedicated","server_os":"Linux","password":true,"vac":true,"version":"7932396","steam_id":85568392924742824,"keywords":["cp","nocrits","nodmgspread","uncletopia"],"game_id":440,"stv_port":27036,"stv_name":"Uncletopia | San Francisco | 3 | Stopwatch Beta | STV","players":[{"user_id":10,"name":"Demoslow","steam_id":76561198805592656,"connected_time":1744000000000,"state":"active","ping":62},{"user_id":11,"name":"epicgameslauncherplaer878","steam_id":76561198360279519,"connected_time":1741000000000,"state":"active","ping":102},{"user_id":12,"name":"Sgt. Satire","steam_id":76561198104193483,"connected_time":1729000000000,"state":"active","ping":66},{"user_id":13,"name":"amanthatplaysgames","steam_id":76561199396905804,"connected_time":1250000000000,"state":"active","ping":226},{"user_id":17,"name":"asm_ghost","steam_id":76561199205363547,"connected_time":867000000000,"state":"active","ping":69},{"user_id":15,"name":"C Sharp Minor","steam_id":76561199185191710,"connected_time":1101000000000,"state":"active","ping":113},{"user_id":16,"name":"choppa beat his meat","steam_id":76561198087422193,"connected_time":1037000000000,"state":"active","ping":46},{"user_id":18,"name":"Benis Gonzalez","steam_id":76561198799391259,"connected_time":797000000000,"state":"active","ping":72},{"user_id":19,"name":"zanefoxgames","steam_id":76561198801872568,"connected_time":566000000000,"state":"active","ping":75},{"user_id":23,"name":"adrymarker","steam_id":76561198316948699,"connected_time":167000000000,"state":"active","ping":105},{"user_id":21,"name":"NewGuy","steam_id":76561198968058652,"connected_time":411000000000,"state":"active","ping":62},{"user_id":24,"name":"SlothWrangler","steam_id":76561198131322716,"connected_time":85000000000,"state":"active","ping":60},{"user_id":25,"name":"baldo","steam_id":76561198178431338,"connected_time":67000000000,"state":"active","ping":60},{"user_id":26,"name":"Dr. Satan™","steam_id":76561198179003795,"connected_time":42000000000,"state":"spawning","ping":224},{"user_id":27,"name":"Lythrum","steam_id":76561198816169273,"connected_time":7000000000,"state":"spawning","ping":91}]},{"server_id":20,"name":"Uncletopia | San Francisco | 4 | Community","name_short":"sfo-4","host":"sfo-1.us.uncletopia.com","port":27045,"enabled":true,"region":"us-west","cc":"us","latitude":37.77397,"longitude":-122.4313,"reserved":0,"last_update":"0001-01-01T00:00:00Z","name_a2s":"Uncletopia | San Francisco | 4 | Community","protocol":17,"map":"workshop/koth_kemptown_rc1.ugc767410655","folder":"tf","game":"Team Fortress","app_id":440,"player_count":0,"max_players":24,"Bots":0,"server_type":"Dedicated","server_os":"Linux","password":true,"vac":true,"version":"7932396","steam_id":85568392924742826,"keywords":["cp","nocrits","nodmgspread","uncletopia"],"game_id":440,"stv_port":27046,"stv_name":"Uncletopia | San Francisco | 4 | Community | STV","players":null},{"server_id":141,"name":"Uncletopia | Sydney | 1 | All Maps","name_short":"syd-1","host":"syd-1.au.uncletopia.com","port":27015,"enabled":true,"region":"au","cc":"au","latitude":-33.865143,"longitude":151.2099,"reserved":0,"last_update":"0001-01-01T00:00:00Z","name_a2s":"Uncletopia | Sydney | 1 | All Maps","protocol":17,"map":"koth_highpass","folder":"tf","game":"Team Fortress","app_id":440,"player_count":0,"max_players":24,"Bots":0,"server_type":"Dedicated","server_os":"Linux","password":true,"vac":true,"version":"7932396","steam_id":85568392924470001,"keywords":["cp","nocrits","nodmgspread","uncletopia"],"game_id":440,"stv_port":27016,"stv_name":"Uncletopia | Sydney | 1 | All Maps | STV","players":null},{"server_id":123,"name":"Uncletopia | Sydney | 2 | All Maps","name_short":"syd-2","host":"syd-1.au.uncletopia.com","port":27025,"enabled":true,"region":"au","cc":"au","latitude":-33.865143,"longitude":151.2099,"reserved":0,"last_update":"0001-01-01T00:00:00Z","name_a2s":"Uncletopia | Sydney | 2 | All Maps","protocol":17,"map":"pl_goldrush","folder":"tf","game":"Team Fortress","app_id":440,"player_count":25,"max_players":24,"Bots":0,"server_type":"Dedicated","server_os":"Linux","password":true,"vac":true,"version":"7932396","steam_id":85568392924470002,"keywords":["nocrits","nodmgspread","payload","uncletopia"],"game_id":440,"stv_port":27026,"stv_name":"Uncletopia | Sydney | 2 | All Maps | STV","players":[{"user_id":305,"name":"Bobby Wilkinson","steam_id":76561198054985347,"connected_time":2000000000000,"state":"active","ping":58},{"user_id":325,"name":"no teles 4 u","steam_id":76561198018478297,"connected_time":1141000000000,"state":"active","ping":73},{"user_id":333,"name":"thrax","steam_id":76561197992385270,"connected_time":252000000000,"state":"active","ping":53},{"user_id":331,"name":"Jodelkönig Franzl Lang","steam_id":76561198007667830,"connected_time":618000000000,"state":"active","ping":45},{"user_id":307,"name":"superbob event manager","steam_id":76561198272422193,"connected_time":1907000000000,"state":"active","ping":54},{"user_id":244,"name":"Zieria","steam_id":76561199261811388,"connected_time":6756000000000,"state":"active","ping":42},{"user_id":335,"name":"s0lar","steam_id":76561198200896745,"connected_time":166000000000,"state":"active","ping":44},{"user_id":277,"name":"Vaconcovat","steam_id":76561198024284041,"connected_time":4537000000000,"state":"active","ping":66},{"user_id":315,"name":"b4sedhk","steam_id":76561198831069486,"connected_time":1530000000000,"state":"active","ping":53},{"user_id":299,"name":"Jacob","steam_id":76561198059341907,"connected_time":2533000000000,"state":"active","ping":41},{"user_id":330,"name":"uven","steam_id":76561198080981482,"connected_time":684000000000,"state":"active","ping":39},{"user_id":312,"name":"KUTJARA","steam_id":76561199033538158,"connected_time":1712000000000,"state":"active","ping":126},{"user_id":316,"name":"Maori4Life","steam_id":76561199133892278,"connected_time":1492000000000,"state":"active","ping":71},{"user_id":311,"name":"Muffin","steam_id":76561198075391119,"connected_time":1756000000000,"state":"active","ping":49},{"user_id":302,"name":"Hawk","steam_id":76561198135164277,"connected_time":2281000000000,"state":"active","ping":58},{"user_id":313,"name":"SoaringBobcat","steam_id":76561198304644739,"connected_time":1700000000000,"state":"active","ping":103},{"user_id":317,"name":"4-Star Yelp Review","steam_id":76561197995258180,"connected_time":1491000000000,"state":"active","ping":53},{"user_id":334,"name":"timboe","steam_id":76561198003442007,"connected_time":177000000000,"state":"active","ping":50},{"user_id":324,"name":"Anemone","steam_id":76561198958131057,"connected_time":1261000000000,"state":"active","ping":60},{"user_id":320,"name":"HellBoy","steam_id":76561198069295430,"connected_time":1375000000000,"state":"active","ping":73},{"user_id":321,"name":"8man","steam_id":76561198079873281,"connected_time":1351000000000,"state":"active","ping":52},{"user_id":326,"name":"El Sleazo","steam_id":76561198274467385,"connected_time":1070000000000,"state":"active","ping":98},{"user_id":336,"name":"Mbappe Oppa","steam_id":76561198344513761,"connected_time":32000000000,"state":"active","ping":41},{"user_id":328,"name":"PreemtTheThird","steam_id":76561199216819073,"connected_time":965000000000,"state":"active","ping":55},{"user_id":337,"name":"[TÐK] KeRpaL","steam_id":76561197974427061,"connected_time":8000000000,"state":"spawning","ping":58}]},{"server_id":395,"name":"Uncletopia | Sydney | 3 | All Maps","name_short":"syd-3","host":"syd-1.au.uncletopia.com","port":27035,"enabled":true,"region":"au","cc":"au","latitude":-33.865143,"longitude":151.2099,"reserved":0,"last_update":"0001-01-01T00:00:00Z","name_a2s":"Uncletopia | Sydney | 3 | All Maps","protocol":17,"map":"cp_snakewater_final1","folder":"tf","game":"Team Fortress","app_id":440,"player_count":0,"max_players":24,"Bots":0,"server_type":"Dedicated","server_os":"Linux","password":true,"vac":true,"version":"7932396","steam_id":85568392925194467,"keywords":["cp","nocrits","nodmgspread","uncletopia"],"game_id":440,"stv_port":27036,"stv_name":"Uncletopia | Sydney | 3 | All Maps | STV","players":null},{"server_id":396,"name":"Uncletopia | Sydney | 4 | All Maps","name_short":"syd-4","host":"syd-1.au.uncletopia.com","port":27045,"enabled":true,"region":"au","cc":"au","latitude":-33.865143,"longitude":151.2099,"reserved":0,"last_update":"0001-01-01T00:00:00Z","name_a2s":"Uncletopia | Sydney | 4 | All Maps","protocol":17,"map":"cp_sunshine","folder":"tf","game":"Team Fortress","app_id":440,"player_count":0,"max_players":24,"Bots":0,"server_type":"Dedicated","server_os":"Linux","password":true,"vac":true,"version":"7932396","steam_id":85568392925397958,"keywords":["cp","nocrits","nodmgspread","uncletopia"],"game_id":440,"stv_port":27046,"stv_name":"Uncletopia | Sydney | 4 | All Maps | STV","players":null},{"server_id":58,"name":"Uncletopia | Sydney | 5 | Stopwatch Beta","name_short":"syd-5","host":"syd-1.au.uncletopia.com","port":27055,"enabled":true,"region":"au","cc":"au","latitude":-33.865143,"longitude":151.2099,"reserved":0,"last_update":"0001-01-01T00:00:00Z","name_a2s":"Uncletopia | Sydney | 5 | Stopwatch Beta","protocol":17,"map":"pl_borneo","folder":"tf","game":"Team Fortress","app_id":440,"player_count":0,"max_players":24,"Bots":0,"server_type":"Dedicated","server_os":"Linux","password":true,"vac":true,"version":"7932396","steam_id":85568392925397959,"keywords":["nocrits","nodmgspread","payload","uncletopia"],"game_id":440,"stv_port":27056,"stv_name":"Uncletopia | Sydney | 5 | Stopwatch Beta | STV","players":null},{"server_id":59,"name":"Uncletopia | Sydney | 6 | Community","name_short":"syd-6","host":"syd-1.au.uncletopia.com","port":27065,"enabled":true,"region":"au","cc":"au","latitude":-33.865143,"longitude":151.2099,"reserved":0,"last_update":"0001-01-01T00:00:00Z","name_a2s":"Uncletopia | Sydney | 6 | Community","protocol":17,"map":"workshop/cp_snowbase_b18.ugc2081770490","folder":"tf","game":"Team Fortress","app_id":440,"player_count":0,"max_players":24,"Bots":0,"server_type":"Dedicated","server_os":"Linux","password":true,"vac":true,"version":"7932396","steam_id":85568392925397960,"keywords":["cp","nocrits","nodmgspread","uncletopia"],"game_id":440,"stv_port":27066,"stv_name":"Uncletopia | Sydney | 6 | Community | STV","players":null},{"server_id":49,"name":"Uncletopia | Warsaw | 1 | All Maps","name_short":"waw-1","host":"waw-1.pl.uncletopia.com","port":27015,"enabled":true,"region":"eu","cc":"pl","latitude":52.2297,"longitude":21.017532,"reserved":0,"last_update":"0001-01-01T00:00:00Z","name_a2s":"","protocol":0,"map":"","folder":"","game":"","app_id":0,"player_count":0,"max_players":0,"Bots":0,"server_type":"","server_os":"","password":false,"vac":false,"version":"","steam_id":0,"keywords":null,"game_id":0,"stv_port":0,"stv_name":"","players":null},{"server_id":50,"name":"Uncletopia | Warsaw | 2 | All Maps","name_short":"waw-2","host":"waw-1.pl.uncletopia.com","port":27025,"enabled":true,"region":"eu","cc":"pl","latitude":52.2297,"longitude":21.017532,"reserved":0,"last_update":"0001-01-01T00:00:00Z","name_a2s":"Uncletopia | Warsaw | 2 | All Maps","protocol":17,"map":"koth_highpass","folder":"tf","game":"Team Fortress","app_id":440,"player_count":0,"max_players":24,"Bots":0,"server_type":"Dedicated","server_os":"Linux","password":true,"vac":true,"version":"7932396","steam_id":85568392925397851,"keywords":["cp","nocrits","nodmgspread","uncletopia"],"game_id":440,"stv_port":27026,"stv_name":"Uncletopia | Warsaw | 2 | All Maps | STV","players":null},{"server_id":51,"name":"Uncletopia | Warsaw | 3 | All Maps","name_short":"waw-3","host":"waw-1.pl.uncletopia.com","port":27035,"enabled":true,"region":"eu","cc":"pl","latitude":52.2297,"longitude":21.017532,"reserved":0,"last_update":"0001-01-01T00:00:00Z","name_a2s":"Uncletopia | Warsaw | 3 | All Maps","protocol":17,"map":"pl_pier","folder":"tf","game":"Team Fortress","app_id":440,"player_count":0,"max_players":24,"Bots":0,"server_type":"Dedicated","server_os":"Linux","password":true,"vac":true,"version":"7932396","steam_id":85568392925397852,"keywords":["nocrits","nodmgspread","payload","uncletopia"],"game_id":440,"stv_port":27036,"stv_name":"Uncletopia | Warsaw | 3 | All Maps | STV","players":null},{"server_id":52,"name":"Uncletopia | Warsaw | 4 | All Maps","name_short":"waw-4","host":"waw-1.pl.uncletopia.com","port":27045,"enabled":true,"region":"eu","cc":"pl","latitude":52.2297,"longitude":21.017532,"reserved":0,"last_update":"0001-01-01T00:00:00Z","name_a2s":"Uncletopia | Warsaw | 4 | All Maps","protocol":17,"map":"pl_frontier_final","folder":"tf","game":"Team Fortress","app_id":440,"player_count":0,"max_players":24,"Bots":0,"server_type":"Dedicated","server_os":"Linux","password":true,"vac":true,"version":"7932396","steam_id":85568392925397853,"keywords":["nocrits","nodmgspread","payload","uncletopia"],"game_id":440,"stv_port":27046,"stv_name":"Uncletopia | Warsaw | 4 | All Maps | STV","players":null},{"server_id":53,"name":"Uncletopia | Warsaw | 5 | Stopwatch Beta","name_short":"waw-5","host":"waw-1.pl.uncletopia.com","port":27055,"enabled":true,"region":"eu","cc":"pl","latitude":52.2297,"longitude":21.017532,"reserved":0,"last_update":"0001-01-01T00:00:00Z","name_a2s":"Uncletopia | Warsaw | 5 | Stopwatch Beta","protocol":17,"map":"pl_upward","folder":"tf","game":"Team Fortress","app_id":440,"player_count":0,"max_players":24,"Bots":0,"server_type":"Dedicated","server_os":"Linux","password":true,"vac":true,"version":"7932396","steam_id":85568392925397854,"keywords":["nocrits","nodmgspread","payload","uncletopia"],"game_id":440,"stv_port":27056,"stv_name":"Uncletopia | Warsaw | 5 | Stopwatch Beta | STV","players":null},{"server_id":54,"name":"Uncletopia | Warsaw | 6 | Community","name_short":"waw-6","host":"waw-1.pl.uncletopia.com","port":27065,"enabled":true,"region":"eu","cc":"pl","latitude":52.2297,"longitude":21.017532,"reserved":0,"last_update":"0001-01-01T00:00:00Z","name_a2s":"Uncletopia | Warsaw | 6 | Community","protocol":17,"map":"workshop/cp_bruhstbowl_b6.ugc2878604990","folder":"tf","game":"Team Fortress","app_id":440,"player_count":0,"max_players":24,"Bots":0,"server_type":"Dedicated","server_os":"Linux","password":true,"vac":true,"version":"7932396","steam_id":85568392925397856,"keywords":["cp","nocrits","nodmgspread","uncletopia"],"game_id":440,"stv_port":27066,"stv_name":"Uncletopia | Warsaw | 6 | Community | STV","players":null}]}