{"status":true,"message":"","result":[{"server_id":9,"name":"Uncletopia | Atlanta | 1 | All Maps","name_short":"atl-1","host":"atl-1.us.uncletopia.com","port":27015,"enabled":true,"region":"us-east","cc":"us","latitude":33.753746,"longitude":-84.38633,"reserved":0,"last_update":"0001-01-01T00:00:00Z","name_a2s":"Uncletopia | Atlanta | 1 | All Maps","protocol":17,"map":"pl_borneo","folder":"tf","game":"Team Fortress","app_id":440,"player_count":24,"max_players":24,"Bots":0,"server_type":"Dedicated","server_os":"Linux","password":true,"vac":true,"version":"7723704","steam_id":85568392924469982,"keywords":["nocrits","nodmgspread","payload","uncletopia"],"game_id":440,"stv_port":27016,"stv_name":"Uncletopia | Atlanta | 1 | All Maps | STV","players":[{"user_id":316,"name":"Vibey","steam_id":76561198342873474,"connected_time":1665000000000,"state":"active","ping":71},{"user_id":332,"name":"ChillKenny","steam_id":76561198098584500,"connected_time":663000000000,"state":"active","ping":69},{"user_id":314,"name":"datphatpenguin","steam_id":76561198880376219,"connected_time":1687000000000,"state":"active","ping":70},{"user_id":292,"name":"ash","steam_id":76561198127890645,"connected_time":3170000000000,"state":"active","ping":60},{"user_id":322,"name":"bogginwater","steam_id":76561198155547142,"connected_time":1120000000000,"state":"active","ping":53},{"user_id":290,"name":"Quiggles lft","steam_id":76561199177247655,"connected_time":3280000000000,"state":"active","ping":52},{"user_id":339,"name":"scrambledeggs3","steam_id":76561198066112579,"connected_time":292000000000,"state":"active","ping":82},{"user_id":265,"name":"Tribute","steam_id":76561198081594043,"connected_time":5418000000000,"state":"active","ping":72},{"user_id":340,"name":"Avaritian","steam_id":76561198113808897,"connected_time":222000000000,"state":"active","ping":61},{"user_id":327,"name":"TrocheDrewno","steam_id":76561198043662503,"connected_time":1066000000000,"state":"active","ping":176},{"user_id":334,"name":"Cherry Coke","steam_id":76561198178233006,"connected_time":559000000000,"state":"active","ping":88},{"user_id":330,"name":"Mikey","steam_id":76561199125982967,"connected_time":1031000000000,"state":"active","ping":77},{"user_id":311,"name":"sansa musa","steam_id":76561198163723555,"connected_time":1800000000000,"state":"active","ping":68},{"user_id":335,"name":"rkp!","steam_id":76561199053070819,"connected_time":558000000000,"state":"active","ping":67},{"user_id":328,"name":"CD Cyber Dragon","steam_id":76561198275727749,"connected_time":1057000000000,"state":"active","ping":74},{"user_id":275,"name":"courtham","steam_id":76561198092023855,"connected_time":4425000000000,"state":"active","ping":82},{"user_id":297,"name":"Seru","steam_id":76561199219827214,"connected_time":2985000000000,"state":"active","ping":73},{"user_id":282,"name":"Stampdawg","steam_id":76561198050500060,"connected_time":4040000000000,"state":"active","ping":90},{"user_id":317,"name":"PI (3.14)","steam_id":76561198129463258,"connected_time":1500000000000,"state":"active","ping":79},{"user_id":308,"name":"luxin","steam_id":76561198399383047,"connected_time":2279000000000,"state":"active","ping":46},{"user_id":338,"name":"ATL1 | Psionic Present","steam_id":76561198151019322,"connected_time":407000000000,"state":"active","ping":72},{"user_id":333,"name":"ATL1 | eish","steam_id":76561198089463603,"connected_time":582000000000,"state":"active","ping":121},{"user_id":329,"name":"CyberZayne","steam_id":76561198002351356,"connected_time":1055000000000,"state":"active","ping":94},{"user_id":331,"name":"ATL1 | J O V A","steam_id":76561198090333536,"connected_time":892000000000,"state":"active","ping":68}]},{"server_id":400,"name":"Uncletopia | Atlanta | 3 | Stopwatch Beta","name_short":"atl-3","host":"atl-1.us.uncletopia.com","port":27035,"enabled":true,"region":"us-east","cc":"us","latitude":33.753746,"longitude":-84.38633,"reserved":0,"last_update":"0001-01-01T00:00:00Z","name_a2s":"Uncletopia | Atlanta | 3 | Stopwatch Beta","protocol":17,"map":"koth_cascade","folder":"tf","game":"Team Fortress","app_id":440,"player_count":0,"max_players":24,"Bots":0,"server_type":"Dedicated","server_os":"Linux","password":true,"vac":true,"version":"7723704","steam_id":85568392924515187,"keywords":["cp","nocrits","nodmgspread","uncletopia"],"game_id":440,"stv_port":27036,"stv_name":"Uncletopia | Atlanta | 3 | Stopwatch Beta | STV","players":null},{"server_id":401,"name":"Uncletopia | Atlanta | 4 | No Payload","name_short":"atl-4","host":"atl-1.us.uncletopia.com","port":27045,"enabled":true,"region":"us-east","cc":"us","latitude":33.753746,"longitude":-84.38633,"reserved":0,"last_update":"0001-01-01T00:00:00Z","name_a2s":"Uncletopia | Atlanta | 4 | No Payload","protocol":17,"map":"pl_pier","folder":"tf","game":"Team Fortress","app_id":440,"player_count":0,"max_players":24,"Bots":0,"server_type":"Dedicated","server_os":"Linux","password":true,"vac":true,"version":"7723704","steam_id":85568392924515188,"keywords":["nocrits","nodmgspread","payload","uncletopia"],"game_id":440,"stv_port":27046,"stv_name":"Uncletopia | Atlanta | 4 | No Payload | STV","players":null},{"server_id":2,"name":"Uncletopia | Chicago | 1 | All Maps","name_short":"chi-1","host":"chi-1.us.uncletopia.com","port":27015,"enabled":true,"region":"us-central","cc":"us","latitude":41.881832,"longitude":-87.62318,"reserved":0,"last_update":"0001-01-01T00:00:00Z","name_a2s":"Uncletopia | Chicago | 1 | All Maps","protocol":17,"map":"koth_viaduct","folder":"tf","game":"Team Fortress","app_id":440,"player_count":24,"max_players":24,"Bots":0,"server_type":"Dedicated","server_os":"Linux","password":true,"vac":true,"version":"7723704","steam_id":85568392924469984,"keywords":["cp","nocrits","nodmgspread","uncletopia"],"game_id":440,"stv_port":27016,"stv_name":"Uncletopia | Chicago | 1 | All Maps | STV","players":[{"user_id":402,"name":"Ignalis","steam_id":76561198025662927,"connected_time":3046000000000,"state":"active","ping":64},{"user_id":327,"name":"Lyra","steam_id":76561198043601838,"connected_time":7222000000000,"state":"active","ping":149},{"user_id":359,"name":"mel0n","steam_id":76561198034817244,"connected_time":4873000000000,"state":"active","ping":64},{"user_id":425,"name":"Astoriæ!","steam_id":76561199090168858,"connected_time":1470000000000,"state":"active","ping":58},{"user_id":355,"name":"Goofball","steam_id":76561198074189084,"connected_time":5132000000000,"state":"active","ping":57},{"user_id":440,"name":"chirp","steam_id":76561198109916563,"connected_time":521000000000,"state":"active","ping":80},{"user_id":360,"name":"[slug]","steam_id":76561197989592178,"connected_time":4808000000000,"state":"active","ping":67},{"user_id":437,"name":"Kritzburgh","steam_id":76561198149466938,"connected_time":819000000000,"state":"active","ping":64},{"user_id":413,"name":"Hylic","steam_id":76561199051314589,"connected_time":2509000000000,"state":"active","ping":64},{"user_id":423,"name":"kablong","steam_id":76561199094392047,"connected_time":1478000000000,"state":"active","ping":80},{"user_id":388,"name":"Friend","steam_id":76561198156746320,"connected_time":3402000000000,"state":"active","ping":46},{"user_id":415,"name":"Summer","steam_id":76561198121692871,"connected_time":2324000000000,"state":"active","ping":55},{"user_id":420,"name":"Fudge_Cake","steam_id":76561198059218167,"connected_time":1622000000000,"state":"active","ping":66},{"user_id":427,"name":"ROGUE-PLANET","steam_id":76561198116023052,"connected_time":1445000000000,"state":"active","ping":64},{"user_id":439,"name":"custodian","steam_id":76561198058793778,"connected_time":589000000000,"state":"active","ping":71},{"user_id":436,"name":"Whorenet","steam_id":76561198090433209,"connected_time":960000000000,"state":"active","ping":90},{"user_id":441,"name":"Armoreddude","steam_id":76561198058739073,"connected_time":180000000000,"state":"active","ping":49},{"user_id":430,"name":"Dispenser","steam_id":76561199260739414,"connected_time":1431000000000,"state":"active","ping":71},{"user_id":431,"name":"puppy","steam_id":76561197964635660,"connected_time":1427000000000,"state":"active","ping":76},{"user_id":408,"name":"killer of noob!! Winner of game","steam_id":76561198190583242,"connected_time":2936000000000,"state":"active","ping":181},{"user_id":346,"name":"name him golfball","steam_id":76561198068958789,"connected_time":6001000000000,"state":"active","ping":64},{"user_id":432,"name":"a crazy hobo","steam_id":76561198289650060,"connected_time":1422000000000,"state":"active","ping":83},{"user_id":383,"name":"Elena Manetta","steam_id":76561197998344054,"connected_time":3552000000000,"state":"active","ping":58},{"user_id":433,"name":"turnip","steam_id":76561197999375941,"connected_time":1414000000000,"state":"active","ping":76}]},{"server_id":106,"name":"Uncletopia | Chicago | 2 | All Maps","name_short":"chi-2","host":"chi-1.us.uncletopia.com","port":27025,"enabled":true,"region":"us-central","cc":"us","latitude":41.881832,"longitude":-87.62318,"reserved":0,"last_update":"0001-01-01T00:00:00Z","name_a2s":"Uncletopia | Chicago | 2 | All Maps","protocol":17,"map":"pl_borneo","folder":"tf","game":"Team Fortress","app_id":440,"player_count":24,"max_players":24,"Bots":0,"server_type":"Dedicated","server_os":"Linux","password":true,"vac":true,"version":"7723704","steam_id":85568392924469985,"keywords":["nocrits","nodmgspread","payload","uncletopia"],"game_id":440,"stv_port":27026,"stv_name":"Uncletopia | Chicago | 2 | All Maps | STV","players":[{"user_id":136,"name":"Ziath","steam_id":76561198094009164,"connected_time":9426000000000,"state":"active","ping":62},{"user_id":199,"name":"wack","steam_id":76561198095697330,"connected_time":3740000000000,"state":"active","ping":71},{"user_id":247,"name":"Ham Fatty","steam_id":76561198071454198,"connected_time":1803000000000,"state":"active","ping":79},{"user_id":280,"name":"Zee❤","steam_id":76561198274550638,"connected_time":817000000000,"state":"active","ping":60},{"user_id":230,"name":"Errrmmett","steam_id":76561198041314051,"connected_time":2536000000000,"state":"active","ping":59},{"user_id":237,"name":"Raccoon.Of.Waffle.House","steam_id":76561199018770554,"connected_time":2280000000000,"state":"active","ping":90},{"user_id":244,"name":"Salmon","steam_id":76561198098295862,"connected_time":2049000000000,"state":"active","ping":81},{"user_id":227,"name":"Kaluka","steam_id":76561198036861445,"connected_time":2766000000000,"state":"active","ping":69},{"user_id":276,"name":"Fitts1099","steam_id":76561198044986906,"connected_time":1106000000000,"state":"active","ping":48},{"user_id":271,"name":"the12xu","steam_id":76561198197086561,"connected_time":1397000000000,"state":"active","ping":60},{"user_id":284,"name":"RyanDCB [Real]","steam_id":76561198040138739,"connected_time":248000000000,"state":"active","ping":74},{"user_id":243,"name":"Sheembs","steam_id":76561199010524390,"connected_time":2188000000000,"state":"active","ping":73},{"user_id":266,"name":"|-HyperCube-|","steam_id":76561198167133597,"connected_time":1523000000000,"state":"active","ping":57},{"user_id":281,"name":"frank","steam_id":76561198045436159,"connected_time":596000000000,"state":"active","ping":68},{"user_id":235,"name":"Newt","steam_id":76561198842909288,"connected_time":2295000000000,"state":"active","ping":98},{"user_id":285,"name":"Pixeled","steam_id":76561198088917077,"connected_time":118000000000,"state":"active","ping":79},{"user_id":233,"name":"This Is A Thing","steam_id":76561198122002920,"connected_time":2310000000000,"state":"active","ping":69},{"user_id":204,"name":"SuperJagops","steam_id":76561198034689716,"connected_time":3523000000000,"state":"active","ping":61},{"user_id":246,"name":"KooKooKachue","steam_id":76561198391195262,"connected_time":1834000000000,"state":"active","ping":81},{"user_id":173,"name":"ATL1 | on my hunting trip","steam_id":76561198315341646,"connected_time":6760000000000,"state":"active","ping":81},{"user_id":245,"name":"Shemply","steam_id":76561198193658910,"connected_time":1964000000000,"state":"active","ping":77},{"user_id":239,"name":"Omeg123","steam_id":76561198101234232,"connected_time":2265000000000,"state":"active","ping":68},{"user_id":265,"name":"Biscuits","steam_id":76561197996207831,"connected_time":1534000000000,"state":"active","ping":58},{"user_id":195,"name":"necrodude","steam_id":76561198258051895,"connected_time":4449000000000,"state":"active","ping":77}]},{"server_id":402,"name":"Uncletopia | Chicago | 3 | All Maps","name_short":"chi-3","host":"chi-1.us.uncletopia.com","port":27035,"enabled":true,"region":"us-central","cc":"us","latitude":41.881832,"longitude":-87.62318,"reserved":0,"last_update":"0001-01-01T00:00:00Z","name_a2s":"Uncletopia | Chicago | 3 | All Maps","protocol":17,"map":"cp_dustbowl","folder":"tf","game":"Team Fortress","app_id":440,"player_count":0,"max_players":24,"Bots":0,"server_type":"Dedicated","server_os":"Linux","password":true,"vac":true,"version":"7723704","steam_id":85568392924515191,"keywords":["cp","nocrits","nodmgspread","uncletopia"],"game_id":440,"stv_port":27036,"stv_name":"Uncletopia | Chicago | 3 | All Maps | STV","players":null},{"server_id":403,"name":"Uncletopia | Chicago | 4 | All Maps","name_short":"chi-4","host":"chi-1.us.uncletopia.com","port":27045,"enabled":true,"region":"us-central","cc":"us","latitude":41.881832,"longitude":-87.62318,"reserved":0,"last_update":"0001-01-01T00:00:00Z","name_a2s":"Uncletopia | Chicago | 4 | All Maps","protocol":17,"map":"cp_dustbowl","folder":"tf","game":"Team Fortress","app_id":440,"player_count":24,"max_players":24,"Bots":0,"server_type":"Dedicated","server_os":"Linux","password":true,"vac":true,"version":"7723704","steam_id":85568392924515193,"keywords":["cp","nocrits","nodmgspread","uncletopia"],"game_id":440,"stv_port":27046,"stv_name":"Uncletopia | Chicago | 4 | All Maps | STV","players":[{"user_id":53,"name":"PintoVero","steam_id":76561198088369252,"connected_time":350000000000,"state":"active","ping":56},{"user_id":54,"name":"Nuen","steam_id":76561198936096111,"connected_time":344000000000,"state":"active","ping":54},{"user_id":51,"name":"PEPSI POWERED MAN","steam_id":76561198362668431,"connected_time":432000000000,"state":"active","ping":109},{"user_id":17,"name":"Xinder","steam_id":76561198984268179,"connected_time":2209000000000,"state":"active","ping":71},{"user_id":44,"name":"Gheeotine","steam_id":76561198010181698,"connected_time":1014000000000,"state":"active","ping":98},{"user_id":19,"name":"snideink287","steam_id":76561198166055131,"connected_time":2168000000000,"state":"active","ping":45},{"user_id":20,"name":"MOBILEFERRET797","steam_id":76561198368063718,"connected_time":2168000000000,"state":"active","ping":76},{"user_id":55,"name":"your xmas forecast","steam_id":76561198042243083,"connected_time":320000000000,"state":"active","ping":67},{"user_id":50,"name":"D:\u003c","steam_id":76561198017121314,"connected_time":485000000000,"state":"active","ping":78},{"user_id":61,"name":"MX_Shum","steam_id":76561199133196892,"connected_time":89000000000,"state":"active","ping":93},{"user_id":58,"name":"HotLatinoMale","steam_id":76561198272335425,"connected_time":309000000000,"state":"active","ping":67},{"user_id":25,"name":"Try Gardening","steam_id":76561198120311340,"connected_time":2074000000000,"state":"active","ping":50},{"user_id":26,"name":"HobHob","steam_id":76561198145646314,"connected_time":1982000000000,"state":"active","ping":76},{"user_id":27,"name":"DADDY ESCANOR","steam_id":76561198075102565,"connected_time":1965000000000,"state":"active","ping":61},{"user_id":28,"name":"Oatmeal","steam_id":76561199378924674,"connected_time":1879000000000,"state":"active","ping":64},{"user_id":41,"name":"Jerphf","steam_id":76561198328825964,"connected_time":1151000000000,"state":"active","ping":56},{"user_id":48,"name":"FemboyOwO (DM open :3)","steam_id":76561199446305966,"connected_time":612000000000,"state":"active","ping":166},{"user_id":57,"name":"donkeymucles","steam_id":76561199388275529,"connected_time":311000000000,"state":"active","ping":68},{"user_id":32,"name":"Goku™ From Disney©","steam_id":76561198015327152,"connected_time":1727000000000,"state":"active","ping":58},{"user_id":59,"name":"Admiral Angry","steam_id":76561198058199206,"connected_time":309000000000,"state":"active","ping":61},{"user_id":49,"name":"nefarious criminal","steam_id":76561198077506415,"connected_time":590000000000,"state":"active","ping":59},{"user_id":60,"name":"Skinny","steam_id":76561198025340966,"connected_time":300000000000,"state":"active","ping":106},{"user_id":37,"name":"Crabkettle","steam_id":76561198113495185,"connected_time":1638000000000,"state":"active","ping":72},{"user_id":38,"name":"nemesis","steam_id":76561198115050507,"connected_time":1592000000000,"state":"active","ping":81}]},{"server_id":36,"name":"Uncletopia | Chicago | 5 | All Maps","name_short":"chi-5","host":"chi-2.us.uncletopia.com","port":27015,"enabled":true,"region":"us-central","cc":"us","latitude":41.881832,"longitude":-87.62318,"reserved":0,"last_update":"0001-01-01T00:00:00Z","name_a2s":"Uncletopia | Chicago | 5 | All Maps","protocol":17,"map":"cp_granary","folder":"tf","game":"Team Fortress","app_id":440,"player_count":24,"max_players":24,"Bots":0,"server_type":"Dedicated","server_os":"Linux","password":true,"vac":true,"version":"7723704","steam_id":85568392924866362,"keywords":["cp","nocrits","nodmgspread","uncletopia"],"game_id":440,"stv_port":27016,"stv_name":"Uncletopia | Chicago | 5 | All Maps | STV","players":[{"user_id":218,"name":"Tommy Pickles (Very Cool)","steam_id":76561198391261463,"connected_time":1178000000000,"state":"active","ping":72},{"user_id":174,"name":"StuartBell511","steam_id":76561198060931721,"connected_time":3300000000000,"state":"active","ping":75},{"user_id":229,"name":"*something in russian*","steam_id":76561198964471859,"connected_time":374000000000,"state":"active","ping":76},{"user_id":210,"name":"Evolution","steam_id":76561198144767370,"connected_time":1426000000000,"state":"active","ping":56},{"user_id":222,"name":"Inevitable","steam_id":76561198210050169,"connected_time":943000000000,"state":"active","ping":60},{"user_id":228,"name":"Reggievich","steam_id":76561198173252835,"connected_time":603000000000,"state":"active","ping":59},{"user_id":230,"name":"Mr. Poliedro","steam_id":76561198873854696,"connected_time":344000000000,"state":"active","ping":129},{"user_id":212,"name":"cereal with water","steam_id":76561198091332884,"connected_time":1397000000000,"state":"active","ping":71},{"user_id":208,"name":"Nightfall","steam_id":76561198169718867,"connected_time":1541000000000,"state":"active","ping":113},{"user_id":232,"name":"TheBig1","steam_id":76561198010766059,"connected_time":186000000000,"state":"active","ping":46},{"user_id":177,"name":"Rin \"Hindwing\" Redtail","steam_id":76561199074865638,"connected_time":3269000000000,"state":"active","ping":72},{"user_id":220,"name":"potty trained","steam_id":76561198141557766,"connected_time":1129000000000,"state":"active","ping":69},{"user_id":214,"name":"notmanhattan","steam_id":76561198143117561,"connected_time":1377000000000,"state":"active","ping":42},{"user_id":235,"name":"Walkiing","steam_id":76561198074473413,"connected_time":54000000000,"state":"active","ping":46},{"user_id":185,"name":"I like cheese (real)","steam_id":76561198882837408,"connected_time":3132000000000,"state":"active","ping":99},{"user_id":154,"name":"You have uno","steam_id":76561198378641357,"connected_time":4948000000000,"state":"active","ping":90},{"user_id":223,"name":"LividALX","steam_id":76561198145429015,"connected_time":884000000000,"state":"active","ping":75},{"user_id":152,"name":"Satori Komeiji","steam_id":76561198158211423,"connected_time":5037000000000,"state":"active","ping":95},{"user_id":231,"name":"Consuo","steam_id":76561198868720856,"connected_time":241000000000,"state":"active","ping":53},{"user_id":233,"name":"crevis","steam_id":76561199085113793,"connected_time":159000000000,"state":"spawning","ping":52},{"user_id":216,"name":"Loafus","steam_id":76561198154561111,"connected_time":1364000000000,"state":"active","ping":76},{"user_id":217,"name":"Klip","steam_id":76561198316254429,"connected_time":1332000000000,"state":"active","ping":84},{"user_id":203,"name":"torfam3","steam_id":76561198310726936,"connected_time":2185000000000,"state":"active","ping":122},{"user_id":234,"name":"neet","steam_id":76561197968115168,"connected_time":104000000000,"state":"active","ping":58}]},{"server_id":37,"name":"Uncletopia | Chicago | 6 | All Maps","name_short":"chi-6","host":"chi-2.us.uncletopia.com","port":27025,"enabled":true,"region":"us-central","cc":"us","latitude":41.881832,"longitude":-87.62318,"reserved":0,"last_update":"0001-01-01T00:00:00Z","name_a2s":"Uncletopia | Chicago | 6 | All Maps","protocol":17,"map":"koth_viaduct","folder":"tf","game":"Team Fortress","app_id":440,"player_count":0,"max_players":24,"Bots":0,"server_type":"Dedicated","server_os":"Linux","password":true,"vac":true,"version":"7723704","steam_id":85568392924866363,"keywords":["cp","nocrits","nodmgspread","uncletopia"],"game_id":440,"stv_port":27026,"stv_name":"Uncletopia | Chicago | 6 | All Maps | STV","players":null},{"server_id":38,"name":"Uncletopia | Chicago | 7 | Stopwatch Beta","name_short":"chi-7","host":"chi-2.us.uncletopia.com","port":27035,"enabled":true,"region":"us-central","cc":"us","latitude":41.881832,"longitude":-87.62318,"reserved":0,"last_update":"0001-01-01T00:00:00Z","name_a2s":"Uncletopia | Chicago | 7 | Stopwatch Beta","protocol":17,"map":"workshop/koth_product_final.ugc454272353","folder":"tf","game":"Team Fortress","app_id":440,"player_count":20,"max_players":24,"Bots":0,"server_type":"Dedicated","server_os":"Linux","password":true,"vac":true,"version":"7723704","steam_id":85568392924866364,"keywords":["cp","nocrits","nodmgspread","uncletopia"],"game_id":440,"stv_port":27036,"stv_name":"Uncletopia | Chicago | 7 | Stopwatch Beta | STV","players":[{"user_id":127,"name":"CBTgaeming","steam_id":76561199089290128,"connected_time":2249000000000,"state":"active","ping":125},{"user_id":123,"name":"Colonel Crazy","steam_id":76561198262296550,"connected_time":3002000000000,"state":"active","ping":95},{"user_id":104,"name":"oo","steam_id":76561198119626492,"connected_time":4403000000000,"state":"active","ping":113},{"user_id":115,"name":"whimsy.","steam_id":76561198878171763,"connected_time":3828000000000,"state":"spawning","ping":249},{"user_id":139,"name":"summertime sadness","steam_id":76561198063313115,"connected_time":125000000000,"state":"active","ping":59},{"user_id":141,"name":"PKSHS\u003e236236+HS","steam_id":76561198191189053,"connected_time":68000000000,"state":"active","ping":62},{"user_id":131,"name":"a_person_159","steam_id":76561199024416326,"connected_time":2207000000000,"state":"active","ping":59},{"user_id":133,"name":"ratlobber","steam_id":76561198087701966,"connected_time":1896000000000,"state":"active","ping":135},{"user_id":119,"name":"picnic blanket","steam_id":76561198308186037,"connected_time":3471000000000,"state":"active","ping":61},{"user_id":136,"name":"lukamine","steam_id":76561198166827208,"connected_time":584000000000,"state":"active","ping":95},{"user_id":122,"name":"CaioXDD5","steam_id":76561198323025785,"connected_time":3085000000000,"state":"active","ping":202},{"user_id":113,"name":"Stormartillery","steam_id":76561198408982577,"connected_time":3979000000000,"state":"active","ping":75},{"user_id":142,"name":"yeyoi","steam_id":76561198069821885,"connected_time":41000000000,"state":"active","ping":68},{"user_id":138,"name":"Clean","steam_id":76561198061224922,"connected_time":130000000000,"state":"active","ping":75},{"user_id":143,"name":"Lord Scrubling","steam_id":76561198263744445,"connected_time":27000000000,"state":"spawning","ping":153},{"user_id":78,"name":"Post nut clarity","steam_id":76561198060246831,"connected_time":5348000000000,"state":"active","ping":83},{"user_id":132,"name":"Hindmost","steam_id":76561199081837220,"connected_time":2202000000000,"state":"active","ping":119},{"user_id":84,"name":"Scooter O'Boyl","steam_id":76561197971687069,"connected_time":5007000000000,"state":"active","ping":64},{"user_id":105,"name":"Smuggs","steam_id":76561197999456003,"connected_time":4400000000000,"state":"active","ping":120},{"user_id":93,"name":"curb","steam_id":76561198034022775,"connected_time":4840000000000,"state":"active","ping":78}]},{"server_id":39,"name":"Uncletopia | Chicago | 8 | Community","name_short":"chi-8","host":"chi-2.us.uncletopia.com","port":27045,"enabled":true,"region":"us-central","cc":"us","latitude":41.881832,"longitude":-87.62318,"reserved":0,"last_update":"0001-01-01T00:00:00Z","name_a2s":"Uncletopia | Chicago | 8 | Community","protocol":17,"map":"pl_frontier_final","folder":"tf","game":"Team Fortress","app_id":440,"player_count":0,"max_players":24,"Bots":0,"server_type":"Dedicated","server_os":"Linux","password":true,"vac":true,"version":"7723704","steam_id":85568392924866365,"keywords":["nocrits","nodmgspread","payload","uncletopia"],"game_id":440,"stv_port":27046,"stv_name":"Uncletopia | Chicago | 8 | Community | STV","players":null},{"server_id":8,"name":"Uncletopia | Dallas | 1 | All Maps","name_short":"dal-1","host":"dal-1.us.uncletopia.com","port":27015,"enabled":true,"region":"us-central","cc":"us","latitude":32.779167,"longitude":-96.80889,"reserved":0,"last_update":"0001-01-01T00:00:00Z","name_a2s":"Uncletopia | Dallas | 1 | All Maps","protocol":17,"map":"ctf_doublecross","folder":"tf","game":"Team Fortress","app_id":440,"player_count":24,"max_players":24,"Bots":0,"server_type":"Dedicated","server_os":"Linux","password":true,"vac":true,"version":"7723704","steam_id":85568392924469986,"keywords":["ctf","nocrits","nodmgspread","uncletopia"],"game_id":440,"stv_port":27016,"stv_name":"Uncletopia | Dallas | 1 | All Maps | STV","players":[{"user_id":218,"name":"Riff","steam_id":76561198066921423,"connected_time":2741000000000,"state":"active","ping":64},{"user_id":232,"name":"Discovery","steam_id":76561198841844093,"connected_time":1049000000000,"state":"active","ping":75},{"user_id":225,"name":"Fat Spy with Unusual Pan","steam_id":76561199027576969,"connected_time":2078000000000,"state":"active","ping":153},{"user_id":209,"name":"catboy festive edition","steam_id":76561198067881981,"connected_time":3852000000000,"state":"active","ping":80},{"user_id":240,"name":"Scrumpy Main","steam_id":76561198146302597,"connected_time":788000000000,"state":"active","ping":85},{"user_id":238,"name":"Phyyrin","steam_id":76561198154532657,"connected_time":823000000000,"state":"active","ping":96},{"user_id":208,"name":"A Bic Lighter","steam_id":76561198070606068,"connected_time":3920000000000,"state":"active","ping":76},{"user_id":222,"name":"The Engie","steam_id":76561198029782412,"connected_time":2108000000000,"state":"active","ping":60},{"user_id":243,"name":"arlo","steam_id":76561198168978384,"connected_time":302000000000,"state":"active","ping":69},{"user_id":247,"name":"Pumpkin Hugger","steam_id":76561198834875100,"connected_time":81000000000,"state":"active","ping":57},{"user_id":239,"name":"MDD","steam_id":76561197998850659,"connected_time":819000000000,"state":"active","ping":95},{"user_id":234,"name":"wizorb","steam_id":76561198002172674,"connected_time":1020000000000,"state":"active","ping":72},{"user_id":227,"name":"TheHarmacist","steam_id":76561198068249096,"connected_time":1587000000000,"state":"active","ping":58},{"user_id":188,"name":"MerlinTheWizard","steam_id":76561198171472393,"connected_time":5792000000000,"state":"active","ping":64},{"user_id":245,"name":"ChiefArcher","steam_id":76561198025012850,"connected_time":283000000000,"state":"active","ping":45},{"user_id":248,"name":"Brison","steam_id":76561197993377761,"connected_time":45000000000,"state":"active","ping":86},{"user_id":229,"name":"IZISOO","steam_id":76561198970380577,"connected_time":1117000000000,"state":"active","ping":59},{"user_id":135,"name":"lily","steam_id":76561198102681457,"connected_time":9373000000000,"state":"active","ping":75},{"user_id":215,"name":"whimmu","steam_id":76561198370839794,"connected_time":2854000000000,"state":"active","ping":119},{"user_id":182,"name":"Moonflower ✦","steam_id":76561198191782483,"connected_time":6212000000000,"state":"active","ping":48},{"user_id":242,"name":"Moopz","steam_id":76561198424507300,"connected_time":707000000000,"state":"active","ping":96},{"user_id":226,"name":"NavyCroft","steam_id":76561198308290507,"connected_time":1959000000000,"state":"active","ping":53},{"user_id":246,"name":"Mellou","steam_id":76561198212048740,"connected_time":123000000000,"state":"active","ping":57},{"user_id":98,"name":"Arizona","steam_id":76561198113748347,"connected_time":11436000000000,"state":"active","ping":63}]},{"server_id":108,"name":"Uncletopia | Dallas | 2 | All Maps","name_short":"dal-2","host":"dal-1.us.uncletopia.com","port":27025,"enabled":true,"region":"us-central","cc":"us","latitude":32.779167,"longitude":-96.80889,"reserved":0,"last_update":"0001-01-01T00:00:00Z","name_a2s":"Uncletopia | Dallas | 2 | All Maps","protocol":17,"map":"pl_barnblitz","folder":"tf","game":"Team Fortress","app_id":440,"player_count":23,"max_players":24,"Bots":0,"server_type":"Dedicated","server_os":"Linux","password":true,"vac":true,"version":"7723704","steam_id":85568392924469988,"keywords":["nocrits","nodmgspread","payload","uncletopia"],"game_id":440,"stv_port":27026,"stv_name":"Uncletopia | Dallas | 2 | All Maps | STV","players":[{"user_id":88,"name":"seats","steam_id":76561197998756039,"connected_time":112000000000,"state":"active","ping":70},{"user_id":47,"name":"swagmaster2004","steam_id":76561198260712991,"connected_time":2957000000000,"state":"active","ping":90},{"user_id":73,"name":"Spike Bones","steam_id":76561198234926120,"connected_time":995000000000,"state":"active","ping":94},{"user_id":46,"name":"Deno! 간부","steam_id":76561198041113335,"connected_time":3680000000000,"state":"active","ping":97},{"user_id":81,"name":"beans","steam_id":76561199082781884,"connected_time":783000000000,"state":"active","ping":57},{"user_id":74,"name":"Female Gamer","steam_id":76561199366482682,"connected_time":932000000000,"state":"active","ping":103},{"user_id":32,"name":"Bong Water","steam_id":76561198320044243,"connected_time":4073000000000,"state":"active","ping":68},{"user_id":87,"name":"plaiddd","steam_id":76561198353053169,"connected_time":193000000000,"state":"active","ping":89},{"user_id":84,"name":"Tokey","steam_id":76561198825943127,"connected_time":456000000000,"state":"active","ping":73},{"user_id":75,"name":"Owl_Eye","steam_id":76561198386200439,"connected_time":931000000000,"state":"active","ping":80},{"user_id":57,"name":"Bell_Boy","steam_id":76561198397512046,"connected_time":1937000000000,"state":"active","ping":82},{"user_id":33,"name":"squirtsquad","steam_id":76561198298327132,"connected_time":4048000000000,"state":"active","ping":94},{"user_id":76,"name":"oakdotpng","steam_id":76561198092135570,"connected_time":927000000000,"state":"active","ping":44},{"user_id":50,"name":"Rick Assley","steam_id":76561198365019199,"connected_time":2668000000000,"state":"active","ping":81},{"user_id":70,"name":"Lospolloshermano","steam_id":76561199157627437,"connected_time":1634000000000,"state":"active","ping":78},{"user_id":77,"name":"Moose","steam_id":76561198096311227,"connected_time":923000000000,"state":"active","ping":58},{"user_id":82,"name":"swooce","steam_id":76561198156232484,"connected_time":731000000000,"state":"active","ping":90},{"user_id":83,"name":"Gibby","steam_id":76561198162912439,"connected_time":603000000000,"state":"active","ping":75},{"user_id":67,"name":"dog","steam_id":76561198263873491,"connected_time":1680000000000,"state":"active","ping":61},{"user_id":40,"name":"FurryPlague","steam_id":76561198824729615,"connected_time":3982000000000,"state":"active","ping":91},{"user_id":41,"name":"Blorgus_J_Blart","steam_id":76561198430926135,"connected_time":3978000000000,"state":"active","ping":91},{"user_id":78,"name":"Frongus","steam_id":76561197979056451,"connected_time":920000000000,"state":"active","ping":98},{"user_id":90,"name":"Huntskiiii","steam_id":76561198138723795,"connected_time":34000000000,"state":"active","ping":79}]},{"server_id":5,"name":"Uncletopia | Frankfurt | 1 | All Maps","name_short":"frk-1","host":"frk-1.de.uncletopia.com","port":27015,"enabled":true,"region":"eu","cc":"de","latitude":50.110924,"longitude":8.682127,"reserved":0,"last_update":"0001-01-01T00:00:00Z","name_a2s":"Uncletopia | Frankfurt | 1 | All Maps","protocol":17,"map":"pl_frontier_final","folder":"tf","game":"Team Fortress","app_id":440,"player_count":24,"max_players":24,"Bots":0,"server_type":"Dedicated","server_os":"Linux","password":true,"vac":true,"version":"7723704","steam_id":85568392924469989,"keywords":["nocrits","nodmgspread","payload","uncletopia"],"game_id":440,"stv_port":27016,"stv_name":"Uncletopia | Frankfurt | 1 | All Maps | STV","players":[{"user_id":485,"name":"Crisps","steam_id":76561198088973774,"connected_time":3975000000000,"state":"active","ping":45},{"user_id":474,"name":"saml","steam_id":76561198040716257,"connected_time":4371000000000,"state":"active","ping":75},{"user_id":545,"name":"43291842381","steam_id":76561198038160325,"connected_time":327000000000,"state":"active","ping":73},{"user_id":539,"name":"Yes, 100 Percent","steam_id":76561198104896547,"connected_time":519000000000,"state":"active","ping":67},{"user_id":515,"name":"Latgaul","steam_id":76561199009145544,"connected_time":1671000000000,"state":"active","ping":92},{"user_id":516,"name":"moser23","steam_id":76561197960543171,"connected_time":1601000000000,"state":"active","ping":41},{"user_id":546,"name":"i5","steam_id":76561198212702751,"connected_time":141000000000,"state":"active","ping":85},{"user_id":499,"name":"GigaNiga","steam_id":76561198121722615,"connected_time":3064000000000,"state":"active","ping":103},{"user_id":532,"name":"Bob Salami","steam_id":76561198150681340,"connected_time":1255000000000,"state":"active","ping":81},{"user_id":496,"name":"Kenan Komutan","steam_id":76561198015830344,"connected_time":3075000000000,"state":"active","ping":100},{"user_id":520,"name":"Omicron166","steam_id":76561199021791405,"connected_time":1405000000000,"state":"active","ping":97},{"user_id":497,"name":"i'm him","steam_id":76561198061248547,"connected_time":3068000000000,"state":"active","ping":45},{"user_id":536,"name":"Im sad","steam_id":76561198190311345,"connected_time":637000000000,"state":"active","ping":64},{"user_id":522,"name":"Sparky","steam_id":76561198036754195,"connected_time":1376000000000,"state":"active","ping":42},{"user_id":475,"name":"holykyckling","steam_id":76561198040661615,"connected_time":4370000000000,"state":"active","ping":75},{"user_id":524,"name":"Bobo","steam_id":76561198052308399,"connected_time":1368000000000,"state":"active","ping":49},{"user_id":541,"name":"Silverowl","steam_id":76561198045773877,"connected_time":491000000000,"state":"active","ping":49},{"user_id":543,"name":"hubbles","steam_id":76561197961142646,"connected_time":449000000000,"state":"active","ping":54},{"user_id":527,"name":"Milosz52","steam_id":76561199060940204,"connected_time":1332000000000,"state":"active","ping":78},{"user_id":533,"name":"d00bie","steam_id":76561198025295218,"connected_time":1092000000000,"state":"active","ping":52},{"user_id":538,"name":"Tonal","steam_id":76561198174285723,"connected_time":576000000000,"state":"active","ping":78},{"user_id":542,"name":"Credaseder","steam_id":76561198019712729,"connected_time":488000000000,"state":"active","ping":60},{"user_id":544,"name":"stun","steam_id":76561198276681691,"connected_time":388000000000,"state":"active","ping":60},{"user_id":531,"name":"D!E","steam_id":76561198012118005,"connected_time":1299000000000,"state":"active","ping":60}]},{"server_id":110,"name":"Uncletopia | Frankfurt | 2 | All Maps","name_short":"frk-2","host":"frk-1.de.uncletopia.com","port":27025,"enabled":true,"region":"eu","cc":"de","latitude":50.110924,"longitude":8.682127,"reserved":0,"last_update":"0001-01-01T00:00:00Z","name_a2s":"Uncletopia | Frankfurt | 2 | All Maps","protocol":17,"map":"cp_process_final","folder":"tf","game":"Team Fortress","app_id":440,"player_count":24,"max_players":24,"Bots":0,"server_type":"Dedicated","server_os":"Linux","password":true,"vac":true,"version":"7723704","steam_id":85568392924469990,"keywords":["cp","nocrits","nodmgspread","uncletopia"],"game_id":440,"stv_port":27026,"stv_name":"Uncletopia | Frankfurt | 2 | All Maps | STV","players":[{"user_id":144,"name":"19archij","steam_id":76561198311296591,"connected_time":3588000000000,"state":"active","ping":146},{"user_id":165,"name":"Svilar","steam_id":76561198828348612,"connected_time":1762000000000,"state":"active","ping":62},{"user_id":178,"name":"Rock..","steam_id":76561198004641963,"connected_time":771000000000,"state":"active","ping":79},{"user_id":167,"name":"Blub","steam_id":76561198999402987,"connected_time":1682000000000,"state":"active","ping":50},{"user_id":182,"name":"wwwwwwwwwwwwwwwwwwwwwwwwwwwwwww","steam_id":76561198108779446,"connected_time":257000000000,"state":"active","ping":62},{"user_id":164,"name":"LasagnaLarry22","steam_id":76561198089478290,"connected_time":1845000000000,"state":"active","ping":73},{"user_id":133,"name":"DeepBlue","steam_id":76561198140075795,"connected_time":3994000000000,"state":"active","ping":58},{"user_id":145,"name":"Mr.O","steam_id":76561198039567498,"connected_time":3587000000000,"state":"active","ping":61},{"user_id":114,"name":"Luke SpyWalker","steam_id":76561198008643276,"connected_time":4219000000000,"state":"active","ping":59},{"user_id":172,"name":"Udinese Dion","steam_id":76561198067931573,"connected_time":1320000000000,"state":"active","ping":61},{"user_id":168,"name":"nes","steam_id":76561198037938833,"connected_time":1663000000000,"state":"active","ping":54},{"user_id":118,"name":"Urantij","steam_id":76561198047920299,"connected_time":4177000000000,"state":"active","ping":118},{"user_id":177,"name":"apple","steam_id":76561198116932635,"connected_time":1067000000000,"state":"active","ping":46},{"user_id":185,"name":"Xx_えななんxX69","steam_id":76561199427679148,"connected_time":69000000000,"state":"active","ping":62},{"user_id":161,"name":"SpyCrab  Erik Twice","steam_id":76561198009710309,"connected_time":2542000000000,"state":"active","ping":68},{"user_id":163,"name":"Yanniki","steam_id":76561197986058110,"connected_time":2377000000000,"state":"active","ping":57},{"user_id":183,"name":"SPONGE","steam_id":76561198040933472,"connected_time":256000000000,"state":"active","ping":93},{"user_id":124,"name":"꧁༒Xenon༒꧂","steam_id":76561198120502313,"connected_time":4144000000000,"state":"active","ping":65},{"user_id":125,"name":"battlekruiser","steam_id":76561198061907053,"connected_time":4133000000000,"state":"active","ping":76},{"user_id":186,"name":"Tywhip","steam_id":76561199207545191,"connected_time":39000000000,"state":"active","ping":62},{"user_id":176,"name":"Goblin","steam_id":76561198160642483,"connected_time":1308000000000,"state":"active","ping":68},{"user_id":162,"name":"Vince","steam_id":76561199103000131,"connected_time":2530000000000,"state":"active","ping":61},{"user_id":181,"name":"it helps with the nausea","steam_id":76561198257287335,"connected_time":392000000000,"state":"active","ping":139},{"user_id":179,"name":"Lillen I ちび","steam_id":76561198103877803,"connected_time":742000000000,"state":"active","ping":72}]},{"server_id":308,"name":"Uncletopia | Frankfurt | 3 | All Maps","name_short":"frk-3","host":"frk-1.de.uncletopia.com","port":27035,"enabled":true,"region":"eu","cc":"de","latitude":50.110924,"longitude":8.682127,"reserved":0,"last_update":"0001-01-01T00:00:00Z","name_a2s":"Uncletopia | Frankfurt | 3 | All Maps","protocol":17,"map":"pl_barnblitz","folder":"tf","game":"Team Fortress","app_id":440,"player_count":24,"max_players":24,"Bots":0,"server_type":"Dedicated","server_os":"Linux","password":true,"vac":true,"version":"7723704","steam_id":85568392924504274,"keywords":["nocrits","nodmgspread","payload","uncletopia"],"game_id":440,"stv_port":27036,"stv_name":"Uncletopia | Frankfurt | 3 | All Maps | STV","players":[{"user_id":431,"name":"Scary Perry","steam_id":76561198237464516,"connected_time":3237000000000,"state":"active","ping":41},{"user_id":450,"name":"jt7","steam_id":76561198073655162,"connected_time":514000000000,"state":"active","ping":66},{"user_id":448,"name":"tristan","steam_id":76561198096097448,"connected_time":730000000000,"state":"active","ping":51},{"user_id":345,"name":"invis","steam_id":76561198120668070,"connected_time":7643000000000,"state":"active","ping":61},{"user_id":428,"name":"SuntanPikachu","steam_id":76561198121242476,"connected_time":3405000000000,"state":"active","ping":60},{"user_id":439,"name":"Fat Pigeon","steam_id":76561198817940142,"connected_time":2545000000000,"state":"active","ping":56},{"user_id":435,"name":"Proto-arc","steam_id":76561198012776747,"connected_time":2693000000000,"state":"active","ping":61},{"user_id":453,"name":"Ennard777","steam_id":76561198965409493,"connected_time":449000000000,"state":"active","ping":102},{"user_id":452,"name":"F","steam_id":76561199149462792,"connected_time":461000000000,"state":"active","ping":60},{"user_id":426,"name":"Kotlet schabowy","steam_id":76561198048983509,"connected_time":3578000000000,"state":"active","ping":83},{"user_id":454,"name":"Mor'du","steam_id":76561198274105878,"connected_time":436000000000,"state":"active","ping":86},{"user_id":455,"name":"sjef kef","steam_id":76561198131951354,"connected_time":393000000000,"state":"active","ping":72},{"user_id":460,"name":"clipsy11","steam_id":76561199185851191,"connected_time":108000000000,"state":"active","ping":70},{"user_id":446,"name":"Lord of the Lockerroom","steam_id":76561198080619697,"connected_time":1876000000000,"state":"active","ping":91},{"user_id":456,"name":"jag har snus i käft'n","steam_id":76561198295967237,"connected_time":335000000000,"state":"active","ping":74},{"user_id":443,"name":"Elon Ma cs.deals","steam_id":76561199018053264,"connected_time":2187000000000,"state":"active","ping":64},{"user_id":427,"name":"mordecai.nmc","steam_id":76561197997223851,"connected_time":3567000000000,"state":"active","ping":61},{"user_id":444,"name":"Windows Vista Cruiser","steam_id":76561198064102233,"connected_time":2159000000000,"state":"active","ping":67},{"user_id":449,"name":"SgtRookie","steam_id":76561198030230427,"connected_time":623000000000,"state":"active","ping":98},{"user_id":457,"name":"saltybun","steam_id":76561198376078472,"connected_time":297000000000,"state":"active","ping":66},{"user_id":458,"name":"murderfucker","steam_id":76561198038753296,"connected_time":232000000000,"state":"active","ping":75},{"user_id":459,"name":"Aids","steam_id":76561198088499316,"connected_time":212000000000,"state":"active","ping":90},{"user_id":438,"name":"Strangerdanger","steam_id":76561198206728500,"connected_time":2621000000000,"state":"active","ping":74},{"user_id":447,"name":"Ultimo","steam_id":76561198061802565,"connected_time":970000000000,"state":"active","ping":111}]},{"server_id":309,"name":"Uncletopia | Frankfurt | 4 | All Maps","name_short":"frk-4","host":"frk-1.de.uncletopia.com","port":27045,"enabled":true,"region":"eu","cc":"de","latitude":50.110924,"longitude":8.682127,"reserved":0,"last_update":"0001-01-01T00:00:00Z","name_a2s":"Uncletopia | Frankfurt | 4 | All Maps","protocol":17,"map":"pl_pier","folder":"tf","game":"Team Fortress","app_id":440,"player_count":23,"max_players":24,"Bots":0,"server_type":"Dedicated","server_os":"Linux","password":true,"vac":true,"version":"7723704","steam_id":85568392924504275,"keywords":["nocrits","nodmgspread","payload","uncletopia"],"game_id":440,"stv_port":27046,"stv_name":"Uncletopia | Frankfurt | 4 | All Maps | STV","players":[{"user_id":386,"name":"Poogway","steam_id":76561198005168927,"connected_time":1052000000000,"state":"active","ping":66},{"user_id":396,"name":"Malsi","steam_id":76561199061284165,"connected_time":892000000000,"state":"active","ping":77},{"user_id":399,"name":"john fortress","steam_id":76561198202668788,"connected_time":567000000000,"state":"active","ping":82},{"user_id":389,"name":"E","steam_id":76561198166340115,"connected_time":1025000000000,"state":"active","ping":76},{"user_id":356,"name":"Lux","steam_id":76561198060417740,"connected_time":4530000000000,"state":"active","ping":45},{"user_id":335,"name":"Bug","steam_id":76561198168268048,"connected_time":6124000000000,"state":"active","ping":52},{"user_id":363,"name":"dddd","steam_id":76561198120894372,"connected_time":3416000000000,"state":"active","ping":105},{"user_id":383,"name":"ballfondler fan club","steam_id":76561198163244605,"connected_time":1482000000000,"state":"active","ping":69},{"user_id":391,"name":"r06u3","steam_id":76561198254099253,"connected_time":972000000000,"state":"active","ping":180},{"user_id":300,"name":"Rappin' Sebastian","steam_id":76561198453928256,"connected_time":7701000000000,"state":"active","ping":79},{"user_id":403,"name":"Fisherman James","steam_id":76561198004502230,"connected_time":24000000000,"state":"active","ping":49},{"user_id":337,"name":"cslevi","steam_id":76561198142858923,"connected_time":6109000000000,"state":"active","ping":73},{"user_id":392,"name":"Cherr1Bomb","steam_id":76561198967510260,"connected_time":961000000000,"state":"active","ping":68},{"user_id":393,"name":"steven","steam_id":76561198028240570,"connected_time":954000000000,"state":"active","ping":59},{"user_id":372,"name":"Anlek","steam_id":76561198026972102,"connected_time":2429000000000,"state":"active","ping":72},{"user_id":379,"name":"pablo.gonzalez.2005","steam_id":76561198971389390,"connected_time":1891000000000,"state":"active","ping":60},{"user_id":371,"name":"Pruff","steam_id":76561198377084417,"connected_time":2501000000000,"state":"active","ping":60},{"user_id":394,"name":"Pius","steam_id":76561198882380365,"connected_time":948000000000,"state":"active","ping":52},{"user_id":400,"name":"Acheron","steam_id":76561198306593373,"connected_time":441000000000,"state":"active","ping":67},{"user_id":404,"name":"Pico","steam_id":76561198399294147,"connected_time":5000000000,"state":"spawning","ping":127},{"user_id":398,"name":"Ooze","steam_id":76561198039642637,"connected_time":745000000000,"state":"active","ping":85},{"user_id":382,"name":"chojje","steam_id":76561197998577229,"connected_time":1539000000000,"state":"active","ping":74},{"user_id":294,"name":"Pronton","steam_id":76561198082502910,"connected_time":8265000000000,"state":"active","ping":57}]},{"server_id":310,"name":"Uncletopia | Frankfurt | 5 | All Maps","name_short":"frk-5","host":"frk-1.de.uncletopia.com","port":27055,"enabled":true,"region":"eu","cc":"de","latitude":50.110924,"longitude":8.682127,"reserved":0,"last_update":"0001-01-01T00:00:00Z","name_a2s":"Uncletopia | Frankfurt | 5 | All Maps","protocol":17,"map":"pl_upward","folder":"tf","game":"Team Fortress","app_id":440,"player_count":24,"max_players":24,"Bots":0,"server_type":"Dedicated","server_os":"Linux","password":true,"vac":true,"version":"7723704","steam_id":85568392924504277,"keywords":["nocrits","nodmgspread","payload","uncletopia"],"game_id":440,"stv_port":27056,"stv_name":"Uncletopia | Frankfurt | 5 | All Maps | STV","players":[{"user_id":477,"name":"stonebum","steam_id":76561198057004606,"connected_time":430000000000,"state":"active","ping":56},{"user_id":457,"name":"LadyMissfit","steam_id":76561198042236349,"connected_time":1850000000000,"state":"active","ping":68},{"user_id":433,"name":"₪ F4.exe","steam_id":76561197997909480,"connected_time":3315000000000,"state":"active","ping":84},{"user_id":464,"name":"[P-roc] Cmm Bert","steam_id":76561198016658674,"connected_time":1683000000000,"state":"active","ping":66},{"user_id":480,"name":"markus","steam_id":76561198186791643,"connected_time":235000000000,"state":"active","ping":75},{"user_id":425,"name":"rat","steam_id":76561199100632053,"connected_time":3451000000000,"state":"active","ping":61},{"user_id":466,"name":"your opinion \u003c my shit after a ","steam_id":76561198152620745,"connected_time":1315000000000,"state":"active","ping":68},{"user_id":445,"name":"KosjoBG","steam_id":76561198138053535,"connected_time":2746000000000,"state":"active","ping":134},{"user_id":481,"name":"rigel_","steam_id":76561198148640847,"connected_time":105000000000,"state":"active","ping":75},{"user_id":473,"name":"simplistic","steam_id":76561198231690748,"connected_time":764000000000,"state":"active","ping":62},{"user_id":467,"name":"switchedoff","steam_id":76561198046396310,"connected_time":1266000000000,"state":"active","ping":80},{"user_id":422,"name":"Bait","steam_id":76561198335188568,"connected_time":3830000000000,"state":"active","ping":54},{"user_id":448,"name":"Cocaine bear","steam_id":76561199213901239,"connected_time":2672000000000,"state":"active","ping":56},{"user_id":483,"name":"lelop","steam_id":76561198277363229,"connected_time":63000000000,"state":"active","ping":75},{"user_id":465,"name":"Giovine Killjoy","steam_id":76561198059375315,"connected_time":1564000000000,"state":"active","ping":64},{"user_id":389,"name":"zoinks!","steam_id":76561198068645362,"connected_time":5705000000000,"state":"active","ping":55},{"user_id":373,"name":"Kenopsia","steam_id":76561198126750888,"connected_time":6015000000000,"state":"active","ping":79},{"user_id":482,"name":"kamikaze warrior","steam_id":76561198280964625,"connected_time":78000000000,"state":"active","ping":76},{"user_id":479,"name":"ultralex","steam_id":76561198024910383,"connected_time":368000000000,"state":"active","ping":59},{"user_id":441,"name":"Mark","steam_id":76561198808819694,"connected_time":2874000000000,"state":"active","ping":50},{"user_id":455,"name":"mohemmedmokhter2005","steam_id":76561199197650506,"connected_time":2024000000000,"state":"active","ping":111},{"user_id":432,"name":"Intheweb33","steam_id":76561198082873786,"connected_time":3329000000000,"state":"active","ping":83},{"user_id":472,"name":"Prine4","steam_id":76561198108906439,"connected_time":880000000000,"state":"active","ping":53},{"user_id":463,"name":"fallingpencil","steam_id":76561199230233148,"connected_time":1763000000000,"state":"active","ping":58}]},{"server_id":311,"name":"Uncletopia | Frankfurt | 6 | All Maps","name_short":"frk-6","host":"frk-1.de.uncletopia.com","port":27065,"enabled":true,"region":"eu","cc":"de","latitude":50.110924,"longitude":8.682127,"reserved":0,"last_update":"0001-01-01T00:00:00Z","name_a2s":"Uncletopia | Frankfurt | 6 | All Maps","protocol":17,"map":"cp_mercenarypark","folder":"tf","game":"Team Fortress","app_id":440,"player_count":23,"max_players":24,"Bots":0,"server_type":"Dedicated","server_os":"Linux","password":true,"vac":true,"version":"7723704","steam_id":85568392924504278,"keywords":["cp","nocrits","nodmgspread","uncletopia"],"game_id":440,"stv_port":27066,"stv_name":"Uncletopia | Frankfurt | 6 | All Maps | STV","players":[{"user_id":329,"name":"MrBanana","steam_id":76561198116021623,"connected_time":595000000000,"state":"active","ping":48},{"user_id":290,"name":"Flabberson Gilbert Dooberqavier","steam_id":76561199244829558,"connected_time":3694000000000,"state":"active","ping":69},{"user_id":289,"name":"festive FoOz","steam_id":76561197998636728,"connected_time":3710000000000,"state":"active","ping":69},{"user_id":136,"name":"After8","steam_id":76561198090750865,"connected_time":13531000000000,"state":"active","ping":64},{"user_id":319,"name":"the foe","steam_id":76561198065743977,"connected_time":717000000000,"state":"active","ping":60},{"user_id":321,"name":"padillacampos","steam_id":76561198161923970,"connected_time":710000000000,"state":"active","ping":74},{"user_id":299,"name":"Carpe diem.","steam_id":76561199065917088,"connected_time":2814000000000,"state":"active","ping":76},{"user_id":324,"name":"KazooBard","steam_id":76561198273124726,"connected_time":707000000000,"state":"active","ping":62},{"user_id":323,"name":"jameso","steam_id":76561198064042970,"connected_time":708000000000,"state":"active","ping":57},{"user_id":325,"name":"Maja","steam_id":76561198082954900,"connected_time":700000000000,"state":"active","ping":62},{"user_id":298,"name":"Yoshikage Kira","steam_id":76561199051752886,"connected_time":3329000000000,"state":"active","ping":58},{"user_id":225,"name":"Ducky[WADZ]🐤","steam_id":76561198060341245,"connected_time":8279000000000,"state":"active","ping":51},{"user_id":154,"name":"lulu","steam_id":76561199147764133,"connected_time":11805000000000,"state":"active","ping":85},{"user_id":337,"name":"HYA HYA FOOWAAH!","steam_id":76561198193357946,"connected_time":156000000000,"state":"active","ping":111},{"user_id":339,"name":"bur","steam_id":76561198824712597,"connected_time":92000000000,"state":"active","ping":63},{"user_id":314,"name":"CactusFarms","steam_id":76561199009131802,"connected_time":776000000000,"state":"active","ping":65},{"user_id":334,"name":"logcom","steam_id":76561198095248851,"connected_time":364000000000,"state":"active","ping":60},{"user_id":330,"name":"MyFirstTimeeeeelel","steam_id":76561199235376543,"connected_time":555000000000,"state":"active","ping":62},{"user_id":332,"name":"Mklavzovc","steam_id":76561198305794970,"connected_time":450000000000,"state":"active","ping":70},{"user_id":333,"name":"hushhx","steam_id":76561198216200092,"connected_time":439000000000,"state":"active","ping":70},{"user_id":312,"name":"Mapus Lepoldus","steam_id":76561198067705233,"connected_time":1932000000000,"state":"active","ping":61},{"user_id":340,"name":"Sweetcheesus","steam_id":76561198022299033,"connected_time":54000000000,"state":"active","ping":60},{"user_id":275,"name":"bean","steam_id":76561198347365909,"connected_time":4742000000000,"state":"active","ping":64}]},{"server_id":23,"name":"Uncletopia | Frankfurt | 7 | Stopwatch Beta","name_short":"frk-7","host":"frk-1.de.uncletopia.com","port":27075,"enabled":true,"region":"eu","cc":"de","latitude":50.110924,"longitude":8.682127,"reserved":0,"last_update":"0001-01-01T00:00:00Z","name_a2s":"Uncletopia | Frankfurt | 7 | Stopwatch Beta","protocol":17,"map":"workshop/pl_barnblitz_pro7.ugc582280235","folder":"tf","game":"Team Fortress","app_id":440,"player_count":0,"max_players":24,"Bots":0,"server_type":"Dedicated","server_os":"Linux","password":true,"vac":true,"version":"7723704","steam_id":85568392924742827,"keywords":["nocrits","nodmgspread","payload","uncletopia"],"game_id":440,"stv_port":27076,"stv_name":"Uncletopia | Frankfurt | 7 | Stopwatch Beta | STV","players":null},{"server_id":24,"name":"Uncletopia | Frankfurt | 8 | Community","name_short":"frk-8","host":"frk-1.de.uncletopia.com","port":27085,"enabled":true,"region":"eu","cc":"de","latitude":50.110924,"longitude":8.682127,"reserved":0,"last_update":"0001-01-01T00:00:00Z","name_a2s":"Uncletopia | Frankfurt | 8 | Community","protocol":17,"map":"workshop/pl_cactuscanyon_redux_rc4b.ugc2579644293","folder":"tf","game":"Team Fortress","app_id":440,"player_count":0,"max_players":24,"Bots":0,"server_type":"Dedicated","server_os":"Linux","password":true,"vac":true,"version":"7723704","steam_id":85568392924742828,"keywords":["nocrits","nodmgspread","payload","uncletopia"],"game_id":440,"stv_port":27086,"stv_name":"Uncletopia | Frankfurt | 8 | Community | STV","players":null},{"server_id":202,"name":"Uncletopia | Hong Kong | 1 | All Maps","name_short":"hgk-1","host":"hgk-1.hk.uncletopia.com","port":27015,"enabled":true,"region":"asia","cc":"hk","latitude":22.302711,"longitude":114.177216,"reserved":0,"last_update":"0001-01-01T00:00:00Z","name_a2s":"Uncletopia | Hong Kong | 1 | All Maps","protocol":17,"map":"ctf_2fort","folder":"tf","game":"Team Fortress","app_id":440,"player_count":0,"max_players":24,"Bots":0,"server_type":"Dedicated","server_os":"Linux","password":true,"vac":true,"version":"7723704","steam_id":85568392924494504,"keywords":["ctf","nocrits","nodmgspread","uncletopia"],"game_id":440,"stv_port":27016,"stv_name":"Uncletopia | Hong Kong | 1 | All Maps | STV","players":null},{"server_id":1,"name":"Uncletopia | Los Angeles | 1 | All Maps","name_short":"lax-1","host":"lax-1.us.uncletopia.com","port":27015,"enabled":true,"region":"us-west","cc":"us","latitude":33.94279,"longitude":-118.41004,"reserved":0,"last_update":"0001-01-01T00:00:00Z","name_a2s":"Uncletopia | Los Angeles | 1 | All Maps","protocol":17,"map":"pl_upward","folder":"tf","game":"Team Fortress","app_id":440,"player_count":24,"max_players":24,"Bots":0,"server_type":"Dedicated","server_os":"Linux","password":true,"vac":true,"version":"7723704","steam_id":85568392924469991,"keywords":["nocrits","nodmgspread","payload","uncletopia"],"game_id":440,"stv_port":27016,"stv_name":"Uncletopia | Los Angeles | 1 | All Maps | STV","players":[{"user_id":101,"name":"Star","steam_id":76561198422395239,"connected_time":2791000000000,"state":"active","ping":48},{"user_id":95,"name":"dust","steam_id":76561198045218909,"connected_time":3906000000000,"state":"active","ping":65},{"user_id":89,"name":"ah","steam_id":76561197966774210,"connected_time":4416000000000,"state":"active","ping":113},{"user_id":102,"name":"Frontier Psychiatrist","steam_id":76561198038689088,"connected_time":2789000000000,"state":"active","ping":116},{"user_id":100,"name":"trackpad gaming | f2p","steam_id":76561198840414371,"connected_time":2938000000000,"state":"active","ping":74},{"user_id":119,"name":"Dwayne \"The Crack Rock\" Johnson","steam_id":76561198073699764,"connected_time":1121000000000,"state":"active","ping":51},{"user_id":110,"name":"Board","steam_id":76561198134326473,"connected_time":2514000000000,"state":"active","ping":89},{"user_id":122,"name":"Seriously Bruh","steam_id":76561198070408485,"connected_time":340000000000,"state":"active","ping":83},{"user_id":121,"name":"kn0n1894","steam_id":76561198249172818,"connected_time":388000000000,"state":"active","ping":92},{"user_id":123,"name":"Toasterduds","steam_id":76561198163477584,"connected_time":194000000000,"state":"active","ping":52},{"user_id":124,"name":"ReformedOrthodoxRabbiBillClinto","steam_id":76561198401455467,"connected_time":160000000000,"state":"active","ping":61},{"user_id":108,"name":"Peido Magro","steam_id":76561199169499520,"connected_time":2565000000000,"state":"active","ping":60},{"user_id":115,"name":"Vision Spire","steam_id":76561198095923905,"connected_time":2045000000000,"state":"active","ping":106},{"user_id":116,"name":"flo rida","steam_id":76561198226169704,"connected_time":1494000000000,"state":"active","ping":54},{"user_id":114,"name":":3 | ph0va_ \u003c3 sab","steam_id":76561198309010627,"connected_time":2345000000000,"state":"active","ping":68},{"user_id":70,"name":"moe","steam_id":76561198929586245,"connected_time":5730000000000,"state":"active","ping":54},{"user_id":111,"name":"Kylar","steam_id":76561198196979431,"connected_time":2507000000000,"state":"active","ping":45},{"user_id":94,"name":"Dad 2","steam_id":76561198138546187,"connected_time":3952000000000,"state":"active","ping":52},{"user_id":117,"name":"huiei","steam_id":76561198073763735,"connected_time":1245000000000,"state":"active","ping":59},{"user_id":82,"name":"fL0","steam_id":76561197990989939,"connected_time":4999000000000,"state":"active","ping":62},{"user_id":112,"name":"S p a f f y","steam_id":76561198047892151,"connected_time":2496000000000,"state":"active","ping":68},{"user_id":80,"name":"jacix3 [gay wolfgirl]{she/it}","steam_id":76561198205004165,"connected_time":5230000000000,"state":"active","ping":79},{"user_id":96,"name":"ZEKKER","steam_id":76561197967968980,"connected_time":3581000000000,"state":"active","ping":79},{"user_id":118,"name":"PopcornNinja101","steam_id":76561198330680181,"connected_time":1244000000000,"state":"active","ping":75}]},{"server_id":112,"name":"Uncletopia | Los Angeles | 2 | All Maps","name_short":"lax-2","host":"lax-1.us.uncletopia.com","port":27025,"enabled":true,"region":"us-west","cc":"us","latitude":33.94279,"longitude":-118.41004,"reserved":0,"last_update":"0001-01-01T00:00:00Z","name_a2s":"Uncletopia | Los Angeles | 2 | All Maps","protocol":17,"map":"koth_viaduct","folder":"tf","game":"Team Fortress","app_id":440,"player_count":0,"max_players":24,"Bots":0,"server_type":"Dedicated","server_os":"Linux","password":true,"vac":true,"version":"7723704","steam_id":85568392924469992,"keywords":["cp","nocrits","nodmgspread","uncletopia"],"game_id":440,"stv_port":27026,"stv_name":"Uncletopia | Los Angeles | 2 | All Maps | STV","players":null},{"server_id":324,"name":"Uncletopia | Los Angeles | 3 | All Maps","name_short":"lax-3","host":"lax-1.us.uncletopia.com","port":27035,"enabled":true,"region":"us-west","cc":"us","latitude":33.94279,"longitude":-118.41004,"reserved":0,"last_update":"0001-01-01T00:00:00Z","name_a2s":"Uncletopia | Los Angeles | 3 | All Maps","protocol":17,"map":"koth_viaduct","folder":"tf","game":"Team Fortress","app_id":440,"player_count":0,"max_players":24,"Bots":0,"server_type":"Dedicated","server_os":"Linux","password":true,"vac":true,"version":"7723704","steam_id":85568392924510198,"keywords":["cp","nocrits","nodmgspread","uncletopia"],"game_id":440,"stv_port":27036,"stv_name":"Uncletopia | Los Angeles | 3 | All Maps | STV","players":null},{"server_id":25,"name":"Uncletopia | Los Angeles | 4 | Stopwatch Beta","name_short":"lax-4","host":"lax-1.us.uncletopia.com","port":27045,"enabled":true,"region":"us-west","cc":"us","latitude":33.94279,"longitude":-118.41004,"reserved":0,"last_update":"0001-01-01T00:00:00Z","name_a2s":"Uncletopia | Los Angeles | 4 | Stopwatch Beta","protocol":17,"map":"cp_sunshine","folder":"tf","game":"Team Fortress","app_id":440,"player_count":0,"max_players":24,"Bots":0,"server_type":"Dedicated","server_os":"Linux","password":true,"vac":true,"version":"7723704","steam_id":85568392924510199,"keywords":["cp","nocrits","nodmgspread","uncletopia"],"game_id":440,"stv_port":27046,"stv_name":"Uncletopia | Los Angeles | 4 | Stopwatch Beta | STV","players":null},{"server_id":11,"name":"Uncletopia | London | 1 | All Maps","name_short":"lon-1","host":"lon-1.uk.uncletopia.com","port":27015,"enabled":true,"region":"eu","cc":"gb","latitude":51.509865,"longitude":-0.118092,"reserved":0,"last_update":"0001-01-01T00:00:00Z","name_a2s":"Uncletopia | London | 1 | All Maps","protocol":17,"map":"pl_goldrush","folder":"tf","game":"Team Fortress","app_id":440,"player_count":20,"max_players":24,"Bots":0,"server_type":"Dedicated","server_os":"Linux","password":true,"vac":true,"version":"7723704","steam_id":85568392924367362,"keywords":["nocrits","nodmgspread","payload","uncletopia"],"game_id":440,"stv_port":27016,"stv_name":"Uncletopia | London | 1 | All Maps | STV","players":[{"user_id":756,"name":"DropShot","steam_id":76561198042476724,"connected_time":704000000000,"state":"active","ping":75},{"user_id":762,"name":"Aaron","steam_id":76561197990046953,"connected_time":35000000000,"state":"active","ping":105},{"user_id":719,"name":"MAKENTAKEN","steam_id":76561199127359587,"connected_time":3661000000000,"state":"active","ping":102},{"user_id":729,"name":"Ancient Mariner","steam_id":76561198209101861,"connected_time":2637000000000,"state":"active","ping":85},{"user_id":732,"name":"xXx_Twink_Hunter_xXx","steam_id":76561198397024973,"connected_time":2063000000000,"state":"active","ping":31},{"user_id":561,"name":"Bones","steam_id":76561198065081225,"connected_time":14517000000000,"state":"active","ping":33},{"user_id":565,"name":"LarsInABox","steam_id":76561198028329262,"connected_time":14141000000000,"state":"active","ping":66},{"user_id":753,"name":"Mr. Stockington","steam_id":76561198091354032,"connected_time":928000000000,"state":"active","ping":202},{"user_id":724,"name":"snazzyyy","steam_id":76561198143529110,"connected_time":3322000000000,"state":"active","ping":46},{"user_id":761,"name":"Koli","steam_id":76561197992428783,"connected_time":69000000000,"state":"active","ping":60},{"user_id":758,"name":"Julez","steam_id":76561198045505082,"connected_time":499000000000,"state":"active","ping":75},{"user_id":733,"name":"ゴミ人間(Buns)","steam_id":76561197999548548,"connected_time":2063000000000,"state":"active","ping":141},{"user_id":755,"name":"festive jones","steam_id":76561198073975078,"connected_time":705000000000,"state":"active","ping":50},{"user_id":737,"name":"Festdoktor","steam_id":76561198058159271,"connected_time":1985000000000,"state":"active","ping":63},{"user_id":743,"name":"Sorky","steam_id":76561198007502339,"connected_time":1714000000000,"state":"active","ping":145},{"user_id":714,"name":"snuggle!","steam_id":76561198817646871,"connected_time":4058000000000,"state":"active","ping":118},{"user_id":760,"name":"SOPHIIEE","steam_id":76561198443798981,"connected_time":149000000000,"state":"active","ping":78},{"user_id":757,"name":"PINKCOREE SCHIZOPOSTER","steam_id":76561198088624259,"connected_time":703000000000,"state":"spawning","ping":342},{"user_id":725,"name":"trite","steam_id":76561197983765323,"connected_time":3254000000000,"state":"active","ping":45},{"user_id":566,"name":"Serton♝","steam_id":76561198011061126,"connected_time":13995000000000,"state":"active","ping":86}]},{"server_id":114,"name":"Uncletopia | London | 2 | All Maps","name_short":"lon-2","host":"lon-1.uk.uncletopia.com","port":27025,"enabled":true,"region":"eu","cc":"gb","latitude":51.509865,"longitude":-0.118092,"reserved":0,"last_update":"0001-01-01T00:00:00Z","name_a2s":"Uncletopia | London | 2 | All Maps","protocol":17,"map":"cp_dustbowl","folder":"tf","game":"Team Fortress","app_id":440,"player_count":19,"max_players":24,"Bots":0,"server_type":"Dedicated","server_os":"Linux","password":true,"vac":true,"version":"7723704","steam_id":85568392924470941,"keywords":["cp","nocrits","nodmgspread","uncletopia"],"game_id":440,"stv_port":27026,"stv_name":"Uncletopia | London | 2 | All Maps | STV","players":[{"user_id":590,"name":"Benameme","steam_id":76561198074097655,"connected_time":419000000000,"state":"active","ping":46},{"user_id":581,"name":"TaiDni","steam_id":76561198087750392,"connected_time":1161000000000,"state":"active","ping":54},{"user_id":599,"name":"Gloteran","steam_id":76561199092623161,"connected_time":44000000000,"state":"active","ping":66},{"user_id":600,"name":"N64","steam_id":76561199077495290,"connected_time":33000000000,"state":"spawning","ping":63},{"user_id":595,"name":"Estamie","steam_id":76561198058527691,"connected_time":252000000000,"state":"active","ping":74},{"user_id":575,"name":"Cippo95","steam_id":76561198255311582,"connected_time":1548000000000,"state":"active","ping":84},{"user_id":587,"name":"ECS","steam_id":76561198058910121,"connected_time":969000000000,"state":"active","ping":49},{"user_id":573,"name":"Raldow","steam_id":76561198021389301,"connected_time":1738000000000,"state":"active","ping":53},{"user_id":591,"name":"Moral","steam_id":76561198130601123,"connected_time":405000000000,"state":"active","ping":66},{"user_id":536,"name":"Dises Dr. Kollege","steam_id":76561198027697768,"connected_time":3443000000000,"state":"active","ping":90},{"user_id":582,"name":"masutaaa","steam_id":76561198072233046,"connected_time":1154000000000,"state":"active","ping":77},{"user_id":585,"name":"Wrabchev* Just_Smile","steam_id":76561198040645344,"connected_time":1014000000000,"state":"active","ping":77},{"user_id":593,"name":"M A D M A X","steam_id":76561198205304508,"connected_time":396000000000,"state":"active","ping":48},{"user_id":597,"name":"The Pyro Chef","steam_id":76561198069610259,"connected_time":150000000000,"state":"active","ping":47},{"user_id":598,"name":"Weenie Hut Jr's","steam_id":76561198050515739,"connected_time":70000000000,"state":"active","ping":46},{"user_id":570,"name":"big al","steam_id":76561198800662675,"connected_time":1860000000000,"state":"active","ping":88},{"user_id":576,"name":"Raki's 3am Demon","steam_id":76561199105063476,"connected_time":1498000000000,"state":"active","ping":68},{"user_id":584,"name":"RatSmacker4000","steam_id":76561199093223485,"connected_time":1022000000000,"state":"active","ping":47},{"user_id":588,"name":"rainbowmaster25!","steam_id":76561199215255414,"connected_time":961000000000,"state":"active","ping":164}]},{"server_id":320,"name":"Uncletopia | London | 3 | All Maps","name_short":"lon-3","host":"lon-1.uk.uncletopia.com","port":27035,"enabled":true,"region":"eu","cc":"gb","latitude":51.509865,"longitude":-0.118092,"reserved":0,"last_update":"0001-01-01T00:00:00Z","name_a2s":"Uncletopia | London | 3 | All Maps","protocol":17,"map":"pl_badwater","folder":"tf","game":"Team Fortress","app_id":440,"player_count":24,"max_players":24,"Bots":0,"server_type":"Dedicated","server_os":"Linux","password":true,"vac":true,"version":"7723704","steam_id":85568392924510192,"keywords":["nocrits","nodmgspread","payload","uncletopia"],"game_id":440,"stv_port":27036,"stv_name":"Uncletopia | London | 3 | All Maps | STV","players":[{"user_id":458,"name":"Frazzles","steam_id":76561199228009586,"connected_time":4331000000000,"state":"active","ping":42},{"user_id":464,"name":"Creep","steam_id":76561198067157049,"connected_time":3733000000000,"state":"active","ping":47},{"user_id":519,"name":"SPOOKY HEAVY GAMING","steam_id":76561198198044361,"connected_time":568000000000,"state":"active","ping":58},{"user_id":470,"name":"Smag","steam_id":76561198153675141,"connected_time":2421000000000,"state":"active","ping":52},{"user_id":452,"name":"timothytreestand-041165","steam_id":76561197995676953,"connected_time":5109000000000,"state":"active","ping":59},{"user_id":486,"name":"√(-Wolf)","steam_id":76561198024769704,"connected_time":2224000000000,"state":"active","ping":92},{"user_id":511,"name":"Klik","steam_id":76561198891046692,"connected_time":673000000000,"state":"active","ping":73},{"user_id":497,"name":"Zirk","steam_id":76561198039345808,"connected_time":1422000000000,"state":"active","ping":49},{"user_id":492,"name":"Jayco","steam_id":76561198122497262,"connected_time":1720000000000,"state":"active","ping":43},{"user_id":513,"name":"oddlyobtuselemon1654","steam_id":76561198877069773,"connected_time":640000000000,"state":"active","ping":150},{"user_id":479,"name":"madman hesus","steam_id":76561198159702599,"connected_time":2330000000000,"state":"active","ping":72},{"user_id":489,"name":"goblinninja110","steam_id":76561198269159354,"connected_time":1910000000000,"state":"active","ping":56},{"user_id":516,"name":"Yelowchy","steam_id":76561198199416121,"connected_time":626000000000,"state":"active","ping":98},{"user_id":465,"name":"Lamb","steam_id":76561198106868468,"connected_time":3367000000000,"state":"active","ping":88},{"user_id":467,"name":"Trytard","steam_id":76561198094507220,"connected_time":3263000000000,"state":"active","ping":50},{"user_id":521,"name":"Solmeunière","steam_id":76561198056900126,"connected_time":450000000000,"state":"active","ping":47},{"user_id":466,"name":"Happy","steam_id":76561198042687780,"connected_time":3296000000000,"state":"active","ping":88},{"user_id":478,"name":"kitori","steam_id":76561198052568438,"connected_time":2362000000000,"state":"active","ping":50},{"user_id":520,"name":"Burpman","steam_id":76561198022897937,"connected_time":517000000000,"state":"active","ping":46},{"user_id":517,"name":"The rat is Nux","steam_id":76561197999250254,"connected_time":620000000000,"state":"active","ping":48},{"user_id":522,"name":"Righty","steam_id":76561199224705434,"connected_time":309000000000,"state":"active","ping":129},{"user_id":524,"name":"why rum gone","steam_id":76561198158484784,"connected_time":201000000000,"state":"active","ping":64},{"user_id":518,"name":"Bumblebee","steam_id":76561198033551105,"connected_time":606000000000,"state":"active","ping":67},{"user_id":485,"name":"Gorzel","steam_id":76561198828273330,"connected_time":2229000000000,"state":"active","ping":78}]},{"server_id":321,"name":"Uncletopia | London | 4 | All Maps","name_short":"lon-4","host":"lon-1.uk.uncletopia.com","port":27045,"enabled":true,"region":"eu","cc":"gb","latitude":51.509865,"longitude":-0.118092,"reserved":0,"last_update":"0001-01-01T00:00:00Z","name_a2s":"Uncletopia | London | 4 | All Maps","protocol":17,"map":"pl_upward","folder":"tf","game":"Team Fortress","app_id":440,"player_count":24,"max_players":24,"Bots":0,"server_type":"Dedicated","server_os":"Linux","password":true,"vac":true,"version":"7723704","steam_id":85568392924510193,"keywords":["nocrits","nodmgspread","payload","uncletopia"],"game_id":440,"stv_port":27046,"stv_name":"Uncletopia | London | 4 | All Maps | STV","players":[{"user_id":244,"name":".quickfast.","steam_id":76561199438900919,"connected_time":527000000000,"state":"active","ping":48},{"user_id":254,"name":"Big_Bunda","steam_id":76561198429058028,"connected_time":379000000000,"state":"active","ping":55},{"user_id":255,"name":"ButterMan","steam_id":76561198159660970,"connected_time":356000000000,"state":"active","ping":117},{"user_id":240,"name":"Yaire","steam_id":76561198017343510,"connected_time":1375000000000,"state":"active","ping":60},{"user_id":245,"name":"Handy","steam_id":76561198125055365,"connected_time":500000000000,"state":"active","ping":63},{"user_id":200,"name":"nedilya","steam_id":76561198039692077,"connected_time":4761000000000,"state":"active","ping":61},{"user_id":228,"name":"akciq ⁧⁧respect","steam_id":76561198390963456,"connected_time":3279000000000,"state":"active","ping":86},{"user_id":190,"name":"тукку ирма","steam_id":76561197998715016,"connected_time":5509000000000,"state":"active","ping":66},{"user_id":258,"name":"GUSSI'","steam_id":76561198066837838,"connected_time":162000000000,"state":"active","ping":72},{"user_id":246,"name":"C0d3s","steam_id":76561198093907544,"connected_time":488000000000,"state":"active","ping":96},{"user_id":256,"name":"LongBalls","steam_id":76561198152566809,"connected_time":283000000000,"state":"active","ping":181},{"user_id":212,"name":"notchclaus","steam_id":76561198203152816,"connected_time":3932000000000,"state":"active","ping":49},{"user_id":247,"name":"cropping","steam_id":76561198026586456,"connected_time":487000000000,"state":"active","ping":57},{"user_id":248,"name":"lark","steam_id":76561198091724522,"connected_time":480000000000,"state":"active","ping":56},{"user_id":203,"name":"Litsuw","steam_id":76561198081785898,"connected_time":4656000000000,"state":"active","ping":56},{"user_id":231,"name":"Gnome561","steam_id":76561198183771141,"connected_time":2760000000000,"state":"active","ping":68},{"user_id":249,"name":"Vi","steam_id":76561198036546142,"connected_time":463000000000,"state":"active","ping":35},{"user_id":252,"name":"miko polo","steam_id":76561198430649064,"connected_time":418000000000,"state":"active","ping":67},{"user_id":197,"name":"Yatsuzume","steam_id":76561198059762108,"connected_time":5103000000000,"state":"active","ping":91},{"user_id":253,"name":"Mari Christmas","steam_id":76561197997020707,"connected_time":407000000000,"state":"active","ping":55},{"user_id":237,"name":"woman beater","steam_id":76561199042470246,"connected_time":2026000000000,"state":"active","ping":66},{"user_id":251,"name":"Aphex triplet","steam_id":76561198047725816,"connected_time":436000000000,"state":"active","ping":59},{"user_id":242,"name":"full time relaxer","steam_id":76561199152162361,"connected_time":689000000000,"state":"active","ping":62},{"user_id":257,"name":"xXdoge gaming 42069Xx","steam_id":76561198372971096,"connected_time":258000000000,"state":"active","ping":79}]},{"server_id":21,"name":"Uncletopia | London | 5 | All Maps","name_short":"lon-5","host":"lon-1.uk.uncletopia.com","port":27055,"enabled":true,"region":"eu","cc":"gb","latitude":51.509865,"longitude":-0.118092,"reserved":0,"last_update":"0001-01-01T00:00:00Z","name_a2s":"Uncletopia | London | 5 | All Maps","protocol":17,"map":"pl_swiftwater_final1","folder":"tf","game":"Team Fortress","app_id":440,"player_count":16,"max_players":24,"Bots":0,"server_type":"Dedicated","server_os":"Linux","password":true,"vac":true,"version":"7723704","steam_id":85568392924742829,"keywords":["nocrits","nodmgspread","payload","uncletopia"],"game_id":440,"stv_port":27056,"stv_name":"Uncletopia | London | 5 | All Maps | STV","players":[{"user_id":258,"name":"Omnom143","steam_id":76561198097838265,"connected_time":24000000000,"state":"spawning","ping":125},{"user_id":212,"name":"wombatty","steam_id":76561198046873337,"connected_time":6571000000000,"state":"active","ping":53},{"user_id":237,"name":"onku","steam_id":76561199230709660,"connected_time":3736000000000,"state":"active","ping":61},{"user_id":138,"name":"wombly bombly :3","steam_id":76561198010662796,"connected_time":11913000000000,"state":"active","ping":62},{"user_id":225,"name":"downtown boy","steam_id":76561197983094802,"connected_time":5340000000000,"state":"active","ping":81},{"user_id":257,"name":"Someone","steam_id":76561199030195879,"connected_time":627000000000,"state":"active","ping":37},{"user_id":214,"name":"Wombussy","steam_id":76561198133901720,"connected_time":6296000000000,"state":"active","ping":68},{"user_id":253,"name":"Droyin","steam_id":76561199219654706,"connected_time":778000000000,"state":"active","ping":106},{"user_id":144,"name":"-wombat","steam_id":76561198076219289,"connected_time":11632000000000,"state":"active","ping":50},{"user_id":192,"name":"sock","steam_id":76561199117597830,"connected_time":8157000000000,"state":"spawning","ping":147},{"user_id":244,"name":"makiverem","steam_id":76561198425866216,"connected_time":2857000000000,"state":"active","ping":79},{"user_id":223,"name":"VK2124 :D","steam_id":76561198111130688,"connected_time":5381000000000,"state":"active","ping":55},{"user_id":238,"name":"random_player691","steam_id":76561199209946306,"connected_time":3677000000000,"state":"active","ping":114},{"user_id":245,"name":"frosty","steam_id":76561198094560834,"connected_time":2086000000000,"state":"active","ping":47},{"user_id":243,"name":"-TA- skai","steam_id":76561198184881255,"connected_time":2863000000000,"state":"active","ping":74},{"user_id":251,"name":"JGV","steam_id":76561198094654971,"connected_time":1494000000000,"state":"active","ping":64}]},{"server_id":22,"name":"Uncletopia | London | 6 | All Maps","name_short":"lon-6","host":"lon-1.uk.uncletopia.com","port":27065,"enabled":true,"region":"eu","cc":"gb","latitude":51.509865,"longitude":-0.118092,"reserved":0,"last_update":"0001-01-01T00:00:00Z","name_a2s":"Uncletopia | London | 6 | All Maps","protocol":17,"map":"pl_frontier_final","folder":"tf","game":"Team Fortress","app_id":440,"player_count":24,"max_players":24,"Bots":0,"server_type":"Dedicated","server_os":"Linux","password":true,"vac":true,"version":"7723704","steam_id":85568392924742830,"keywords":["nocrits","nodmgspread","payload","uncletopia"],"game_id":440,"stv_port":27066,"stv_name":"Uncletopia | London | 6 | All Maps | STV","players":[{"user_id":61,"name":"Ged","steam_id":76561198079288943,"connected_time":2974000000000,"state":"active","ping":120},{"user_id":54,"name":"eXo(T)","steam_id":76561198839841843,"connected_time":3230000000000,"state":"active","ping":61},{"user_id":53,"name":"Yxel","steam_id":76561198123982890,"connected_time":3239000000000,"state":"active","ping":64},{"user_id":72,"name":"water bottle","steam_id":76561199141538535,"connected_time":1292000000000,"state":"active","ping":42},{"user_id":68,"name":"ck","steam_id":76561197984084920,"connected_time":1579000000000,"state":"active","ping":74},{"user_id":14,"name":"Ducc","steam_id":76561198030677425,"connected_time":4867000000000,"state":"active","ping":60},{"user_id":73,"name":"Seail_M","steam_id":76561198002405605,"connected_time":1282000000000,"state":"active","ping":61},{"user_id":16,"name":"jeqer","steam_id":76561198256573643,"connected_time":4822000000000,"state":"active","ping":63},{"user_id":74,"name":"milikicz","steam_id":76561198050626103,"connected_time":1149000000000,"state":"active","ping":89},{"user_id":78,"name":"muZ","steam_id":76561198060145190,"connected_time":845000000000,"state":"active","ping":72},{"user_id":81,"name":"Lukas","steam_id":76561198009118452,"connected_time":369000000000,"state":"active","ping":63},{"user_id":80,"name":"Bowack","steam_id":76561198132204313,"connected_time":429000000000,"state":"active","ping":65},{"user_id":70,"name":"WAP Wagon","steam_id":76561198306393090,"connected_time":1505000000000,"state":"active","ping":135},{"user_id":79,"name":"ivanmixo","steam_id":76561198160213989,"connected_time":716000000000,"state":"active","ping":79},{"user_id":46,"name":"fiyahstorm","steam_id":76561197992574261,"connected_time":3896000000000,"state":"active","ping":49},{"user_id":64,"name":"Mir","steam_id":76561198271925474,"connected_time":2523000000000,"state":"active","ping":56},{"user_id":63,"name":"BingusDingus","steam_id":76561198310983903,"connected_time":2921000000000,"state":"active","ping":53},{"user_id":49,"name":"One armed fiddle enthusiast","steam_id":76561198045847051,"connected_time":3533000000000,"state":"active","ping":60},{"user_id":33,"name":"Clamor_","steam_id":76561198104368295,"connected_time":4531000000000,"state":"active","ping":83},{"user_id":57,"name":"Economic crisis","steam_id":76561198063562843,"connected_time":3170000000000,"state":"active","ping":62},{"user_id":35,"name":"Mankor","steam_id":76561198020439322,"connected_time":4507000000000,"state":"active","ping":60},{"user_id":59,"name":"Pachakamakk","steam_id":76561197989010401,"connected_time":3061000000000,"state":"active","ping":50},{"user_id":75,"name":"nymthae","steam_id":76561197991795120,"connected_time":936000000000,"state":"active","ping":57},{"user_id":50,"name":"agentorange831","steam_id":76561199230862076,"connected_time":3413000000000,"state":"active","ping":76}]},{"server_id":40,"name":"Uncletopia | London | 7 | No Payload","name_short":"lon-7","host":"lon-1.uk.uncletopia.com","port":27075,"enabled":true,"region":"eu","cc":"gb","latitude":51.509865,"longitude":-0.118092,"reserved":0,"last_update":"0001-01-01T00:00:00Z","name_a2s":"Uncletopia | London | 7 | No Payload","protocol":17,"map":"plr_nightfall_final","folder":"tf","game":"Team Fortress","app_id":440,"player_count":0,"max_players":24,"Bots":0,"server_type":"Dedicated","server_os":"Linux","password":true,"vac":true,"version":"7723704","steam_id":85568392924964314,"keywords":["nocrits","nodmgspread","payload","uncletopia"],"game_id":440,"stv_port":27076,"stv_name":"Uncletopia | London | 7 | No Payload | STV","players":null},{"server_id":41,"name":"Uncletopia | London | 8 | Community","name_short":"lon-8","host":"lon-1.uk.uncletopia.com","port":27085,"enabled":true,"region":"eu","cc":"gb","latitude":51.509865,"longitude":-0.118092,"reserved":0,"last_update":"0001-01-01T00:00:00Z","name_a2s":"Uncletopia | London | 8 | Community","protocol":17,"map":"workshop/koth_ramjam_v2_b2.ugc2865676487","folder":"tf","game":"Team Fortress","app_id":440,"player_count":4,"max_players":24,"Bots":0,"server_type":"Dedicated","server_os":"Linux","password":true,"vac":true,"version":"7723704","steam_id":85568392924964315,"keywords":["cp","nocrits","nodmgspread","uncletopia"],"game_id":440,"stv_port":27086,"stv_name":"Uncletopia | London | 8 | Community | STV","players":[{"user_id":20,"name":"wörb","steam_id":76561198159517104,"connected_time":1830000000000,"state":"active","ping":69},{"user_id":23,"name":"stoicist","steam_id":76561197985213048,"connected_time":676000000000,"state":"active","ping":45},{"user_id":24,"name":"popdog","steam_id":76561199225397974,"connected_time":649000000000,"state":"active","ping":119},{"user_id":27,"name":"Pan W","steam_id":76561198384111099,"connected_time":482000000000,"state":"active","ping":73}]},{"server_id":300,"name":"Uncletopia | Montréal | 1 | All Maps","name_short":"mtl-1","host":"mtl-1.ca.uncletopia.com","port":27015,"enabled":true,"region":"us-east","cc":"ca","latitude":45.50889,"longitude":-73.56167,"reserved":0,"last_update":"0001-01-01T00:00:00Z","name_a2s":"Uncletopia | Montréal | 1 | All Maps","protocol":17,"map":"cp_mountainlab","folder":"tf","game":"Team Fortress","app_id":440,"player_count":0,"max_players":24,"Bots":0,"server_type":"Dedicated","server_os":"Linux","password":true,"vac":true,"version":"7723704","steam_id":85568392924500087,"keywords":["cp","nocrits","nodmgspread","uncletopia"],"game_id":440,"stv_port":27016,"stv_name":"Uncletopia | Montréal | 1 | All Maps | STV","players":null},{"server_id":301,"name":"Uncletopia | Montréal | 2 | All Maps","name_short":"mtl-2","host":"mtl-1.ca.uncletopia.com","port":27025,"enabled":true,"region":"us-east","cc":"ca","latitude":45.50889,"longitude":-73.56167,"reserved":0,"last_update":"0001-01-01T00:00:00Z","name_a2s":"Uncletopia | Montréal | 2 | All Maps","protocol":17,"map":"cp_process_final","folder":"tf","game":"Team Fortress","app_id":440,"player_count":0,"max_players":24,"Bots":0,"server_type":"Dedicated","server_os":"Linux","password":true,"vac":true,"version":"7723704","steam_id":85568392924500088,"keywords":["cp","nocrits","nodmgspread","uncletopia"],"game_id":440,"stv_port":27026,"stv_name":"Uncletopia | Montréal | 2 | All Maps | STV","players":null},{"server_id":302,"name":"Uncletopia | Montréal | 3 | All Maps","name_short":"mtl-3","host":"mtl-1.ca.uncletopia.com","port":27035,"enabled":true,"region":"us-east","cc":"ca","latitude":45.50889,"longitude":-73.56167,"reserved":0,"last_update":"0001-01-01T00:00:00Z","name_a2s":"Uncletopia | Montréal | 3 | All Maps","protocol":17,"map":"pl_barnblitz","folder":"tf","game":"Team Fortress","app_id":440,"player_count":0,"max_players":24,"Bots":0,"server_type":"Dedicated","server_os":"Linux","password":true,"vac":true,"version":"7723704","steam_id":85568392924500089,"keywords":["nocrits","nodmgspread","payload","uncletopia"],"game_id":440,"stv_port":27036,"stv_name":"Uncletopia | Montréal | 3 | All Maps | STV","players":null},{"server_id":303,"name":"Uncletopia | Montréal | 4 | No Payload","name_short":"mtl-4","host":"mtl-1.ca.uncletopia.com","port":27045,"enabled":true,"region":"us-east","cc":"ca","latitude":45.50889,"longitude":-73.56167,"reserved":0,"last_update":"0001-01-01T00:00:00Z","name_a2s":"Uncletopia | Montréal | 4 | No Payload","protocol":17,"map":"koth_cascade","folder":"tf","game":"Team Fortress","app_id":440,"player_count":0,"max_players":24,"Bots":0,"server_type":"Dedicated","server_os":"Linux","password":true,"vac":true,"version":"7723704","steam_id":85568392924500090,"keywords":["cp","nocrits","nodmgspread","uncletopia"],"game_id":440,"stv_port":27046,"stv_name":"Uncletopia | Montréal | 4 | No Payload | STV","players":null},{"server_id":13,"name":"Uncletopia | New York City | 1 | All Maps","name_short":"nyc-1","host":"nyc-1.us.uncletopia.com","port":27015,"enabled":true,"region":"us-east","cc":"us","latitude":40.73061,"longitude":-73.93524,"reserved":0,"last_update":"0001-01-01T00:00:00Z","name_a2s":"Uncletopia | New York City | 1 | All Maps","protocol":17,"map":"pl_upward","folder":"tf","game":"Team Fortress","app_id":440,"player_count":0,"max_players":24,"Bots":0,"server_type":"Dedicated","server_os":"Linux","password":true,"vac":true,"version":"7723704","steam_id":85568392924469993,"keywords":["nocrits","nodmgspread","payload","uncletopia"],"game_id":440,"stv_port":27016,"stv_name":"Uncletopia | New York City | 1 | All Maps | STV","players":null},{"server_id":14,"name":"Uncletopia | New York City | 2 | All Maps","name_short":"nyc-2","host":"nyc-1.us.uncletopia.com","port":27025,"enabled":true,"region":"us-east","cc":"us","latitude":40.73061,"longitude":-73.93524,"reserved":0,"last_update":"0001-01-01T00:00:00Z","name_a2s":"Uncletopia | New York City | 2 | All Maps","protocol":17,"map":"pl_borneo","folder":"tf","game":"Team Fortress","app_id":440,"player_count":0,"max_players":24,"Bots":0,"server_type":"Dedicated","server_os":"Linux","password":true,"vac":true,"version":"7723704","steam_id":85568392924469994,"keywords":["nocrits","nodmgspread","payload","uncletopia"],"game_id":440,"stv_port":27026,"stv_name":"Uncletopia | New York City | 2 | All Maps | STV","players":null},{"server_id":15,"name":"Uncletopia | New York City | 3 | Stopwatch Beta","name_short":"nyc-3","host":"nyc-1.us.uncletopia.com","port":27035,"enabled":true,"region":"us-east","cc":"us","latitude":40.73061,"longitude":-73.93524,"reserved":0,"last_update":"0001-01-01T00:00:00Z","name_a2s":"Uncletopia | New York City | 3 | Stopwatch Beta","protocol":17,"map":"cp_process_final","folder":"tf","game":"Team Fortress","app_id":440,"player_count":0,"max_players":24,"Bots":0,"server_type":"Dedicated","server_os":"Linux","password":true,"vac":true,"version":"7723704","steam_id":85568392924742820,"keywords":["cp","nocrits","nodmgspread","uncletopia"],"game_id":440,"stv_port":27036,"stv_name":"Uncletopia | New York City | 3 | Stopwatch Beta | STV","players":null},{"server_id":16,"name":"Uncletopia | New York City | 4 | Community","name_short":"nyc-4","host":"nyc-1.us.uncletopia.com","port":27045,"enabled":true,"region":"us-east","cc":"us","latitude":40.73061,"longitude":-73.93524,"reserved":0,"last_update":"0001-01-01T00:00:00Z","name_a2s":"Uncletopia | New York City | 4 | Community","protocol":17,"map":"workshop/cp_caldera_rc2.ugc2834196889","folder":"tf","game":"Team Fortress","app_id":440,"player_count":0,"max_players":24,"Bots":0,"server_type":"Dedicated","server_os":"Linux","password":true,"vac":true,"version":"7723704","steam_id":85568392924742821,"keywords":["cp","nocrits","nodmgspread","uncletopia"],"game_id":440,"stv_port":27046,"stv_name":"Uncletopia | New York City | 4 | Community | STV","players":null},{"server_id":142,"name":"Uncletopia | São Paulo | 1 | All Maps","name_short":"sao-1","host":"sao-1.br.uncletopia.com","port":27015,"enabled":true,"region":"sa","cc":"br","latitude":-23.533773,"longitude":-46.62529,"reserved":0,"last_update":"0001-01-01T00:00:00Z","name_a2s":"Uncletopia | São Paulo | 1 | All Maps","protocol":17,"map":"cp_mountainlab","folder":"tf","game":"Team Fortress","app_id":440,"player_count":2,"max_players":24,"Bots":0,"server_type":"Dedicated","server_os":"Linux","password":true,"vac":true,"version":"7723704","steam_id":85568392924469996,"keywords":["cp","nocrits","nodmgspread","uncletopia"],"game_id":440,"stv_port":27016,"stv_name":"Uncletopia | São Paulo | 1 | All Maps | STV","players":[{"user_id":22,"name":"Emisu","steam_id":76561198278086794,"connected_time":157000000000,"state":"active","ping":47},{"user_id":21,"name":"vinisaurus","steam_id":76561198112127509,"connected_time":262000000000,"state":"active","ping":60}]},{"server_id":143,"name":"Uncletopia | São Paulo | 2 | All Maps","name_short":"sao-2","host":"sao-2.br.uncletopia.com","port":27015,"enabled":true,"region":"sa","cc":"br","latitude":-23.533773,"longitude":-46.62529,"reserved":0,"last_update":"0001-01-01T00:00:00Z","name_a2s":"Uncletopia | São Paulo | 2 | All Maps","protocol":17,"map":"cp_mountainlab","folder":"tf","game":"Team Fortress","app_id":440,"player_count":2,"max_players":24,"Bots":0,"server_type":"Dedicated","server_os":"Linux","password":true,"vac":true,"version":"7723704","steam_id":85568392924485349,"keywords":["cp","nocrits","nodmgspread","uncletopia"],"game_id":440,"stv_port":27016,"stv_name":"Uncletopia | São Paulo | 2 | All Maps | STV","players":[{"user_id":30,"name":"Vic Rattlehead","steam_id":76561199232899925,"connected_time":624000000000,"state":"active","ping":52},{"user_id":29,"name":"starfinder","steam_id":76561199071758773,"connected_time":985000000000,"state":"active","ping":356}]},{"server_id":7,"name":"Uncletopia | Seattle | 1 | All Maps","name_short":"sea-1","host":"sea-1.us.uncletopia.com","port":27015,"enabled":true,"region":"us-west","cc":"us","latitude":47.608013,"longitude":-122.33517,"reserved":0,"last_update":"0001-01-01T00:00:00Z","name_a2s":"Uncletopia | Seattle | 1 | All Maps","protocol":17,"map":"pl_snowycoast","folder":"tf","game":"Team Fortress","app_id":440,"player_count":23,"max_players":24,"Bots":0,"server_type":"Dedicated","server_os":"Linux","password":true,"vac":true,"version":"7723704","steam_id":85568392924469997,"keywords":["nocrits","nodmgspread","payload","uncletopia"],"game_id":440,"stv_port":27016,"stv_name":"Uncletopia | Seattle | 1 | All Maps | STV","players":[{"user_id":55,"name":"shrtrthn","steam_id":76561198380851240,"connected_time":581000000000,"state":"active","ping":60},{"user_id":75,"name":"Dr. Karl, the AUS Science Guy","steam_id":76561198031278747,"connected_time":38000000000,"state":"active","ping":45},{"user_id":39,"name":"chompmastr","steam_id":76561199121805899,"connected_time":985000000000,"state":"active","ping":54},{"user_id":40,"name":"Luca","steam_id":76561198125087140,"connected_time":916000000000,"state":"active","ping":46},{"user_id":56,"name":"COOL master_9","steam_id":76561198073041151,"connected_time":580000000000,"state":"active","ping":89},{"user_id":57,"name":"Taco","steam_id":76561198158621392,"connected_time":572000000000,"state":"active","ping":106},{"user_id":43,"name":"RecklessRoadRage","steam_id":76561199089562026,"connected_time":839000000000,"state":"active","ping":45},{"user_id":69,"name":"9. choking on apple","steam_id":76561198984612489,"connected_time":324000000000,"state":"active","ping":75},{"user_id":45,"name":"shiadyne","steam_id":76561198271939793,"connected_time":775000000000,"state":"active","ping":47},{"user_id":46,"name":"Human_Duck_Box","steam_id":76561199216572071,"connected_time":714000000000,"state":"active","ping":51},{"user_id":73,"name":"Pop Pop","steam_id":76561198211396781,"connected_time":161000000000,"state":"active","ping":86},{"user_id":72,"name":"vg","steam_id":76561197965109127,"connected_time":272000000000,"state":"connecting","ping":0},{"user_id":50,"name":"resting neutral face","steam_id":76561197999259502,"connected_time":662000000000,"state":"active","ping":61},{"user_id":53,"name":"Idontknow","steam_id":76561199207044048,"connected_time":627000000000,"state":"active","ping":43},{"user_id":54,"name":"Bobthebadguy","steam_id":76561198402724134,"connected_time":608000000000,"state":"active","ping":54},{"user_id":66,"name":"BrnzWhenIPee","steam_id":76561198308525650,"connected_time":361000000000,"state":"active","ping":66},{"user_id":59,"name":"charm crack","steam_id":76561198098770777,"connected_time":552000000000,"state":"active","ping":60},{"user_id":60,"name":"Subsonic","steam_id":76561198185578879,"connected_time":541000000000,"state":"active","ping":130},{"user_id":61,"name":"GrummBlumm","steam_id":76561198243035656,"connected_time":537000000000,"state":"active","ping":95},{"user_id":67,"name":"double_blinkerton","steam_id":76561198041017977,"connected_time":356000000000,"state":"active","ping":120},{"user_id":68,"name":"Flickerr","steam_id":76561198080190967,"connected_time":355000000000,"state":"active","ping":50},{"user_id":70,"name":"crawling_man","steam_id":76561199010658004,"connected_time":319000000000,"state":"active","ping":121},{"user_id":74,"name":"ItsDonut","steam_id":76561198862163064,"connected_time":120000000000,"state":"active","ping":84}]},{"server_id":119,"name":"Uncletopia | Seattle | 2 | All Maps","name_short":"sea-2","host":"sea-1.us.uncletopia.com","port":27025,"enabled":true,"region":"us-west","cc":"us","latitude":47.608013,"longitude":-122.33517,"reserved":0,"last_update":"0001-01-01T00:00:00Z","name_a2s":"Uncletopia | Seattle | 2 | All Maps","protocol":17,"map":"pl_badwater","folder":"tf","game":"Team Fortress","app_id":440,"player_count":1,"max_players":24,"Bots":0,"server_type":"Dedicated","server_os":"Linux","password":true,"vac":true,"version":"7723704","steam_id":85568392924469998,"keywords":["nocrits","nodmgspread","payload","uncletopia"],"game_id":440,"stv_port":27026,"stv_name":"Uncletopia | Seattle | 2 | All Maps | STV","players":[{"user_id":28,"name":"InfernoFlower64","steam_id":76561198181097391,"connected_time":94000000000,"state":"active","ping":85}]},{"server_id":406,"name":"Uncletopia | Seattle | 3 | Stopwatch Beta","name_short":"sea-3","host":"sea-1.us.uncletopia.com","port":27035,"enabled":true,"region":"us-west","cc":"us","latitude":47.608013,"longitude":-122.33517,"reserved":0,"last_update":"0001-01-01T00:00:00Z","name_a2s":"Uncletopia | Seattle | 3 | Stopwatch Beta","protocol":17,"map":"cp_altitude","folder":"tf","game":"Team Fortress","app_id":440,"player_count":0,"max_players":24,"Bots":0,"server_type":"Dedicated","server_os":"Linux","password":true,"vac":false,"version":"7723704","steam_id":0,"keywords":["cp","nocrits","nodmgspread","uncletopia"],"game_id":440,"stv_port":27036,"stv_name":"Uncletopia | Seattle | 3 | Stopwatch Beta | STV","players":null},{"server_id":17,"name":"Uncletopia | San Francisco | 1 | All Maps","name_short":"sfo-1","host":"sfo-1.us.uncletopia.com","port":27015,"enabled":true,"region":"us-west","cc":"us","latitude":37.77397,"longitude":-122.4313,"reserved":0,"last_update":"0001-01-01T00:00:00Z","name_a2s":"Uncletopia | San Francisco | 1 | All Maps","protocol":17,"map":"pl_frontier_final","folder":"tf","game":"Team Fortress","app_id":440,"player_count":0,"max_players":24,"Bots":0,"server_type":"Dedicated","server_os":"Linux","password":true,"vac":true,"version":"7723704","steam_id":85568392924469999,"keywords":["nocrits","nodmgspread","payload","uncletopia"],"game_id":440,"stv_port":27016,"stv_name":"Uncletopia | San Francisco | 1 | All Maps | STV","players":null},{"server_id":18,"name":"Uncletopia | San Francisco | 2 | All Maps","name_short":"sfo-2","host":"sfo-1.us.uncletopia.com","port":27025,"enabled":true,"region":"us-west","cc":"us","latitude":37.77397,"longitude":-122.4313,"reserved":0,"last_update":"0001-01-01T00:00:00Z","name_a2s":"Uncletopia | San Francisco | 2 | All Maps","protocol":17,"map":"pl_borneo","folder":"tf","game":"Team Fortress","app_id":440,"player_count":0,"max_players":24,"Bots":0,"server_type":"Dedicated","server_os":"Linux","password":true,"vac":true,"version":"7723704","steam_id":85568392924470000,"keywords":["nocrits","nodmgspread","payload","uncletopia"],"game_id":440,"stv_port":27026,"stv_name":"Uncletopia | San Francisco | 2 | All Maps | STV","players":null},{"server_id":19,"name":"Uncletopia | San Francisco | 3 | Stopwatch Beta","name_short":"sfo-3","host":"sfo-1.us.uncletopia.com","port":27035,"enabled":true,"region":"us-west","cc":"us","latitude":37.77397,"longitude":-122.4313,"reserved":0,"last_update":"0001-01-01T00:00:00Z","name_a2s":"Uncletopia | San Francisco | 3 | Stopwatch Beta","protocol":17,"map":"pl_pier","folder":"tf","game":"Team Fortress","app_id":440,"player_count":0,"max_players":24,"Bots":0,"server_type":"Dedicated","server_os":"Linux","password":true,"vac":true,"version":"7723704","steam_id":85568392924742824,"keywords":["nocrits","nodmgspread","payload","uncletopia"],"game_id":440,"stv_port":27036,"stv_name":"Uncletopia | San Francisco | 3 | Stopwatch Beta | STV","players":null},{"server_id":20,"name":"Uncletopia | San Francisco | 4 | Community","name_short":"sfo-4","host":"sfo-1.us.uncletopia.com","port":27045,"enabled":true,"region":"us-west","cc":"us","latitude":37.77397,"longitude":-122.4313,"reserved":0,"last_update":"0001-01-01T00:00:00Z","name_a2s":"Uncletopia | San Francisco | 4 | Community","protocol":17,"map":"koth_cascade","folder":"tf","game":"Team Fortress","app_id":440,"player_count":0,"max_players":24,"Bots":0,"server_type":"Dedicated","server_os":"Linux","password":true,"vac":true,"version":"7723704","steam_id":85568392924742826,"keywords":["cp","nocrits","nodmgspread","uncletopia"],"game_id":440,"stv_port":27046,"stv_name":"Uncletopia | San Francisco | 4 | Community | STV","players":null},{"server_id":141,"name":"Uncletopia | Sydney | 1 | All Maps","name_short":"syd-1","host":"syd-1.au.uncletopia.com","port":27015,"enabled":true,"region":"au","cc":"au","latitude":-33.865143,"longitude":151.2099,"reserved":0,"last_update":"0001-01-01T00:00:00Z","name_a2s":"Uncletopia | Sydney | 1 | All Maps","protocol":17,"map":"cp_dustbowl","folder":"tf","game":"Team Fortress","app_id":440,"player_count":1,"max_players":24,"Bots":0,"server_type":"Dedicated","server_os":"Linux","password":true,"vac":true,"version":"7723704","steam_id":85568392924470001,"keywords":["cp","nocrits","nodmgspread","uncletopia"],"game_id":440,"stv_port":27016,"stv_name":"Uncletopia | Sydney | 1 | All Maps | STV","players":[{"user_id":3,"name":"Jardabib","steam_id":76561199011236039,"connected_time":71000000000,"state":"active","ping":51}]},{"server_id":123,"name":"Uncletopia | Sydney | 2 | All Maps","name_short":"syd-2","host":"syd-1.au.uncletopia.com","port":27025,"enabled":true,"region":"au","cc":"au","latitude":-33.865143,"longitude":151.2099,"reserved":0,"last_update":"0001-01-01T00:00:00Z","name_a2s":"Uncletopia | Sydney | 2 | All Maps","protocol":17,"map":"cp_mountainlab","folder":"tf","game":"Team Fortress","app_id":440,"player_count":0,"max_players":24,"Bots":0,"server_type":"Dedicated","server_os":"Linux","password":true,"vac":true,"version":"7723704","steam_id":85568392924470002,"keywords":["cp","nocrits","nodmgspread","uncletopia"],"game_id":440,"stv_port":27026,"stv_name":"Uncletopia | Sydney | 2 | All Maps | STV","players":null},{"server_id":395,"name":"Uncletopia | Sydney | 3 | All Maps","name_short":"syd-3","host":"syd-1.au.uncletopia.com","port":27035,"enabled":true,"region":"au","cc":"au","latitude":-33.865143,"longitude":151.2099,"reserved":0,"last_update":"0001-01-01T00:00:00Z","name_a2s":"Uncletopia | Sydney | 3 | All Maps","protocol":17,"map":"koth_highpass","folder":"tf","game":"Team Fortress","app_id":440,"player_count":0,"max_players":24,"Bots":0,"server_type":"Dedicated","server_os":"Linux","password":true,"vac":true,"version":"7723704","steam_id":85568392925194467,"keywords":["cp","nocrits","nodmgspread","uncletopia"],"game_id":440,"stv_port":27036,"stv_name":"Uncletopia | Sydney | 3 | All Maps | STV","players":null},{"server_id":396,"name":"Uncletopia | Sydney | 4 | All Maps","name_short":"syd-4","host":"syd-1.au.uncletopia.com","port":27045,"enabled":true,"region":"au","cc":"au","latitude":-33.865143,"longitude":151.2099,"reserved":0,"last_update":"0001-01-01T00:00:00Z","name_a2s":"Uncletopia | Sydney | 4 | All Maps","protocol":17,"map":"pl_pier","folder":"tf","game":"Team Fortress","app_id":440,"player_count":0,"max_players":24,"Bots":0,"server_type":"Dedicated","server_os":"Linux","password":true,"vac":true,"version":"7723704","steam_id":85568392925397958,"keywords":["nocrits","nodmgspread","payload","uncletopia"],"game_id":440,"stv_port":27046,"stv_name":"Uncletopia | Sydney | 4 | All Maps | STV","players":null},{"server_id":58,"name":"Uncletopia | Sydney | 5 | Stopwatch Beta","name_short":"syd-5","host":"syd-1.au.uncletopia.com","port":27055,"enabled":true,"region":"au","cc":"au","latitude":-33.865143,"longitude":151.2099,"reserved":0,"last_update":"0001-01-01T00:00:00Z","name_a2s":"Uncletopia | Sydney | 5 | Stopwatch Beta","protocol":17,"map":"cp_altitude","folder":"tf","game":"Team Fortress","app_id":440,"player_count":0,"max_players":24,"Bots":0,"server_type":"Dedicated","server_os":"Linux","password":true,"vac":true,"version":"7723704","steam_id":85568392925397959,"keywords":["cp","nocrits","nodmgspread","uncletopia"],"game_id":440,"stv_port":27056,"stv_name":"Uncletopia | Sydney | 5 | Stopwatch Beta | STV","players":null},{"server_id":59,"name":"Uncletopia | Sydney | 6 | Community","name_short":"syd-6","host":"syd-1.au.uncletopia.com","port":27065,"enabled":true,"region":"au","cc":"au","latitude":-33.865143,"longitude":151.2099,"reserved":0,"last_update":"0001-01-01T00:00:00Z","name_a2s":"Uncletopia | Sydney | 6 | Community","protocol":17,"map":"pl_frontier_final","folder":"tf","game":"Team Fortress","app_id":440,"player_count":0,"max_players":24,"Bots":0,"server_type":"Dedicated","server_os":"Linux","password":true,"vac":true,"version":"7723704","steam_id":85568392925397960,"keywords":["nocrits","nodmgspread","payload","uncletopia"],"game_id":440,"stv_port":27066,"stv_name":"Uncletopia | Sydney | 6 | Community | STV","players":null},{"server_id":49,"name":"Uncletopia | Warsaw | 1 | All Maps","name_short":"waw-1","host":"waw-1.pl.uncletopia.com","port":27015,"enabled":true,"region":"eu","cc":"pl","latitude":52.2297,"longitude":21.017532,"reserved":0,"last_update":"0001-01-01T00:00:00Z","name_a2s":"Uncletopia | Warsaw | 1 | All Maps","protocol":17,"map":"cp_altitude","folder":"tf","game":"Team Fortress","app_id":440,"player_count":0,"max_players":24,"Bots":0,"server_type":"Dedicated","server_os":"Linux","password":true,"vac":true,"version":"7723704","steam_id":85568392925397850,"keywords":["cp","nocrits","nodmgspread","uncletopia"],"game_id":440,"stv_port":27016,"stv_name":"Uncletopia | Warsaw | 1 | All Maps | STV","players":null},{"server_id":50,"name":"Uncletopia | Warsaw | 2 | All Maps","name_short":"waw-2","host":"waw-1.pl.uncletopia.com","port":27025,"enabled":true,"region":"eu","cc":"pl","latitude":52.2297,"longitude":21.017532,"reserved":0,"last_update":"0001-01-01T00:00:00Z","name_a2s":"Uncletopia | Warsaw | 2 | All Maps","protocol":17,"map":"cp_snakewater_final1","folder":"tf","game":"Team Fortress","app_id":440,"player_count":0,"max_players":24,"Bots":0,"server_type":"Dedicated","server_os":"Linux","password":true,"vac":true,"version":"7723704","steam_id":85568392925397851,"keywords":["cp","nocrits","nodmgspread","uncletopia"],"game_id":440,"stv_port":27026,"stv_name":"Uncletopia | Warsaw | 2 | All Maps | STV","players":null},{"server_id":51,"name":"Uncletopia | Warsaw | 3 | All Maps","name_short":"waw-3","host":"waw-1.pl.uncletopia.com","port":27035,"enabled":true,"region":"eu","cc":"pl","latitude":52.2297,"longitude":21.017532,"reserved":0,"last_update":"0001-01-01T00:00:00Z","name_a2s":"Uncletopia | Warsaw | 3 | All Maps","protocol":17,"map":"koth_viaduct","folder":"tf","game":"Team Fortress","app_id":440,"player_count":0,"max_players":24,"Bots":0,"server_type":"Dedicated","server_os":"Linux","password":true,"vac":true,"version":"7723704","steam_id":85568392925397852,"keywords":["cp","nocrits","nodmgspread","uncletopia"],"game_id":440,"stv_port":27036,"stv_name":"Uncletopia | Warsaw | 3 | All Maps | STV","players":null},{"server_id":52,"name":"Uncletopia | Warsaw | 4 | All Maps","name_short":"waw-4","host":"waw-1.pl.uncletopia.com","port":27045,"enabled":true,"region":"eu","cc":"pl","latitude":52.2297,"longitude":21.017532,"reserved":0,"last_update":"0001-01-01T00:00:00Z","name_a2s":"Uncletopia | Warsaw | 4 | All Maps","protocol":17,"map":"pl_snowycoast","folder":"tf","game":"Team Fortress","app_id":440,"player_count":0,"max_players":24,"Bots":0,"server_type":"Dedicated","server_os":"Linux","password":true,"vac":true,"version":"7723704","steam_id":85568392925397853,"keywords":["nocrits","nodmgspread","payload","uncletopia"],"game_id":440,"stv_port":27046,"stv_name":"Uncletopia | Warsaw | 4 | All Maps | STV","players":null},{"server_id":53,"name":"Uncletopia | Warsaw | 5 | Stopwatch Beta","name_short":"waw-5","host":"waw-1.pl.uncletopia.com","port":27055,"enabled":true,"region":"eu","cc":"pl","latitude":52.2297,"longitude":21.017532,"reserved":0,"last_update":"0001-01-01T00:00:00Z","name_a2s":"Uncletopia | Warsaw | 5 | Stopwatch Beta","protocol":17,"map":"cp_sunshine","folder":"tf","game":"Team Fortress","app_id":440,"player_count":0,"max_players":24,"Bots":0,"server_type":"Dedicated","server_os":"Linux","password":true,"vac":true,"version":"7723704","steam_id":85568392925397854,"keywords":["cp","nocrits","nodmgspread","uncletopia"],"game_id":440,"stv_port":27056,"stv_name":"Uncletopia | Warsaw | 5 | Stopwatch Beta | STV","players":null},{"server_id":54,"name":"Uncletopia | Warsaw | 6 | Community","name_short":"waw-6","host":"waw-1.pl.uncletopia.com","port":27065,"enabled":true,"region":"eu","cc":"pl","latitude":52.2297,"longitude":21.017532,"reserved":0,"last_update":"0001-01-01T00:00:00Z","name_a2s":"Uncletopia | Warsaw | 6 | Community","protocol":17,"map":"workshop/koth_synthetic_rc6a.ugc1549817316","folder":"tf","game":"Team Fortress","app_id":440,"player_count":0,"max_players":24,"Bots":0,"server_type":"Dedicated","server_os":"Linux","password":true,"vac":true,"version":"7723704","steam_id":85568392925397856,"keywords":["cp","nocrits","nodmgspread","uncletopia"],"game_id":440,"stv_port":27066,"stv_name":"Uncletopia | Warsaw | 6 | Community | STV","players":null}]}