{"status":true,"message":"","result":[{"server_id":9,"name":"Uncletopia | Atlanta | 1 | All Maps","name_short":"atl-1","host":"atl-1.us.uncletopia.com","port":27015,"enabled":true,"region":"us-east","cc":"us","latitude":33.753746,"longitude":-84.38633,"reserved":0,"last_update":"0001-01-01T00:00:00Z","name_a2s":"Uncletopia | Atlanta | 1 | All Maps","protocol":17,"map":"cp_process_final","folder":"tf","game":"Team Fortress","app_id":440,"player_count":24,"max_players":24,"Bots":0,"server_type":"Dedicated","server_os":"Linux","password":true,"vac":true,"version":"7757534","steam_id":85568392924469982,"keywords":["cp","nocrits","nodmgspread","uncletopia"],"game_id":440,"stv_port":27016,"stv_name":"Uncletopia | Atlanta | 1 | All Maps | STV","players":[{"user_id":339,"name":"Ghetto Smosh Fan","steam_id":76561198097272509,"connected_time":907000000000,"state":"active","ping":31},{"user_id":347,"name":"snoops","steam_id":76561197986760351,"connected_time":575000000000,"state":"active","ping":74},{"user_id":340,"name":"Menacing Pile of Frogs","steam_id":76561198360134800,"connected_time":893000000000,"state":"active","ping":62},{"user_id":343,"name":"kirbo","steam_id":76561198057895955,"connected_time":838000000000,"state":"active","ping":54},{"user_id":345,"name":"吴起","steam_id":76561198268225109,"connected_time":831000000000,"state":"active","ping":101},{"user_id":357,"name":"{FITH}™ SmittyWun {FM}","steam_id":76561198079531938,"connected_time":128000000000,"state":"active","ping":51},{"user_id":352,"name":"inky (Coolest)","steam_id":76561198968337022,"connected_time":195000000000,"state":"active","ping":53},{"user_id":360,"name":"lil hog","steam_id":76561199230929836,"connected_time":26000000000,"state":"spawning","ping":95},{"user_id":336,"name":"AlexLovesYou","steam_id":76561199163263543,"connected_time":1024000000000,"state":"active","ping":76},{"user_id":354,"name":"Emails","steam_id":76561198836919458,"connected_time":162000000000,"state":"active","ping":71},{"user_id":332,"name":"Sigiferd","steam_id":76561198148788110,"connected_time":1093000000000,"state":"active","ping":134},{"user_id":359,"name":"BeeseChurger","steam_id":76561198437900239,"connected_time":64000000000,"state":"active","ping":74},{"user_id":333,"name":"tulpa","steam_id":76561198013253513,"connected_time":1083000000000,"state":"active","ping":55},{"user_id":304,"name":"marguerite","steam_id":76561198170873495,"connected_time":2659000000000,"state":"active","ping":49},{"user_id":356,"name":"Squiliam","steam_id":76561198025278006,"connected_time":138000000000,"state":"active","ping":61},{"user_id":341,"name":"everyrockstar!","steam_id":76561198272094975,"connected_time":888000000000,"state":"active","ping":133},{"user_id":355,"name":"monke","steam_id":76561198308289194,"connected_time":162000000000,"state":"active","ping":73},{"user_id":342,"name":"OpenDown","steam_id":76561198064132688,"connected_time":887000000000,"state":"active","ping":83},{"user_id":338,"name":"EmotreX","steam_id":76561198366518989,"connected_time":981000000000,"state":"active","ping":81},{"user_id":346,"name":"Oddball","steam_id":76561198040440984,"connected_time":657000000000,"state":"active","ping":89},{"user_id":358,"name":"macabre","steam_id":76561198220125111,"connected_time":114000000000,"state":"active","ping":119},{"user_id":344,"name":"NovaSc6ut","steam_id":76561198277163301,"connected_time":835000000000,"state":"active","ping":80},{"user_id":325,"name":"DDayFilms","steam_id":76561198352986491,"connected_time":1396000000000,"state":"active","ping":88},{"user_id":349,"name":".Eitho","steam_id":76561199036099287,"connected_time":507000000000,"state":"active","ping":56}]},{"server_id":104,"name":"Uncletopia | Atlanta | 2 | All Maps","name_short":"atl-2","host":"atl-1.us.uncletopia.com","port":27025,"enabled":true,"region":"us-east","cc":"us","latitude":33.753746,"longitude":-84.38633,"reserved":0,"last_update":"0001-01-01T00:00:00Z","name_a2s":"Uncletopia | Atlanta | 2 | All Maps","protocol":17,"map":"pl_pier","folder":"tf","game":"Team Fortress","app_id":440,"player_count":24,"max_players":24,"Bots":0,"server_type":"Dedicated","server_os":"Linux","password":true,"vac":true,"version":"7757534","steam_id":85568392924469983,"keywords":["nocrits","nodmgspread","payload","uncletopia"],"game_id":440,"stv_port":27026,"stv_name":"Uncletopia | Atlanta | 2 | All Maps | STV","players":[{"user_id":254,"name":"swan","steam_id":76561198012569200,"connected_time":778000000000,"state":"active","ping":92},{"user_id":251,"name":"chatteringduck","steam_id":76561198131778772,"connected_time":1008000000000,"state":"active","ping":81},{"user_id":259,"name":"Django","steam_id":76561197971158403,"connected_time":180000000000,"state":"active","ping":70},{"user_id":257,"name":"A_Malebolgia","steam_id":76561198097722818,"connected_time":220000000000,"state":"active","ping":94},{"user_id":219,"name":"roby","steam_id":76561198044660393,"connected_time":2639000000000,"state":"active","ping":157},{"user_id":236,"name":"comet vomet3","steam_id":76561198377327685,"connected_time":1548000000000,"state":"active","ping":100},{"user_id":225,"name":"BurnN8or101","steam_id":76561198132668224,"connected_time":2451000000000,"state":"active","ping":66},{"user_id":229,"name":"Pom","steam_id":76561198043235509,"connected_time":1939000000000,"state":"active","ping":83},{"user_id":230,"name":"Aeonspassed","steam_id":76561198014016451,"connected_time":1930000000000,"state":"active","ping":84},{"user_id":263,"name":"Company0fWolves","steam_id":76561198347612341,"connected_time":37000000000,"state":"active","ping":64},{"user_id":220,"name":"Kubloo","steam_id":76561198067391168,"connected_time":2615000000000,"state":"active","ping":83},{"user_id":260,"name":"jerry","steam_id":76561198422891994,"connected_time":168000000000,"state":"active","ping":169},{"user_id":261,"name":"Sheev Palpatine","steam_id":76561198252332430,"connected_time":162000000000,"state":"active","ping":114},{"user_id":183,"name":"El Bondin","steam_id":76561198820792434,"connected_time":6237000000000,"state":"active","ping":82},{"user_id":222,"name":"Spiral Mountain","steam_id":76561198058683715,"connected_time":2598000000000,"state":"active","ping":79},{"user_id":231,"name":"TI-83 Plus","steam_id":76561198316134443,"connected_time":1895000000000,"state":"active","ping":56},{"user_id":240,"name":"Demo シ","steam_id":76561198999830127,"connected_time":1425000000000,"state":"active","ping":60},{"user_id":258,"name":"kametro4","steam_id":76561198835430429,"connected_time":220000000000,"state":"active","ping":102},{"user_id":247,"name":"The sad vanilla","steam_id":76561198268621447,"connected_time":1110000000000,"state":"active","ping":85},{"user_id":250,"name":"g00bur","steam_id":76561197993622520,"connected_time":1066000000000,"state":"active","ping":67},{"user_id":252,"name":"snapski_HJA","steam_id":76561198007052727,"connected_time":972000000000,"state":"active","ping":62},{"user_id":217,"name":"Glowie Gus","steam_id":76561198047809106,"connected_time":3364000000000,"state":"active","ping":103},{"user_id":187,"name":"do not perceive me","steam_id":76561198030291655,"connected_time":6204000000000,"state":"active","ping":67},{"user_id":243,"name":"Nash","steam_id":76561198044192734,"connected_time":1286000000000,"state":"active","ping":44}]},{"server_id":400,"name":"Uncletopia | Atlanta | 3 | Community","name_short":"atl-3","host":"atl-1.us.uncletopia.com","port":27035,"enabled":true,"region":"us-east","cc":"us","latitude":33.753746,"longitude":-84.38633,"reserved":0,"last_update":"0001-01-01T00:00:00Z","name_a2s":"Uncletopia | Atlanta | 3 | Community","protocol":17,"map":"workshop/pl_cashworks_final1.ugc2904065412","folder":"tf","game":"Team Fortress","app_id":440,"player_count":0,"max_players":24,"Bots":0,"server_type":"Dedicated","server_os":"Linux","password":true,"vac":true,"version":"7757534","steam_id":85568392924515187,"keywords":["nocrits","nodmgspread","payload","uncletopia"],"game_id":440,"stv_port":27036,"stv_name":"Uncletopia | Atlanta | 3 | Community | STV","players":null},{"server_id":401,"name":"Uncletopia | Atlanta | 4 | No Payload","name_short":"atl-4","host":"atl-1.us.uncletopia.com","port":27045,"enabled":true,"region":"us-east","cc":"us","latitude":33.753746,"longitude":-84.38633,"reserved":0,"last_update":"0001-01-01T00:00:00Z","name_a2s":"","protocol":0,"map":"","folder":"","game":"","app_id":0,"player_count":0,"max_players":0,"Bots":0,"server_type":"","server_os":"","password":false,"vac":false,"version":"","steam_id":0,"keywords":null,"game_id":0,"stv_port":0,"stv_name":"","players":null},{"server_id":2,"name":"Uncletopia | Chicago | 1 | All Maps","name_short":"chi-1","host":"chi-1.us.uncletopia.com","port":27015,"enabled":true,"region":"us-central","cc":"us","latitude":41.881832,"longitude":-87.62318,"reserved":0,"last_update":"0001-01-01T00:00:00Z","name_a2s":"Uncletopia | Chicago | 1 | All Maps","protocol":17,"map":"koth_lakeside_final","folder":"tf","game":"Team Fortress","app_id":440,"player_count":20,"max_players":24,"Bots":0,"server_type":"Dedicated","server_os":"Linux","password":true,"vac":true,"version":"7757534","steam_id":85568392924469984,"keywords":["cp","nocrits","nodmgspread","uncletopia"],"game_id":440,"stv_port":27016,"stv_name":"Uncletopia | Chicago | 1 | All Maps | STV","players":[{"user_id":436,"name":"Also Known As Assteeth","steam_id":76561198049837377,"connected_time":5462000000000,"state":"active","ping":44},{"user_id":502,"name":"Steadman Slick","steam_id":76561198092633444,"connected_time":713000000000,"state":"active","ping":40},{"user_id":449,"name":"SaucySandwichKid","steam_id":76561199372590934,"connected_time":4418000000000,"state":"active","ping":75},{"user_id":490,"name":"bingus","steam_id":76561198283992686,"connected_time":1345000000000,"state":"active","ping":72},{"user_id":496,"name":"lofile :]","steam_id":76561198083798918,"connected_time":995000000000,"state":"active","ping":58},{"user_id":448,"name":"ContinuedBear","steam_id":76561198265176919,"connected_time":4530000000000,"state":"active","ping":52},{"user_id":509,"name":"Delilah-fluff","steam_id":76561198977968066,"connected_time":127000000000,"state":"active","ping":75},{"user_id":478,"name":"Rx Auntie","steam_id":76561198051618393,"connected_time":2560000000000,"state":"active","ping":60},{"user_id":510,"name":"Aurora Boreivan","steam_id":76561199027819903,"connected_time":119000000000,"state":"active","ping":87},{"user_id":511,"name":"Grinn","steam_id":76561199012396992,"connected_time":109000000000,"state":"active","ping":83},{"user_id":513,"name":"i really like this dog :)","steam_id":76561198882404753,"connected_time":92000000000,"state":"active","ping":75},{"user_id":514,"name":"IGotTheLettuce","steam_id":76561198062473897,"connected_time":70000000000,"state":"active","ping":70},{"user_id":515,"name":"TwistedEXE_TTV","steam_id":76561198259839350,"connected_time":47000000000,"state":"active","ping":69},{"user_id":498,"name":"Budgie","steam_id":76561198178279867,"connected_time":981000000000,"state":"active","ping":64},{"user_id":487,"name":"Peter McKay","steam_id":76561198842221188,"connected_time":1627000000000,"state":"active","ping":76},{"user_id":499,"name":"Len","steam_id":76561199141913673,"connected_time":977000000000,"state":"active","ping":75},{"user_id":446,"name":"money getting 1 percenter","steam_id":76561198012796388,"connected_time":4574000000000,"state":"active","ping":45},{"user_id":503,"name":"Stitched_with_Twine","steam_id":76561198864985227,"connected_time":699000000000,"state":"active","ping":90},{"user_id":501,"name":"i should go","steam_id":76561198194614289,"connected_time":803000000000,"state":"active","ping":79},{"user_id":452,"name":"Hi","steam_id":76561198068113077,"connected_time":4199000000000,"state":"active","ping":111}]},{"server_id":106,"name":"Uncletopia | Chicago | 2 | All Maps","name_short":"chi-2","host":"chi-1.us.uncletopia.com","port":27025,"enabled":true,"region":"us-central","cc":"us","latitude":41.881832,"longitude":-87.62318,"reserved":0,"last_update":"0001-01-01T00:00:00Z","name_a2s":"Uncletopia | Chicago | 2 | All Maps","protocol":17,"map":"pl_swiftwater_final1","folder":"tf","game":"Team Fortress","app_id":440,"player_count":24,"max_players":24,"Bots":0,"server_type":"Dedicated","server_os":"Linux","password":true,"vac":true,"version":"7757534","steam_id":85568392924469985,"keywords":["nocrits","nodmgspread","payload","uncletopia"],"game_id":440,"stv_port":27026,"stv_name":"Uncletopia | Chicago | 2 | All Maps | STV","players":[{"user_id":584,"name":"TeamWorkOPVolvoleaseNerf","steam_id":76561198135906446,"connected_time":64000000000,"state":"active","ping":124},{"user_id":575,"name":"Devoid","steam_id":76561198254039012,"connected_time":255000000000,"state":"active","ping":51},{"user_id":521,"name":"Sneetch [sRb]","steam_id":76561197996693506,"connected_time":1788000000000,"state":"active","ping":89},{"user_id":564,"name":"RyInc","steam_id":76561198874261643,"connected_time":784000000000,"state":"active","ping":46},{"user_id":518,"name":"IvvI","steam_id":76561198067365804,"connected_time":1989000000000,"state":"active","ping":73},{"user_id":568,"name":"Squid","steam_id":76561198197045587,"connected_time":563000000000,"state":"active","ping":95},{"user_id":577,"name":"Aeri","steam_id":76561197996522919,"connected_time":202000000000,"state":"active","ping":81},{"user_id":556,"name":"Ejaculation Zach","steam_id":76561198203765200,"connected_time":1074000000000,"state":"active","ping":57},{"user_id":557,"name":"weed","steam_id":76561199128192017,"connected_time":1067000000000,"state":"active","ping":101},{"user_id":585,"name":"Nemcat.Jr","steam_id":76561198079821706,"connected_time":62000000000,"state":"active","ping":59},{"user_id":488,"name":"nnobi","steam_id":76561198878729277,"connected_time":2517000000000,"state":"active","ping":78},{"user_id":477,"name":"reis","steam_id":76561199232952016,"connected_time":2625000000000,"state":"active","ping":194},{"user_id":560,"name":"The Silkyest of Boys","steam_id":76561198320921269,"connected_time":919000000000,"state":"active","ping":91},{"user_id":554,"name":"picnic blanket","steam_id":76561198308186037,"connected_time":1127000000000,"state":"active","ping":65},{"user_id":579,"name":"Raydn","steam_id":76561198418414338,"connected_time":196000000000,"state":"active","ping":75},{"user_id":572,"name":"Fobby #Savetf2","steam_id":76561198047681469,"connected_time":442000000000,"state":"active","ping":74},{"user_id":581,"name":"turnip","steam_id":76561197999375941,"connected_time":166000000000,"state":"active","ping":70},{"user_id":573,"name":"MrKokonut","steam_id":76561198879575825,"connected_time":320000000000,"state":"active","ping":60},{"user_id":570,"name":"Malignant","steam_id":76561199207759418,"connected_time":540000000000,"state":"active","ping":86},{"user_id":571,"name":"xthyl","steam_id":76561199361299006,"connected_time":467000000000,"state":"active","ping":82},{"user_id":435,"name":"test","steam_id":76561198197388678,"connected_time":3450000000000,"state":"active","ping":90},{"user_id":582,"name":"Willem Dafoe","steam_id":76561198037453253,"connected_time":164000000000,"state":"active","ping":66},{"user_id":418,"name":"TÖZI","steam_id":76561198045268695,"connected_time":4209000000000,"state":"active","ping":62},{"user_id":439,"name":"Glass Joe","steam_id":76561198317365741,"connected_time":3266000000000,"state":"active","ping":63}]},{"server_id":402,"name":"Uncletopia | Chicago | 3 | All Maps","name_short":"chi-3","host":"chi-1.us.uncletopia.com","port":27035,"enabled":true,"region":"us-central","cc":"us","latitude":41.881832,"longitude":-87.62318,"reserved":0,"last_update":"0001-01-01T00:00:00Z","name_a2s":"Uncletopia | Chicago | 3 | All Maps","protocol":17,"map":"cp_altitude","folder":"tf","game":"Team Fortress","app_id":440,"player_count":24,"max_players":24,"Bots":0,"server_type":"Dedicated","server_os":"Linux","password":true,"vac":true,"version":"7757534","steam_id":85568392924515191,"keywords":["cp","nocrits","nodmgspread","uncletopia"],"game_id":440,"stv_port":27036,"stv_name":"Uncletopia | Chicago | 3 | All Maps | STV","players":[{"user_id":215,"name":"Miro","steam_id":76561198936412406,"connected_time":1711000000000,"state":"active","ping":79},{"user_id":185,"name":"Ex-PFC Wintergreen","steam_id":76561198203851303,"connected_time":4017000000000,"state":"active","ping":78},{"user_id":222,"name":"Wayne Dunlap","steam_id":76561198880287181,"connected_time":807000000000,"state":"active","ping":75},{"user_id":224,"name":"Giggles™","steam_id":76561198058708019,"connected_time":726000000000,"state":"active","ping":53},{"user_id":228,"name":"Apoc","steam_id":76561198376855927,"connected_time":616000000000,"state":"active","ping":71},{"user_id":225,"name":"Extinct","steam_id":76561199013696367,"connected_time":700000000000,"state":"active","ping":64},{"user_id":217,"name":"Uno!","steam_id":76561198799400617,"connected_time":1564000000000,"state":"active","ping":85},{"user_id":213,"name":"reign","steam_id":76561198047269484,"connected_time":1975000000000,"state":"active","ping":129},{"user_id":226,"name":"ScotchTape","steam_id":76561199389314894,"connected_time":693000000000,"state":"active","ping":71},{"user_id":176,"name":"Not_Douglas","steam_id":76561199024184136,"connected_time":4204000000000,"state":"active","ping":60},{"user_id":227,"name":"ThatOneHermit","steam_id":76561199030898903,"connected_time":691000000000,"state":"active","ping":59},{"user_id":239,"name":"Snake","steam_id":76561198161498557,"connected_time":2000000000,"state":"spawning","ping":83},{"user_id":204,"name":"Kab","steam_id":76561198073503100,"connected_time":2520000000000,"state":"active","ping":64},{"user_id":229,"name":"Neon","steam_id":76561198089067907,"connected_time":602000000000,"state":"active","ping":69},{"user_id":230,"name":"quiteabizarreone","steam_id":76561198407122862,"connected_time":602000000000,"state":"active","ping":93},{"user_id":238,"name":"ℋℇἂṼഴ","steam_id":76561199062259389,"connected_time":220000000000,"state":"active","ping":86},{"user_id":231,"name":"Project_Counter","steam_id":76561198152786076,"connected_time":597000000000,"state":"active","ping":76},{"user_id":236,"name":"Eggster","steam_id":76561198871014814,"connected_time":283000000000,"state":"active","ping":75},{"user_id":232,"name":"The_Epic_Conclusion","steam_id":76561198084250179,"connected_time":596000000000,"state":"active","ping":68},{"user_id":206,"name":"uhooter","steam_id":76561198007829078,"connected_time":2477000000000,"state":"active","ping":52},{"user_id":233,"name":"Impresio","steam_id":76561198129127347,"connected_time":581000000000,"state":"active","ping":59},{"user_id":234,"name":"Boy_Blue","steam_id":76561198142150093,"connected_time":581000000000,"state":"active","ping":118},{"user_id":235,"name":"AlphaScout","steam_id":76561198047797890,"connected_time":545000000000,"state":"active","ping":74},{"user_id":214,"name":"Pat4laifu","steam_id":76561198133618292,"connected_time":1971000000000,"state":"active","ping":60}]},{"server_id":403,"name":"Uncletopia | Chicago | 4 | All Maps","name_short":"chi-4","host":"chi-1.us.uncletopia.com","port":27045,"enabled":true,"region":"us-central","cc":"us","latitude":41.881832,"longitude":-87.62318,"reserved":0,"last_update":"0001-01-01T00:00:00Z","name_a2s":"Uncletopia | Chicago | 4 | All Maps","protocol":17,"map":"pl_badwater","folder":"tf","game":"Team Fortress","app_id":440,"player_count":24,"max_players":24,"Bots":0,"server_type":"Dedicated","server_os":"Linux","password":true,"vac":true,"version":"7757534","steam_id":85568392924515193,"keywords":["nocrits","nodmgspread","payload","uncletopia"],"game_id":440,"stv_port":27046,"stv_name":"Uncletopia | Chicago | 4 | All Maps | STV","players":[{"user_id":444,"name":"jorjor wells","steam_id":76561199073429082,"connected_time":1275000000000,"state":"active","ping":60},{"user_id":425,"name":"demifiend smt3","steam_id":76561198942356955,"connected_time":2085000000000,"state":"active","ping":61},{"user_id":433,"name":"brg","steam_id":76561197998415548,"connected_time":1781000000000,"state":"active","ping":60},{"user_id":347,"name":"ohton","steam_id":76561199033233448,"connected_time":7536000000000,"state":"active","ping":104},{"user_id":383,"name":"Ax0L_","steam_id":76561199008960175,"connected_time":5019000000000,"state":"active","ping":52},{"user_id":449,"name":"Ender","steam_id":76561198819439451,"connected_time":398000000000,"state":"active","ping":66},{"user_id":423,"name":"KOI BOY","steam_id":76561198402739250,"connected_time":2115000000000,"state":"active","ping":76},{"user_id":421,"name":"Takeover","steam_id":76561197996081461,"connected_time":2146000000000,"state":"active","ping":58},{"user_id":445,"name":"pinguez","steam_id":76561199003447981,"connected_time":967000000000,"state":"active","ping":83},{"user_id":447,"name":"Righteou5Dude","steam_id":76561198136291931,"connected_time":404000000000,"state":"active","ping":87},{"user_id":438,"name":"Fenneck","steam_id":76561198061985604,"connected_time":1584000000000,"state":"active","ping":68},{"user_id":435,"name":"Cerabond","steam_id":76561199230915333,"connected_time":1664000000000,"state":"active","ping":78},{"user_id":452,"name":"JellyParrot","steam_id":76561199190990163,"connected_time":353000000000,"state":"active","ping":69},{"user_id":373,"name":"Rukks","steam_id":76561197993918954,"connected_time":6229000000000,"state":"active","ping":86},{"user_id":446,"name":"Tuxedo_Mann2","steam_id":76561198172253219,"connected_time":418000000000,"state":"active","ping":55},{"user_id":451,"name":"Scuff1e","steam_id":76561198272995728,"connected_time":359000000000,"state":"active","ping":76},{"user_id":448,"name":"TheTurtle220","steam_id":76561199403827814,"connected_time":404000000000,"state":"active","ping":64},{"user_id":429,"name":"-₣₵-grease.goblin","steam_id":76561198077902438,"connected_time":1969000000000,"state":"active","ping":83},{"user_id":426,"name":"Duder","steam_id":76561198823224784,"connected_time":2076000000000,"state":"active","ping":85},{"user_id":430,"name":"-FC- malju","steam_id":76561199050174626,"connected_time":1932000000000,"state":"active","ping":62},{"user_id":453,"name":"Mr.Pan","steam_id":76561198069030613,"connected_time":351000000000,"state":"active","ping":76},{"user_id":454,"name":"MAD ELITE","steam_id":76561199013168148,"connected_time":238000000000,"state":"active","ping":91},{"user_id":442,"name":"Laft","steam_id":76561198364501558,"connected_time":1477000000000,"state":"active","ping":72},{"user_id":443,"name":"Deathninja952","steam_id":76561199066489355,"connected_time":1470000000000,"state":"active","ping":95}]},{"server_id":36,"name":"Uncletopia | Chicago | 5 | All Maps","name_short":"chi-5","host":"chi-2.us.uncletopia.com","port":27015,"enabled":true,"region":"us-central","cc":"us","latitude":41.881832,"longitude":-87.62318,"reserved":0,"last_update":"0001-01-01T00:00:00Z","name_a2s":"Uncletopia | Chicago | 5 | All Maps","protocol":17,"map":"pl_snowycoast","folder":"tf","game":"Team Fortress","app_id":440,"player_count":22,"max_players":24,"Bots":0,"server_type":"Dedicated","server_os":"Linux","password":true,"vac":true,"version":"7757534","steam_id":85568392924866362,"keywords":["nocrits","nodmgspread","payload","uncletopia"],"game_id":440,"stv_port":27016,"stv_name":"Uncletopia | Chicago | 5 | All Maps | STV","players":[{"user_id":82,"name":"fallacy","steam_id":76561198057374871,"connected_time":1220000000000,"state":"active","ping":58},{"user_id":77,"name":"Owl Pacino","steam_id":76561197979970666,"connected_time":2035000000000,"state":"active","ping":50},{"user_id":19,"name":"roast beast","steam_id":76561198084433360,"connected_time":5217000000000,"state":"active","ping":57},{"user_id":20,"name":"Red Baron","steam_id":76561198067011766,"connected_time":5164000000000,"state":"active","ping":54},{"user_id":103,"name":"Wheat of Stuff","steam_id":76561198355279724,"connected_time":762000000000,"state":"active","ping":58},{"user_id":83,"name":"scarecrow (evil)","steam_id":76561198082979347,"connected_time":1178000000000,"state":"active","ping":52},{"user_id":107,"name":"Hunt Gamer","steam_id":76561199103725853,"connected_time":522000000000,"state":"active","ping":78},{"user_id":105,"name":"chururira!","steam_id":76561198284697381,"connected_time":615000000000,"state":"active","ping":170},{"user_id":111,"name":"unerringCaprition (She/Her)","steam_id":76561198042528476,"connected_time":67000000000,"state":"active","ping":92},{"user_id":109,"name":"strawberry shortcock","steam_id":76561198032040831,"connected_time":203000000000,"state":"active","ping":80},{"user_id":86,"name":"Foreskin Reattachment service","steam_id":76561198060342804,"connected_time":1134000000000,"state":"active","ping":70},{"user_id":92,"name":"Blackjack","steam_id":76561198080539814,"connected_time":918000000000,"state":"active","ping":59},{"user_id":110,"name":"Qevji","steam_id":76561198093815255,"connected_time":132000000000,"state":"active","ping":44},{"user_id":112,"name":"chimb","steam_id":76561197993795544,"connected_time":34000000000,"state":"spawning","ping":95},{"user_id":113,"name":"David Rainbowie","steam_id":76561198046237033,"connected_time":29000000000,"state":"active","ping":81},{"user_id":106,"name":"Soup","steam_id":76561199202761955,"connected_time":580000000000,"state":"active","ping":57},{"user_id":114,"name":"Mister Stabbeh","steam_id":76561197999776492,"connected_time":18000000000,"state":"active","ping":75},{"user_id":100,"name":"that one guy","steam_id":76561199198926723,"connected_time":804000000000,"state":"active","ping":59},{"user_id":98,"name":"Mister36","steam_id":76561198019132100,"connected_time":836000000000,"state":"active","ping":45},{"user_id":101,"name":"Apricot","steam_id":76561198355699935,"connected_time":772000000000,"state":"active","ping":59},{"user_id":102,"name":"gideon nav my beloved","steam_id":76561198259092181,"connected_time":772000000000,"state":"active","ping":63},{"user_id":104,"name":"sigma male grindset","steam_id":76561198086090527,"connected_time":728000000000,"state":"active","ping":54}]},{"server_id":37,"name":"Uncletopia | Chicago | 6 | All Maps","name_short":"chi-6","host":"chi-2.us.uncletopia.com","port":27025,"enabled":true,"region":"us-central","cc":"us","latitude":41.881832,"longitude":-87.62318,"reserved":0,"last_update":"0001-01-01T00:00:00Z","name_a2s":"Uncletopia | Chicago | 6 | All Maps","protocol":17,"map":"cp_powerhouse","folder":"tf","game":"Team Fortress","app_id":440,"player_count":25,"max_players":24,"Bots":0,"server_type":"Dedicated","server_os":"Linux","password":true,"vac":true,"version":"7757534","steam_id":85568392924866363,"keywords":["cp","nocrits","nodmgspread","uncletopia"],"game_id":440,"stv_port":27026,"stv_name":"Uncletopia | Chicago | 6 | All Maps | STV","players":[{"user_id":38,"name":"time has run out","steam_id":76561198066450438,"connected_time":1309000000000,"state":"active","ping":85},{"user_id":12,"name":"Michiru","steam_id":76561198878701671,"connected_time":2214000000000,"state":"active","ping":90},{"user_id":43,"name":"Aye","steam_id":76561198123441203,"connected_time":321000000000,"state":"active","ping":64},{"user_id":14,"name":"Blondale Pringle","steam_id":76561198300104866,"connected_time":2200000000000,"state":"active","ping":76},{"user_id":15,"name":"Livsbian","steam_id":76561198799368071,"connected_time":2125000000000,"state":"active","ping":119},{"user_id":16,"name":"Awaiting Her Return","steam_id":76561198055820194,"connected_time":2076000000000,"state":"active","ping":53},{"user_id":17,"name":"wafflehamster2000","steam_id":76561198849161820,"connected_time":1946000000000,"state":"active","ping":71},{"user_id":37,"name":"BasicPeaches","steam_id":76561198190890150,"connected_time":1314000000000,"state":"active","ping":78},{"user_id":46,"name":"BABABBBABBP","steam_id":76561198144799623,"connected_time":51000000000,"state":"active","ping":108},{"user_id":47,"name":"kevin supermarket","steam_id":76561198058287022,"connected_time":8000000000,"state":"spawning","ping":58},{"user_id":35,"name":"Overduecat","steam_id":76561198092452824,"connected_time":1522000000000,"state":"active","ping":74},{"user_id":41,"name":"Astrodius","steam_id":76561199228913766,"connected_time":799000000000,"state":"active","ping":93},{"user_id":23,"name":"watchfull","steam_id":76561198433266742,"connected_time":1818000000000,"state":"active","ping":103},{"user_id":24,"name":"Sockhead","steam_id":76561198253181773,"connected_time":1777000000000,"state":"active","ping":88},{"user_id":25,"name":"Schizo, Second Elden Lord","steam_id":76561198397662124,"connected_time":1744000000000,"state":"active","ping":86},{"user_id":26,"name":"Geebler, First Elden Lord","steam_id":76561198400058665,"connected_time":1723000000000,"state":"active","ping":82},{"user_id":27,"name":"silliest guy","steam_id":76561198066566813,"connected_time":1687000000000,"state":"active","ping":123},{"user_id":40,"name":"Zho Biden","steam_id":76561198079224101,"connected_time":871000000000,"state":"active","ping":60},{"user_id":29,"name":"Post nut clarity","steam_id":76561198060246831,"connected_time":1671000000000,"state":"active","ping":93},{"user_id":30,"name":"sailaser","steam_id":76561198035752229,"connected_time":1657000000000,"state":"active","ping":72},{"user_id":31,"name":"TJGSASQUATCH","steam_id":76561198077806921,"connected_time":1607000000000,"state":"active","ping":77},{"user_id":32,"name":"Lawn","steam_id":76561198267235228,"connected_time":1584000000000,"state":"active","ping":120},{"user_id":48,"name":"Gideon Ofnir, the FUCKING PISSE","steam_id":76561198419066993,"connected_time":8000000000,"state":"spawning","ping":170},{"user_id":36,"name":"Lad","steam_id":76561197990645296,"connected_time":1463000000000,"state":"active","ping":92},{"user_id":45,"name":"Lavender System","steam_id":76561198289106015,"connected_time":264000000000,"state":"active","ping":78}]},{"server_id":38,"name":"Uncletopia | Chicago | 7 | Stopwatch Beta","name_short":"chi-7","host":"chi-2.us.uncletopia.com","port":27035,"enabled":true,"region":"us-central","cc":"us","latitude":41.881832,"longitude":-87.62318,"reserved":0,"last_update":"0001-01-01T00:00:00Z","name_a2s":"Uncletopia | Chicago | 7 | Stopwatch Beta","protocol":17,"map":"pl_borneo","folder":"tf","game":"Team Fortress","app_id":440,"player_count":5,"max_players":24,"Bots":0,"server_type":"Dedicated","server_os":"Linux","password":true,"vac":true,"version":"7757534","steam_id":85568392924866364,"keywords":["nocrits","nodmgspread","payload","uncletopia"],"game_id":440,"stv_port":27036,"stv_name":"Uncletopia | Chicago | 7 | Stopwatch Beta | STV","players":[{"user_id":12,"name":"Vakovah","steam_id":76561198451270237,"connected_time":30000000000,"state":"active","ping":160},{"user_id":8,"name":"Turtle","steam_id":76561198278665305,"connected_time":220000000000,"state":"active","ping":134},{"user_id":9,"name":"Canteloupe","steam_id":76561199187764012,"connected_time":134000000000,"state":"active","ping":59},{"user_id":10,"name":"Kairo","steam_id":76561198391378433,"connected_time":130000000000,"state":"active","ping":69},{"user_id":11,"name":"ChisakiYami","steam_id":76561198396855107,"connected_time":96000000000,"state":"connecting","ping":124}]},{"server_id":39,"name":"Uncletopia | Chicago | 8 | Community","name_short":"chi-8","host":"chi-2.us.uncletopia.com","port":27045,"enabled":true,"region":"us-central","cc":"us","latitude":41.881832,"longitude":-87.62318,"reserved":0,"last_update":"0001-01-01T00:00:00Z","name_a2s":"Uncletopia | Chicago | 8 | Community","protocol":17,"map":"koth_cascade","folder":"tf","game":"Team Fortress","app_id":440,"player_count":0,"max_players":24,"Bots":0,"server_type":"Dedicated","server_os":"Linux","password":true,"vac":true,"version":"7757534","steam_id":85568392924866365,"keywords":["cp","nocrits","nodmgspread","uncletopia"],"game_id":440,"stv_port":27046,"stv_name":"Uncletopia | Chicago | 8 | Community | STV","players":null},{"server_id":8,"name":"Uncletopia | Dallas | 1 | All Maps","name_short":"dal-1","host":"dal-1.us.uncletopia.com","port":27015,"enabled":true,"region":"us-central","cc":"us","latitude":32.779167,"longitude":-96.80889,"reserved":0,"last_update":"0001-01-01T00:00:00Z","name_a2s":"Uncletopia | Dallas | 1 | All Maps","protocol":17,"map":"pl_pier","folder":"tf","game":"Team Fortress","app_id":440,"player_count":22,"max_players":24,"Bots":0,"server_type":"Dedicated","server_os":"Linux","password":true,"vac":true,"version":"7757534","steam_id":85568392924469986,"keywords":["nocrits","nodmgspread","payload","uncletopia"],"game_id":440,"stv_port":27016,"stv_name":"Uncletopia | Dallas | 1 | All Maps | STV","players":[{"user_id":191,"name":"SomeRandomCat","steam_id":76561199107044061,"connected_time":2600000000000,"state":"active","ping":49},{"user_id":221,"name":"dodecadron","steam_id":76561198027397222,"connected_time":59000000000,"state":"active","ping":115},{"user_id":222,"name":"brock","steam_id":76561199015537819,"connected_time":39000000000,"state":"spawning","ping":1447},{"user_id":218,"name":"Stillkill","steam_id":76561198065069057,"connected_time":240000000000,"state":"active","ping":48},{"user_id":198,"name":"BrightOrangeMango","steam_id":76561198023144607,"connected_time":2561000000000,"state":"active","ping":70},{"user_id":149,"name":"MegaMudkipz","steam_id":76561198354776000,"connected_time":5931000000000,"state":"active","ping":45},{"user_id":190,"name":"krakowski","steam_id":76561198119536224,"connected_time":2615000000000,"state":"active","ping":74},{"user_id":187,"name":"trks","steam_id":76561198233984300,"connected_time":3119000000000,"state":"active","ping":70},{"user_id":199,"name":"bo scrungulus","steam_id":76561198038036122,"connected_time":2439000000000,"state":"active","ping":60},{"user_id":219,"name":"Sway","steam_id":76561198170353885,"connected_time":222000000000,"state":"connecting","ping":0},{"user_id":209,"name":"a Salty Individual","steam_id":76561197979951077,"connected_time":1383000000000,"state":"active","ping":122},{"user_id":204,"name":"Humon Player","steam_id":76561198013593178,"connected_time":1810000000000,"state":"active","ping":59},{"user_id":210,"name":"the private","steam_id":76561198232500756,"connected_time":1372000000000,"state":"active","ping":51},{"user_id":203,"name":"tranquildarth","steam_id":76561199176155186,"connected_time":1826000000000,"state":"active","ping":114},{"user_id":213,"name":"happy camper","steam_id":76561198209813328,"connected_time":1228000000000,"state":"active","ping":57},{"user_id":217,"name":"678-999-8212","steam_id":76561198084260378,"connected_time":325000000000,"state":"active","ping":42},{"user_id":214,"name":"Minlit","steam_id":76561198205832799,"connected_time":800000000000,"state":"active","ping":48},{"user_id":215,"name":"Woozy","steam_id":76561198008220735,"connected_time":648000000000,"state":"active","ping":86},{"user_id":212,"name":"he/him whimper","steam_id":76561198097175164,"connected_time":1313000000000,"state":"active","ping":105},{"user_id":48,"name":"markiplier the real","steam_id":76561198156467907,"connected_time":12032000000000,"state":"active","ping":50},{"user_id":171,"name":"StraySheep","steam_id":76561198256003811,"connected_time":4347000000000,"state":"active","ping":73},{"user_id":220,"name":"Wolverine Fingerblaster","steam_id":76561198095394582,"connected_time":204000000000,"state":"active","ping":58}]},{"server_id":108,"name":"Uncletopia | Dallas | 2 | All Maps","name_short":"dal-2","host":"dal-1.us.uncletopia.com","port":27025,"enabled":true,"region":"us-central","cc":"us","latitude":32.779167,"longitude":-96.80889,"reserved":0,"last_update":"0001-01-01T00:00:00Z","name_a2s":"Uncletopia | Dallas | 2 | All Maps","protocol":17,"map":"cp_powerhouse","folder":"tf","game":"Team Fortress","app_id":440,"player_count":24,"max_players":24,"Bots":0,"server_type":"Dedicated","server_os":"Linux","password":true,"vac":true,"version":"7757534","steam_id":85568392924469988,"keywords":["cp","nocrits","nodmgspread","uncletopia"],"game_id":440,"stv_port":27026,"stv_name":"Uncletopia | Dallas | 2 | All Maps | STV","players":[{"user_id":122,"name":"hot pyro","steam_id":76561198935859163,"connected_time":1838000000000,"state":"active","ping":60},{"user_id":128,"name":"vgMaster749","steam_id":76561198205048900,"connected_time":1225000000000,"state":"active","ping":61},{"user_id":53,"name":"Beantama","steam_id":76561198986811476,"connected_time":6911000000000,"state":"active","ping":66},{"user_id":129,"name":"✪ Y V E S","steam_id":76561198299479796,"connected_time":1218000000000,"state":"active","ping":72},{"user_id":146,"name":"Ferguson","steam_id":76561198121349387,"connected_time":90000000000,"state":"active","ping":54},{"user_id":144,"name":"Doomagedden","steam_id":76561198272589475,"connected_time":191000000000,"state":"active","ping":59},{"user_id":85,"name":"QueenPinharam","steam_id":76561199015626409,"connected_time":5336000000000,"state":"active","ping":58},{"user_id":101,"name":"Tyler\u0026Fingers","steam_id":76561198085154485,"connected_time":3536000000000,"state":"active","ping":89},{"user_id":130,"name":"Ethan7704","steam_id":76561198821010606,"connected_time":1206000000000,"state":"active","ping":79},{"user_id":131,"name":"tf you mean forgot the gluestic","steam_id":76561199006886644,"connected_time":1205000000000,"state":"active","ping":86},{"user_id":105,"name":"J.G. Klaus","steam_id":76561198001111196,"connected_time":3076000000000,"state":"active","ping":51},{"user_id":141,"name":"Saikyo","steam_id":76561198212461467,"connected_time":656000000000,"state":"active","ping":45},{"user_id":109,"name":"Fantastic Mr. Fox Appreciator","steam_id":76561198096306325,"connected_time":2709000000000,"state":"active","ping":121},{"user_id":95,"name":"Rhutebeer","steam_id":76561198018302761,"connected_time":4150000000000,"state":"active","ping":78},{"user_id":132,"name":"matt martians","steam_id":76561198363821364,"connected_time":1201000000000,"state":"active","ping":75},{"user_id":126,"name":"CFG Ponder","steam_id":76561198127039453,"connected_time":1340000000000,"state":"active","ping":74},{"user_id":147,"name":"Doctor Dischord","steam_id":76561198046212525,"connected_time":83000000000,"state":"active","ping":67},{"user_id":142,"name":"CyberBeans","steam_id":76561198239042642,"connected_time":538000000000,"state":"active","ping":61},{"user_id":135,"name":"jae","steam_id":76561199239926014,"connected_time":1131000000000,"state":"active","ping":75},{"user_id":98,"name":"bestie_boy","steam_id":76561199121946793,"connected_time":4110000000000,"state":"active","ping":74},{"user_id":145,"name":"HOG RIDER","steam_id":76561198298589502,"connected_time":172000000000,"state":"active","ping":77},{"user_id":148,"name":"AngrySpaceRaptor","steam_id":76561198170868503,"connected_time":70000000000,"state":"active","ping":94},{"user_id":112,"name":"mrnotsogudguy","steam_id":76561199289893241,"connected_time":2571000000000,"state":"active","ping":68},{"user_id":143,"name":"Xanny Phantom","steam_id":76561198015033318,"connected_time":243000000000,"state":"active","ping":96}]},{"server_id":5,"name":"Uncletopia | Frankfurt | 1 | All Maps","name_short":"frk-1","host":"frk-1.de.uncletopia.com","port":27015,"enabled":true,"region":"eu","cc":"de","latitude":50.110924,"longitude":8.682127,"reserved":0,"last_update":"0001-01-01T00:00:00Z","name_a2s":"Uncletopia | Frankfurt | 1 | All Maps","protocol":17,"map":"cp_process_final","folder":"tf","game":"Team Fortress","app_id":440,"player_count":24,"max_players":24,"Bots":0,"server_type":"Dedicated","server_os":"Linux","password":true,"vac":true,"version":"7757534","steam_id":85568392924469989,"keywords":["cp","nocrits","nodmgspread","uncletopia"],"game_id":440,"stv_port":27016,"stv_name":"Uncletopia | Frankfurt | 1 | All Maps | STV","players":[{"user_id":437,"name":"Zombie Rehabilitation","steam_id":76561197962848916,"connected_time":2962000000000,"state":"active","ping":188},{"user_id":485,"name":"GermanBoy","steam_id":76561199230176650,"connected_time":75000000000,"state":"active","ping":61},{"user_id":479,"name":"3igen3ggy","steam_id":76561197989548015,"connected_time":438000000000,"state":"active","ping":66},{"user_id":469,"name":"JC","steam_id":76561198029213352,"connected_time":1738000000000,"state":"active","ping":46},{"user_id":436,"name":"giclure :;","steam_id":76561197986362828,"connected_time":3111000000000,"state":"active","ping":56},{"user_id":441,"name":"Mr_Joergen","steam_id":76561198364713702,"connected_time":2802000000000,"state":"active","ping":68},{"user_id":464,"name":"Voxil","steam_id":76561198013643001,"connected_time":1917000000000,"state":"active","ping":64},{"user_id":480,"name":"Pucho","steam_id":76561198134617262,"connected_time":418000000000,"state":"active","ping":62},{"user_id":481,"name":"lvl. 50 honkler","steam_id":76561198061688660,"connected_time":405000000000,"state":"active","ping":99},{"user_id":482,"name":"EXCODE TALKER [she/her]","steam_id":76561198262910410,"connected_time":363000000000,"state":"active","ping":93},{"user_id":427,"name":"gedrmtyo4p5ijyekdmrg","steam_id":76561198006254783,"connected_time":3593000000000,"state":"active","ping":81},{"user_id":486,"name":"La-Li-Lu-Le-Lo","steam_id":76561198047990600,"connected_time":51000000000,"state":"active","ping":58},{"user_id":460,"name":"Knugen the Conqueror","steam_id":76561198127091993,"connected_time":2224000000000,"state":"active","ping":57},{"user_id":435,"name":"Hearny","steam_id":76561198015413751,"connected_time":3365000000000,"state":"active","ping":74},{"user_id":468,"name":"†","steam_id":76561199042470246,"connected_time":1758000000000,"state":"active","ping":52},{"user_id":408,"name":"dn4k","steam_id":76561199221755690,"connected_time":4596000000000,"state":"active","ping":76},{"user_id":440,"name":"Bobo","steam_id":76561198052308399,"connected_time":2910000000000,"state":"active","ping":59},{"user_id":472,"name":"Bodeine Brazy","steam_id":76561198122181176,"connected_time":1540000000000,"state":"active","ping":46},{"user_id":487,"name":"105 IQ Mastermind","steam_id":76561198061197114,"connected_time":22000000000,"state":"active","ping":70},{"user_id":444,"name":"Smashy_3","steam_id":76561198946398831,"connected_time":2692000000000,"state":"active","ping":62},{"user_id":457,"name":"Wüstenfuchs","steam_id":76561198453885708,"connected_time":2328000000000,"state":"active","ping":76},{"user_id":434,"name":"port :o3","steam_id":76561198059151809,"connected_time":3427000000000,"state":"active","ping":68},{"user_id":461,"name":"ProfessorCrack","steam_id":76561199035475627,"connected_time":2180000000000,"state":"active","ping":83},{"user_id":484,"name":"John Noob","steam_id":76561197999170026,"connected_time":301000000000,"state":"active","ping":92}]},{"server_id":110,"name":"Uncletopia | Frankfurt | 2 | All Maps","name_short":"frk-2","host":"frk-1.de.uncletopia.com","port":27025,"enabled":true,"region":"eu","cc":"de","latitude":50.110924,"longitude":8.682127,"reserved":0,"last_update":"0001-01-01T00:00:00Z","name_a2s":"Uncletopia | Frankfurt | 2 | All Maps","protocol":17,"map":"cp_process_final","folder":"tf","game":"Team Fortress","app_id":440,"player_count":24,"max_players":24,"Bots":0,"server_type":"Dedicated","server_os":"Linux","password":true,"vac":true,"version":"7757534","steam_id":85568392924469990,"keywords":["cp","nocrits","nodmgspread","uncletopia"],"game_id":440,"stv_port":27026,"stv_name":"Uncletopia | Frankfurt | 2 | All Maps | STV","players":[{"user_id":491,"name":"LordTrap.exe","steam_id":76561198318089716,"connected_time":1664000000000,"state":"active","ping":53},{"user_id":517,"name":"Spoof059","steam_id":76561198356116829,"connected_time":660000000000,"state":"active","ping":71},{"user_id":521,"name":"Brinier","steam_id":76561199012604288,"connected_time":551000000000,"state":"active","ping":86},{"user_id":518,"name":"TheFaultyOne","steam_id":76561199155442739,"connected_time":631000000000,"state":"active","ping":68},{"user_id":519,"name":"Xeeth","steam_id":76561199001023655,"connected_time":627000000000,"state":"active","ping":69},{"user_id":520,"name":"hl.dsk for MSX2","steam_id":76561198041966915,"connected_time":579000000000,"state":"active","ping":88},{"user_id":510,"name":"Nithle","steam_id":76561198025372740,"connected_time":753000000000,"state":"active","ping":45},{"user_id":485,"name":"Merc","steam_id":76561198044864067,"connected_time":2147000000000,"state":"active","ping":71},{"user_id":504,"name":"cult","steam_id":76561198188647690,"connected_time":1039000000000,"state":"active","ping":76},{"user_id":451,"name":"Suomipe #TF2Center","steam_id":76561198816127818,"connected_time":5639000000000,"state":"active","ping":88},{"user_id":465,"name":"Mi Manchi","steam_id":76561198171573129,"connected_time":3592000000000,"state":"active","ping":55},{"user_id":484,"name":"tallen","steam_id":76561198061708595,"connected_time":2167000000000,"state":"active","ping":81},{"user_id":522,"name":"mkwii","steam_id":76561198062507768,"connected_time":532000000000,"state":"active","ping":59},{"user_id":524,"name":"xavier","steam_id":76561198076494034,"connected_time":169000000000,"state":"active","ping":57},{"user_id":525,"name":"MK-Ultra Violence","steam_id":76561198081328238,"connected_time":49000000000,"state":"active","ping":72},{"user_id":512,"name":"WhyDoIFeed?","steam_id":76561198003117441,"connected_time":741000000000,"state":"active","ping":60},{"user_id":513,"name":"Rintse","steam_id":76561198065679312,"connected_time":740000000000,"state":"active","ping":45},{"user_id":523,"name":"Peams","steam_id":76561198343328308,"connected_time":410000000000,"state":"active","ping":59},{"user_id":439,"name":"Kvicha Kvaratskhelia","steam_id":76561198179339326,"connected_time":6119000000000,"state":"active","ping":83},{"user_id":453,"name":"bread","steam_id":76561198111097313,"connected_time":5610000000000,"state":"active","ping":56},{"user_id":463,"name":"Gen","steam_id":76561198021775885,"connected_time":3897000000000,"state":"active","ping":58},{"user_id":515,"name":"Pilaarius","steam_id":76561198120273212,"connected_time":720000000000,"state":"active","ping":94},{"user_id":425,"name":"Marmac","steam_id":76561198120033210,"connected_time":7049000000000,"state":"active","ping":71},{"user_id":516,"name":"\u003c blank \u003e","steam_id":76561198059375315,"connected_time":720000000000,"state":"active","ping":65}]},{"server_id":308,"name":"Uncletopia | Frankfurt | 3 | All Maps","name_short":"frk-3","host":"frk-1.de.uncletopia.com","port":27035,"enabled":true,"region":"eu","cc":"de","latitude":50.110924,"longitude":8.682127,"reserved":0,"last_update":"0001-01-01T00:00:00Z","name_a2s":"Uncletopia | Frankfurt | 3 | All Maps","protocol":17,"map":"pl_borneo","folder":"tf","game":"Team Fortress","app_id":440,"player_count":24,"max_players":24,"Bots":0,"server_type":"Dedicated","server_os":"Linux","password":true,"vac":true,"version":"7757534","steam_id":85568392924504274,"keywords":["nocrits","nodmgspread","payload","uncletopia"],"game_id":440,"stv_port":27036,"stv_name":"Uncletopia | Frankfurt | 3 | All Maps | STV","players":[{"user_id":149,"name":"Superiumentarius","steam_id":76561198081642249,"connected_time":929000000000,"state":"active","ping":45},{"user_id":150,"name":"Droy","steam_id":76561198065854668,"connected_time":917000000000,"state":"active","ping":52},{"user_id":136,"name":"generic alias","steam_id":76561198271607226,"connected_time":1462000000000,"state":"active","ping":93},{"user_id":106,"name":"PeTrAk0S","steam_id":76561198109314762,"connected_time":3010000000000,"state":"active","ping":68},{"user_id":151,"name":"hey babe, you look sexy today","steam_id":76561199145336892,"connected_time":892000000000,"state":"active","ping":55},{"user_id":156,"name":"G6 sherlock","steam_id":76561198802967796,"connected_time":122000000000,"state":"active","ping":120},{"user_id":94,"name":"Yoshikage Kira","steam_id":76561199051752886,"connected_time":4155000000000,"state":"active","ping":59},{"user_id":101,"name":"Mistress of the universe","steam_id":76561198115988477,"connected_time":3433000000000,"state":"active","ping":53},{"user_id":117,"name":"BoJack #TF2Center","steam_id":76561197994147794,"connected_time":2370000000000,"state":"active","ping":86},{"user_id":148,"name":"lettuce at 58p","steam_id":76561199401283123,"connected_time":996000000000,"state":"active","ping":65},{"user_id":133,"name":"Behind you","steam_id":76561198102420849,"connected_time":1758000000000,"state":"active","ping":59},{"user_id":108,"name":"Regan","steam_id":76561198100631086,"connected_time":2982000000000,"state":"active","ping":66},{"user_id":120,"name":"Borat","steam_id":76561198122226417,"connected_time":2018000000000,"state":"active","ping":58},{"user_id":113,"name":"im wearing gunnars","steam_id":76561198045413005,"connected_time":2559000000000,"state":"active","ping":55},{"user_id":141,"name":"ArikMor","steam_id":76561199124472513,"connected_time":1398000000000,"state":"active","ping":121},{"user_id":154,"name":"Mean Green Peen","steam_id":76561198228455736,"connected_time":867000000000,"state":"active","ping":74},{"user_id":65,"name":"WeegeePJ","steam_id":76561199383362382,"connected_time":5416000000000,"state":"active","ping":138},{"user_id":71,"name":"Mario3ghj","steam_id":76561198069804561,"connected_time":5265000000000,"state":"active","ping":97},{"user_id":134,"name":"metodmiha","steam_id":76561199111498575,"connected_time":1756000000000,"state":"active","ping":93},{"user_id":73,"name":"Nickbro101","steam_id":76561198044271692,"connected_time":5242000000000,"state":"active","ping":61},{"user_id":109,"name":"S_ApplePie","steam_id":76561198106947669,"connected_time":2981000000000,"state":"active","ping":89},{"user_id":155,"name":"Hyperek","steam_id":76561198130797464,"connected_time":865000000000,"state":"active","ping":65},{"user_id":95,"name":"Aesthetic Alcoholism","steam_id":76561198044418968,"connected_time":4123000000000,"state":"active","ping":52},{"user_id":103,"name":"Криминальный уще","steam_id":76561198034136409,"connected_time":3302000000000,"state":"active","ping":89}]},{"server_id":309,"name":"Uncletopia | Frankfurt | 4 | All Maps","name_short":"frk-4","host":"frk-1.de.uncletopia.com","port":27045,"enabled":true,"region":"eu","cc":"de","latitude":50.110924,"longitude":8.682127,"reserved":0,"last_update":"0001-01-01T00:00:00Z","name_a2s":"Uncletopia | Frankfurt | 4 | All Maps","protocol":17,"map":"koth_viaduct","folder":"tf","game":"Team Fortress","app_id":440,"player_count":24,"max_players":24,"Bots":0,"server_type":"Dedicated","server_os":"Linux","password":true,"vac":true,"version":"7757534","steam_id":85568392924504275,"keywords":["cp","nocrits","nodmgspread","uncletopia"],"game_id":440,"stv_port":27046,"stv_name":"Uncletopia | Frankfurt | 4 | All Maps | STV","players":[{"user_id":228,"name":"thepro-strong","steam_id":76561198047359132,"connected_time":8032000000000,"state":"active","ping":62},{"user_id":300,"name":"Piteras","steam_id":76561198858532207,"connected_time":3183000000000,"state":"active","ping":82},{"user_id":265,"name":"Mrbluuub","steam_id":76561199273847084,"connected_time":5455000000000,"state":"active","ping":68},{"user_id":332,"name":"boneez","steam_id":76561198186800982,"connected_time":490000000000,"state":"active","ping":49},{"user_id":333,"name":"DrMaxie","steam_id":76561198117445222,"connected_time":486000000000,"state":"active","ping":62},{"user_id":290,"name":"Small NULL-terminated humifier","steam_id":76561199441603388,"connected_time":3477000000000,"state":"active","ping":82},{"user_id":301,"name":"s a i","steam_id":76561197970379754,"connected_time":3167000000000,"state":"active","ping":56},{"user_id":314,"name":"shr1mple","steam_id":76561198173537027,"connected_time":1814000000000,"state":"active","ping":42},{"user_id":308,"name":"idc","steam_id":76561198322087870,"connected_time":2051000000000,"state":"active","ping":95},{"user_id":321,"name":"h.p. lovecraft's cat","steam_id":76561198370216515,"connected_time":1049000000000,"state":"active","ping":70},{"user_id":311,"name":"[O\u0026O]YaboiDucki","steam_id":76561198195976589,"connected_time":1911000000000,"state":"active","ping":70},{"user_id":312,"name":"padillacampos","steam_id":76561198161923970,"connected_time":1904000000000,"state":"active","ping":79},{"user_id":323,"name":"AutumnRex","steam_id":76561199055537842,"connected_time":807000000000,"state":"active","ping":145},{"user_id":249,"name":"Mo","steam_id":76561198809697283,"connected_time":7253000000000,"state":"active","ping":58},{"user_id":334,"name":"trexwithlasereyes 🥚","steam_id":76561198417276908,"connected_time":400000000000,"state":"active","ping":70},{"user_id":335,"name":"Fazarky","steam_id":76561199013370791,"connected_time":284000000000,"state":"active","ping":74},{"user_id":303,"name":"koko","steam_id":76561198953867666,"connected_time":2766000000000,"state":"active","ping":56},{"user_id":326,"name":"Littenmil","steam_id":76561198887061318,"connected_time":710000000000,"state":"active","ping":71},{"user_id":329,"name":"BAPHOMET","steam_id":76561198160069534,"connected_time":542000000000,"state":"active","ping":114},{"user_id":272,"name":"TheEventGuy","steam_id":76561197972797744,"connected_time":4146000000000,"state":"active","ping":65},{"user_id":337,"name":"Low Kick Connoisseur","steam_id":76561198051685232,"connected_time":46000000000,"state":"active","ping":53},{"user_id":322,"name":"Soyboy","steam_id":76561198053885716,"connected_time":849000000000,"state":"active","ping":73},{"user_id":336,"name":"Juiceydough","steam_id":76561197997323419,"connected_time":282000000000,"state":"active","ping":87},{"user_id":288,"name":"Unedited Andy","steam_id":76561199090694469,"connected_time":3609000000000,"state":"active","ping":97}]},{"server_id":310,"name":"Uncletopia | Frankfurt | 5 | All Maps","name_short":"frk-5","host":"frk-1.de.uncletopia.com","port":27055,"enabled":true,"region":"eu","cc":"de","latitude":50.110924,"longitude":8.682127,"reserved":0,"last_update":"0001-01-01T00:00:00Z","name_a2s":"Uncletopia | Frankfurt | 5 | All Maps","protocol":17,"map":"koth_lakeside_final","folder":"tf","game":"Team Fortress","app_id":440,"player_count":0,"max_players":24,"Bots":0,"server_type":"Dedicated","server_os":"Linux","password":true,"vac":true,"version":"7757534","steam_id":85568392924504277,"keywords":["cp","nocrits","nodmgspread","uncletopia"],"game_id":440,"stv_port":27056,"stv_name":"Uncletopia | Frankfurt | 5 | All Maps | STV","players":null},{"server_id":311,"name":"Uncletopia | Frankfurt | 6 | All Maps","name_short":"frk-6","host":"frk-1.de.uncletopia.com","port":27065,"enabled":true,"region":"eu","cc":"de","latitude":50.110924,"longitude":8.682127,"reserved":0,"last_update":"0001-01-01T00:00:00Z","name_a2s":"Uncletopia | Frankfurt | 6 | All Maps","protocol":17,"map":"plr_hightower","folder":"tf","game":"Team Fortress","app_id":440,"player_count":11,"max_players":24,"Bots":0,"server_type":"Dedicated","server_os":"Linux","password":true,"vac":true,"version":"7757534","steam_id":85568392924504278,"keywords":["nocrits","nodmgspread","payload","uncletopia"],"game_id":440,"stv_port":27066,"stv_name":"Uncletopia | Frankfurt | 6 | All Maps | STV","players":[{"user_id":558,"name":"tpo","steam_id":76561199081305365,"connected_time":247000000000,"state":"active","ping":60},{"user_id":553,"name":"PAN","steam_id":76561198118671779,"connected_time":764000000000,"state":"active","ping":59},{"user_id":523,"name":"snovi","steam_id":76561198984436595,"connected_time":2501000000000,"state":"active","ping":75},{"user_id":484,"name":"AgentEagele","steam_id":76561198255444884,"connected_time":4913000000000,"state":"active","ping":77},{"user_id":557,"name":"BLACK MAN FROM JOJO","steam_id":76561198272948471,"connected_time":392000000000,"state":"active","ping":138},{"user_id":512,"name":"David \"Crash\" Murphy","steam_id":76561198292845505,"connected_time":3032000000000,"state":"active","ping":83},{"user_id":540,"name":"TheSciencePerson","steam_id":76561198352592448,"connected_time":1545000000000,"state":"active","ping":67},{"user_id":503,"name":"Rez","steam_id":76561198410598772,"connected_time":4402000000000,"state":"active","ping":65},{"user_id":497,"name":"Hoficraft","steam_id":76561198868213375,"connected_time":4638000000000,"state":"active","ping":69},{"user_id":460,"name":"Tonne","steam_id":76561197970856766,"connected_time":7391000000000,"state":"active","ping":53},{"user_id":547,"name":"😈 COCKDESTROYER 😈","steam_id":76561198042846999,"connected_time":1161000000000,"state":"active","ping":68}]},{"server_id":23,"name":"Uncletopia | Frankfurt | 7 | Stopwatch Beta","name_short":"frk-7","host":"frk-1.de.uncletopia.com","port":27075,"enabled":true,"region":"eu","cc":"de","latitude":50.110924,"longitude":8.682127,"reserved":0,"last_update":"0001-01-01T00:00:00Z","name_a2s":"Uncletopia | Frankfurt | 7 | Stopwatch Beta","protocol":17,"map":"workshop/koth_bagel_rc6.ugc2514036946","folder":"tf","game":"Team Fortress","app_id":440,"player_count":0,"max_players":24,"Bots":0,"server_type":"Dedicated","server_os":"Linux","password":true,"vac":true,"version":"7757534","steam_id":85568392924742827,"keywords":["cp","nocrits","nodmgspread","uncletopia"],"game_id":440,"stv_port":27076,"stv_name":"Uncletopia | Frankfurt | 7 | Stopwatch Beta | STV","players":null},{"server_id":24,"name":"Uncletopia | Frankfurt | 8 | Community","name_short":"frk-8","host":"frk-1.de.uncletopia.com","port":27085,"enabled":true,"region":"eu","cc":"de","latitude":50.110924,"longitude":8.682127,"reserved":0,"last_update":"0001-01-01T00:00:00Z","name_a2s":"Uncletopia | Frankfurt | 8 | Community","protocol":17,"map":"workshop/cp_hazyfort_rc6.ugc1365963729","folder":"tf","game":"Team Fortress","app_id":440,"player_count":0,"max_players":24,"Bots":0,"server_type":"Dedicated","server_os":"Linux","password":true,"vac":true,"version":"7757534","steam_id":85568392924742828,"keywords":["cp","nocrits","nodmgspread","uncletopia"],"game_id":440,"stv_port":27086,"stv_name":"Uncletopia | Frankfurt | 8 | Community | STV","players":null},{"server_id":202,"name":"Uncletopia | Hong Kong | 1 | All Maps","name_short":"hgk-1","host":"hgk-1.hk.uncletopia.com","port":27015,"enabled":true,"region":"asia","cc":"hk","latitude":22.302711,"longitude":114.177216,"reserved":0,"last_update":"0001-01-01T00:00:00Z","name_a2s":"Uncletopia | Hong Kong | 1 | All Maps","protocol":17,"map":"koth_cascade","folder":"tf","game":"Team Fortress","app_id":440,"player_count":0,"max_players":24,"Bots":0,"server_type":"Dedicated","server_os":"Linux","password":true,"vac":true,"version":"7757534","steam_id":85568392924494504,"keywords":["cp","nocrits","nodmgspread","uncletopia"],"game_id":440,"stv_port":27016,"stv_name":"Uncletopia | Hong Kong | 1 | All Maps | STV","players":null},{"server_id":1,"name":"Uncletopia | Los Angeles | 1 | All Maps","name_short":"lax-1","host":"lax-1.us.uncletopia.com","port":27015,"enabled":true,"region":"us-west","cc":"us","latitude":33.94279,"longitude":-118.41004,"reserved":0,"last_update":"0001-01-01T00:00:00Z","name_a2s":"Uncletopia | Los Angeles | 1 | All Maps","protocol":17,"map":"cp_altitude","folder":"tf","game":"Team Fortress","app_id":440,"player_count":24,"max_players":24,"Bots":0,"server_type":"Dedicated","server_os":"Linux","password":true,"vac":true,"version":"7757534","steam_id":85568392924469991,"keywords":["cp","nocrits","nodmgspread","uncletopia"],"game_id":440,"stv_port":27016,"stv_name":"Uncletopia | Los Angeles | 1 | All Maps | STV","players":[{"user_id":183,"name":"Cynical-Mania","steam_id":76561198871011158,"connected_time":1093000000000,"state":"active","ping":65},{"user_id":182,"name":"skelly702","steam_id":76561198384117003,"connected_time":1194000000000,"state":"active","ping":38},{"user_id":188,"name":"Quon Grene for Vice Prez","steam_id":76561198127545817,"connected_time":896000000000,"state":"active","ping":73},{"user_id":189,"name":"fortzei","steam_id":76561198210920541,"connected_time":881000000000,"state":"active","ping":67},{"user_id":167,"name":"TTV/ChadMorningWood","steam_id":76561198139832291,"connected_time":2203000000000,"state":"active","ping":48},{"user_id":190,"name":"G.bo","steam_id":76561198085176270,"connected_time":786000000000,"state":"active","ping":65},{"user_id":174,"name":"Matisguy","steam_id":76561199020903681,"connected_time":1908000000000,"state":"active","ping":88},{"user_id":184,"name":"Magical.Puffin","steam_id":76561198129039275,"connected_time":1060000000000,"state":"active","ping":64},{"user_id":196,"name":"Kyna._","steam_id":76561198142758338,"connected_time":596000000000,"state":"active","ping":60},{"user_id":152,"name":"peter griffindor","steam_id":76561198007867721,"connected_time":2998000000000,"state":"active","ping":51},{"user_id":191,"name":"Jazpy","steam_id":76561198036872545,"connected_time":700000000000,"state":"active","ping":77},{"user_id":159,"name":"Vile Gunner","steam_id":76561198806668514,"connected_time":2519000000000,"state":"active","ping":106},{"user_id":199,"name":"game player","steam_id":76561198334059206,"connected_time":405000000000,"state":"active","ping":60},{"user_id":185,"name":"Fremond Games","steam_id":76561198847910046,"connected_time":1025000000000,"state":"active","ping":152},{"user_id":84,"name":"krootonitron","steam_id":76561198114113037,"connected_time":6461000000000,"state":"active","ping":58},{"user_id":118,"name":"corbenis","steam_id":76561199012442511,"connected_time":4379000000000,"state":"active","ping":51},{"user_id":149,"name":"Superman123389","steam_id":76561198267472539,"connected_time":3087000000000,"state":"active","ping":88},{"user_id":154,"name":"PageBoiSkull","steam_id":76561198237353578,"connected_time":2989000000000,"state":"active","ping":70},{"user_id":179,"name":"M4_Patriot","steam_id":76561198380134648,"connected_time":1531000000000,"state":"active","ping":70},{"user_id":192,"name":"umbrelion","steam_id":76561198080372499,"connected_time":698000000000,"state":"active","ping":79},{"user_id":197,"name":"bottom pride burger","steam_id":76561198322247602,"connected_time":580000000000,"state":"active","ping":57},{"user_id":148,"name":"i watched octo's gun spy video","steam_id":76561198308071306,"connected_time":3104000000000,"state":"active","ping":46},{"user_id":195,"name":"yoko","steam_id":76561199086546171,"connected_time":636000000000,"state":"active","ping":76},{"user_id":198,"name":"Frenemy \u003e:D","steam_id":76561198011363677,"connected_time":527000000000,"state":"active","ping":108}]},{"server_id":112,"name":"Uncletopia | Los Angeles | 2 | All Maps","name_short":"lax-2","host":"lax-1.us.uncletopia.com","port":27025,"enabled":true,"region":"us-west","cc":"us","latitude":33.94279,"longitude":-118.41004,"reserved":0,"last_update":"0001-01-01T00:00:00Z","name_a2s":"Uncletopia | Los Angeles | 2 | All Maps","protocol":17,"map":"koth_cascade","folder":"tf","game":"Team Fortress","app_id":440,"player_count":0,"max_players":24,"Bots":0,"server_type":"Dedicated","server_os":"Linux","password":true,"vac":true,"version":"7757534","steam_id":85568392924469992,"keywords":["cp","nocrits","nodmgspread","uncletopia"],"game_id":440,"stv_port":27026,"stv_name":"Uncletopia | Los Angeles | 2 | All Maps | STV","players":null},{"server_id":324,"name":"Uncletopia | Los Angeles | 3 | All Maps","name_short":"lax-3","host":"lax-1.us.uncletopia.com","port":27035,"enabled":true,"region":"us-west","cc":"us","latitude":33.94279,"longitude":-118.41004,"reserved":0,"last_update":"0001-01-01T00:00:00Z","name_a2s":"Uncletopia | Los Angeles | 3 | All Maps","protocol":17,"map":"koth_viaduct","folder":"tf","game":"Team Fortress","app_id":440,"player_count":0,"max_players":24,"Bots":0,"server_type":"Dedicated","server_os":"Linux","password":true,"vac":true,"version":"7757534","steam_id":85568392924510198,"keywords":["cp","nocrits","nodmgspread","uncletopia"],"game_id":440,"stv_port":27036,"stv_name":"Uncletopia | Los Angeles | 3 | All Maps | STV","players":null},{"server_id":25,"name":"Uncletopia | Los Angeles | 4 | Stopwatch Beta","name_short":"lax-4","host":"lax-1.us.uncletopia.com","port":27045,"enabled":true,"region":"us-west","cc":"us","latitude":33.94279,"longitude":-118.41004,"reserved":0,"last_update":"0001-01-01T00:00:00Z","name_a2s":"Uncletopia | Los Angeles | 4 | Stopwatch Beta","protocol":17,"map":"pl_swiftwater_final1","folder":"tf","game":"Team Fortress","app_id":440,"player_count":0,"max_players":24,"Bots":0,"server_type":"Dedicated","server_os":"Linux","password":true,"vac":true,"version":"7757534","steam_id":85568392924510199,"keywords":["nocrits","nodmgspread","payload","uncletopia"],"game_id":440,"stv_port":27046,"stv_name":"Uncletopia | Los Angeles | 4 | Stopwatch Beta | STV","players":null},{"server_id":11,"name":"Uncletopia | London | 1 | All Maps","name_short":"lon-1","host":"lon-1.uk.uncletopia.com","port":27015,"enabled":true,"region":"eu","cc":"gb","latitude":51.509865,"longitude":-0.118092,"reserved":0,"last_update":"0001-01-01T00:00:00Z","name_a2s":"Uncletopia | London | 1 | All Maps","protocol":17,"map":"pl_badwater","folder":"tf","game":"Team Fortress","app_id":440,"player_count":24,"max_players":24,"Bots":0,"server_type":"Dedicated","server_os":"Linux","password":true,"vac":true,"version":"7757534","steam_id":85568392924367362,"keywords":["nocrits","nodmgspread","payload","uncletopia"],"game_id":440,"stv_port":27016,"stv_name":"Uncletopia | London | 1 | All Maps | STV","players":[{"user_id":622,"name":"Balls","steam_id":76561198086400484,"connected_time":8776000000000,"state":"active","ping":72},{"user_id":723,"name":"Baki ඞ","steam_id":76561198193615529,"connected_time":1208000000000,"state":"active","ping":64},{"user_id":722,"name":"Meddler","steam_id":76561198033001402,"connected_time":1233000000000,"state":"active","ping":36},{"user_id":710,"name":"beheading video from 2009","steam_id":76561198834897089,"connected_time":3153000000000,"state":"active","ping":72},{"user_id":713,"name":"AWildTamim","steam_id":76561198048060652,"connected_time":3121000000000,"state":"active","ping":41},{"user_id":661,"name":"fishska","steam_id":76561198051166015,"connected_time":6382000000000,"state":"active","ping":61},{"user_id":720,"name":"Wedgeridoo","steam_id":76561198082813907,"connected_time":1949000000000,"state":"active","ping":121},{"user_id":663,"name":"SunnySideEggs","steam_id":76561198308377741,"connected_time":6367000000000,"state":"active","ping":157},{"user_id":679,"name":"♥ aura ♥","steam_id":76561198066258544,"connected_time":6144000000000,"state":"active","ping":61},{"user_id":690,"name":"kojitori","steam_id":76561198838072150,"connected_time":4992000000000,"state":"active","ping":46},{"user_id":729,"name":"Hermitcrack","steam_id":76561198149216441,"connected_time":235000000000,"state":"active","ping":71},{"user_id":699,"name":"Tilty 👥","steam_id":76561198141834089,"connected_time":4372000000000,"state":"active","ping":51},{"user_id":725,"name":"SirToast","steam_id":76561199229729107,"connected_time":1176000000000,"state":"active","ping":70},{"user_id":692,"name":"Coach","steam_id":76561198317087411,"connected_time":4731000000000,"state":"active","ping":117},{"user_id":721,"name":"Minimi","steam_id":76561198873850443,"connected_time":1857000000000,"state":"active","ping":45},{"user_id":651,"name":"Dark ^^","steam_id":76561198036241064,"connected_time":7069000000000,"state":"active","ping":66},{"user_id":727,"name":"Xtreme™","steam_id":76561198050144913,"connected_time":522000000000,"state":"active","ping":76},{"user_id":701,"name":"CanSirMan","steam_id":76561198312570181,"connected_time":4014000000000,"state":"active","ping":79},{"user_id":685,"name":"Shwupas","steam_id":76561198045493529,"connected_time":5783000000000,"state":"active","ping":44},{"user_id":728,"name":"RIFT","steam_id":76561198991622379,"connected_time":388000000000,"state":"active","ping":46},{"user_id":691,"name":"Yuzu","steam_id":76561198121694613,"connected_time":4913000000000,"state":"active","ping":50},{"user_id":724,"name":"FISH MAN (GONNA SLAP)","steam_id":76561198366374718,"connected_time":1200000000000,"state":"active","ping":57},{"user_id":730,"name":"hellcase.com","steam_id":76561198089330547,"connected_time":99000000000,"state":"active","ping":53},{"user_id":702,"name":"ciliorkun18","steam_id":76561198228942500,"connected_time":3760000000000,"state":"active","ping":90}]},{"server_id":114,"name":"Uncletopia | London | 2 | All Maps","name_short":"lon-2","host":"lon-1.uk.uncletopia.com","port":27025,"enabled":true,"region":"eu","cc":"gb","latitude":51.509865,"longitude":-0.118092,"reserved":0,"last_update":"0001-01-01T00:00:00Z","name_a2s":"Uncletopia | London | 2 | All Maps","protocol":17,"map":"pl_upward","folder":"tf","game":"Team Fortress","app_id":440,"player_count":23,"max_players":24,"Bots":0,"server_type":"Dedicated","server_os":"Linux","password":true,"vac":true,"version":"7757534","steam_id":85568392924470941,"keywords":["nocrits","nodmgspread","payload","uncletopia"],"game_id":440,"stv_port":27026,"stv_name":"Uncletopia | London | 2 | All Maps | STV","players":[{"user_id":443,"name":"ike","steam_id":76561198039845647,"connected_time":2303000000000,"state":"active","ping":59},{"user_id":470,"name":"kotamine","steam_id":76561198068907991,"connected_time":269000000000,"state":"active","ping":68},{"user_id":420,"name":"tuber","steam_id":76561198086644199,"connected_time":4160000000000,"state":"active","ping":45},{"user_id":466,"name":"rummy","steam_id":76561197997573379,"connected_time":339000000000,"state":"active","ping":51},{"user_id":462,"name":"Rooce","steam_id":76561199061011421,"connected_time":644000000000,"state":"active","ping":83},{"user_id":461,"name":"hananamanna","steam_id":76561198006570285,"connected_time":685000000000,"state":"active","ping":116},{"user_id":467,"name":"BonsaiCat_","steam_id":76561198232236020,"connected_time":331000000000,"state":"active","ping":45},{"user_id":435,"name":"Brallerin","steam_id":76561198060026189,"connected_time":2810000000000,"state":"active","ping":54},{"user_id":476,"name":"Psycho","steam_id":76561198084918608,"connected_time":73000000000,"state":"active","ping":61},{"user_id":469,"name":"Pepperonipizza","steam_id":76561198044471610,"connected_time":276000000000,"state":"active","ping":57},{"user_id":465,"name":"SpyGunning27","steam_id":76561199234795819,"connected_time":495000000000,"state":"active","ping":84},{"user_id":454,"name":"homeinvasion$","steam_id":76561199111905021,"connected_time":1496000000000,"state":"active","ping":115},{"user_id":463,"name":"Sulayman","steam_id":76561198112309670,"connected_time":625000000000,"state":"active","ping":131},{"user_id":474,"name":"Oiyx","steam_id":76561198042564075,"connected_time":182000000000,"state":"active","ping":172},{"user_id":473,"name":"slnc","steam_id":76561198041151496,"connected_time":245000000000,"state":"active","ping":74},{"user_id":457,"name":"Tort","steam_id":76561198329646769,"connected_time":1206000000000,"state":"active","ping":57},{"user_id":434,"name":"GipsySorcerer","steam_id":76561198170020311,"connected_time":3187000000000,"state":"active","ping":81},{"user_id":433,"name":"NinjaTuna","steam_id":76561198034569315,"connected_time":3331000000000,"state":"active","ping":48},{"user_id":444,"name":"Portal2Player","steam_id":76561198062870114,"connected_time":2270000000000,"state":"active","ping":184},{"user_id":451,"name":"Jahusi!*","steam_id":76561197992445165,"connected_time":1772000000000,"state":"active","ping":65},{"user_id":472,"name":"fannybaws","steam_id":76561198027033926,"connected_time":257000000000,"state":"active","ping":45},{"user_id":460,"name":"CollDragon","steam_id":76561198067534450,"connected_time":793000000000,"state":"active","ping":121},{"user_id":475,"name":"that fat croc from donkey kong","steam_id":76561198159172495,"connected_time":152000000000,"state":"active","ping":73}]},{"server_id":320,"name":"Uncletopia | London | 3 | All Maps","name_short":"lon-3","host":"lon-1.uk.uncletopia.com","port":27035,"enabled":true,"region":"eu","cc":"gb","latitude":51.509865,"longitude":-0.118092,"reserved":0,"last_update":"0001-01-01T00:00:00Z","name_a2s":"Uncletopia | London | 3 | All Maps","protocol":17,"map":"cp_metalworks","folder":"tf","game":"Team Fortress","app_id":440,"player_count":17,"max_players":24,"Bots":0,"server_type":"Dedicated","server_os":"Linux","password":true,"vac":true,"version":"7757534","steam_id":85568392924510192,"keywords":["cp","nocrits","nodmgspread","uncletopia"],"game_id":440,"stv_port":27036,"stv_name":"Uncletopia | London | 3 | All Maps | STV","players":[{"user_id":235,"name":"BenteBent","steam_id":76561198297920637,"connected_time":1043000000000,"state":"active","ping":37},{"user_id":209,"name":"ruined","steam_id":76561198048741472,"connected_time":4277000000000,"state":"active","ping":46},{"user_id":149,"name":"Milosz52","steam_id":76561199060940204,"connected_time":7904000000000,"state":"active","ping":86},{"user_id":240,"name":"Pyromainiac","steam_id":76561199259867180,"connected_time":148000000000,"state":"active","ping":175},{"user_id":241,"name":"Thing","steam_id":76561197997904403,"connected_time":137000000000,"state":"active","ping":100},{"user_id":242,"name":"It's a me Malario","steam_id":76561198176546013,"connected_time":123000000000,"state":"active","ping":45},{"user_id":222,"name":"MAKENTAKEN","steam_id":76561199127359587,"connected_time":3036000000000,"state":"active","ping":99},{"user_id":216,"name":"Fat Pigeon","steam_id":76561198817940142,"connected_time":3803000000000,"state":"active","ping":45},{"user_id":219,"name":"Fatty_McFatFat [NL]","steam_id":76561198073362707,"connected_time":3253000000000,"state":"active","ping":42},{"user_id":211,"name":"X-tis","steam_id":76561198043837480,"connected_time":4152000000000,"state":"active","ping":63},{"user_id":218,"name":"Udinese Dion","steam_id":76561198067931573,"connected_time":3425000000000,"state":"active","ping":60},{"user_id":190,"name":"CarBombEnthusiast","steam_id":76561199448185434,"connected_time":5963000000000,"state":"active","ping":69},{"user_id":236,"name":"iattwink","steam_id":76561198963378933,"connected_time":1022000000000,"state":"active","ping":41},{"user_id":227,"name":"NotFionn","steam_id":76561198890525176,"connected_time":2926000000000,"state":"active","ping":72},{"user_id":155,"name":"disc0rd","steam_id":76561197985965776,"connected_time":7743000000000,"state":"active","ping":64},{"user_id":233,"name":"Jack","steam_id":76561198079575891,"connected_time":1420000000000,"state":"active","ping":60},{"user_id":129,"name":"Yaire","steam_id":76561198017343510,"connected_time":9909000000000,"state":"active","ping":56}]},{"server_id":321,"name":"Uncletopia | London | 4 | All Maps","name_short":"lon-4","host":"lon-1.uk.uncletopia.com","port":27045,"enabled":true,"region":"eu","cc":"gb","latitude":51.509865,"longitude":-0.118092,"reserved":0,"last_update":"0001-01-01T00:00:00Z","name_a2s":"Uncletopia | London | 4 | All Maps","protocol":17,"map":"cp_dustbowl","folder":"tf","game":"Team Fortress","app_id":440,"player_count":2,"max_players":24,"Bots":0,"server_type":"Dedicated","server_os":"Linux","password":true,"vac":true,"version":"7757534","steam_id":85568392924510193,"keywords":["cp","nocrits","nodmgspread","uncletopia"],"game_id":440,"stv_port":27046,"stv_name":"Uncletopia | London | 4 | All Maps | STV","players":[{"user_id":293,"name":"brotherman","steam_id":76561198255357694,"connected_time":1171000000000,"state":"active","ping":86},{"user_id":208,"name":"Death","steam_id":76561198176896415,"connected_time":8444000000000,"state":"active","ping":86}]},{"server_id":21,"name":"Uncletopia | London | 5 | All Maps","name_short":"lon-5","host":"lon-1.uk.uncletopia.com","port":27055,"enabled":true,"region":"eu","cc":"gb","latitude":51.509865,"longitude":-0.118092,"reserved":0,"last_update":"0001-01-01T00:00:00Z","name_a2s":"Uncletopia | London | 5 | All Maps","protocol":17,"map":"pl_snowycoast","folder":"tf","game":"Team Fortress","app_id":440,"player_count":23,"max_players":24,"Bots":0,"server_type":"Dedicated","server_os":"Linux","password":true,"vac":true,"version":"7757534","steam_id":85568392924742829,"keywords":["nocrits","nodmgspread","payload","uncletopia"],"game_id":440,"stv_port":27056,"stv_name":"Uncletopia | London | 5 | All Maps | STV","players":[{"user_id":232,"name":"Comfy_","steam_id":76561198154656307,"connected_time":94000000000,"state":"active","ping":49},{"user_id":145,"name":"Economic crisis","steam_id":76561198063562843,"connected_time":5869000000000,"state":"active","ping":61},{"user_id":229,"name":"Gubbly Bubbins","steam_id":76561198101451654,"connected_time":289000000000,"state":"active","ping":45},{"user_id":226,"name":"Laurie","steam_id":76561198082951750,"connected_time":486000000000,"state":"active","ping":43},{"user_id":198,"name":"Platy","steam_id":76561198073442109,"connected_time":2132000000000,"state":"active","ping":57},{"user_id":217,"name":"FoOzTV","steam_id":76561197998636728,"connected_time":659000000000,"state":"active","ping":68},{"user_id":218,"name":"beurgeur","steam_id":76561198872426314,"connected_time":653000000000,"state":"active","ping":32},{"user_id":219,"name":"lol","steam_id":76561198104438656,"connected_time":636000000000,"state":"active","ping":73},{"user_id":230,"name":"Sarah Obama Michella","steam_id":76561198078996559,"connected_time":252000000000,"state":"active","ping":79},{"user_id":233,"name":"Toofy","steam_id":76561197989727907,"connected_time":52000000000,"state":"active","ping":30},{"user_id":231,"name":"8 Ball","steam_id":76561197960988736,"connected_time":156000000000,"state":"active","ping":45},{"user_id":221,"name":"vug","steam_id":76561198042227249,"connected_time":601000000000,"state":"active","ping":45},{"user_id":222,"name":"Joe12000","steam_id":76561198160817969,"connected_time":592000000000,"state":"active","ping":61},{"user_id":213,"name":"dragunov","steam_id":76561198176178179,"connected_time":833000000000,"state":"active","ping":92},{"user_id":223,"name":"Purdue Peter","steam_id":76561198071525492,"connected_time":551000000000,"state":"active","ping":48},{"user_id":188,"name":"AsuX","steam_id":76561197990333289,"connected_time":2348000000000,"state":"active","ping":61},{"user_id":224,"name":"arcSolver","steam_id":76561198212013944,"connected_time":548000000000,"state":"active","ping":50},{"user_id":225,"name":"tone","steam_id":76561197975301462,"connected_time":489000000000,"state":"active","ping":73},{"user_id":228,"name":"Koi-Koi","steam_id":76561198045527771,"connected_time":394000000000,"state":"active","ping":54},{"user_id":196,"name":"Munibe","steam_id":76561198107967904,"connected_time":2164000000000,"state":"active","ping":65},{"user_id":201,"name":"boar hammer","steam_id":76561198396168679,"connected_time":2116000000000,"state":"active","ping":179},{"user_id":234,"name":"Haha?","steam_id":76561198056882245,"connected_time":48000000000,"state":"active","ping":46},{"user_id":202,"name":"Twink covered in slurry","steam_id":76561198156906497,"connected_time":2115000000000,"state":"active","ping":59}]},{"server_id":22,"name":"Uncletopia | London | 6 | All Maps","name_short":"lon-6","host":"lon-1.uk.uncletopia.com","port":27065,"enabled":true,"region":"eu","cc":"gb","latitude":51.509865,"longitude":-0.118092,"reserved":0,"last_update":"0001-01-01T00:00:00Z","name_a2s":"Uncletopia | London | 6 | All Maps","protocol":17,"map":"cp_well","folder":"tf","game":"Team Fortress","app_id":440,"player_count":11,"max_players":24,"Bots":0,"server_type":"Dedicated","server_os":"Linux","password":true,"vac":true,"version":"7757534","steam_id":85568392924742830,"keywords":["cp","nocrits","nodmgspread","uncletopia"],"game_id":440,"stv_port":27066,"stv_name":"Uncletopia | London | 6 | All Maps | STV","players":[{"user_id":625,"name":"SirSangoor","steam_id":76561198044462559,"connected_time":1426000000000,"state":"active","ping":110},{"user_id":633,"name":"24/7 lofi hip hop beats","steam_id":76561198130597374,"connected_time":1192000000000,"state":"active","ping":103},{"user_id":641,"name":"Captain Samo","steam_id":76561198047224482,"connected_time":61000000000,"state":"active","ping":55},{"user_id":636,"name":"Sneikijs","steam_id":76561198052549308,"connected_time":1129000000000,"state":"active","ping":41},{"user_id":620,"name":"spake","steam_id":76561198109247682,"connected_time":1596000000000,"state":"active","ping":52},{"user_id":601,"name":"Gray","steam_id":76561198449128916,"connected_time":3123000000000,"state":"active","ping":90},{"user_id":640,"name":"wake up, little visitor","steam_id":76561198104896547,"connected_time":294000000000,"state":"active","ping":77},{"user_id":605,"name":"tapeworms!","steam_id":76561198069649097,"connected_time":2783000000000,"state":"active","ping":111},{"user_id":622,"name":"Vermilion. -メラトニン-","steam_id":76561198050555372,"connected_time":1566000000000,"state":"active","ping":46},{"user_id":598,"name":"owo","steam_id":76561198158209651,"connected_time":3192000000000,"state":"active","ping":47},{"user_id":623,"name":"Gnarville","steam_id":76561198006373329,"connected_time":1493000000000,"state":"active","ping":106}]},{"server_id":40,"name":"Uncletopia | London | 7 | No Payload","name_short":"lon-7","host":"lon-1.uk.uncletopia.com","port":27075,"enabled":true,"region":"eu","cc":"gb","latitude":51.509865,"longitude":-0.118092,"reserved":0,"last_update":"0001-01-01T00:00:00Z","name_a2s":"Uncletopia | London | 7 | No Payload","protocol":17,"map":"koth_lazarus","folder":"tf","game":"Team Fortress","app_id":440,"player_count":0,"max_players":24,"Bots":0,"server_type":"Dedicated","server_os":"Linux","password":true,"vac":true,"version":"7757534","steam_id":85568392924964314,"keywords":["cp","nocrits","nodmgspread","uncletopia"],"game_id":440,"stv_port":27076,"stv_name":"Uncletopia | London | 7 | No Payload | STV","players":null},{"server_id":41,"name":"Uncletopia | London | 8 | Community","name_short":"lon-8","host":"lon-1.uk.uncletopia.com","port":27085,"enabled":true,"region":"eu","cc":"gb","latitude":51.509865,"longitude":-0.118092,"reserved":0,"last_update":"0001-01-01T00:00:00Z","name_a2s":"Uncletopia | London | 8 | Community","protocol":17,"map":"pl_barnblitz","folder":"tf","game":"Team Fortress","app_id":440,"player_count":0,"max_players":24,"Bots":0,"server_type":"Dedicated","server_os":"Linux","password":true,"vac":true,"version":"7757534","steam_id":85568392924964315,"keywords":["nocrits","nodmgspread","payload","uncletopia"],"game_id":440,"stv_port":27086,"stv_name":"Uncletopia | London | 8 | Community | STV","players":null},{"server_id":300,"name":"Uncletopia | Montréal | 1 | All Maps","name_short":"mtl-1","host":"mtl-1.ca.uncletopia.com","port":27015,"enabled":true,"region":"us-east","cc":"ca","latitude":45.50889,"longitude":-73.56167,"reserved":0,"last_update":"0001-01-01T00:00:00Z","name_a2s":"Uncletopia | Montréal | 1 | All Maps","protocol":17,"map":"pl_barnblitz","folder":"tf","game":"Team Fortress","app_id":440,"player_count":0,"max_players":24,"Bots":0,"server_type":"Dedicated","server_os":"Linux","password":true,"vac":true,"version":"7757534","steam_id":85568392924500087,"keywords":["nocrits","nodmgspread","payload","uncletopia"],"game_id":440,"stv_port":27016,"stv_name":"Uncletopia | Montréal | 1 | All Maps | STV","players":null},{"server_id":301,"name":"Uncletopia | Montréal | 2 | All Maps","name_short":"mtl-2","host":"mtl-1.ca.uncletopia.com","port":27025,"enabled":true,"region":"us-east","cc":"ca","latitude":45.50889,"longitude":-73.56167,"reserved":0,"last_update":"0001-01-01T00:00:00Z","name_a2s":"Uncletopia | Montréal | 2 | All Maps","protocol":17,"map":"pl_snowycoast","folder":"tf","game":"Team Fortress","app_id":440,"player_count":0,"max_players":24,"Bots":0,"server_type":"Dedicated","server_os":"Linux","password":true,"vac":true,"version":"7757534","steam_id":85568392924500088,"keywords":["nocrits","nodmgspread","payload","uncletopia"],"game_id":440,"stv_port":27026,"stv_name":"Uncletopia | Montréal | 2 | All Maps | STV","players":null},{"server_id":302,"name":"Uncletopia | Montréal | 3 | All Maps","name_short":"mtl-3","host":"mtl-1.ca.uncletopia.com","port":27035,"enabled":true,"region":"us-east","cc":"ca","latitude":45.50889,"longitude":-73.56167,"reserved":0,"last_update":"0001-01-01T00:00:00Z","name_a2s":"Uncletopia | Montréal | 3 | All Maps","protocol":17,"map":"pl_upward","folder":"tf","game":"Team Fortress","app_id":440,"player_count":0,"max_players":24,"Bots":0,"server_type":"Dedicated","server_os":"Linux","password":true,"vac":true,"version":"7757534","steam_id":85568392924500089,"keywords":["nocrits","nodmgspread","payload","uncletopia"],"game_id":440,"stv_port":27036,"stv_name":"Uncletopia | Montréal | 3 | All Maps | STV","players":null},{"server_id":303,"name":"Uncletopia | Montréal | 4 | No Payload","name_short":"mtl-4","host":"mtl-1.ca.uncletopia.com","port":27045,"enabled":true,"region":"us-east","cc":"ca","latitude":45.50889,"longitude":-73.56167,"reserved":0,"last_update":"0001-01-01T00:00:00Z","name_a2s":"Uncletopia | Montréal | 4 | No Payload","protocol":17,"map":"pl_pier","folder":"tf","game":"Team Fortress","app_id":440,"player_count":0,"max_players":24,"Bots":0,"server_type":"Dedicated","server_os":"Linux","password":true,"vac":true,"version":"7757534","steam_id":85568392924500090,"keywords":["nocrits","nodmgspread","payload","uncletopia"],"game_id":440,"stv_port":27046,"stv_name":"Uncletopia | Montréal | 4 | No Payload | STV","players":null},{"server_id":13,"name":"Uncletopia | New York City | 1 | All Maps","name_short":"nyc-1","host":"nyc-1.us.uncletopia.com","port":27015,"enabled":true,"region":"us-east","cc":"us","latitude":40.73061,"longitude":-73.93524,"reserved":0,"last_update":"0001-01-01T00:00:00Z","name_a2s":"Uncletopia | New York City | 1 | All Maps","protocol":17,"map":"koth_viaduct","folder":"tf","game":"Team Fortress","app_id":440,"player_count":23,"max_players":24,"Bots":0,"server_type":"Dedicated","server_os":"Linux","password":true,"vac":true,"version":"7757534","steam_id":85568392924469993,"keywords":["cp","nocrits","nodmgspread","uncletopia"],"game_id":440,"stv_port":27016,"stv_name":"Uncletopia | New York City | 1 | All Maps | STV","players":[{"user_id":335,"name":"Sprucelass","steam_id":76561197998391724,"connected_time":559000000000,"state":"active","ping":64},{"user_id":291,"name":"Ozirion","steam_id":76561198108901767,"connected_time":4251000000000,"state":"active","ping":95},{"user_id":302,"name":"Wattle","steam_id":76561198036756626,"connected_time":3538000000000,"state":"active","ping":54},{"user_id":341,"name":"e0e0","steam_id":76561198293839750,"connected_time":255000000000,"state":"active","ping":49},{"user_id":336,"name":"GOLDIE","steam_id":76561199375258674,"connected_time":509000000000,"state":"active","ping":111},{"user_id":289,"name":"Drake the Pixel","steam_id":76561198131824401,"connected_time":4409000000000,"state":"active","ping":40},{"user_id":329,"name":"doodlenoodles","steam_id":76561199345823430,"connected_time":649000000000,"state":"active","ping":44},{"user_id":290,"name":"roman","steam_id":76561198170066797,"connected_time":4357000000000,"state":"active","ping":53},{"user_id":337,"name":"edelyn","steam_id":76561198815644949,"connected_time":508000000000,"state":"active","ping":61},{"user_id":267,"name":"Scoobery Doobery","steam_id":76561198023634449,"connected_time":5962000000000,"state":"active","ping":71},{"user_id":321,"name":"\u003e:3","steam_id":76561198083607304,"connected_time":1092000000000,"state":"active","ping":60},{"user_id":325,"name":"Scum Knight","steam_id":76561198282444763,"connected_time":974000000000,"state":"active","ping":50},{"user_id":301,"name":"Raisin","steam_id":76561198116295334,"connected_time":3870000000000,"state":"active","ping":57},{"user_id":300,"name":"open na noor","steam_id":76561198851918683,"connected_time":3978000000000,"state":"active","ping":52},{"user_id":323,"name":"grate_fiter-232","steam_id":76561198073424589,"connected_time":1048000000000,"state":"active","ping":56},{"user_id":282,"name":"SpaceGoldfish122","steam_id":76561198332334119,"connected_time":5169000000000,"state":"active","ping":134},{"user_id":317,"name":"Bother","steam_id":76561198336750909,"connected_time":1301000000000,"state":"active","ping":41},{"user_id":286,"name":"YUMMY MED PICK","steam_id":76561199445629071,"connected_time":5020000000000,"state":"active","ping":45},{"user_id":330,"name":"+2","steam_id":76561198328109873,"connected_time":638000000000,"state":"active","ping":60},{"user_id":343,"name":"Chhaam","steam_id":76561198058508132,"connected_time":139000000000,"state":"active","ping":45},{"user_id":324,"name":"joe the baby grabber","steam_id":76561198285162538,"connected_time":1033000000000,"state":"active","ping":54},{"user_id":342,"name":"Shock Trooper","steam_id":76561199086731683,"connected_time":220000000000,"state":"active","ping":57},{"user_id":333,"name":"PinkLemonade","steam_id":76561198799286228,"connected_time":600000000000,"state":"active","ping":60}]},{"server_id":14,"name":"Uncletopia | New York City | 2 | All Maps","name_short":"nyc-2","host":"nyc-1.us.uncletopia.com","port":27025,"enabled":true,"region":"us-east","cc":"us","latitude":40.73061,"longitude":-73.93524,"reserved":0,"last_update":"0001-01-01T00:00:00Z","name_a2s":"Uncletopia | New York City | 2 | All Maps","protocol":17,"map":"pl_barnblitz","folder":"tf","game":"Team Fortress","app_id":440,"player_count":24,"max_players":24,"Bots":0,"server_type":"Dedicated","server_os":"Linux","password":true,"vac":true,"version":"7757534","steam_id":85568392924469994,"keywords":["nocrits","nodmgspread","payload","uncletopia"],"game_id":440,"stv_port":27026,"stv_name":"Uncletopia | New York City | 2 | All Maps | STV","players":[{"user_id":524,"name":"teaf","steam_id":76561198406252824,"connected_time":6935000000000,"state":"active","ping":123},{"user_id":581,"name":"Kraftlos","steam_id":76561198074350350,"connected_time":1771000000000,"state":"active","ping":62},{"user_id":564,"name":"sentience","steam_id":76561198098781227,"connected_time":3867000000000,"state":"active","ping":101},{"user_id":527,"name":"creeeeeee","steam_id":76561198392539722,"connected_time":6530000000000,"state":"active","ping":76},{"user_id":578,"name":"sneakysquid (real)","steam_id":76561198800721329,"connected_time":2002000000000,"state":"active","ping":101},{"user_id":583,"name":"papi Chulo","steam_id":76561198126274984,"connected_time":1608000000000,"state":"active","ping":132},{"user_id":589,"name":"Pyro","steam_id":76561199267143939,"connected_time":755000000000,"state":"active","ping":105},{"user_id":586,"name":"PlumSmug","steam_id":76561198103960265,"connected_time":993000000000,"state":"active","ping":71},{"user_id":549,"name":"Sudden Pyro Event","steam_id":76561198085815757,"connected_time":4983000000000,"state":"active","ping":60},{"user_id":544,"name":"tsaide","steam_id":76561198384120999,"connected_time":5631000000000,"state":"active","ping":51},{"user_id":590,"name":"Speedy","steam_id":76561198080761661,"connected_time":687000000000,"state":"active","ping":62},{"user_id":576,"name":"people watcher","steam_id":76561198993581426,"connected_time":2248000000000,"state":"active","ping":63},{"user_id":582,"name":"slurp","steam_id":76561198323497535,"connected_time":1711000000000,"state":"active","ping":61},{"user_id":545,"name":"mechiimi ★","steam_id":76561198321627268,"connected_time":5614000000000,"state":"active","ping":123},{"user_id":585,"name":"Chinese Cabbage","steam_id":76561198311588768,"connected_time":1275000000000,"state":"active","ping":70},{"user_id":565,"name":"boppetson","steam_id":76561198073529045,"connected_time":3859000000000,"state":"active","ping":50},{"user_id":591,"name":"Skeleton Rick","steam_id":76561197988235877,"connected_time":246000000000,"state":"active","ping":119},{"user_id":575,"name":"SomeFlamingo","steam_id":76561198869299841,"connected_time":2742000000000,"state":"active","ping":57},{"user_id":407,"name":"canid","steam_id":76561198103496593,"connected_time":14007000000000,"state":"active","ping":61},{"user_id":566,"name":"stinker","steam_id":76561198295640486,"connected_time":3828000000000,"state":"active","ping":119},{"user_id":550,"name":"mio","steam_id":76561198239286750,"connected_time":4937000000000,"state":"active","ping":57},{"user_id":571,"name":"TURTLEPOOL21","steam_id":76561198278212264,"connected_time":3235000000000,"state":"active","ping":61},{"user_id":572,"name":"Brown_Dream","steam_id":76561198975766145,"connected_time":3022000000000,"state":"active","ping":83},{"user_id":568,"name":"Icaras","steam_id":76561198416724843,"connected_time":3623000000000,"state":"active","ping":114}]},{"server_id":15,"name":"Uncletopia | New York City | 3 | Stopwatch Beta","name_short":"nyc-3","host":"nyc-1.us.uncletopia.com","port":27035,"enabled":true,"region":"us-east","cc":"us","latitude":40.73061,"longitude":-73.93524,"reserved":0,"last_update":"0001-01-01T00:00:00Z","name_a2s":"Uncletopia | New York City | 3 | Stopwatch Beta","protocol":17,"map":"workshop/pl_badwater_pro_v12.ugc2142942074","folder":"tf","game":"Team Fortress","app_id":440,"player_count":0,"max_players":24,"Bots":0,"server_type":"Dedicated","server_os":"Linux","password":true,"vac":true,"version":"7757534","steam_id":85568392924742820,"keywords":["nocrits","nodmgspread","payload","uncletopia"],"game_id":440,"stv_port":27036,"stv_name":"Uncletopia | New York City | 3 | Stopwatch Beta | STV","players":null},{"server_id":16,"name":"Uncletopia | New York City | 4 | Community","name_short":"nyc-4","host":"nyc-1.us.uncletopia.com","port":27045,"enabled":true,"region":"us-east","cc":"us","latitude":40.73061,"longitude":-73.93524,"reserved":0,"last_update":"0001-01-01T00:00:00Z","name_a2s":"Uncletopia | New York City | 4 | Community","protocol":17,"map":"workshop/pl_corrode_rc2.ugc546577989","folder":"tf","game":"Team Fortress","app_id":440,"player_count":24,"max_players":24,"Bots":0,"server_type":"Dedicated","server_os":"Linux","password":true,"vac":true,"version":"7757534","steam_id":85568392924742821,"keywords":["nocrits","nodmgspread","payload","uncletopia"],"game_id":440,"stv_port":27046,"stv_name":"Uncletopia | New York City | 4 | Community | STV","players":[{"user_id":127,"name":"I ate those food","steam_id":76561198084614149,"connected_time":1557000000000,"state":"active","ping":45},{"user_id":49,"name":"My dad owns Club Penguin.","steam_id":76561198032864436,"connected_time":6759000000000,"state":"active","ping":83},{"user_id":100,"name":"raccoon with internet access","steam_id":76561198062763756,"connected_time":3365000000000,"state":"active","ping":67},{"user_id":125,"name":"SnatchyGoblin69","steam_id":76561199276295259,"connected_time":1687000000000,"state":"active","ping":95},{"user_id":139,"name":"SpaceDonut9","steam_id":76561199013502859,"connected_time":431000000000,"state":"active","ping":61},{"user_id":95,"name":"Havok","steam_id":76561198063455003,"connected_time":3554000000000,"state":"active","ping":95},{"user_id":128,"name":"DrChillin","steam_id":76561198043824865,"connected_time":1433000000000,"state":"active","ping":83},{"user_id":144,"name":"Indicative","steam_id":76561199076612537,"connected_time":280000000000,"state":"active","ping":92},{"user_id":134,"name":"Hate of War","steam_id":76561199178358956,"connected_time":888000000000,"state":"active","ping":133},{"user_id":135,"name":"Bored Barred Owl","steam_id":76561198263895597,"connected_time":707000000000,"state":"active","ping":66},{"user_id":150,"name":"corncakecoolcat","steam_id":76561198090716968,"connected_time":171000000000,"state":"active","ping":57},{"user_id":141,"name":"ok","steam_id":76561198445140249,"connected_time":412000000000,"state":"active","ping":68},{"user_id":142,"name":"Midnight Flame","steam_id":76561198279692754,"connected_time":383000000000,"state":"active","ping":77},{"user_id":143,"name":"Paul from Marketing","steam_id":76561198156319978,"connected_time":319000000000,"state":"active","ping":84},{"user_id":146,"name":"The Power","steam_id":76561198060566884,"connected_time":264000000000,"state":"active","ping":115},{"user_id":115,"name":"Mr. May","steam_id":76561198132112804,"connected_time":2465000000000,"state":"active","ping":90},{"user_id":151,"name":"Zyzx","steam_id":76561198054177355,"connected_time":62000000000,"state":"active","ping":74},{"user_id":133,"name":"DufsterYT","steam_id":76561199122486848,"connected_time":909000000000,"state":"active","ping":62},{"user_id":107,"name":"Clusterfart","steam_id":76561198150242043,"connected_time":2902000000000,"state":"active","ping":90},{"user_id":106,"name":"Barlon","steam_id":76561198023717515,"connected_time":2917000000000,"state":"active","ping":60},{"user_id":148,"name":"TATARA","steam_id":76561199098759517,"connected_time":245000000000,"state":"active","ping":118},{"user_id":149,"name":"Sulquinn","steam_id":76561198375006942,"connected_time":229000000000,"state":"active","ping":71},{"user_id":112,"name":"Huey","steam_id":76561198972816386,"connected_time":2626000000000,"state":"active","ping":83},{"user_id":123,"name":"Minion Bob","steam_id":76561198023938170,"connected_time":2044000000000,"state":"active","ping":70}]},{"server_id":142,"name":"Uncletopia | São Paulo | 1 | All Maps","name_short":"sao-1","host":"sao-1.br.uncletopia.com","port":27015,"enabled":true,"region":"sa","cc":"br","latitude":-23.533773,"longitude":-46.62529,"reserved":0,"last_update":"0001-01-01T00:00:00Z","name_a2s":"Uncletopia | São Paulo | 1 | All Maps","protocol":17,"map":"pl_badwater","folder":"tf","game":"Team Fortress","app_id":440,"player_count":14,"max_players":24,"Bots":0,"server_type":"Dedicated","server_os":"Linux","password":true,"vac":true,"version":"7757534","steam_id":85568392924469996,"keywords":["nocrits","nodmgspread","payload","uncletopia"],"game_id":440,"stv_port":27016,"stv_name":"Uncletopia | São Paulo | 1 | All Maps | STV","players":[{"user_id":35,"name":"Niki","steam_id":76561198298750696,"connected_time":1362000000000,"state":"active","ping":47},{"user_id":50,"name":"Turin","steam_id":76561198102778133,"connected_time":183000000000,"state":"active","ping":56},{"user_id":37,"name":"Tigas","steam_id":76561198151597169,"connected_time":1210000000000,"state":"active","ping":48},{"user_id":48,"name":"jones","steam_id":76561199072891698,"connected_time":391000000000,"state":"active","ping":91},{"user_id":46,"name":"thims","steam_id":76561199252537253,"connected_time":427000000000,"state":"active","ping":49},{"user_id":19,"name":"ailuros","steam_id":76561198171349369,"connected_time":2496000000000,"state":"active","ping":35},{"user_id":53,"name":"Max IA","steam_id":76561198120219866,"connected_time":78000000000,"state":"active","ping":50},{"user_id":54,"name":"Copa Pistão","steam_id":76561199240099576,"connected_time":32000000000,"state":"spawning","ping":45},{"user_id":22,"name":"Stoopid","steam_id":76561198126485401,"connected_time":2371000000000,"state":"active","ping":48},{"user_id":28,"name":"Pastel do Pedrão","steam_id":76561199359501901,"connected_time":2019000000000,"state":"active","ping":41},{"user_id":32,"name":"01","steam_id":76561199200993350,"connected_time":1576000000000,"state":"active","ping":75},{"user_id":33,"name":"Evanbrs","steam_id":76561198041508327,"connected_time":1509000000000,"state":"active","ping":75},{"user_id":34,"name":"Ace","steam_id":76561198112033120,"connected_time":1472000000000,"state":"active","ping":49},{"user_id":42,"name":"kudurista","steam_id":76561198143438576,"connected_time":1071000000000,"state":"active","ping":37}]},{"server_id":143,"name":"Uncletopia | São Paulo | 2 | All Maps","name_short":"sao-2","host":"sao-2.br.uncletopia.com","port":27015,"enabled":true,"region":"sa","cc":"br","latitude":-23.533773,"longitude":-46.62529,"reserved":0,"last_update":"0001-01-01T00:00:00Z","name_a2s":"Uncletopia | São Paulo | 2 | All Maps","protocol":17,"map":"cp_dustbowl","folder":"tf","game":"Team Fortress","app_id":440,"player_count":2,"max_players":24,"Bots":0,"server_type":"Dedicated","server_os":"Linux","password":true,"vac":true,"version":"7757534","steam_id":85568392924485349,"keywords":["cp","nocrits","nodmgspread","uncletopia"],"game_id":440,"stv_port":27016,"stv_name":"Uncletopia | São Paulo | 2 | All Maps | STV","players":[{"user_id":34,"name":"TheRealPuro","steam_id":76561199198292980,"connected_time":26000000000,"state":"active","ping":194},{"user_id":35,"name":"StrangerThingsfan1","steam_id":76561199411410297,"connected_time":1000000000,"state":"spawning","ping":130}]},{"server_id":7,"name":"Uncletopia | Seattle | 1 | All Maps","name_short":"sea-1","host":"sea-1.us.uncletopia.com","port":27015,"enabled":true,"region":"us-west","cc":"us","latitude":47.608013,"longitude":-122.33517,"reserved":0,"last_update":"0001-01-01T00:00:00Z","name_a2s":"Uncletopia | Seattle | 1 | All Maps","protocol":17,"map":"pl_pier","folder":"tf","game":"Team Fortress","app_id":440,"player_count":24,"max_players":24,"Bots":0,"server_type":"Dedicated","server_os":"Linux","password":true,"vac":true,"version":"7757534","steam_id":85568392924469997,"keywords":["nocrits","nodmgspread","payload","uncletopia"],"game_id":440,"stv_port":27016,"stv_name":"Uncletopia | Seattle | 1 | All Maps | STV","players":[{"user_id":228,"name":"Dongus","steam_id":76561197979056451,"connected_time":5276000000000,"state":"active","ping":45},{"user_id":251,"name":"John Johnson","steam_id":76561198347510093,"connected_time":3367000000000,"state":"active","ping":59},{"user_id":261,"name":"Gundo","steam_id":76561198093339825,"connected_time":2807000000000,"state":"active","ping":129},{"user_id":255,"name":"Theory-ZaZa","steam_id":76561198116419931,"connected_time":2960000000000,"state":"active","ping":62},{"user_id":250,"name":"BreadQuest","steam_id":76561198082425960,"connected_time":3504000000000,"state":"active","ping":45},{"user_id":283,"name":"Mitchell","steam_id":76561197972922328,"connected_time":908000000000,"state":"active","ping":88},{"user_id":221,"name":"Prison Food","steam_id":76561198160779356,"connected_time":5926000000000,"state":"active","ping":99},{"user_id":284,"name":"Strikerbolt","steam_id":76561199095622897,"connected_time":876000000000,"state":"active","ping":74},{"user_id":280,"name":"arch_knight321","steam_id":76561198436797625,"connected_time":919000000000,"state":"active","ping":127},{"user_id":285,"name":"The Luigi","steam_id":76561199184140541,"connected_time":782000000000,"state":"active","ping":120},{"user_id":292,"name":"Buzz Buzz","steam_id":76561198294101501,"connected_time":90000000000,"state":"active","ping":76},{"user_id":276,"name":"e","steam_id":76561199117761097,"connected_time":1525000000000,"state":"active","ping":53},{"user_id":224,"name":"my monitor is off","steam_id":76561198074499537,"connected_time":5330000000000,"state":"active","ping":88},{"user_id":272,"name":"Luca","steam_id":76561198125087140,"connected_time":1727000000000,"state":"active","ping":53},{"user_id":286,"name":"Antwan","steam_id":76561198246200638,"connected_time":773000000000,"state":"active","ping":92},{"user_id":290,"name":"sp♠de","steam_id":76561198213837649,"connected_time":540000000000,"state":"active","ping":50},{"user_id":260,"name":"sugnoD","steam_id":76561198068672882,"connected_time":2920000000000,"state":"active","ping":72},{"user_id":265,"name":"Joe ELO From Progressive","steam_id":76561198336597038,"connected_time":2591000000000,"state":"active","ping":78},{"user_id":240,"name":"mega","steam_id":76561198089520959,"connected_time":4234000000000,"state":"active","ping":96},{"user_id":245,"name":"JayBurb","steam_id":76561199119579978,"connected_time":4092000000000,"state":"active","ping":125},{"user_id":268,"name":"MerkZ","steam_id":76561198047620432,"connected_time":2068000000000,"state":"active","ping":74},{"user_id":273,"name":"lox","steam_id":76561198288531493,"connected_time":1688000000000,"state":"active","ping":56},{"user_id":278,"name":"Kirkland Signature bacon","steam_id":76561199102963294,"connected_time":1348000000000,"state":"active","ping":74},{"user_id":282,"name":"It's a Doggydog World","steam_id":76561198018232414,"connected_time":918000000000,"state":"active","ping":85}]},{"server_id":119,"name":"Uncletopia | Seattle | 2 | All Maps","name_short":"sea-2","host":"sea-1.us.uncletopia.com","port":27025,"enabled":true,"region":"us-west","cc":"us","latitude":47.608013,"longitude":-122.33517,"reserved":0,"last_update":"0001-01-01T00:00:00Z","name_a2s":"Uncletopia | Seattle | 2 | All Maps","protocol":17,"map":"pl_borneo","folder":"tf","game":"Team Fortress","app_id":440,"player_count":22,"max_players":24,"Bots":0,"server_type":"Dedicated","server_os":"Linux","password":true,"vac":true,"version":"7757534","steam_id":85568392924469998,"keywords":["nocrits","nodmgspread","payload","uncletopia"],"game_id":440,"stv_port":27026,"stv_name":"Uncletopia | Seattle | 2 | All Maps | STV","players":[{"user_id":387,"name":"Logan601 #savetf2","steam_id":76561198263116731,"connected_time":421000000000,"state":"connecting","ping":89},{"user_id":344,"name":"V∆lume The 1rd","steam_id":76561198133260990,"connected_time":4399000000000,"state":"connecting","ping":275},{"user_id":377,"name":"Mister Fister","steam_id":76561199059653595,"connected_time":1501000000000,"state":"connecting","ping":52},{"user_id":381,"name":"GayBalls2","steam_id":76561198241184108,"connected_time":1063000000000,"state":"connecting","ping":66},{"user_id":390,"name":"VannNotSmart8","steam_id":76561198958732029,"connected_time":13000000000,"state":"connecting","ping":70},{"user_id":361,"name":"Omnoman","steam_id":76561198006258213,"connected_time":2799000000000,"state":"connecting","ping":142},{"user_id":391,"name":"Tofu_Ninja_Nerd","steam_id":76561199042488882,"connected_time":10000000000,"state":"connecting","ping":70},{"user_id":331,"name":"Fire_box41238","steam_id":76561199185673650,"connected_time":4513000000000,"state":"connecting","ping":48},{"user_id":336,"name":"Clit Yeastwood","steam_id":76561199042672094,"connected_time":4470000000000,"state":"spawning","ping":68},{"user_id":392,"name":"ticklemytush","steam_id":76561199206080182,"connected_time":9000000000,"state":"connecting","ping":124},{"user_id":388,"name":"MsVoxxie","steam_id":76561198083488187,"connected_time":393000000000,"state":"connecting","ping":151},{"user_id":383,"name":"DIGGY","steam_id":76561198991238982,"connected_time":905000000000,"state":"connecting","ping":57},{"user_id":340,"name":"tconnors1976","steam_id":76561198840033336,"connected_time":4447000000000,"state":"spawning","ping":53},{"user_id":379,"name":"yaboismitty","steam_id":76561199130187442,"connected_time":1291000000000,"state":"connecting","ping":87},{"user_id":305,"name":"A Shiny Meat Bicycle","steam_id":76561198358757709,"connected_time":7185000000000,"state":"connecting","ping":167},{"user_id":384,"name":"Mr Toxic","steam_id":76561198040057167,"connected_time":558000000000,"state":"connecting","ping":136},{"user_id":358,"name":"Deja Vu","steam_id":76561198062090620,"connected_time":3111000000000,"state":"connecting","ping":96},{"user_id":353,"name":"Horse","steam_id":76561199112075552,"connected_time":4041000000000,"state":"connecting","ping":152},{"user_id":375,"name":"Big Jon","steam_id":76561198402285099,"connected_time":1876000000000,"state":"connecting","ping":80},{"user_id":370,"name":"GIRTHQUAKE, MAGNITUDE 11","steam_id":76561198023975674,"connected_time":2475000000000,"state":"connecting","ping":101},{"user_id":359,"name":"♥Lyra♥","steam_id":76561198092853824,"connected_time":2985000000000,"state":"connecting","ping":75}]},{"server_id":406,"name":"Uncletopia | Seattle | 3 | Stopwatch Beta","name_short":"sea-3","host":"sea-1.us.uncletopia.com","port":27035,"enabled":true,"region":"us-west","cc":"us","latitude":47.608013,"longitude":-122.33517,"reserved":0,"last_update":"0001-01-01T00:00:00Z","name_a2s":"Uncletopia | Seattle | 3 | Stopwatch Beta","protocol":17,"map":"cp_granary","folder":"tf","game":"Team Fortress","app_id":440,"player_count":0,"max_players":24,"Bots":0,"server_type":"Dedicated","server_os":"Linux","password":true,"vac":true,"version":"7757534","steam_id":85568392924515217,"keywords":["cp","nocrits","nodmgspread","uncletopia"],"game_id":440,"stv_port":27036,"stv_name":"Uncletopia | Seattle | 3 | Stopwatch Beta | STV","players":null},{"server_id":17,"name":"Uncletopia | San Francisco | 1 | All Maps","name_short":"sfo-1","host":"sfo-1.us.uncletopia.com","port":27015,"enabled":true,"region":"us-west","cc":"us","latitude":37.77397,"longitude":-122.4313,"reserved":0,"last_update":"0001-01-01T00:00:00Z","name_a2s":"Uncletopia | San Francisco | 1 | All Maps","protocol":17,"map":"koth_highpass","folder":"tf","game":"Team Fortress","app_id":440,"player_count":0,"max_players":24,"Bots":0,"server_type":"Dedicated","server_os":"Linux","password":true,"vac":true,"version":"7757534","steam_id":85568392924469999,"keywords":["cp","nocrits","nodmgspread","uncletopia"],"game_id":440,"stv_port":27016,"stv_name":"Uncletopia | San Francisco | 1 | All Maps | STV","players":null},{"server_id":18,"name":"Uncletopia | San Francisco | 2 | All Maps","name_short":"sfo-2","host":"sfo-1.us.uncletopia.com","port":27025,"enabled":true,"region":"us-west","cc":"us","latitude":37.77397,"longitude":-122.4313,"reserved":0,"last_update":"0001-01-01T00:00:00Z","name_a2s":"Uncletopia | San Francisco | 2 | All Maps","protocol":17,"map":"cp_fastlane","folder":"tf","game":"Team Fortress","app_id":440,"player_count":24,"max_players":24,"Bots":0,"server_type":"Dedicated","server_os":"Linux","password":true,"vac":true,"version":"7757534","steam_id":85568392924470000,"keywords":["cp","nocrits","nodmgspread","uncletopia"],"game_id":440,"stv_port":27026,"stv_name":"Uncletopia | San Francisco | 2 | All Maps | STV","players":[{"user_id":48,"name":"Uncle Jaz","steam_id":76561198796795012,"connected_time":2735000000000,"state":"active","ping":53},{"user_id":61,"name":"peepee_luigi","steam_id":76561198355667121,"connected_time":1823000000000,"state":"active","ping":74},{"user_id":55,"name":"Chickenwing","steam_id":76561199347103141,"connected_time":2088000000000,"state":"active","ping":86},{"user_id":75,"name":"Lonlily","steam_id":76561198130418647,"connected_time":1081000000000,"state":"active","ping":71},{"user_id":86,"name":"Azosion","steam_id":76561198861267703,"connected_time":375000000000,"state":"active","ping":58},{"user_id":56,"name":"Sleuth","steam_id":76561198418288939,"connected_time":2087000000000,"state":"active","ping":55},{"user_id":58,"name":"I deepfried my penis","steam_id":76561198848858223,"connected_time":2006000000000,"state":"active","ping":67},{"user_id":84,"name":"Bug","steam_id":76561198056928296,"connected_time":490000000000,"state":"active","ping":108},{"user_id":81,"name":"Eden","steam_id":76561198081284664,"connected_time":912000000000,"state":"active","ping":57},{"user_id":62,"name":"Wounded","steam_id":76561199440954924,"connected_time":1816000000000,"state":"active","ping":119},{"user_id":87,"name":"parallax","steam_id":76561198004438881,"connected_time":102000000000,"state":"active","ping":55},{"user_id":50,"name":"The Professor","steam_id":76561198046165617,"connected_time":2642000000000,"state":"active","ping":74},{"user_id":33,"name":"BlazeHX","steam_id":76561198827408017,"connected_time":2955000000000,"state":"active","ping":115},{"user_id":83,"name":"Aero","steam_id":76561198125028400,"connected_time":669000000000,"state":"active","ping":78},{"user_id":35,"name":"A pack of feral hogs","steam_id":76561198374279594,"connected_time":2898000000000,"state":"active","ping":61},{"user_id":65,"name":"phenom811","steam_id":76561199236145358,"connected_time":1756000000000,"state":"active","ping":127},{"user_id":38,"name":"Just a Good Friend","steam_id":76561198140052403,"connected_time":2847000000000,"state":"active","ping":36},{"user_id":78,"name":"omgitisme321","steam_id":76561198437173029,"connected_time":1007000000000,"state":"active","ping":63},{"user_id":79,"name":"ronald","steam_id":76561197960691622,"connected_time":1004000000000,"state":"active","ping":145},{"user_id":41,"name":"The Moon","steam_id":76561198082926682,"connected_time":2814000000000,"state":"active","ping":46},{"user_id":77,"name":"Just kill me 3","steam_id":76561198979600491,"connected_time":1036000000000,"state":"active","ping":83},{"user_id":88,"name":"BigBubble42","steam_id":76561198136286123,"connected_time":50000000000,"state":"active","ping":299},{"user_id":85,"name":"huiei","steam_id":76561198073763735,"connected_time":468000000000,"state":"active","ping":56},{"user_id":70,"name":"pho","steam_id":76561199034472374,"connected_time":1567000000000,"state":"active","ping":63}]},{"server_id":19,"name":"Uncletopia | San Francisco | 3 | Stopwatch Beta","name_short":"sfo-3","host":"sfo-1.us.uncletopia.com","port":27035,"enabled":true,"region":"us-west","cc":"us","latitude":37.77397,"longitude":-122.4313,"reserved":0,"last_update":"0001-01-01T00:00:00Z","name_a2s":"Uncletopia | San Francisco | 3 | Stopwatch Beta","protocol":17,"map":"cp_sunshine","folder":"tf","game":"Team Fortress","app_id":440,"player_count":0,"max_players":24,"Bots":0,"server_type":"Dedicated","server_os":"Linux","password":true,"vac":true,"version":"7757534","steam_id":85568392924742824,"keywords":["cp","nocrits","nodmgspread","uncletopia"],"game_id":440,"stv_port":27036,"stv_name":"Uncletopia | San Francisco | 3 | Stopwatch Beta | STV","players":null},{"server_id":20,"name":"Uncletopia | San Francisco | 4 | Community","name_short":"sfo-4","host":"sfo-1.us.uncletopia.com","port":27045,"enabled":true,"region":"us-west","cc":"us","latitude":37.77397,"longitude":-122.4313,"reserved":0,"last_update":"0001-01-01T00:00:00Z","name_a2s":"Uncletopia | San Francisco | 4 | Community","protocol":17,"map":"workshop/koth_bagel_rc6.ugc2514036946","folder":"tf","game":"Team Fortress","app_id":440,"player_count":0,"max_players":24,"Bots":0,"server_type":"Dedicated","server_os":"Linux","password":true,"vac":true,"version":"7757534","steam_id":85568392924742826,"keywords":["cp","nocrits","nodmgspread","uncletopia"],"game_id":440,"stv_port":27046,"stv_name":"Uncletopia | San Francisco | 4 | Community | STV","players":null},{"server_id":141,"name":"Uncletopia | Sydney | 1 | All Maps","name_short":"syd-1","host":"syd-1.au.uncletopia.com","port":27015,"enabled":true,"region":"au","cc":"au","latitude":-33.865143,"longitude":151.2099,"reserved":0,"last_update":"0001-01-01T00:00:00Z","name_a2s":"Uncletopia | Sydney | 1 | All Maps","protocol":17,"map":"koth_viaduct","folder":"tf","game":"Team Fortress","app_id":440,"player_count":0,"max_players":24,"Bots":0,"server_type":"Dedicated","server_os":"Linux","password":true,"vac":true,"version":"7757534","steam_id":85568392924470001,"keywords":["cp","nocrits","nodmgspread","uncletopia"],"game_id":440,"stv_port":27016,"stv_name":"Uncletopia | Sydney | 1 | All Maps | STV","players":null},{"server_id":123,"name":"Uncletopia | Sydney | 2 | All Maps","name_short":"syd-2","host":"syd-1.au.uncletopia.com","port":27025,"enabled":true,"region":"au","cc":"au","latitude":-33.865143,"longitude":151.2099,"reserved":0,"last_update":"0001-01-01T00:00:00Z","name_a2s":"Uncletopia | Sydney | 2 | All Maps","protocol":17,"map":"cp_altitude","folder":"tf","game":"Team Fortress","app_id":440,"player_count":0,"max_players":24,"Bots":0,"server_type":"Dedicated","server_os":"Linux","password":true,"vac":true,"version":"7757534","steam_id":85568392924470002,"keywords":["cp","nocrits","nodmgspread","uncletopia"],"game_id":440,"stv_port":27026,"stv_name":"Uncletopia | Sydney | 2 | All Maps | STV","players":null},{"server_id":395,"name":"Uncletopia | Sydney | 3 | All Maps","name_short":"syd-3","host":"syd-1.au.uncletopia.com","port":27035,"enabled":true,"region":"au","cc":"au","latitude":-33.865143,"longitude":151.2099,"reserved":0,"last_update":"0001-01-01T00:00:00Z","name_a2s":"Uncletopia | Sydney | 3 | All Maps","protocol":17,"map":"pl_swiftwater_final1","folder":"tf","game":"Team Fortress","app_id":440,"player_count":0,"max_players":24,"Bots":0,"server_type":"Dedicated","server_os":"Linux","password":true,"vac":true,"version":"7757534","steam_id":85568392925194467,"keywords":["nocrits","nodmgspread","payload","uncletopia"],"game_id":440,"stv_port":27036,"stv_name":"Uncletopia | Sydney | 3 | All Maps | STV","players":null},{"server_id":396,"name":"Uncletopia | Sydney | 4 | All Maps","name_short":"syd-4","host":"syd-1.au.uncletopia.com","port":27045,"enabled":true,"region":"au","cc":"au","latitude":-33.865143,"longitude":151.2099,"reserved":0,"last_update":"0001-01-01T00:00:00Z","name_a2s":"Uncletopia | Sydney | 4 | All Maps","protocol":17,"map":"koth_highpass","folder":"tf","game":"Team Fortress","app_id":440,"player_count":0,"max_players":24,"Bots":0,"server_type":"Dedicated","server_os":"Linux","password":true,"vac":true,"version":"7757534","steam_id":85568392925397958,"keywords":["cp","nocrits","nodmgspread","uncletopia"],"game_id":440,"stv_port":27046,"stv_name":"Uncletopia | Sydney | 4 | All Maps | STV","players":null},{"server_id":58,"name":"Uncletopia | Sydney | 5 | Stopwatch Beta","name_short":"syd-5","host":"syd-1.au.uncletopia.com","port":27055,"enabled":true,"region":"au","cc":"au","latitude":-33.865143,"longitude":151.2099,"reserved":0,"last_update":"0001-01-01T00:00:00Z","name_a2s":"Uncletopia | Sydney | 5 | Stopwatch Beta","protocol":17,"map":"koth_cascade","folder":"tf","game":"Team Fortress","app_id":440,"player_count":0,"max_players":24,"Bots":0,"server_type":"Dedicated","server_os":"Linux","password":true,"vac":true,"version":"7757534","steam_id":85568392925397959,"keywords":["cp","nocrits","nodmgspread","uncletopia"],"game_id":440,"stv_port":27056,"stv_name":"Uncletopia | Sydney | 5 | Stopwatch Beta | STV","players":null},{"server_id":59,"name":"Uncletopia | Sydney | 6 | Community","name_short":"syd-6","host":"syd-1.au.uncletopia.com","port":27065,"enabled":true,"region":"au","cc":"au","latitude":-33.865143,"longitude":151.2099,"reserved":0,"last_update":"0001-01-01T00:00:00Z","name_a2s":"Uncletopia | Sydney | 6 | Community","protocol":17,"map":"cp_snakewater_final1","folder":"tf","game":"Team Fortress","app_id":440,"player_count":0,"max_players":24,"Bots":0,"server_type":"Dedicated","server_os":"Linux","password":true,"vac":true,"version":"7757534","steam_id":85568392925397960,"keywords":["cp","nocrits","nodmgspread","uncletopia"],"game_id":440,"stv_port":27066,"stv_name":"Uncletopia | Sydney | 6 | Community | STV","players":null},{"server_id":49,"name":"Uncletopia | Warsaw | 1 | All Maps","name_short":"waw-1","host":"waw-1.pl.uncletopia.com","port":27015,"enabled":true,"region":"eu","cc":"pl","latitude":52.2297,"longitude":21.017532,"reserved":0,"last_update":"0001-01-01T00:00:00Z","name_a2s":"","protocol":0,"map":"","folder":"","game":"","app_id":0,"player_count":0,"max_players":0,"Bots":0,"server_type":"","server_os":"","password":false,"vac":false,"version":"","steam_id":0,"keywords":null,"game_id":0,"stv_port":0,"stv_name":"","players":null},{"server_id":50,"name":"Uncletopia | Warsaw | 2 | All Maps","name_short":"waw-2","host":"waw-1.pl.uncletopia.com","port":27025,"enabled":true,"region":"eu","cc":"pl","latitude":52.2297,"longitude":21.017532,"reserved":0,"last_update":"0001-01-01T00:00:00Z","name_a2s":"Uncletopia | Warsaw | 2 | All Maps","protocol":17,"map":"koth_viaduct","folder":"tf","game":"Team Fortress","app_id":440,"player_count":0,"max_players":24,"Bots":0,"server_type":"Dedicated","server_os":"Linux","password":true,"vac":true,"version":"7757534","steam_id":85568392925397851,"keywords":["cp","nocrits","nodmgspread","uncletopia"],"game_id":440,"stv_port":27026,"stv_name":"Uncletopia | Warsaw | 2 | All Maps | STV","players":null},{"server_id":51,"name":"Uncletopia | Warsaw | 3 | All Maps","name_short":"waw-3","host":"waw-1.pl.uncletopia.com","port":27035,"enabled":true,"region":"eu","cc":"pl","latitude":52.2297,"longitude":21.017532,"reserved":0,"last_update":"0001-01-01T00:00:00Z","name_a2s":"Uncletopia | Warsaw | 3 | All Maps","protocol":17,"map":"pl_barnblitz","folder":"tf","game":"Team Fortress","app_id":440,"player_count":0,"max_players":24,"Bots":0,"server_type":"Dedicated","server_os":"Linux","password":true,"vac":true,"version":"7757534","steam_id":85568392925397852,"keywords":["nocrits","nodmgspread","payload","uncletopia"],"game_id":440,"stv_port":27036,"stv_name":"Uncletopia | Warsaw | 3 | All Maps | STV","players":null},{"server_id":52,"name":"Uncletopia | Warsaw | 4 | All Maps","name_short":"waw-4","host":"waw-1.pl.uncletopia.com","port":27045,"enabled":true,"region":"eu","cc":"pl","latitude":52.2297,"longitude":21.017532,"reserved":0,"last_update":"0001-01-01T00:00:00Z","name_a2s":"Uncletopia | Warsaw | 4 | All Maps","protocol":17,"map":"koth_lakeside_final","folder":"tf","game":"Team Fortress","app_id":440,"player_count":0,"max_players":24,"Bots":0,"server_type":"Dedicated","server_os":"Linux","password":true,"vac":true,"version":"7757534","steam_id":85568392925397853,"keywords":["cp","nocrits","nodmgspread","uncletopia"],"game_id":440,"stv_port":27046,"stv_name":"Uncletopia | Warsaw | 4 | All Maps | STV","players":null},{"server_id":53,"name":"Uncletopia | Warsaw | 5 | Stopwatch Beta","name_short":"waw-5","host":"waw-1.pl.uncletopia.com","port":27055,"enabled":true,"region":"eu","cc":"pl","latitude":52.2297,"longitude":21.017532,"reserved":0,"last_update":"0001-01-01T00:00:00Z","name_a2s":"Uncletopia | Warsaw | 5 | Stopwatch Beta","protocol":17,"map":"pl_borneo","folder":"tf","game":"Team Fortress","app_id":440,"player_count":0,"max_players":24,"Bots":0,"server_type":"Dedicated","server_os":"Linux","password":true,"vac":true,"version":"7757534","steam_id":85568392925397854,"keywords":["nocrits","nodmgspread","payload","uncletopia"],"game_id":440,"stv_port":27056,"stv_name":"Uncletopia | Warsaw | 5 | Stopwatch Beta | STV","players":null},{"server_id":54,"name":"Uncletopia | Warsaw | 6 | Community","name_short":"waw-6","host":"waw-1.pl.uncletopia.com","port":27065,"enabled":true,"region":"eu","cc":"pl","latitude":52.2297,"longitude":21.017532,"reserved":0,"last_update":"0001-01-01T00:00:00Z","name_a2s":"Uncletopia | Warsaw | 6 | Community","protocol":17,"map":"koth_lakeside_final","folder":"tf","game":"Team Fortress","app_id":440,"player_count":0,"max_players":24,"Bots":0,"server_type":"Dedicated","server_os":"Linux","password":true,"vac":true,"version":"7757534","steam_id":85568392925397856,"keywords":["cp","nocrits","nodmgspread","uncletopia"],"game_id":440,"stv_port":27066,"stv_name":"Uncletopia | Warsaw | 6 | Community | STV","players":null}]}