{"status":true,"message":"","result":[{"server_id":9,"name":"Uncletopia | Atlanta | 1 | All Maps","name_short":"atl-1","host":"atl-1.us.uncletopia.com","port":27015,"enabled":true,"region":"us-east","cc":"us","latitude":33.753746,"longitude":-84.38633,"reserved":0,"last_update":"0001-01-01T00:00:00Z","name_a2s":"Uncletopia | Atlanta | 1 | All Maps","protocol":17,"map":"pl_upward","folder":"tf","game":"Team Fortress","app_id":440,"player_count":3,"max_players":24,"Bots":0,"server_type":"Dedicated","server_os":"Linux","password":true,"vac":true,"version":"7708610","steam_id":85568392924469982,"keywords":["nocrits","nodmgspread","payload","uncletopia"],"game_id":440,"stv_port":27016,"stv_name":"Uncletopia | Atlanta | 1 | All Maps | STV","players":[{"user_id":498,"name":"Abbashea","steam_id":76561199182136969,"connected_time":3725000000000,"state":"active","ping":96},{"user_id":505,"name":"Space bar ¬©","steam_id":76561199405318831,"connected_time":1557000000000,"state":"active","ping":88},{"user_id":507,"name":"Medic","steam_id":76561198067869016,"connected_time":327000000000,"state":"active","ping":57}]},{"server_id":400,"name":"Uncletopia | Atlanta | 3 | All Maps","name_short":"atl-3","host":"atl-1.us.uncletopia.com","port":27035,"enabled":true,"region":"us-east","cc":"us","latitude":33.753746,"longitude":-84.38633,"reserved":0,"last_update":"0001-01-01T00:00:00Z","name_a2s":"Uncletopia | Atlanta | 3 | All Maps","protocol":17,"map":"pl_swiftwater_final1","folder":"tf","game":"Team Fortress","app_id":440,"player_count":23,"max_players":24,"Bots":0,"server_type":"Dedicated","server_os":"Linux","password":true,"vac":true,"version":"7708610","steam_id":85568392924515187,"keywords":["nocrits","nodmgspread","payload","uncletopia"],"game_id":440,"stv_port":27036,"stv_name":"Uncletopia | Atlanta | 3 | All Maps | STV","players":[{"user_id":574,"name":"BigNickTheThiccc","steam_id":76561198851478816,"connected_time":1034000000000,"state":"active","ping":67},{"user_id":545,"name":"Balerion the Black Dread","steam_id":76561198003728369,"connected_time":3429000000000,"state":"active","ping":60},{"user_id":551,"name":"Bali","steam_id":76561198038693845,"connected_time":2939000000000,"state":"active","ping":104},{"user_id":564,"name":"holy whiskers lets go sisters","steam_id":76561198100160865,"connected_time":1907000000000,"state":"active","ping":43},{"user_id":585,"name":"Hideous Kojima","steam_id":76561198145430036,"connected_time":37000000000,"state":"active","ping":105},{"user_id":579,"name":"flappyflap2","steam_id":76561198285048973,"connected_time":530000000000,"state":"active","ping":60},{"user_id":583,"name":"Ka√±ul","steam_id":76561198977359464,"connected_time":233000000000,"state":"active","ping":107},{"user_id":567,"name":"‚òÇBliffenstimmers‚òÇ","steam_id":76561198059984896,"connected_time":1392000000000,"state":"active","ping":80},{"user_id":568,"name":"substance","steam_id":76561198050103868,"connected_time":1388000000000,"state":"active","ping":102},{"user_id":572,"name":"emctwo","steam_id":76561198095082517,"connected_time":1198000000000,"state":"active","ping":71},{"user_id":546,"name":"Yuhh","steam_id":76561199112894955,"connected_time":3343000000000,"state":"active","ping":83},{"user_id":560,"name":"Wap Assassin","steam_id":76561198093432863,"connected_time":2642000000000,"state":"active","ping":64},{"user_id":580,"name":"small little tiny guy","steam_id":76561198116726318,"connected_time":369000000000,"state":"active","ping":73},{"user_id":533,"name":"MistGlow","steam_id":76561198964375610,"connected_time":4897000000000,"state":"active","ping":92},{"user_id":565,"name":"upside down cat","steam_id":76561198028288349,"connected_time":1578000000000,"state":"active","ping":85},{"user_id":582,"name":"M.L.JEW","steam_id":76561198997375055,"connected_time":235000000000,"state":"active","ping":83},{"user_id":528,"name":"beats","steam_id":76561199245717718,"connected_time":5171000000000,"state":"active","ping":71},{"user_id":586,"name":"juck326","steam_id":76561198180419786,"connected_time":29000000000,"state":"spawning","ping":72},{"user_id":587,"name":"Alley_YAMBO","steam_id":76561198055651850,"connected_time":24000000000,"state":"spawning","ping":222},{"user_id":581,"name":"Goofball","steam_id":76561198061211537,"connected_time":241000000000,"state":"active","ping":75},{"user_id":584,"name":"VerSaKa","steam_id":76561198052392540,"connected_time":223000000000,"state":"active","ping":71},{"user_id":577,"name":"dingus‚Ñ¢","steam_id":76561198128742436,"connected_time":894000000000,"state":"active","ping":75},{"user_id":573,"name":"$200 Shirt","steam_id":76561197977329534,"connected_time":1188000000000,"state":"active","ping":76}]},{"server_id":401,"name":"Uncletopia | Atlanta | 4 | No Payload","name_short":"atl-4","host":"atl-1.us.uncletopia.com","port":27045,"enabled":true,"region":"us-east","cc":"us","latitude":33.753746,"longitude":-84.38633,"reserved":0,"last_update":"0001-01-01T00:00:00Z","name_a2s":"Uncletopia | Atlanta | 4 | No Payload","protocol":17,"map":"koth_nucleus","folder":"tf","game":"Team Fortress","app_id":440,"player_count":0,"max_players":24,"Bots":0,"server_type":"Dedicated","server_os":"Linux","password":true,"vac":true,"version":"7708610","steam_id":85568392924515188,"keywords":["cp","nocrits","nodmgspread","uncletopia"],"game_id":440,"stv_port":27046,"stv_name":"Uncletopia | Atlanta | 4 | No Payload | STV","players":null},{"server_id":2,"name":"Uncletopia | Chicago | 1 | All Maps","name_short":"chi-1","host":"chi-1.us.uncletopia.com","port":27015,"enabled":true,"region":"us-central","cc":"us","latitude":41.881832,"longitude":-87.62318,"reserved":0,"last_update":"0001-01-01T00:00:00Z","name_a2s":"Uncletopia | Chicago | 1 | All Maps","protocol":17,"map":"pl_pier","folder":"tf","game":"Team Fortress","app_id":440,"player_count":24,"max_players":24,"Bots":0,"server_type":"Dedicated","server_os":"Linux","password":true,"vac":true,"version":"7708610","steam_id":85568392924469984,"keywords":["nocrits","nodmgspread","payload","uncletopia"],"game_id":440,"stv_port":27016,"stv_name":"Uncletopia | Chicago | 1 | All Maps | STV","players":[{"user_id":690,"name":"aqua","steam_id":76561199407709552,"connected_time":5173000000000,"state":"active","ping":45},{"user_id":766,"name":"Amaesin","steam_id":76561198090143730,"connected_time":594000000000,"state":"active","ping":60},{"user_id":756,"name":"sys","steam_id":76561198300912581,"connected_time":798000000000,"state":"active","ping":86},{"user_id":757,"name":"Scorpsy","steam_id":76561198024477688,"connected_time":785000000000,"state":"active","ping":76},{"user_id":743,"name":"IZISOO","steam_id":76561198970380577,"connected_time":1988000000000,"state":"active","ping":62},{"user_id":703,"name":"Shmoopy","steam_id":76561198030459152,"connected_time":4801000000000,"state":"active","ping":75},{"user_id":732,"name":"OldManHenderson1976","steam_id":76561198148713751,"connected_time":2390000000000,"state":"active","ping":122},{"user_id":754,"name":"wiwi","steam_id":76561198094220383,"connected_time":854000000000,"state":"active","ping":63},{"user_id":768,"name":"Lenny","steam_id":76561198183943137,"connected_time":325000000000,"state":"active","ping":57},{"user_id":765,"name":"Kuchio","steam_id":76561198161218914,"connected_time":623000000000,"state":"active","ping":105},{"user_id":742,"name":"Ignalis","steam_id":76561198025662927,"connected_time":2154000000000,"state":"active","ping":59},{"user_id":739,"name":"bad spy player","steam_id":76561198873699671,"connected_time":2329000000000,"state":"active","ping":98},{"user_id":769,"name":"firetruck","steam_id":76561198074188404,"connected_time":96000000000,"state":"active","ping":73},{"user_id":747,"name":"Festive Joe","steam_id":76561198271907916,"connected_time":1630000000000,"state":"active","ping":55},{"user_id":736,"name":"SSBM Pelican","steam_id":76561198040697907,"connected_time":2343000000000,"state":"active","ping":74},{"user_id":767,"name":"festivities","steam_id":76561198069407799,"connected_time":527000000000,"state":"active","ping":75},{"user_id":763,"name":"Harold Chaplin","steam_id":76561198036730227,"connected_time":684000000000,"state":"active","ping":77},{"user_id":737,"name":"Soap Man","steam_id":76561198000490235,"connected_time":2342000000000,"state":"active","ping":115},{"user_id":759,"name":"Candy Sparkles","steam_id":76561198126871264,"connected_time":769000000000,"state":"active","ping":78},{"user_id":760,"name":"Stran","steam_id":76561198143389308,"connected_time":767000000000,"state":"active","ping":105},{"user_id":721,"name":"Be Gay, Do Crimes, Smoke Weed!","steam_id":76561198092419868,"connected_time":3486000000000,"state":"active","ping":96},{"user_id":723,"name":"[K.Y.L.L.]Logic (They/Them)","steam_id":76561198027321950,"connected_time":3334000000000,"state":"active","ping":96},{"user_id":761,"name":"brae","steam_id":76561198047126327,"connected_time":748000000000,"state":"active","ping":75},{"user_id":762,"name":"raya","steam_id":76561198051504581,"connected_time":739000000000,"state":"active","ping":67}]},{"server_id":106,"name":"Uncletopia | Chicago | 2 | All Maps","name_short":"chi-2","host":"chi-1.us.uncletopia.com","port":27025,"enabled":true,"region":"us-central","cc":"us","latitude":41.881832,"longitude":-87.62318,"reserved":0,"last_update":"0001-01-01T00:00:00Z","name_a2s":"Uncletopia | Chicago | 2 | All Maps","protocol":17,"map":"pl_borneo","folder":"tf","game":"Team Fortress","app_id":440,"player_count":24,"max_players":24,"Bots":0,"server_type":"Dedicated","server_os":"Linux","password":true,"vac":true,"version":"7708610","steam_id":85568392924469985,"keywords":["nocrits","nodmgspread","payload","uncletopia"],"game_id":440,"stv_port":27026,"stv_name":"Uncletopia | Chicago | 2 | All Maps | STV","players":[{"user_id":702,"name":"Eliza (They/She)","steam_id":76561198108938752,"connected_time":16000000000,"state":"active","ping":67},{"user_id":688,"name":"Mr Majesticals","steam_id":76561198015242706,"connected_time":442000000000,"state":"active","ping":104},{"user_id":624,"name":"AmpFestivecap","steam_id":76561198042453057,"connected_time":4221000000000,"state":"active","ping":66},{"user_id":697,"name":"pinglefingle","steam_id":76561198216580197,"connected_time":265000000000,"state":"active","ping":75},{"user_id":621,"name":"Eddieboy","steam_id":76561198009166712,"connected_time":4377000000000,"state":"active","ping":64},{"user_id":699,"name":"Melk","steam_id":76561199076979946,"connected_time":71000000000,"state":"active","ping":62},{"user_id":622,"name":"Zach-Man","steam_id":76561198058805749,"connected_time":4296000000000,"state":"active","ping":98},{"user_id":690,"name":"Skadewsh","steam_id":76561198102772209,"connected_time":400000000000,"state":"active","ping":59},{"user_id":663,"name":"Tommy Pickles (Very Cool)","steam_id":76561198391261463,"connected_time":1959000000000,"state":"active","ping":76},{"user_id":664,"name":"q!k.glodfyeehs","steam_id":76561198086008437,"connected_time":1858000000000,"state":"active","ping":71},{"user_id":694,"name":"LynBoByn","steam_id":76561198052911142,"connected_time":326000000000,"state":"active","ping":67},{"user_id":673,"name":"The Burglar","steam_id":76561198325685937,"connected_time":1420000000000,"state":"active","ping":57},{"user_id":698,"name":"a crazy hobo","steam_id":76561198289650060,"connected_time":191000000000,"state":"active","ping":92},{"user_id":665,"name":"just call me joe","steam_id":76561198043911582,"connected_time":1852000000000,"state":"active","ping":65},{"user_id":696,"name":"lamadre07","steam_id":76561198067337453,"connected_time":287000000000,"state":"active","ping":104},{"user_id":692,"name":"Boggerung","steam_id":76561198111417325,"connected_time":386000000000,"state":"active","ping":60},{"user_id":668,"name":"yesterday once more","steam_id":76561198038486613,"connected_time":1776000000000,"state":"active","ping":60},{"user_id":695,"name":"Swuft","steam_id":76561198228351596,"connected_time":323000000000,"state":"active","ping":94},{"user_id":686,"name":"Blink","steam_id":76561197986181277,"connected_time":764000000000,"state":"active","ping":60},{"user_id":670,"name":"tofu yum yum","steam_id":76561198026589960,"connected_time":1763000000000,"state":"active","ping":58},{"user_id":647,"name":"Sprucelass","steam_id":76561197998391724,"connected_time":3152000000000,"state":"active","ping":45},{"user_id":682,"name":"Wackaholic","steam_id":76561198220921844,"connected_time":1035000000000,"state":"active","ping":157},{"user_id":700,"name":"spunk pap","steam_id":76561198202278895,"connected_time":48000000000,"state":"active","ping":85},{"user_id":701,"name":"invb","steam_id":76561197998263914,"connected_time":45000000000,"state":"active","ping":51}]},{"server_id":402,"name":"Uncletopia | Chicago | 3 | All Maps","name_short":"chi-3","host":"chi-1.us.uncletopia.com","port":27035,"enabled":true,"region":"us-central","cc":"us","latitude":41.881832,"longitude":-87.62318,"reserved":0,"last_update":"0001-01-01T00:00:00Z","name_a2s":"Uncletopia | Chicago | 3 | All Maps","protocol":17,"map":"pl_borneo","folder":"tf","game":"Team Fortress","app_id":440,"player_count":0,"max_players":24,"Bots":0,"server_type":"Dedicated","server_os":"Linux","password":true,"vac":true,"version":"7708610","steam_id":85568392924515191,"keywords":["nocrits","nodmgspread","payload","uncletopia"],"game_id":440,"stv_port":27036,"stv_name":"Uncletopia | Chicago | 3 | All Maps | STV","players":null},{"server_id":403,"name":"Uncletopia | Chicago | 4 | All Maps","name_short":"chi-4","host":"chi-1.us.uncletopia.com","port":27045,"enabled":true,"region":"us-central","cc":"us","latitude":41.881832,"longitude":-87.62318,"reserved":0,"last_update":"0001-01-01T00:00:00Z","name_a2s":"Uncletopia | Chicago | 4 | All Maps","protocol":17,"map":"pl_upward","folder":"tf","game":"Team Fortress","app_id":440,"player_count":0,"max_players":24,"Bots":0,"server_type":"Dedicated","server_os":"Linux","password":true,"vac":true,"version":"7708610","steam_id":85568392924515193,"keywords":["nocrits","nodmgspread","payload","uncletopia"],"game_id":440,"stv_port":27046,"stv_name":"Uncletopia | Chicago | 4 | All Maps | STV","players":null},{"server_id":36,"name":"Uncletopia | Chicago | 5 | All Maps","name_short":"chi-5","host":"chi-2.us.uncletopia.com","port":27015,"enabled":true,"region":"us-central","cc":"us","latitude":41.881832,"longitude":-87.62318,"reserved":0,"last_update":"0001-01-01T00:00:00Z","name_a2s":"Uncletopia | Chicago | 5 | All Maps","protocol":17,"map":"koth_lakeside_final","folder":"tf","game":"Team Fortress","app_id":440,"player_count":0,"max_players":24,"Bots":0,"server_type":"Dedicated","server_os":"Linux","password":true,"vac":true,"version":"7708610","steam_id":85568392924866362,"keywords":["cp","nocrits","nodmgspread","uncletopia"],"game_id":440,"stv_port":27016,"stv_name":"Uncletopia | Chicago | 5 | All Maps | STV","players":null},{"server_id":37,"name":"Uncletopia | Chicago | 6 | All Maps","name_short":"chi-6","host":"chi-2.us.uncletopia.com","port":27025,"enabled":true,"region":"us-central","cc":"us","latitude":41.881832,"longitude":-87.62318,"reserved":0,"last_update":"0001-01-01T00:00:00Z","name_a2s":"Uncletopia | Chicago | 6 | All Maps","protocol":17,"map":"cp_mountainlab","folder":"tf","game":"Team Fortress","app_id":440,"player_count":14,"max_players":24,"Bots":0,"server_type":"Dedicated","server_os":"Linux","password":true,"vac":true,"version":"7708610","steam_id":85568392924866363,"keywords":["cp","nocrits","nodmgspread","uncletopia"],"game_id":440,"stv_port":27026,"stv_name":"Uncletopia | Chicago | 6 | All Maps | STV","players":[{"user_id":199,"name":"Lore","steam_id":76561198098407538,"connected_time":396000000000,"state":"active","ping":75},{"user_id":195,"name":"Kyaaaaa!!!","steam_id":76561198066384337,"connected_time":603000000000,"state":"active","ping":49},{"user_id":172,"name":"Cleric","steam_id":76561198045887994,"connected_time":2992000000000,"state":"active","ping":46},{"user_id":197,"name":"kimin","steam_id":76561198263393063,"connected_time":581000000000,"state":"active","ping":98},{"user_id":173,"name":"SlipperyBiz","steam_id":76561198011132403,"connected_time":2923000000000,"state":"active","ping":84},{"user_id":192,"name":"Flossthief","steam_id":76561198046025234,"connected_time":1016000000000,"state":"active","ping":59},{"user_id":198,"name":"Washed","steam_id":76561198320731749,"connected_time":505000000000,"state":"active","ping":61},{"user_id":200,"name":"TheAceDefiant","steam_id":76561198133264734,"connected_time":341000000000,"state":"active","ping":51},{"user_id":174,"name":"The New Bob","steam_id":76561199122072556,"connected_time":2703000000000,"state":"active","ping":88},{"user_id":201,"name":"James_Delvy","steam_id":76561198209634565,"connected_time":336000000000,"state":"active","ping":52},{"user_id":202,"name":"NeoN‚Ñ¢","steam_id":76561198117608366,"connected_time":263000000000,"state":"active","ping":46},{"user_id":203,"name":"Vanny","steam_id":76561198297961039,"connected_time":249000000000,"state":"active","ping":53},{"user_id":170,"name":"Techo","steam_id":76561199169405285,"connected_time":3761000000000,"state":"active","ping":99},{"user_id":179,"name":"Gob From My Singing Monsters","steam_id":76561198272471440,"connected_time":2482000000000,"state":"active","ping":70}]},{"server_id":38,"name":"Uncletopia | Chicago | 7 | No Payload","name_short":"chi-7","host":"chi-2.us.uncletopia.com","port":27035,"enabled":true,"region":"us-central","cc":"us","latitude":41.881832,"longitude":-87.62318,"reserved":0,"last_update":"0001-01-01T00:00:00Z","name_a2s":"Uncletopia | Chicago | 7 | No Payload","protocol":17,"map":"koth_badlands","folder":"tf","game":"Team Fortress","app_id":440,"player_count":0,"max_players":24,"Bots":0,"server_type":"Dedicated","server_os":"Linux","password":true,"vac":true,"version":"7708610","steam_id":85568392924866364,"keywords":["cp","nocrits","nodmgspread","uncletopia"],"game_id":440,"stv_port":27036,"stv_name":"Uncletopia | Chicago | 7 | No Payload | STV","players":null},{"server_id":39,"name":"Uncletopia | Chicago | 8 | Community","name_short":"chi-8","host":"chi-2.us.uncletopia.com","port":27045,"enabled":true,"region":"us-central","cc":"us","latitude":41.881832,"longitude":-87.62318,"reserved":0,"last_update":"0001-01-01T00:00:00Z","name_a2s":"Uncletopia | Chicago | 8 | Community","protocol":17,"map":"workshop/pl_fifthcurve_rc1.ugc648227046","folder":"tf","game":"Team Fortress","app_id":440,"player_count":0,"max_players":24,"Bots":0,"server_type":"Dedicated","server_os":"Linux","password":true,"vac":true,"version":"7708610","steam_id":85568392924866365,"keywords":["nocrits","nodmgspread","payload","uncletopia"],"game_id":440,"stv_port":27046,"stv_name":"Uncletopia | Chicago | 8 | Community | STV","players":null},{"server_id":8,"name":"Uncletopia | Dallas | 1 | All Maps","name_short":"dal-1","host":"dal-1.us.uncletopia.com","port":27015,"enabled":true,"region":"us-central","cc":"us","latitude":32.779167,"longitude":-96.80889,"reserved":0,"last_update":"0001-01-01T00:00:00Z","name_a2s":"Uncletopia | Dallas | 1 | All Maps","protocol":17,"map":"pl_pier","folder":"tf","game":"Team Fortress","app_id":440,"player_count":7,"max_players":24,"Bots":0,"server_type":"Dedicated","server_os":"Linux","password":true,"vac":true,"version":"7708610","steam_id":85568392924469986,"keywords":["nocrits","nodmgspread","payload","uncletopia"],"game_id":440,"stv_port":27016,"stv_name":"Uncletopia | Dallas | 1 | All Maps | STV","players":[{"user_id":456,"name":"bulk//Dinkolaw #bday","steam_id":76561198154072948,"connected_time":442000000000,"state":"active","ping":75},{"user_id":451,"name":"Tarruin","steam_id":76561198009677876,"connected_time":1605000000000,"state":"active","ping":66},{"user_id":457,"name":"üê∫-Iwky-ü¶ä","steam_id":76561198185616311,"connected_time":398000000000,"state":"active","ping":62},{"user_id":458,"name":"Sandwich slayer","steam_id":76561198127784354,"connected_time":350000000000,"state":"active","ping":208},{"user_id":459,"name":"Moonadoo","steam_id":76561198133377546,"connected_time":68000000000,"state":"active","ping":76},{"user_id":442,"name":"Scrumpy Main","steam_id":76561198146302597,"connected_time":2506000000000,"state":"active","ping":77},{"user_id":423,"name":"A Gamer [F2P]","steam_id":76561198138712892,"connected_time":4773000000000,"state":"active","ping":42}]},{"server_id":108,"name":"Uncletopia | Dallas | 2 | All Maps","name_short":"dal-2","host":"dal-1.us.uncletopia.com","port":27025,"enabled":true,"region":"us-central","cc":"us","latitude":32.779167,"longitude":-96.80889,"reserved":0,"last_update":"0001-01-01T00:00:00Z","name_a2s":"Uncletopia | Dallas | 2 | All Maps","protocol":17,"map":"pl_upward","folder":"tf","game":"Team Fortress","app_id":440,"player_count":24,"max_players":24,"Bots":0,"server_type":"Dedicated","server_os":"Linux","password":true,"vac":true,"version":"7708610","steam_id":85568392924469988,"keywords":["nocrits","nodmgspread","payload","uncletopia"],"game_id":440,"stv_port":27026,"stv_name":"Uncletopia | Dallas | 2 | All Maps | STV","players":[{"user_id":405,"name":"Gibus Man","steam_id":76561198257241062,"connected_time":1819000000000,"state":"active","ping":82},{"user_id":368,"name":"Sowens","steam_id":76561198287652766,"connected_time":4138000000000,"state":"active","ping":121},{"user_id":406,"name":"ColonelGuy5509","steam_id":76561198050493174,"connected_time":1777000000000,"state":"active","ping":57},{"user_id":382,"name":"Dr. Ludwig","steam_id":76561198110246392,"connected_time":2291000000000,"state":"active","ping":57},{"user_id":423,"name":"pleroma","steam_id":76561199065645094,"connected_time":295000000000,"state":"active","ping":67},{"user_id":422,"name":"k8o","steam_id":76561198042481882,"connected_time":485000000000,"state":"active","ping":82},{"user_id":356,"name":"Halcy Hound","steam_id":76561198158750199,"connected_time":4594000000000,"state":"active","ping":68},{"user_id":418,"name":"Jack from Jack in The Box","steam_id":76561199083594971,"connected_time":842000000000,"state":"active","ping":64},{"user_id":424,"name":"TheMightyGod","steam_id":76561198220055968,"connected_time":277000000000,"state":"active","ping":58},{"user_id":264,"name":"+","steam_id":76561198262422184,"connected_time":11524000000000,"state":"active","ping":58},{"user_id":361,"name":"Kamin","steam_id":76561198255299559,"connected_time":4439000000000,"state":"active","ping":56},{"user_id":388,"name":"Cockfight","steam_id":76561198160277649,"connected_time":2190000000000,"state":"active","ping":93},{"user_id":381,"name":"Just_Red05","steam_id":76561198400296405,"connected_time":2382000000000,"state":"active","ping":121},{"user_id":410,"name":"Dittery","steam_id":76561198114899953,"connected_time":1745000000000,"state":"active","ping":67},{"user_id":385,"name":"the smiling zombie","steam_id":76561199246231090,"connected_time":2219000000000,"state":"active","ping":77},{"user_id":399,"name":"Cap? I own one, yes","steam_id":76561199037497493,"connected_time":1987000000000,"state":"active","ping":76},{"user_id":425,"name":"bauxoffdagloop","steam_id":76561199196442823,"connected_time":133000000000,"state":"active","ping":137},{"user_id":416,"name":"hazelsnail","steam_id":76561198862764679,"connected_time":914000000000,"state":"active","ping":77},{"user_id":419,"name":"AnalConquest666","steam_id":76561198218558897,"connected_time":799000000000,"state":"active","ping":151},{"user_id":400,"name":"totally not a pile of beans","steam_id":76561198119851931,"connected_time":1985000000000,"state":"active","ping":93},{"user_id":391,"name":"plink","steam_id":76561198057829889,"connected_time":2175000000000,"state":"active","ping":111},{"user_id":415,"name":"facade","steam_id":76561199157009256,"connected_time":1336000000000,"state":"active","ping":77},{"user_id":411,"name":"fuckterry","steam_id":76561198271957738,"connected_time":1740000000000,"state":"active","ping":75},{"user_id":347,"name":"SHADOW (he/him)","steam_id":76561198207768148,"connected_time":5482000000000,"state":"active","ping":96}]},{"server_id":5,"name":"Uncletopia | Frankfurt | 1 | All Maps","name_short":"frk-1","host":"frk-1.de.uncletopia.com","port":27015,"enabled":true,"region":"eu","cc":"de","latitude":50.110924,"longitude":8.682127,"reserved":0,"last_update":"0001-01-01T00:00:00Z","name_a2s":"Uncletopia | Frankfurt | 1 | All Maps","protocol":17,"map":"koth_cascade","folder":"tf","game":"Team Fortress","app_id":440,"player_count":12,"max_players":24,"Bots":0,"server_type":"Dedicated","server_os":"Linux","password":true,"vac":true,"version":"7708610","steam_id":85568392924469989,"keywords":["cp","nocrits","nodmgspread","uncletopia"],"game_id":440,"stv_port":27016,"stv_name":"Uncletopia | Frankfurt | 1 | All Maps | STV","players":[{"user_id":4,"name":"Jiggie","steam_id":76561198018134884,"connected_time":1013000000000,"state":"active","ping":62},{"user_id":15,"name":"Geraldo","steam_id":76561198046596619,"connected_time":295000000000,"state":"active","ping":108},{"user_id":6,"name":"Doomz","steam_id":76561198029147860,"connected_time":1003000000000,"state":"active","ping":159},{"user_id":11,"name":"yeldad","steam_id":76561198447264153,"connected_time":784000000000,"state":"active","ping":108},{"user_id":8,"name":"Shun Rosen","steam_id":76561198012823909,"connected_time":932000000000,"state":"active","ping":143},{"user_id":9,"name":"pl_z≈Çawoda","steam_id":76561198040588109,"connected_time":928000000000,"state":"active","ping":74},{"user_id":10,"name":"pl_badwater","steam_id":76561198152184280,"connected_time":923000000000,"state":"active","ping":71},{"user_id":20,"name":"üÉî Nugg1t(sme/lly)","steam_id":76561198065652251,"connected_time":101000000000,"state":"active","ping":37},{"user_id":18,"name":"Enigmus","steam_id":76561197994063627,"connected_time":156000000000,"state":"active","ping":83},{"user_id":21,"name":"purplecan","steam_id":76561199208283508,"connected_time":44000000000,"state":"active","ping":61},{"user_id":19,"name":"Fancy That!","steam_id":76561199001511205,"connected_time":140000000000,"state":"active","ping":61},{"user_id":22,"name":"UltMate Potato","steam_id":76561199091028200,"connected_time":28000000000,"state":"spawning","ping":164}]},{"server_id":110,"name":"Uncletopia | Frankfurt | 2 | All Maps","name_short":"frk-2","host":"frk-1.de.uncletopia.com","port":27025,"enabled":true,"region":"eu","cc":"de","latitude":50.110924,"longitude":8.682127,"reserved":0,"last_update":"0001-01-01T00:00:00Z","name_a2s":"Uncletopia | Frankfurt | 2 | All Maps","protocol":17,"map":"pl_frontier_final","folder":"tf","game":"Team Fortress","app_id":440,"player_count":0,"max_players":24,"Bots":0,"server_type":"Dedicated","server_os":"Linux","password":true,"vac":true,"version":"7708610","steam_id":85568392924469990,"keywords":["nocrits","nodmgspread","payload","uncletopia"],"game_id":440,"stv_port":27026,"stv_name":"Uncletopia | Frankfurt | 2 | All Maps | STV","players":null},{"server_id":308,"name":"Uncletopia | Frankfurt | 3 | All Maps","name_short":"frk-3","host":"frk-1.de.uncletopia.com","port":27035,"enabled":true,"region":"eu","cc":"de","latitude":50.110924,"longitude":8.682127,"reserved":0,"last_update":"0001-01-01T00:00:00Z","name_a2s":"Uncletopia | Frankfurt | 3 | All Maps","protocol":17,"map":"cp_process_final","folder":"tf","game":"Team Fortress","app_id":440,"player_count":0,"max_players":24,"Bots":0,"server_type":"Dedicated","server_os":"Linux","password":true,"vac":true,"version":"7708610","steam_id":85568392924504274,"keywords":["cp","nocrits","nodmgspread","uncletopia"],"game_id":440,"stv_port":27036,"stv_name":"Uncletopia | Frankfurt | 3 | All Maps | STV","players":null},{"server_id":309,"name":"Uncletopia | Frankfurt | 4 | All Maps","name_short":"frk-4","host":"frk-1.de.uncletopia.com","port":27045,"enabled":true,"region":"eu","cc":"de","latitude":50.110924,"longitude":8.682127,"reserved":0,"last_update":"0001-01-01T00:00:00Z","name_a2s":"Uncletopia | Frankfurt | 4 | All Maps","protocol":17,"map":"cp_dustbowl","folder":"tf","game":"Team Fortress","app_id":440,"player_count":0,"max_players":24,"Bots":0,"server_type":"Dedicated","server_os":"Linux","password":true,"vac":true,"version":"7708610","steam_id":85568392924504275,"keywords":["cp","nocrits","nodmgspread","uncletopia"],"game_id":440,"stv_port":27046,"stv_name":"Uncletopia | Frankfurt | 4 | All Maps | STV","players":null},{"server_id":310,"name":"Uncletopia | Frankfurt | 5 | All Maps","name_short":"frk-5","host":"frk-1.de.uncletopia.com","port":27055,"enabled":true,"region":"eu","cc":"de","latitude":50.110924,"longitude":8.682127,"reserved":0,"last_update":"0001-01-01T00:00:00Z","name_a2s":"Uncletopia | Frankfurt | 5 | All Maps","protocol":17,"map":"cp_sunshine","folder":"tf","game":"Team Fortress","app_id":440,"player_count":0,"max_players":24,"Bots":0,"server_type":"Dedicated","server_os":"Linux","password":true,"vac":true,"version":"7708610","steam_id":85568392924504277,"keywords":["cp","nocrits","nodmgspread","uncletopia"],"game_id":440,"stv_port":27056,"stv_name":"Uncletopia | Frankfurt | 5 | All Maps | STV","players":null},{"server_id":311,"name":"Uncletopia | Frankfurt | 6 | All Maps","name_short":"frk-6","host":"frk-1.de.uncletopia.com","port":27065,"enabled":true,"region":"eu","cc":"de","latitude":50.110924,"longitude":8.682127,"reserved":0,"last_update":"0001-01-01T00:00:00Z","name_a2s":"Uncletopia | Frankfurt | 6 | All Maps","protocol":17,"map":"pl_frontier_final","folder":"tf","game":"Team Fortress","app_id":440,"player_count":0,"max_players":24,"Bots":0,"server_type":"Dedicated","server_os":"Linux","password":true,"vac":true,"version":"7708610","steam_id":85568392924504278,"keywords":["nocrits","nodmgspread","payload","uncletopia"],"game_id":440,"stv_port":27066,"stv_name":"Uncletopia | Frankfurt | 6 | All Maps | STV","players":null},{"server_id":23,"name":"Uncletopia | Frankfurt | 7 | No Payload","name_short":"frk-7","host":"frk-1.de.uncletopia.com","port":27075,"enabled":true,"region":"eu","cc":"de","latitude":50.110924,"longitude":8.682127,"reserved":0,"last_update":"0001-01-01T00:00:00Z","name_a2s":"Uncletopia | Frankfurt | 7 | No Payload","protocol":17,"map":"koth_viaduct","folder":"tf","game":"Team Fortress","app_id":440,"player_count":0,"max_players":24,"Bots":0,"server_type":"Dedicated","server_os":"Linux","password":true,"vac":true,"version":"7708610","steam_id":85568392924742827,"keywords":["cp","nocrits","nodmgspread","uncletopia"],"game_id":440,"stv_port":27076,"stv_name":"Uncletopia | Frankfurt | 7 | No Payload | STV","players":null},{"server_id":24,"name":"Uncletopia | Frankfurt | 8 | Community","name_short":"frk-8","host":"frk-1.de.uncletopia.com","port":27085,"enabled":true,"region":"eu","cc":"de","latitude":50.110924,"longitude":8.682127,"reserved":0,"last_update":"0001-01-01T00:00:00Z","name_a2s":"Uncletopia | Frankfurt | 8 | Community","protocol":17,"map":"pl_borneo","folder":"tf","game":"Team Fortress","app_id":440,"player_count":0,"max_players":24,"Bots":0,"server_type":"Dedicated","server_os":"Linux","password":true,"vac":true,"version":"7708610","steam_id":85568392924742828,"keywords":["nocrits","nodmgspread","payload","uncletopia"],"game_id":440,"stv_port":27086,"stv_name":"Uncletopia | Frankfurt | 8 | Community | STV","players":null},{"server_id":202,"name":"Uncletopia | Hong Kong | 1 | All Maps","name_short":"hgk-1","host":"hgk-1.hk.uncletopia.com","port":27015,"enabled":true,"region":"asia","cc":"hk","latitude":22.302711,"longitude":114.177216,"reserved":0,"last_update":"0001-01-01T00:00:00Z","name_a2s":"Uncletopia | Hong Kong | 1 | All Maps","protocol":17,"map":"pl_upward","folder":"tf","game":"Team Fortress","app_id":440,"player_count":24,"max_players":24,"Bots":0,"server_type":"Dedicated","server_os":"Linux","password":true,"vac":true,"version":"7708610","steam_id":85568392924494504,"keywords":["nocrits","nodmgspread","payload","uncletopia"],"game_id":440,"stv_port":27016,"stv_name":"Uncletopia | Hong Kong | 1 | All Maps | STV","players":[{"user_id":86,"name":"Wakiiiz","steam_id":76561198850134590,"connected_time":1569000000000,"state":"active","ping":58},{"user_id":93,"name":"tiden2000","steam_id":76561198092969425,"connected_time":1099000000000,"state":"active","ping":74},{"user_id":84,"name":"Caleb","steam_id":76561199245927029,"connected_time":2023000000000,"state":"active","ping":54},{"user_id":56,"name":"17","steam_id":76561198241530712,"connected_time":3167000000000,"state":"active","ping":58},{"user_id":64,"name":"Èõ™„Éé‰∏ãÈõ™‰πÉ„ÅÆoppai","steam_id":76561198008307645,"connected_time":2637000000000,"state":"active","ping":70},{"user_id":87,"name":"todorowki","steam_id":76561199130459950,"connected_time":1560000000000,"state":"active","ping":60},{"user_id":88,"name":"brizzard","steam_id":76561198048438653,"connected_time":1475000000000,"state":"active","ping":50},{"user_id":40,"name":"About","steam_id":76561198198273477,"connected_time":4458000000000,"state":"active","ping":74},{"user_id":41,"name":"samartpayakaroon99","steam_id":76561199223934899,"connected_time":4427000000000,"state":"active","ping":66},{"user_id":59,"name":"Nevergonnagiveyouup","steam_id":76561199366985069,"connected_time":3008000000000,"state":"active","ping":53},{"user_id":52,"name":"Cool_A","steam_id":76561199177496182,"connected_time":3492000000000,"state":"active","ping":86},{"user_id":94,"name":"ketsu","steam_id":76561197966171554,"connected_time":1055000000000,"state":"active","ping":113},{"user_id":104,"name":"ogey","steam_id":76561198074339034,"connected_time":185000000000,"state":"active","ping":75},{"user_id":95,"name":"ZeniaPY (Playing on Wacom)","steam_id":76561198404352831,"connected_time":901000000000,"state":"active","ping":61},{"user_id":81,"name":"Kiyomi","steam_id":76561198240627872,"connected_time":2163000000000,"state":"active","ping":52},{"user_id":63,"name":"RandomGuy1085","steam_id":76561199053910995,"connected_time":2761000000000,"state":"active","ping":89},{"user_id":97,"name":"Aiko Kanata Zhenco","steam_id":76561199262955185,"connected_time":650000000000,"state":"active","ping":93},{"user_id":96,"name":"powfoo","steam_id":76561198878179697,"connected_time":866000000000,"state":"active","ping":59},{"user_id":106,"name":"Momoxhien","steam_id":76561198414997429,"connected_time":36000000000,"state":"spawning","ping":68},{"user_id":103,"name":"qbruh","steam_id":76561198412329672,"connected_time":344000000000,"state":"active","ping":93},{"user_id":76,"name":"speedyxf936","steam_id":76561199440171022,"connected_time":2327000000000,"state":"active","ping":82},{"user_id":102,"name":"gonebeef","steam_id":76561199083203270,"connected_time":474000000000,"state":"active","ping":82},{"user_id":99,"name":"i hate avocados","steam_id":76561198318292720,"connected_time":608000000000,"state":"active","ping":97},{"user_id":100,"name":"BL@YT","steam_id":76561198062509519,"connected_time":602000000000,"state":"active","ping":107}]},{"server_id":1,"name":"Uncletopia | Los Angeles | 1 | All Maps","name_short":"lax-1","host":"lax-1.us.uncletopia.com","port":27015,"enabled":true,"region":"us-west","cc":"us","latitude":33.94279,"longitude":-118.41004,"reserved":0,"last_update":"0001-01-01T00:00:00Z","name_a2s":"Uncletopia | Los Angeles | 1 | All Maps","protocol":17,"map":"pl_snowycoast","folder":"tf","game":"Team Fortress","app_id":440,"player_count":0,"max_players":24,"Bots":0,"server_type":"Dedicated","server_os":"Linux","password":true,"vac":true,"version":"7708610","steam_id":85568392924469991,"keywords":["nocrits","nodmgspread","payload","uncletopia"],"game_id":440,"stv_port":27016,"stv_name":"Uncletopia | Los Angeles | 1 | All Maps | STV","players":null},{"server_id":112,"name":"Uncletopia | Los Angeles | 2 | All Maps","name_short":"lax-2","host":"lax-1.us.uncletopia.com","port":27025,"enabled":true,"region":"us-west","cc":"us","latitude":33.94279,"longitude":-118.41004,"reserved":0,"last_update":"0001-01-01T00:00:00Z","name_a2s":"Uncletopia | Los Angeles | 2 | All Maps","protocol":17,"map":"cp_dustbowl","folder":"tf","game":"Team Fortress","app_id":440,"player_count":24,"max_players":24,"Bots":0,"server_type":"Dedicated","server_os":"Linux","password":true,"vac":true,"version":"7708610","steam_id":85568392924469992,"keywords":["cp","nocrits","nodmgspread","uncletopia"],"game_id":440,"stv_port":27026,"stv_name":"Uncletopia | Los Angeles | 2 | All Maps | STV","players":[{"user_id":341,"name":"MinusSoup918","steam_id":76561198060902773,"connected_time":7643000000000,"state":"active","ping":57},{"user_id":400,"name":"Tanner The Fish Man","steam_id":76561198372696640,"connected_time":2919000000000,"state":"active","ping":60},{"user_id":418,"name":"SenTreats","steam_id":76561198085835841,"connected_time":1123000000000,"state":"active","ping":52},{"user_id":427,"name":"[achildslaughter]","steam_id":76561198018766197,"connected_time":344000000000,"state":"active","ping":45},{"user_id":420,"name":"SpaceOak","steam_id":76561198072561549,"connected_time":1004000000000,"state":"active","ping":99},{"user_id":354,"name":"Doc Deau","steam_id":76561197999548922,"connected_time":6684000000000,"state":"active","ping":62},{"user_id":425,"name":"Susan","steam_id":76561198045705049,"connected_time":810000000000,"state":"active","ping":47},{"user_id":389,"name":"dude","steam_id":76561198253202693,"connected_time":3679000000000,"state":"active","ping":37},{"user_id":414,"name":"Mr. Yoshida","steam_id":76561198263829831,"connected_time":1418000000000,"state":"active","ping":77},{"user_id":355,"name":"Sir Onionbro of Catarina","steam_id":76561198070987281,"connected_time":6672000000000,"state":"active","ping":96},{"user_id":410,"name":"Star","steam_id":76561198422395239,"connected_time":2076000000000,"state":"active","ping":57},{"user_id":356,"name":"RyanTheKat","steam_id":76561198261728547,"connected_time":6669000000000,"state":"active","ping":55},{"user_id":428,"name":"Nugakku","steam_id":76561198082346219,"connected_time":74000000000,"state":"active","ping":55},{"user_id":403,"name":"Smuggs","steam_id":76561197999456003,"connected_time":2867000000000,"state":"active","ping":169},{"user_id":411,"name":"Moonflower ‚ú¶","steam_id":76561198191782483,"connected_time":1835000000000,"state":"active","ping":58},{"user_id":397,"name":"Super Mighty G","steam_id":76561198020932806,"connected_time":3000000000000,"state":"active","ping":45},{"user_id":415,"name":"benglengler","steam_id":76561198150137369,"connected_time":1374000000000,"state":"active","ping":45},{"user_id":422,"name":"Chiaki Nanami","steam_id":76561198164782653,"connected_time":943000000000,"state":"active","ping":118},{"user_id":412,"name":"Neuro_Toxic_Newt","steam_id":76561198045406574,"connected_time":1821000000000,"state":"active","ping":75},{"user_id":417,"name":"Milk T34","steam_id":76561198116115227,"connected_time":1292000000000,"state":"active","ping":90},{"user_id":416,"name":"Scorpion18211","steam_id":76561198325651066,"connected_time":1349000000000,"state":"active","ping":76},{"user_id":423,"name":"gerg","steam_id":76561197997127387,"connected_time":942000000000,"state":"active","ping":58},{"user_id":424,"name":"social distance warrior","steam_id":76561198128992994,"connected_time":939000000000,"state":"active","ping":68},{"user_id":426,"name":"lechuga","steam_id":76561198063017868,"connected_time":743000000000,"state":"active","ping":54}]},{"server_id":324,"name":"Uncletopia | Los Angeles | 3 | All Maps","name_short":"lax-3","host":"lax-1.us.uncletopia.com","port":27035,"enabled":true,"region":"us-west","cc":"us","latitude":33.94279,"longitude":-118.41004,"reserved":0,"last_update":"0001-01-01T00:00:00Z","name_a2s":"Uncletopia | Los Angeles | 3 | All Maps","protocol":17,"map":"koth_viaduct","folder":"tf","game":"Team Fortress","app_id":440,"player_count":0,"max_players":24,"Bots":0,"server_type":"Dedicated","server_os":"Linux","password":true,"vac":true,"version":"7708610","steam_id":85568392924510198,"keywords":["cp","nocrits","nodmgspread","uncletopia"],"game_id":440,"stv_port":27036,"stv_name":"Uncletopia | Los Angeles | 3 | All Maps | STV","players":null},{"server_id":25,"name":"Uncletopia | Los Angeles | 4 | No Payload","name_short":"lax-4","host":"lax-1.us.uncletopia.com","port":27045,"enabled":true,"region":"us-west","cc":"us","latitude":33.94279,"longitude":-118.41004,"reserved":0,"last_update":"0001-01-01T00:00:00Z","name_a2s":"Uncletopia | Los Angeles | 4 | No Payload","protocol":17,"map":"koth_king","folder":"tf","game":"Team Fortress","app_id":440,"player_count":0,"max_players":24,"Bots":0,"server_type":"Dedicated","server_os":"Linux","password":true,"vac":true,"version":"7708610","steam_id":85568392924510199,"keywords":["cp","nocrits","nodmgspread","uncletopia"],"game_id":440,"stv_port":27046,"stv_name":"Uncletopia | Los Angeles | 4 | No Payload | STV","players":null},{"server_id":11,"name":"Uncletopia | London | 1 | All Maps","name_short":"lon-1","host":"lon-1.uk.uncletopia.com","port":27015,"enabled":true,"region":"eu","cc":"gb","latitude":51.509865,"longitude":-0.118092,"reserved":0,"last_update":"0001-01-01T00:00:00Z","name_a2s":"Uncletopia | London | 1 | All Maps","protocol":17,"map":"cp_snakewater_final1","folder":"tf","game":"Team Fortress","app_id":440,"player_count":0,"max_players":24,"Bots":0,"server_type":"Dedicated","server_os":"Linux","password":true,"vac":true,"version":"7708610","steam_id":85568392924367362,"keywords":["cp","nocrits","nodmgspread","uncletopia"],"game_id":440,"stv_port":27016,"stv_name":"Uncletopia | London | 1 | All Maps | STV","players":null},{"server_id":114,"name":"Uncletopia | London | 2 | All Maps","name_short":"lon-2","host":"lon-1.uk.uncletopia.com","port":27025,"enabled":true,"region":"eu","cc":"gb","latitude":51.509865,"longitude":-0.118092,"reserved":0,"last_update":"0001-01-01T00:00:00Z","name_a2s":"Uncletopia | London | 2 | All Maps","protocol":17,"map":"cp_sunshine","folder":"tf","game":"Team Fortress","app_id":440,"player_count":0,"max_players":24,"Bots":0,"server_type":"Dedicated","server_os":"Linux","password":true,"vac":true,"version":"7708610","steam_id":85568392924470941,"keywords":["cp","nocrits","nodmgspread","uncletopia"],"game_id":440,"stv_port":27026,"stv_name":"Uncletopia | London | 2 | All Maps | STV","players":null},{"server_id":320,"name":"Uncletopia | London | 3 | All Maps","name_short":"lon-3","host":"lon-1.uk.uncletopia.com","port":27035,"enabled":true,"region":"eu","cc":"gb","latitude":51.509865,"longitude":-0.118092,"reserved":0,"last_update":"0001-01-01T00:00:00Z","name_a2s":"Uncletopia | London | 3 | All Maps","protocol":17,"map":"koth_cascade","folder":"tf","game":"Team Fortress","app_id":440,"player_count":0,"max_players":24,"Bots":0,"server_type":"Dedicated","server_os":"Linux","password":true,"vac":true,"version":"7708610","steam_id":85568392924510192,"keywords":["cp","nocrits","nodmgspread","uncletopia"],"game_id":440,"stv_port":27036,"stv_name":"Uncletopia | London | 3 | All Maps | STV","players":null},{"server_id":321,"name":"Uncletopia | London | 4 | All Maps","name_short":"lon-4","host":"lon-1.uk.uncletopia.com","port":27045,"enabled":true,"region":"eu","cc":"gb","latitude":51.509865,"longitude":-0.118092,"reserved":0,"last_update":"0001-01-01T00:00:00Z","name_a2s":"Uncletopia | London | 4 | All Maps","protocol":17,"map":"pl_upward","folder":"tf","game":"Team Fortress","app_id":440,"player_count":0,"max_players":24,"Bots":0,"server_type":"Dedicated","server_os":"Linux","password":true,"vac":true,"version":"7708610","steam_id":85568392924510193,"keywords":["nocrits","nodmgspread","payload","uncletopia"],"game_id":440,"stv_port":27046,"stv_name":"Uncletopia | London | 4 | All Maps | STV","players":null},{"server_id":21,"name":"Uncletopia | London | 5 | All Maps","name_short":"lon-5","host":"lon-1.uk.uncletopia.com","port":27055,"enabled":true,"region":"eu","cc":"gb","latitude":51.509865,"longitude":-0.118092,"reserved":0,"last_update":"0001-01-01T00:00:00Z","name_a2s":"Uncletopia | London | 5 | All Maps","protocol":17,"map":"pl_badwater","folder":"tf","game":"Team Fortress","app_id":440,"player_count":0,"max_players":24,"Bots":0,"server_type":"Dedicated","server_os":"Linux","password":true,"vac":true,"version":"7708610","steam_id":85568392924742829,"keywords":["nocrits","nodmgspread","payload","uncletopia"],"game_id":440,"stv_port":27056,"stv_name":"Uncletopia | London | 5 | All Maps | STV","players":null},{"server_id":22,"name":"Uncletopia | London | 6 | All Maps","name_short":"lon-6","host":"lon-1.uk.uncletopia.com","port":27065,"enabled":true,"region":"eu","cc":"gb","latitude":51.509865,"longitude":-0.118092,"reserved":0,"last_update":"0001-01-01T00:00:00Z","name_a2s":"Uncletopia | London | 6 | All Maps","protocol":17,"map":"pl_frontier_final","folder":"tf","game":"Team Fortress","app_id":440,"player_count":0,"max_players":24,"Bots":0,"server_type":"Dedicated","server_os":"Linux","password":true,"vac":true,"version":"7708610","steam_id":85568392924742830,"keywords":["nocrits","nodmgspread","payload","uncletopia"],"game_id":440,"stv_port":27066,"stv_name":"Uncletopia | London | 6 | All Maps | STV","players":null},{"server_id":40,"name":"Uncletopia | London | 7 | No Payload","name_short":"lon-7","host":"lon-1.uk.uncletopia.com","port":27075,"enabled":true,"region":"eu","cc":"gb","latitude":51.509865,"longitude":-0.118092,"reserved":0,"last_update":"0001-01-01T00:00:00Z","name_a2s":"Uncletopia | London | 7 | No Payload","protocol":17,"map":"pl_barnblitz","folder":"tf","game":"Team Fortress","app_id":440,"player_count":0,"max_players":24,"Bots":0,"server_type":"Dedicated","server_os":"Linux","password":true,"vac":true,"version":"7708610","steam_id":85568392924964314,"keywords":["nocrits","nodmgspread","payload","uncletopia"],"game_id":440,"stv_port":27076,"stv_name":"Uncletopia | London | 7 | No Payload | STV","players":null},{"server_id":41,"name":"Uncletopia | London | 8 | Community","name_short":"lon-8","host":"lon-1.uk.uncletopia.com","port":27085,"enabled":true,"region":"eu","cc":"gb","latitude":51.509865,"longitude":-0.118092,"reserved":0,"last_update":"0001-01-01T00:00:00Z","name_a2s":"Uncletopia | London | 8 | Community","protocol":17,"map":"pl_pier","folder":"tf","game":"Team Fortress","app_id":440,"player_count":0,"max_players":24,"Bots":0,"server_type":"Dedicated","server_os":"Linux","password":true,"vac":true,"version":"7708610","steam_id":85568392924964315,"keywords":["nocrits","nodmgspread","payload","uncletopia"],"game_id":440,"stv_port":27086,"stv_name":"Uncletopia | London | 8 | Community | STV","players":null},{"server_id":300,"name":"Uncletopia | Montr√©al | 1 | All Maps","name_short":"mtl-1","host":"mtl-1.ca.uncletopia.com","port":27015,"enabled":true,"region":"us-east","cc":"ca","latitude":45.50889,"longitude":-73.56167,"reserved":0,"last_update":"0001-01-01T00:00:00Z","name_a2s":"Uncletopia | Montr√©al | 1 | All Maps","protocol":17,"map":"pl_barnblitz","folder":"tf","game":"Team Fortress","app_id":440,"player_count":0,"max_players":24,"Bots":0,"server_type":"Dedicated","server_os":"Linux","password":true,"vac":true,"version":"7708610","steam_id":85568392924500087,"keywords":["nocrits","nodmgspread","payload","uncletopia"],"game_id":440,"stv_port":27016,"stv_name":"Uncletopia | Montr√©al | 1 | All Maps | STV","players":null},{"server_id":301,"name":"Uncletopia | Montr√©al | 2 | All Maps","name_short":"mtl-2","host":"mtl-1.ca.uncletopia.com","port":27025,"enabled":true,"region":"us-east","cc":"ca","latitude":45.50889,"longitude":-73.56167,"reserved":0,"last_update":"0001-01-01T00:00:00Z","name_a2s":"Uncletopia | Montr√©al | 2 | All Maps","protocol":17,"map":"pl_swiftwater_final1","folder":"tf","game":"Team Fortress","app_id":440,"player_count":0,"max_players":24,"Bots":0,"server_type":"Dedicated","server_os":"Linux","password":true,"vac":true,"version":"7708610","steam_id":85568392924500088,"keywords":["nocrits","nodmgspread","payload","uncletopia"],"game_id":440,"stv_port":27026,"stv_name":"Uncletopia | Montr√©al | 2 | All Maps | STV","players":null},{"server_id":302,"name":"Uncletopia | Montr√©al | 3 | All Maps","name_short":"mtl-3","host":"mtl-1.ca.uncletopia.com","port":27035,"enabled":true,"region":"us-east","cc":"ca","latitude":45.50889,"longitude":-73.56167,"reserved":0,"last_update":"0001-01-01T00:00:00Z","name_a2s":"Uncletopia | Montr√©al | 3 | All Maps","protocol":17,"map":"cp_mountainlab","folder":"tf","game":"Team Fortress","app_id":440,"player_count":0,"max_players":24,"Bots":0,"server_type":"Dedicated","server_os":"Linux","password":true,"vac":true,"version":"7708610","steam_id":85568392924500089,"keywords":["cp","nocrits","nodmgspread","uncletopia"],"game_id":440,"stv_port":27036,"stv_name":"Uncletopia | Montr√©al | 3 | All Maps | STV","players":null},{"server_id":303,"name":"Uncletopia | Montr√©al | 4 | No Payload","name_short":"mtl-4","host":"mtl-1.ca.uncletopia.com","port":27045,"enabled":true,"region":"us-east","cc":"ca","latitude":45.50889,"longitude":-73.56167,"reserved":0,"last_update":"0001-01-01T00:00:00Z","name_a2s":"Uncletopia | Montr√©al | 4 | No Payload","protocol":17,"map":"koth_cascade","folder":"tf","game":"Team Fortress","app_id":440,"player_count":0,"max_players":24,"Bots":0,"server_type":"Dedicated","server_os":"Linux","password":true,"vac":true,"version":"7708610","steam_id":85568392924500090,"keywords":["cp","nocrits","nodmgspread","uncletopia"],"game_id":440,"stv_port":27046,"stv_name":"Uncletopia | Montr√©al | 4 | No Payload | STV","players":null},{"server_id":13,"name":"Uncletopia | New York City | 1 | All Maps","name_short":"nyc-1","host":"nyc-1.us.uncletopia.com","port":27015,"enabled":true,"region":"us-east","cc":"us","latitude":40.73061,"longitude":-73.93524,"reserved":0,"last_update":"0001-01-01T00:00:00Z","name_a2s":"Uncletopia | New York City | 1 | All Maps","protocol":17,"map":"koth_lakeside_final","folder":"tf","game":"Team Fortress","app_id":440,"player_count":0,"max_players":24,"Bots":0,"server_type":"Dedicated","server_os":"Linux","password":true,"vac":true,"version":"7708610","steam_id":85568392924469993,"keywords":["cp","nocrits","nodmgspread","uncletopia"],"game_id":440,"stv_port":27016,"stv_name":"Uncletopia | New York City | 1 | All Maps | STV","players":null},{"server_id":14,"name":"Uncletopia | New York City | 2 | All Maps","name_short":"nyc-2","host":"nyc-1.us.uncletopia.com","port":27025,"enabled":true,"region":"us-east","cc":"us","latitude":40.73061,"longitude":-73.93524,"reserved":0,"last_update":"0001-01-01T00:00:00Z","name_a2s":"Uncletopia | New York City | 2 | All Maps","protocol":17,"map":"cp_process_final","folder":"tf","game":"Team Fortress","app_id":440,"player_count":0,"max_players":24,"Bots":0,"server_type":"Dedicated","server_os":"Linux","password":true,"vac":true,"version":"7708610","steam_id":85568392924469994,"keywords":["cp","nocrits","nodmgspread","uncletopia"],"game_id":440,"stv_port":27026,"stv_name":"Uncletopia | New York City | 2 | All Maps | STV","players":null},{"server_id":15,"name":"Uncletopia | New York City | 3 | All Maps","name_short":"nyc-3","host":"nyc-1.us.uncletopia.com","port":27035,"enabled":true,"region":"us-east","cc":"us","latitude":40.73061,"longitude":-73.93524,"reserved":0,"last_update":"0001-01-01T00:00:00Z","name_a2s":"Uncletopia | New York City | 3 | All Maps","protocol":17,"map":"koth_lakeside_final","folder":"tf","game":"Team Fortress","app_id":440,"player_count":0,"max_players":24,"Bots":0,"server_type":"Dedicated","server_os":"Linux","password":true,"vac":true,"version":"7708610","steam_id":85568392924742820,"keywords":["cp","nocrits","nodmgspread","uncletopia"],"game_id":440,"stv_port":27036,"stv_name":"Uncletopia | New York City | 3 | All Maps | STV","players":null},{"server_id":16,"name":"Uncletopia | New York City | 4 | Community","name_short":"nyc-4","host":"nyc-1.us.uncletopia.com","port":27045,"enabled":true,"region":"us-east","cc":"us","latitude":40.73061,"longitude":-73.93524,"reserved":0,"last_update":"0001-01-01T00:00:00Z","name_a2s":"Uncletopia | New York City | 4 | Community","protocol":17,"map":"workshop/pl_eruption_b8c.ugc2865677281","folder":"tf","game":"Team Fortress","app_id":440,"player_count":0,"max_players":24,"Bots":0,"server_type":"Dedicated","server_os":"Linux","password":true,"vac":true,"version":"7708610","steam_id":85568392924742821,"keywords":["nocrits","nodmgspread","payload","uncletopia"],"game_id":440,"stv_port":27046,"stv_name":"Uncletopia | New York City | 4 | Community | STV","players":null},{"server_id":142,"name":"Uncletopia | S√£o Paulo | 1 | All Maps","name_short":"sao-1","host":"sao-1.br.uncletopia.com","port":27015,"enabled":true,"region":"sa","cc":"br","latitude":-23.533773,"longitude":-46.62529,"reserved":0,"last_update":"0001-01-01T00:00:00Z","name_a2s":"Uncletopia | S√£o Paulo | 1 | All Maps","protocol":17,"map":"pl_barnblitz","folder":"tf","game":"Team Fortress","app_id":440,"player_count":0,"max_players":24,"Bots":0,"server_type":"Dedicated","server_os":"Linux","password":true,"vac":true,"version":"7708610","steam_id":85568392924469996,"keywords":["nocrits","nodmgspread","payload","uncletopia"],"game_id":440,"stv_port":27016,"stv_name":"Uncletopia | S√£o Paulo | 1 | All Maps | STV","players":null},{"server_id":143,"name":"Uncletopia | S√£o Paulo | 2 | All Maps","name_short":"sao-2","host":"sao-2.br.uncletopia.com","port":27015,"enabled":true,"region":"sa","cc":"br","latitude":-23.533773,"longitude":-46.62529,"reserved":0,"last_update":"0001-01-01T00:00:00Z","name_a2s":"Uncletopia | S√£o Paulo | 2 | All Maps","protocol":17,"map":"pl_frontier_final","folder":"tf","game":"Team Fortress","app_id":440,"player_count":0,"max_players":24,"Bots":0,"server_type":"Dedicated","server_os":"Linux","password":true,"vac":true,"version":"7708610","steam_id":85568392924485349,"keywords":["nocrits","nodmgspread","payload","uncletopia"],"game_id":440,"stv_port":27016,"stv_name":"Uncletopia | S√£o Paulo | 2 | All Maps | STV","players":null},{"server_id":7,"name":"Uncletopia | Seattle | 1 | All Maps","name_short":"sea-1","host":"sea-1.us.uncletopia.com","port":27015,"enabled":true,"region":"us-west","cc":"us","latitude":47.608013,"longitude":-122.33517,"reserved":0,"last_update":"0001-01-01T00:00:00Z","name_a2s":"Uncletopia | Seattle | 1 | All Maps","protocol":17,"map":"koth_badlands","folder":"tf","game":"Team Fortress","app_id":440,"player_count":24,"max_players":24,"Bots":0,"server_type":"Dedicated","server_os":"Linux","password":true,"vac":true,"version":"7708610","steam_id":85568392924469997,"keywords":["cp","nocrits","nodmgspread","uncletopia"],"game_id":440,"stv_port":27016,"stv_name":"Uncletopia | Seattle | 1 | All Maps | STV","players":[{"user_id":475,"name":"Larry Gooseman","steam_id":76561198018696922,"connected_time":230000000000,"state":"active","ping":85},{"user_id":460,"name":"SandyMany","steam_id":76561198183098099,"connected_time":1544000000000,"state":"active","ping":55},{"user_id":457,"name":"Kenpachi","steam_id":76561198803824764,"connected_time":1686000000000,"state":"active","ping":71},{"user_id":458,"name":"mommy","steam_id":76561198129195009,"connected_time":1639000000000,"state":"active","ping":64},{"user_id":455,"name":"Krazzle","steam_id":76561198029782412,"connected_time":1788000000000,"state":"active","ping":70},{"user_id":430,"name":"Ayayahuasca","steam_id":76561199002906056,"connected_time":3763000000000,"state":"active","ping":53},{"user_id":473,"name":"Dawk Rawk","steam_id":76561197996027396,"connected_time":317000000000,"state":"active","ping":110},{"user_id":461,"name":"FCKGW-RHQQ2-YXRKT-8TG6W-2B7Q8","steam_id":76561197993138592,"connected_time":1469000000000,"state":"active","ping":35},{"user_id":462,"name":"TinyGayGuitar","steam_id":76561198130737316,"connected_time":1464000000000,"state":"active","ping":45},{"user_id":463,"name":"The Engie","steam_id":76561198049418537,"connected_time":1391000000000,"state":"active","ping":110},{"user_id":472,"name":"young thug weaponry","steam_id":76561198363821364,"connected_time":422000000000,"state":"active","ping":60},{"user_id":431,"name":"SesataPomang","steam_id":76561198145133059,"connected_time":3755000000000,"state":"active","ping":97},{"user_id":356,"name":"Leidon","steam_id":76561198078386945,"connected_time":9779000000000,"state":"active","ping":70},{"user_id":451,"name":"Sniff","steam_id":76561198010270922,"connected_time":2604000000000,"state":"active","ping":45},{"user_id":464,"name":"McNamJam","steam_id":76561198028128686,"connected_time":1220000000000,"state":"active","ping":74},{"user_id":448,"name":"rat gets the cheese","steam_id":76561198031234032,"connected_time":2676000000000,"state":"active","ping":100},{"user_id":474,"name":"Steve from Yellowstone","steam_id":76561198810953711,"connected_time":298000000000,"state":"active","ping":91},{"user_id":433,"name":"2 Point Tom","steam_id":76561198087617008,"connected_time":3634000000000,"state":"active","ping":59},{"user_id":465,"name":"eryn üó∫","steam_id":76561198004433070,"connected_time":1167000000000,"state":"active","ping":116},{"user_id":469,"name":"lustful for Pok√©mon","steam_id":76561198063713049,"connected_time":885000000000,"state":"active","ping":110},{"user_id":434,"name":"Shooon","steam_id":76561198006107947,"connected_time":3459000000000,"state":"active","ping":72},{"user_id":466,"name":"keister kid","steam_id":76561198072769598,"connected_time":1138000000000,"state":"active","ping":76},{"user_id":471,"name":"the dubious creature","steam_id":76561199058944087,"connected_time":654000000000,"state":"active","ping":56},{"user_id":446,"name":"mub","steam_id":76561197961943948,"connected_time":2746000000000,"state":"active","ping":45}]},{"server_id":119,"name":"Uncletopia | Seattle | 2 | All Maps","name_short":"sea-2","host":"sea-1.us.uncletopia.com","port":27025,"enabled":true,"region":"us-west","cc":"us","latitude":47.608013,"longitude":-122.33517,"reserved":0,"last_update":"0001-01-01T00:00:00Z","name_a2s":"Uncletopia | Seattle | 2 | All Maps","protocol":17,"map":"pl_frontier_final","folder":"tf","game":"Team Fortress","app_id":440,"player_count":24,"max_players":24,"Bots":0,"server_type":"Dedicated","server_os":"Linux","password":true,"vac":true,"version":"7708610","steam_id":85568392924469998,"keywords":["nocrits","nodmgspread","payload","uncletopia"],"game_id":440,"stv_port":27026,"stv_name":"Uncletopia | Seattle | 2 | All Maps | STV","players":[{"user_id":313,"name":"Pikky","steam_id":76561198133170057,"connected_time":1576000000000,"state":"active","ping":65},{"user_id":319,"name":"la loveiathenne","steam_id":76561198046394237,"connected_time":198000000000,"state":"active","ping":44},{"user_id":192,"name":"Croxsbow","steam_id":76561198893327481,"connected_time":12418000000000,"state":"active","ping":47},{"user_id":324,"name":"icecxld","steam_id":76561198079018805,"connected_time":173000000000,"state":"active","ping":106},{"user_id":291,"name":"Seriously Bruh","steam_id":76561198070408485,"connected_time":3965000000000,"state":"active","ping":60},{"user_id":323,"name":"Zenn","steam_id":76561198032618254,"connected_time":183000000000,"state":"active","ping":53},{"user_id":290,"name":"Lily Thorn","steam_id":76561198305488625,"connected_time":3985000000000,"state":"active","ping":65},{"user_id":318,"name":"PoonaniTsunami","steam_id":76561197965367308,"connected_time":326000000000,"state":"active","ping":42},{"user_id":320,"name":"bee","steam_id":76561198967906513,"connected_time":195000000000,"state":"active","ping":53},{"user_id":321,"name":"Doctor Dick","steam_id":76561198001913735,"connected_time":194000000000,"state":"active","ping":48},{"user_id":326,"name":"real","steam_id":76561198156053300,"connected_time":55000000000,"state":"active","ping":89},{"user_id":305,"name":"Evanb","steam_id":76561198042057792,"connected_time":2383000000000,"state":"active","ping":56},{"user_id":295,"name":"Facepalm","steam_id":76561198001935226,"connected_time":3823000000000,"state":"active","ping":78},{"user_id":322,"name":"Phazon","steam_id":76561198107688563,"connected_time":193000000000,"state":"active","ping":87},{"user_id":234,"name":"The Caretaker","steam_id":76561198125241411,"connected_time":9070000000000,"state":"active","ping":106},{"user_id":283,"name":"Yo, merry Christmas!","steam_id":76561198421913648,"connected_time":5596000000000,"state":"active","ping":47},{"user_id":244,"name":"bitmappu","steam_id":76561199000786530,"connected_time":8707000000000,"state":"active","ping":80},{"user_id":315,"name":"Raian","steam_id":76561199138048671,"connected_time":1549000000000,"state":"active","ping":74},{"user_id":327,"name":"Stev the Prurient Oxymoron","steam_id":76561197999442625,"connected_time":2000000000,"state":"spawning","ping":51},{"user_id":316,"name":"mohamy_19","steam_id":76561198075833698,"connected_time":1357000000000,"state":"active","ping":63},{"user_id":278,"name":"0xFUL","steam_id":76561198081684676,"connected_time":6159000000000,"state":"active","ping":75},{"user_id":311,"name":"booch","steam_id":76561198017030029,"connected_time":1696000000000,"state":"active","ping":72},{"user_id":189,"name":"Toaster WiFi","steam_id":76561198378832479,"connected_time":12648000000000,"state":"active","ping":127},{"user_id":304,"name":"JON","steam_id":76561198057971005,"connected_time":2847000000000,"state":"active","ping":45}]},{"server_id":17,"name":"Uncletopia | San Francisco | 1 | All Maps","name_short":"sfo-1","host":"sfo-1.us.uncletopia.com","port":27015,"enabled":true,"region":"us-west","cc":"us","latitude":37.77397,"longitude":-122.4313,"reserved":0,"last_update":"0001-01-01T00:00:00Z","name_a2s":"Uncletopia | San Francisco | 1 | All Maps","protocol":17,"map":"plr_hightower","folder":"tf","game":"Team Fortress","app_id":440,"player_count":13,"max_players":24,"Bots":0,"server_type":"Dedicated","server_os":"Linux","password":true,"vac":true,"version":"7708610","steam_id":85568392924469999,"keywords":["nocrits","nodmgspread","payload","uncletopia"],"game_id":440,"stv_port":27016,"stv_name":"Uncletopia | San Francisco | 1 | All Maps | STV","players":[{"user_id":339,"name":"lag","steam_id":76561197963872739,"connected_time":431000000000,"state":"active","ping":34},{"user_id":341,"name":"Doony","steam_id":76561198073472571,"connected_time":248000000000,"state":"active","ping":74},{"user_id":270,"name":"BrightOrangeMango","steam_id":76561198023144607,"connected_time":6963000000000,"state":"active","ping":60},{"user_id":259,"name":"Swag5","steam_id":76561198065311356,"connected_time":7696000000000,"state":"active","ping":47},{"user_id":333,"name":"Swag3","steam_id":76561198056166863,"connected_time":1427000000000,"state":"active","ping":47},{"user_id":326,"name":"Genius Meme","steam_id":76561198162911254,"connected_time":3103000000000,"state":"active","ping":78},{"user_id":334,"name":"Lambchop","steam_id":76561198043900363,"connected_time":1427000000000,"state":"active","ping":58},{"user_id":343,"name":"loyaldandan0764","steam_id":76561199231020424,"connected_time":226000000000,"state":"active","ping":77},{"user_id":346,"name":"BLACKout","steam_id":76561198002194086,"connected_time":99000000000,"state":"active","ping":59},{"user_id":347,"name":"J. Trailblazing","steam_id":76561199411677481,"connected_time":98000000000,"state":"active","ping":250},{"user_id":332,"name":"GP-Stealth","steam_id":76561198142906368,"connected_time":1845000000000,"state":"active","ping":52},{"user_id":330,"name":"Ngsterson","steam_id":76561198162108154,"connected_time":2995000000000,"state":"active","ping":65},{"user_id":262,"name":"Swag6","steam_id":76561198064110837,"connected_time":7548000000000,"state":"active","ping":47}]},{"server_id":18,"name":"Uncletopia | San Francisco | 2 | All Maps","name_short":"sfo-2","host":"sfo-1.us.uncletopia.com","port":27025,"enabled":true,"region":"us-west","cc":"us","latitude":37.77397,"longitude":-122.4313,"reserved":0,"last_update":"0001-01-01T00:00:00Z","name_a2s":"Uncletopia | San Francisco | 2 | All Maps","protocol":17,"map":"cp_dustbowl","folder":"tf","game":"Team Fortress","app_id":440,"player_count":0,"max_players":24,"Bots":0,"server_type":"Dedicated","server_os":"Linux","password":true,"vac":true,"version":"7708610","steam_id":85568392924470000,"keywords":["cp","nocrits","nodmgspread","uncletopia"],"game_id":440,"stv_port":27026,"stv_name":"Uncletopia | San Francisco | 2 | All Maps | STV","players":null},{"server_id":19,"name":"Uncletopia | San Francisco | 3 | No Payload","name_short":"sfo-3","host":"sfo-1.us.uncletopia.com","port":27035,"enabled":true,"region":"us-west","cc":"us","latitude":37.77397,"longitude":-122.4313,"reserved":0,"last_update":"0001-01-01T00:00:00Z","name_a2s":"Uncletopia | San Francisco | 3 | No Payload","protocol":17,"map":"koth_cascade","folder":"tf","game":"Team Fortress","app_id":440,"player_count":9,"max_players":24,"Bots":0,"server_type":"Dedicated","server_os":"Linux","password":true,"vac":true,"version":"7708610","steam_id":85568392924742824,"keywords":["cp","nocrits","nodmgspread","uncletopia"],"game_id":440,"stv_port":27036,"stv_name":"Uncletopia | San Francisco | 3 | No Payload | STV","players":[{"user_id":214,"name":"DragonNinja2002","steam_id":76561199075606157,"connected_time":1159000000000,"state":"active","ping":57},{"user_id":202,"name":"‚ù§ Alice","steam_id":76561198869945051,"connected_time":2095000000000,"state":"active","ping":98},{"user_id":195,"name":"ena - d","steam_id":76561198072329335,"connected_time":2462000000000,"state":"active","ping":105},{"user_id":205,"name":"soda pop","steam_id":76561199403530076,"connected_time":1991000000000,"state":"active","ping":84},{"user_id":197,"name":"Antreuse","steam_id":76561198219721132,"connected_time":2457000000000,"state":"active","ping":46},{"user_id":215,"name":"Tideflat","steam_id":76561198179850851,"connected_time":688000000000,"state":"active","ping":57},{"user_id":213,"name":"SlippyPunk","steam_id":76561198048551455,"connected_time":1615000000000,"state":"active","ping":107},{"user_id":172,"name":"Brynkiwi","steam_id":76561198052177917,"connected_time":4861000000000,"state":"active","ping":54},{"user_id":190,"name":"Shmeaty","steam_id":76561198198704538,"connected_time":3061000000000,"state":"active","ping":45}]},{"server_id":20,"name":"Uncletopia | San Francisco | 4 | Community","name_short":"sfo-4","host":"sfo-1.us.uncletopia.com","port":27045,"enabled":true,"region":"us-west","cc":"us","latitude":37.77397,"longitude":-122.4313,"reserved":0,"last_update":"0001-01-01T00:00:00Z","name_a2s":"Uncletopia | San Francisco | 4 | Community","protocol":17,"map":"workshop/koth_ramjam_v2_b2.ugc2865676487","folder":"tf","game":"Team Fortress","app_id":440,"player_count":0,"max_players":24,"Bots":0,"server_type":"Dedicated","server_os":"Linux","password":true,"vac":true,"version":"7708610","steam_id":85568392924742826,"keywords":["cp","nocrits","nodmgspread","uncletopia"],"game_id":440,"stv_port":27046,"stv_name":"Uncletopia | San Francisco | 4 | Community | STV","players":null},{"server_id":141,"name":"Uncletopia | Sydney | 1 | All Maps","name_short":"syd-1","host":"syd-1.au.uncletopia.com","port":27015,"enabled":true,"region":"au","cc":"au","latitude":-33.865143,"longitude":151.2099,"reserved":0,"last_update":"0001-01-01T00:00:00Z","name_a2s":"Uncletopia | Sydney | 1 | All Maps","protocol":17,"map":"pl_badwater","folder":"tf","game":"Team Fortress","app_id":440,"player_count":22,"max_players":24,"Bots":0,"server_type":"Dedicated","server_os":"Linux","password":true,"vac":true,"version":"7708610","steam_id":85568392924470001,"keywords":["nocrits","nodmgspread","payload","uncletopia"],"game_id":440,"stv_port":27016,"stv_name":"Uncletopia | Sydney | 1 | All Maps | STV","players":[{"user_id":283,"name":"Zoey","steam_id":76561198126153554,"connected_time":1732000000000,"state":"active","ping":79},{"user_id":284,"name":"scuba cat... my beloved","steam_id":76561198203917953,"connected_time":1729000000000,"state":"active","ping":58},{"user_id":244,"name":"Tricka ‚Ä¢","steam_id":76561197968440123,"connected_time":4238000000000,"state":"active","ping":45},{"user_id":317,"name":"cbpop","steam_id":76561198992538857,"connected_time":144000000000,"state":"active","ping":45},{"user_id":308,"name":"DotRotPota","steam_id":76561198173881541,"connected_time":452000000000,"state":"active","ping":43},{"user_id":316,"name":"floop flub","steam_id":76561198418968979,"connected_time":172000000000,"state":"active","ping":92},{"user_id":287,"name":"Mail Bomb Victim","steam_id":76561198284533039,"connected_time":1582000000000,"state":"active","ping":56},{"user_id":278,"name":"Fresh Mulk","steam_id":76561198078058482,"connected_time":2699000000000,"state":"active","ping":58},{"user_id":248,"name":"SaltierThanYou","steam_id":76561198444395188,"connected_time":4126000000000,"state":"active","ping":75},{"user_id":298,"name":"Chops","steam_id":76561198071178936,"connected_time":1353000000000,"state":"active","ping":98},{"user_id":315,"name":"Night of the Living Boobs‚Ñ¢","steam_id":76561198086447265,"connected_time":254000000000,"state":"active","ping":190},{"user_id":312,"name":"Battle_Blades88","steam_id":76561199139888724,"connected_time":350000000000,"state":"active","ping":63},{"user_id":311,"name":"Zort","steam_id":76561198056414289,"connected_time":363000000000,"state":"active","ping":62},{"user_id":279,"name":"hobo","steam_id":76561199046481213,"connected_time":2332000000000,"state":"active","ping":65},{"user_id":291,"name":"Owlenstein‚Ñ¢","steam_id":76561198093983826,"connected_time":1465000000000,"state":"active","ping":107},{"user_id":313,"name":"Cyborgcupine","steam_id":76561198257389366,"connected_time":325000000000,"state":"active","ping":96},{"user_id":314,"name":"Ack!","steam_id":76561198147967798,"connected_time":313000000000,"state":"active","ping":60},{"user_id":306,"name":"Dr Barry Mundy PhD","steam_id":76561198034512686,"connected_time":542000000000,"state":"active","ping":40},{"user_id":300,"name":"Jack","steam_id":76561198064889041,"connected_time":1302000000000,"state":"active","ping":50},{"user_id":243,"name":"Doctor Estonia","steam_id":76561198057365089,"connected_time":4431000000000,"state":"active","ping":67},{"user_id":297,"name":"no teles 4 u","steam_id":76561198018478297,"connected_time":1363000000000,"state":"active","ping":60},{"user_id":276,"name":"bumbly flowr","steam_id":76561198108688516,"connected_time":2843000000000,"state":"active","ping":86}]},{"server_id":123,"name":"Uncletopia | Sydney | 2 | All Maps","name_short":"syd-2","host":"syd-1.au.uncletopia.com","port":27025,"enabled":true,"region":"au","cc":"au","latitude":-33.865143,"longitude":151.2099,"reserved":0,"last_update":"0001-01-01T00:00:00Z","name_a2s":"Uncletopia | Sydney | 2 | All Maps","protocol":17,"map":"pl_frontier_final","folder":"tf","game":"Team Fortress","app_id":440,"player_count":6,"max_players":24,"Bots":0,"server_type":"Dedicated","server_os":"Linux","password":true,"vac":true,"version":"7708610","steam_id":85568392924470002,"keywords":["nocrits","nodmgspread","payload","uncletopia"],"game_id":440,"stv_port":27026,"stv_name":"Uncletopia | Sydney | 2 | All Maps | STV","players":[{"user_id":365,"name":"Witch ‚ô•","steam_id":76561198130971193,"connected_time":4000000000,"state":"spawning","ping":97},{"user_id":362,"name":"No comment","steam_id":76561199305879202,"connected_time":690000000000,"state":"active","ping":85},{"user_id":348,"name":"S T U L I X","steam_id":76561199162315630,"connected_time":2543000000000,"state":"active","ping":55},{"user_id":363,"name":"Da_nong","steam_id":76561198453148483,"connected_time":431000000000,"state":"active","ping":43},{"user_id":322,"name":"Kintaro","steam_id":76561199400481258,"connected_time":3788000000000,"state":"active","ping":36},{"user_id":364,"name":"GRAAAAHHHHHH","steam_id":76561198865284532,"connected_time":58000000000,"state":"active","ping":35}]},{"server_id":395,"name":"Uncletopia | Sydney | 3 | All Maps","name_short":"syd-3","host":"syd-1.au.uncletopia.com","port":27035,"enabled":true,"region":"au","cc":"au","latitude":-33.865143,"longitude":151.2099,"reserved":0,"last_update":"0001-01-01T00:00:00Z","name_a2s":"Uncletopia | Sydney | 3 | All Maps","protocol":17,"map":"ctf_turbine","folder":"tf","game":"Team Fortress","app_id":440,"player_count":8,"max_players":24,"Bots":0,"server_type":"Dedicated","server_os":"Linux","password":true,"vac":true,"version":"7708610","steam_id":85568392925194467,"keywords":["ctf","nocrits","nodmgspread","uncletopia"],"game_id":440,"stv_port":27036,"stv_name":"Uncletopia | Sydney | 3 | All Maps | STV","players":[{"user_id":50,"name":"Fullcorpse123","steam_id":76561199105317743,"connected_time":2182000000000,"state":"active","ping":59},{"user_id":57,"name":"Mission","steam_id":76561199218935728,"connected_time":856000000000,"state":"active","ping":59},{"user_id":51,"name":"PresidentDankest","steam_id":76561199026099406,"connected_time":2084000000000,"state":"active","ping":44},{"user_id":54,"name":"LerpADerp","steam_id":76561199250424058,"connected_time":1448000000000,"state":"active","ping":239},{"user_id":52,"name":"leviathan muffin","steam_id":76561198917132276,"connected_time":1961000000000,"state":"active","ping":59},{"user_id":55,"name":"Banjo engineer","steam_id":76561199060614128,"connected_time":1341000000000,"state":"active","ping":68},{"user_id":59,"name":"Pseudoman","steam_id":76561198131158447,"connected_time":438000000000,"state":"active","ping":79},{"user_id":60,"name":"Bored Person","steam_id":76561199145831752,"connected_time":415000000000,"state":"active","ping":260}]},{"server_id":396,"name":"Uncletopia | Sydney | 4 | All Maps","name_short":"syd-4","host":"syd-1.au.uncletopia.com","port":27045,"enabled":true,"region":"au","cc":"au","latitude":-33.865143,"longitude":151.2099,"reserved":0,"last_update":"0001-01-01T00:00:00Z","name_a2s":"Uncletopia | Sydney | 4 | All Maps","protocol":17,"map":"pl_frontier_final","folder":"tf","game":"Team Fortress","app_id":440,"player_count":0,"max_players":24,"Bots":0,"server_type":"Dedicated","server_os":"Linux","password":true,"vac":true,"version":"7708610","steam_id":85568392925397958,"keywords":["nocrits","nodmgspread","payload","uncletopia"],"game_id":440,"stv_port":27046,"stv_name":"Uncletopia | Sydney | 4 | All Maps | STV","players":null},{"server_id":58,"name":"Uncletopia | Sydney | 5 | No Payload","name_short":"syd-5","host":"syd-1.au.uncletopia.com","port":27055,"enabled":true,"region":"au","cc":"au","latitude":-33.865143,"longitude":151.2099,"reserved":0,"last_update":"0001-01-01T00:00:00Z","name_a2s":"Uncletopia | Sydney | 5 | No Payload","protocol":17,"map":"pl_pier","folder":"tf","game":"Team Fortress","app_id":440,"player_count":0,"max_players":24,"Bots":0,"server_type":"Dedicated","server_os":"Linux","password":true,"vac":true,"version":"7708610","steam_id":85568392925397959,"keywords":["nocrits","nodmgspread","payload","uncletopia"],"game_id":440,"stv_port":27056,"stv_name":"Uncletopia | Sydney | 5 | No Payload | STV","players":null},{"server_id":59,"name":"Uncletopia | Sydney | 6 | Community","name_short":"syd-6","host":"syd-1.au.uncletopia.com","port":27065,"enabled":true,"region":"au","cc":"au","latitude":-33.865143,"longitude":151.2099,"reserved":0,"last_update":"0001-01-01T00:00:00Z","name_a2s":"Uncletopia | Sydney | 6 | Community","protocol":17,"map":"workshop/koth_ramjam_v2_b2.ugc2865676487","folder":"tf","game":"Team Fortress","app_id":440,"player_count":0,"max_players":24,"Bots":0,"server_type":"Dedicated","server_os":"Linux","password":true,"vac":true,"version":"7708610","steam_id":85568392925397960,"keywords":["cp","nocrits","nodmgspread","uncletopia"],"game_id":440,"stv_port":27066,"stv_name":"Uncletopia | Sydney | 6 | Community | STV","players":null},{"server_id":49,"name":"Uncletopia | Warsaw | 1 | All Maps","name_short":"waw-1","host":"waw-1.pl.uncletopia.com","port":27015,"enabled":true,"region":"eu","cc":"pl","latitude":52.2297,"longitude":21.017532,"reserved":0,"last_update":"0001-01-01T00:00:00Z","name_a2s":"Uncletopia | Warsaw | 1 | All Maps","protocol":17,"map":"pl_snowycoast","folder":"tf","game":"Team Fortress","app_id":440,"player_count":0,"max_players":24,"Bots":0,"server_type":"Dedicated","server_os":"Linux","password":true,"vac":true,"version":"7708610","steam_id":85568392925397850,"keywords":["nocrits","nodmgspread","payload","uncletopia"],"game_id":440,"stv_port":27016,"stv_name":"Uncletopia | Warsaw | 1 | All Maps | STV","players":null},{"server_id":50,"name":"Uncletopia | Warsaw | 2 | All Maps","name_short":"waw-2","host":"waw-1.pl.uncletopia.com","port":27025,"enabled":true,"region":"eu","cc":"pl","latitude":52.2297,"longitude":21.017532,"reserved":0,"last_update":"0001-01-01T00:00:00Z","name_a2s":"Uncletopia | Warsaw | 2 | All Maps","protocol":17,"map":"pl_barnblitz","folder":"tf","game":"Team Fortress","app_id":440,"player_count":0,"max_players":24,"Bots":0,"server_type":"Dedicated","server_os":"Linux","password":true,"vac":true,"version":"7708610","steam_id":85568392925397851,"keywords":["nocrits","nodmgspread","payload","uncletopia"],"game_id":440,"stv_port":27026,"stv_name":"Uncletopia | Warsaw | 2 | All Maps | STV","players":null},{"server_id":51,"name":"Uncletopia | Warsaw | 3 | All Maps","name_short":"waw-3","host":"waw-1.pl.uncletopia.com","port":27035,"enabled":true,"region":"eu","cc":"pl","latitude":52.2297,"longitude":21.017532,"reserved":0,"last_update":"0001-01-01T00:00:00Z","name_a2s":"Uncletopia | Warsaw | 3 | All Maps","protocol":17,"map":"pl_badwater","folder":"tf","game":"Team Fortress","app_id":440,"player_count":0,"max_players":24,"Bots":0,"server_type":"Dedicated","server_os":"Linux","password":true,"vac":true,"version":"7708610","steam_id":85568392925397852,"keywords":["nocrits","nodmgspread","payload","uncletopia"],"game_id":440,"stv_port":27036,"stv_name":"Uncletopia | Warsaw | 3 | All Maps | STV","players":null},{"server_id":52,"name":"Uncletopia | Warsaw | 4 | All Maps","name_short":"waw-4","host":"waw-1.pl.uncletopia.com","port":27045,"enabled":true,"region":"eu","cc":"pl","latitude":52.2297,"longitude":21.017532,"reserved":0,"last_update":"0001-01-01T00:00:00Z","name_a2s":"Uncletopia | Warsaw | 4 | All Maps","protocol":17,"map":"pl_pier","folder":"tf","game":"Team Fortress","app_id":440,"player_count":0,"max_players":24,"Bots":0,"server_type":"Dedicated","server_os":"Linux","password":true,"vac":true,"version":"7708610","steam_id":85568392925397853,"keywords":["nocrits","nodmgspread","payload","uncletopia"],"game_id":440,"stv_port":27046,"stv_name":"Uncletopia | Warsaw | 4 | All Maps | STV","players":null},{"server_id":53,"name":"Uncletopia | Warsaw | 5 | No Payload","name_short":"waw-5","host":"waw-1.pl.uncletopia.com","port":27055,"enabled":true,"region":"eu","cc":"pl","latitude":52.2297,"longitude":21.017532,"reserved":0,"last_update":"0001-01-01T00:00:00Z","name_a2s":"Uncletopia | Warsaw | 5 | No Payload","protocol":17,"map":"pl_borneo","folder":"tf","game":"Team Fortress","app_id":440,"player_count":0,"max_players":24,"Bots":0,"server_type":"Dedicated","server_os":"Linux","password":true,"vac":true,"version":"7708610","steam_id":85568392925397854,"keywords":["nocrits","nodmgspread","payload","uncletopia"],"game_id":440,"stv_port":27056,"stv_name":"Uncletopia | Warsaw | 5 | No Payload | STV","players":null},{"server_id":54,"name":"Uncletopia | Warsaw | 6 | Community","name_short":"waw-6","host":"waw-1.pl.uncletopia.com","port":27065,"enabled":true,"region":"eu","cc":"pl","latitude":52.2297,"longitude":21.017532,"reserved":0,"last_update":"0001-01-01T00:00:00Z","name_a2s":"Uncletopia | Warsaw | 6 | Community","protocol":17,"map":"pl_swiftwater_final1","folder":"tf","game":"Team Fortress","app_id":440,"player_count":0,"max_players":24,"Bots":0,"server_type":"Dedicated","server_os":"Linux","password":true,"vac":true,"version":"7708610","steam_id":85568392925397856,"keywords":["nocrits","nodmgspread","payload","uncletopia"],"game_id":440,"stv_port":27066,"stv_name":"Uncletopia | Warsaw | 6 | Community | STV","players":null}]}