{"status":true,"message":"","result":[{"server_id":9,"name":"Uncletopia | Atlanta | 1 | All Maps","name_short":"atl-1","host":"atl-1.us.uncletopia.com","port":27015,"enabled":true,"region":"us-east","cc":"us","latitude":33.753746,"longitude":-84.38633,"reserved":0,"last_update":"0001-01-01T00:00:00Z","name_a2s":"Uncletopia | Atlanta | 1 | All Maps","protocol":17,"map":"pl_badwater","folder":"tf","game":"Team Fortress","app_id":440,"player_count":22,"max_players":24,"Bots":0,"server_type":"Dedicated","server_os":"Linux","password":true,"vac":true,"version":"7882260","steam_id":85568392924469982,"keywords":["nocrits","nodmgspread","payload","uncletopia"],"game_id":440,"stv_port":27016,"stv_name":"Uncletopia | Atlanta | 1 | All Maps | STV","players":[{"user_id":800,"name":"DaimosZ","steam_id":76561198427670710,"connected_time":175000000000,"state":"active","ping":103},{"user_id":773,"name":"Barnum004","steam_id":76561197993052769,"connected_time":1166000000000,"state":"active","ping":94},{"user_id":777,"name":"Oaky Loafs","steam_id":76561198317179010,"connected_time":1075000000000,"state":"active","ping":160},{"user_id":802,"name":"Spiderfight1","steam_id":76561199189991528,"connected_time":92000000000,"state":"active","ping":244},{"user_id":803,"name":"Sheev Palpatine","steam_id":76561198252332430,"connected_time":54000000000,"state":"active","ping":148},{"user_id":768,"name":"Real (real)","steam_id":76561199059653595,"connected_time":1447000000000,"state":"active","ping":154},{"user_id":682,"name":"Waddlehi","steam_id":76561198072553840,"connected_time":4289000000000,"state":"active","ping":94},{"user_id":606,"name":"Ashes!","steam_id":76561197998475441,"connected_time":6252000000000,"state":"active","ping":101},{"user_id":755,"name":"Loaf","steam_id":76561198446378419,"connected_time":1834000000000,"state":"active","ping":91},{"user_id":784,"name":"Cwiishe","steam_id":76561199482943969,"connected_time":765000000000,"state":"active","ping":84},{"user_id":716,"name":"Jabawakai","steam_id":76561198088881254,"connected_time":3047000000000,"state":"active","ping":97},{"user_id":718,"name":"MINILEGOLAS","steam_id":76561198859362058,"connected_time":2950000000000,"state":"active","ping":138},{"user_id":785,"name":"swan","steam_id":76561198012569200,"connected_time":765000000000,"state":"active","ping":98},{"user_id":794,"name":"ayoitssjack","steam_id":76561198865191209,"connected_time":410000000000,"state":"active","ping":82},{"user_id":622,"name":"gmele1","steam_id":76561199219013004,"connected_time":5776000000000,"state":"active","ping":139},{"user_id":658,"name":"forg","steam_id":76561199160422863,"connected_time":4729000000000,"state":"active","ping":171},{"user_id":799,"name":"Gailus","steam_id":76561198319509387,"connected_time":209000000000,"state":"active","ping":91},{"user_id":790,"name":"Skele Ton of Fun","steam_id":76561198154574280,"connected_time":585000000000,"state":"active","ping":94},{"user_id":734,"name":"Don't Fuckle with Shuckle","steam_id":76561199020102367,"connected_time":2512000000000,"state":"active","ping":139},{"user_id":771,"name":"Onyx","steam_id":76561198275349640,"connected_time":1301000000000,"state":"active","ping":123},{"user_id":757,"name":"Spliffs","steam_id":76561198329372925,"connected_time":1802000000000,"state":"active","ping":146},{"user_id":714,"name":"üî•üêá","steam_id":76561198357456014,"connected_time":3142000000000,"state":"active","ping":138}]},{"server_id":104,"name":"Uncletopia | Atlanta | 2 | All Maps","name_short":"atl-2","host":"atl-1.us.uncletopia.com","port":27025,"enabled":true,"region":"us-east","cc":"us","latitude":33.753746,"longitude":-84.38633,"reserved":0,"last_update":"0001-01-01T00:00:00Z","name_a2s":"Uncletopia | Atlanta | 2 | All Maps","protocol":17,"map":"pl_upward","folder":"tf","game":"Team Fortress","app_id":440,"player_count":19,"max_players":24,"Bots":0,"server_type":"Dedicated","server_os":"Linux","password":true,"vac":true,"version":"7882260","steam_id":85568392924469983,"keywords":["nocrits","nodmgspread","payload","uncletopia"],"game_id":440,"stv_port":27026,"stv_name":"Uncletopia | Atlanta | 2 | All Maps | STV","players":[{"user_id":173,"name":"Faze Gravity","steam_id":76561198797080730,"connected_time":180000000000,"state":"active","ping":64},{"user_id":31,"name":"Bert.","steam_id":76561198140666346,"connected_time":3879000000000,"state":"active","ping":93},{"user_id":182,"name":"mayoratheone","steam_id":76561199013353434,"connected_time":18000000000,"state":"spawning","ping":136},{"user_id":171,"name":"Coolbreadguy","steam_id":76561198139544202,"connected_time":232000000000,"state":"active","ping":113},{"user_id":156,"name":"Armer_Doggo73","steam_id":76561198872424903,"connected_time":425000000000,"state":"active","ping":129},{"user_id":183,"name":"bower","steam_id":76561198352501378,"connected_time":1000000000,"state":"spawning","ping":154},{"user_id":144,"name":"little mikey","steam_id":76561199068328107,"connected_time":957000000000,"state":"active","ping":121},{"user_id":176,"name":"Mindstrain","steam_id":76561199274044215,"connected_time":126000000000,"state":"active","ping":96},{"user_id":177,"name":"men","steam_id":76561199194759161,"connected_time":121000000000,"state":"active","ping":133},{"user_id":178,"name":"IKOVKY/TTV","steam_id":76561198138035040,"connected_time":118000000000,"state":"active","ping":78},{"user_id":169,"name":"bob1444","steam_id":76561198110258432,"connected_time":289000000000,"state":"active","ping":124},{"user_id":179,"name":"Argyle","steam_id":76561197984878446,"connected_time":113000000000,"state":"active","ping":99},{"user_id":181,"name":"blood-filled child","steam_id":76561198042444734,"connected_time":71000000000,"state":"active","ping":69},{"user_id":155,"name":"[DS]Yeti","steam_id":76561197961076874,"connected_time":436000000000,"state":"active","ping":123},{"user_id":164,"name":"ThreatLvl 9","steam_id":76561198079410533,"connected_time":353000000000,"state":"active","ping":95},{"user_id":70,"name":"chiswola","steam_id":76561198046920142,"connected_time":3086000000000,"state":"active","ping":114},{"user_id":157,"name":"Leifvs","steam_id":76561198255946142,"connected_time":416000000000,"state":"active","ping":161},{"user_id":137,"name":"Esteban Delsin","steam_id":76561198433519639,"connected_time":1359000000000,"state":"active","ping":115},{"user_id":167,"name":"koroliralex","steam_id":76561199151922886,"connected_time":335000000000,"state":"active","ping":200}]},{"server_id":400,"name":"Uncletopia | Atlanta | 3 | Community","name_short":"atl-3","host":"atl-1.us.uncletopia.com","port":27035,"enabled":true,"region":"us-east","cc":"us","latitude":33.753746,"longitude":-84.38633,"reserved":0,"last_update":"0001-01-01T00:00:00Z","name_a2s":"Uncletopia | Atlanta | 3 | Community","protocol":17,"map":"workshop/koth_synthetic_rc6a.ugc1549817316","folder":"tf","game":"Team Fortress","app_id":440,"player_count":0,"max_players":24,"Bots":0,"server_type":"Dedicated","server_os":"Linux","password":true,"vac":true,"version":"7882260","steam_id":85568392924515187,"keywords":["cp","nocrits","nodmgspread","uncletopia"],"game_id":440,"stv_port":27036,"stv_name":"Uncletopia | Atlanta | 3 | Community | STV","players":null},{"server_id":401,"name":"Uncletopia | Atlanta | 4 | No Payload","name_short":"atl-4","host":"atl-1.us.uncletopia.com","port":27045,"enabled":true,"region":"us-east","cc":"us","latitude":33.753746,"longitude":-84.38633,"reserved":0,"last_update":"0001-01-01T00:00:00Z","name_a2s":"","protocol":0,"map":"","folder":"","game":"","app_id":0,"player_count":0,"max_players":0,"Bots":0,"server_type":"","server_os":"","password":false,"vac":false,"version":"","steam_id":0,"keywords":null,"game_id":0,"stv_port":0,"stv_name":"","players":null},{"server_id":2,"name":"Uncletopia | Chicago | 1 | All Maps","name_short":"chi-1","host":"chi-1.us.uncletopia.com","port":27015,"enabled":true,"region":"us-central","cc":"us","latitude":41.881832,"longitude":-87.62318,"reserved":0,"last_update":"0001-01-01T00:00:00Z","name_a2s":"Uncletopia | Chicago | 1 | All Maps","protocol":17,"map":"pl_badwater","folder":"tf","game":"Team Fortress","app_id":440,"player_count":24,"max_players":24,"Bots":0,"server_type":"Dedicated","server_os":"Linux","password":true,"vac":true,"version":"7882260","steam_id":85568392924469984,"keywords":["nocrits","nodmgspread","payload","uncletopia"],"game_id":440,"stv_port":27016,"stv_name":"Uncletopia | Chicago | 1 | All Maps | STV","players":[{"user_id":239,"name":"Lost","steam_id":76561198093713427,"connected_time":1531000000000,"state":"active","ping":60},{"user_id":238,"name":"Gabinator32","steam_id":76561198872467183,"connected_time":1749000000000,"state":"active","ping":48},{"user_id":254,"name":"Null","steam_id":76561198062791227,"connected_time":268000000000,"state":"active","ping":73},{"user_id":248,"name":"Daz","steam_id":76561198041431938,"connected_time":604000000000,"state":"active","ping":101},{"user_id":244,"name":"ly_dee","steam_id":76561198074956732,"connected_time":855000000000,"state":"active","ping":133},{"user_id":260,"name":"Zoot","steam_id":76561198121944243,"connected_time":105000000000,"state":"active","ping":75},{"user_id":214,"name":"logan456g","steam_id":76561199484155277,"connected_time":3761000000000,"state":"active","ping":112},{"user_id":245,"name":"YoteDab McFapDab.jpg","steam_id":76561197984870380,"connected_time":763000000000,"state":"active","ping":89},{"user_id":256,"name":"Fudge_Cake","steam_id":76561198059218167,"connected_time":213000000000,"state":"active","ping":73},{"user_id":257,"name":"PooSmoker","steam_id":76561198254312303,"connected_time":161000000000,"state":"active","ping":84},{"user_id":215,"name":"gravity suit","steam_id":76561198061979880,"connected_time":3754000000000,"state":"active","ping":60},{"user_id":253,"name":"Critscare","steam_id":76561198087712508,"connected_time":434000000000,"state":"active","ping":44},{"user_id":258,"name":"üíõMercyüíõ","steam_id":76561198147095572,"connected_time":160000000000,"state":"active","ping":56},{"user_id":247,"name":"Kitt„Äú","steam_id":76561198108685037,"connected_time":637000000000,"state":"active","ping":63},{"user_id":237,"name":"Ficus","steam_id":76561197994581173,"connected_time":1948000000000,"state":"active","ping":59},{"user_id":259,"name":"Preacher","steam_id":76561198022215764,"connected_time":139000000000,"state":"active","ping":77},{"user_id":242,"name":"ceres","steam_id":76561198291976960,"connected_time":1055000000000,"state":"active","ping":104},{"user_id":251,"name":"Owl Pacino","steam_id":76561197979970666,"connected_time":574000000000,"state":"active","ping":56},{"user_id":252,"name":"Letters","steam_id":76561198035508148,"connected_time":568000000000,"state":"active","ping":98},{"user_id":231,"name":"anotherl2","steam_id":76561198354418895,"connected_time":2676000000000,"state":"active","ping":89},{"user_id":150,"name":"Yam Jazzy Jim","steam_id":76561198000788950,"connected_time":8558000000000,"state":"active","ping":60},{"user_id":240,"name":"asbestos","steam_id":76561198079178866,"connected_time":1466000000000,"state":"active","ping":63},{"user_id":217,"name":"Bug","steam_id":76561199445923774,"connected_time":3736000000000,"state":"active","ping":71},{"user_id":223,"name":"Lia_Rein TTV","steam_id":76561198151569597,"connected_time":3214000000000,"state":"active","ping":164}]},{"server_id":106,"name":"Uncletopia | Chicago | 2 | All Maps","name_short":"chi-2","host":"chi-1.us.uncletopia.com","port":27025,"enabled":true,"region":"us-central","cc":"us","latitude":41.881832,"longitude":-87.62318,"reserved":0,"last_update":"0001-01-01T00:00:00Z","name_a2s":"Uncletopia | Chicago | 2 | All Maps","protocol":17,"map":"pl_upward","folder":"tf","game":"Team Fortress","app_id":440,"player_count":24,"max_players":24,"Bots":0,"server_type":"Dedicated","server_os":"Linux","password":true,"vac":true,"version":"7882260","steam_id":85568392924469985,"keywords":["nocrits","nodmgspread","payload","uncletopia"],"game_id":440,"stv_port":27026,"stv_name":"Uncletopia | Chicago | 2 | All Maps | STV","players":[{"user_id":255,"name":"6t26j","steam_id":76561198278282836,"connected_time":66000000000,"state":"active","ping":46},{"user_id":220,"name":"Triples_","steam_id":76561198094249561,"connected_time":3195000000000,"state":"active","ping":64},{"user_id":231,"name":"They could be starlings","steam_id":76561198441020995,"connected_time":1801000000000,"state":"active","ping":105},{"user_id":233,"name":"lil rat","steam_id":76561198083413316,"connected_time":1747000000000,"state":"active","ping":106},{"user_id":234,"name":"Sigiferd","steam_id":76561198148788110,"connected_time":1735000000000,"state":"active","ping":120},{"user_id":235,"name":"moe","steam_id":76561198929586245,"connected_time":1731000000000,"state":"active","ping":92},{"user_id":230,"name":"53differentmen","steam_id":76561198982477860,"connected_time":2375000000000,"state":"active","ping":59},{"user_id":245,"name":"Carson","steam_id":76561198076771071,"connected_time":341000000000,"state":"active","ping":45},{"user_id":211,"name":"ShadowDragon0125","steam_id":76561198343849022,"connected_time":3419000000000,"state":"active","ping":73},{"user_id":252,"name":"floppy muppet","steam_id":76561198003076261,"connected_time":275000000000,"state":"active","ping":76},{"user_id":242,"name":"alset333","steam_id":76561198405345260,"connected_time":900000000000,"state":"active","ping":60},{"user_id":243,"name":"Billosky Time Lord","steam_id":76561199159626560,"connected_time":860000000000,"state":"active","ping":166},{"user_id":241,"name":"God's Sleepiest Puppy Girl","steam_id":76561198070315609,"connected_time":951000000000,"state":"active","ping":60},{"user_id":244,"name":"Eat It Up Worms Hero","steam_id":76561198259956719,"connected_time":821000000000,"state":"active","ping":74},{"user_id":254,"name":"Mediocre Gaming","steam_id":76561199230467980,"connected_time":247000000000,"state":"active","ping":63},{"user_id":218,"name":"The Juicer","steam_id":76561198027247542,"connected_time":3288000000000,"state":"active","ping":75},{"user_id":247,"name":"BonesJohnson","steam_id":76561198799169951,"connected_time":325000000000,"state":"active","ping":157},{"user_id":237,"name":"Monsieur Peque√±o","steam_id":76561198327271041,"connected_time":1724000000000,"state":"active","ping":101},{"user_id":238,"name":"Tophu","steam_id":76561198380229671,"connected_time":1704000000000,"state":"active","ping":63},{"user_id":253,"name":"AlbinoRhino","steam_id":76561199192140783,"connected_time":271000000000,"state":"active","ping":86},{"user_id":239,"name":"Dracodemus","steam_id":76561198079518597,"connected_time":1456000000000,"state":"active","ping":56},{"user_id":256,"name":"Aiden939","steam_id":76561198860530097,"connected_time":26000000000,"state":"active","ping":93},{"user_id":248,"name":"DarthEthanBoy","steam_id":76561198441643581,"connected_time":325000000000,"state":"active","ping":63},{"user_id":152,"name":"i suffer from ligma","steam_id":76561199158496518,"connected_time":7137000000000,"state":"active","ping":106}]},{"server_id":402,"name":"Uncletopia | Chicago | 3 | All Maps","name_short":"chi-3","host":"chi-1.us.uncletopia.com","port":27035,"enabled":true,"region":"us-central","cc":"us","latitude":41.881832,"longitude":-87.62318,"reserved":0,"last_update":"0001-01-01T00:00:00Z","name_a2s":"Uncletopia | Chicago | 3 | All Maps","protocol":17,"map":"pl_upward","folder":"tf","game":"Team Fortress","app_id":440,"player_count":22,"max_players":24,"Bots":0,"server_type":"Dedicated","server_os":"Linux","password":true,"vac":true,"version":"7882260","steam_id":85568392924515191,"keywords":["nocrits","nodmgspread","payload","uncletopia"],"game_id":440,"stv_port":27036,"stv_name":"Uncletopia | Chicago | 3 | All Maps | STV","players":[{"user_id":326,"name":"Pubby Do","steam_id":76561198072066185,"connected_time":8000000000,"state":"spawning","ping":60},{"user_id":321,"name":"Charredgp","steam_id":76561197998827889,"connected_time":386000000000,"state":"active","ping":48},{"user_id":263,"name":"Peaceful Chaos","steam_id":76561198087989602,"connected_time":2834000000000,"state":"active","ping":67},{"user_id":316,"name":"willow","steam_id":76561198068266114,"connected_time":837000000000,"state":"active","ping":62},{"user_id":257,"name":"lexi","steam_id":76561198176299759,"connected_time":3141000000000,"state":"active","ping":83},{"user_id":288,"name":"Cupidmeh","steam_id":76561198138669654,"connected_time":2536000000000,"state":"active","ping":63},{"user_id":278,"name":"SadVeggie","steam_id":76561198163430099,"connected_time":2680000000000,"state":"active","ping":99},{"user_id":320,"name":"a table","steam_id":76561198158461279,"connected_time":399000000000,"state":"active","ping":85},{"user_id":325,"name":"Lil' Baby","steam_id":76561197999391252,"connected_time":54000000000,"state":"active","ping":91},{"user_id":306,"name":"agert","steam_id":76561199028751406,"connected_time":1759000000000,"state":"active","ping":117},{"user_id":312,"name":"Abaddon","steam_id":76561198030992243,"connected_time":1211000000000,"state":"active","ping":61},{"user_id":315,"name":"Siren","steam_id":76561198047395823,"connected_time":890000000000,"state":"active","ping":79},{"user_id":295,"name":"badasscoolboy57","steam_id":76561198795412055,"connected_time":2349000000000,"state":"active","ping":74},{"user_id":202,"name":"Nikocado Avocado","steam_id":76561198293893486,"connected_time":7390000000000,"state":"active","ping":90},{"user_id":318,"name":"Fluffeline","steam_id":76561198352909489,"connected_time":639000000000,"state":"active","ping":142},{"user_id":300,"name":"Frog","steam_id":76561198170199881,"connected_time":2109000000000,"state":"active","ping":63},{"user_id":308,"name":"gravid baby","steam_id":76561198318646867,"connected_time":1746000000000,"state":"active","ping":63},{"user_id":305,"name":"CeigeBirb","steam_id":76561198068538473,"connected_time":1772000000000,"state":"active","ping":65},{"user_id":313,"name":"Lucon","steam_id":76561198067147724,"connected_time":1198000000000,"state":"active","ping":59},{"user_id":127,"name":"PyroEagle","steam_id":76561198296434231,"connected_time":11881000000000,"state":"active","ping":65},{"user_id":317,"name":"WHO AM I","steam_id":76561198992297033,"connected_time":793000000000,"state":"active","ping":68},{"user_id":323,"name":"Toasted","steam_id":76561198981232201,"connected_time":285000000000,"state":"active","ping":77}]},{"server_id":403,"name":"Uncletopia | Chicago | 4 | All Maps","name_short":"chi-4","host":"chi-1.us.uncletopia.com","port":27045,"enabled":true,"region":"us-central","cc":"us","latitude":41.881832,"longitude":-87.62318,"reserved":0,"last_update":"0001-01-01T00:00:00Z","name_a2s":"Uncletopia | Chicago | 4 | All Maps","protocol":17,"map":"pl_pier","folder":"tf","game":"Team Fortress","app_id":440,"player_count":24,"max_players":24,"Bots":0,"server_type":"Dedicated","server_os":"Linux","password":true,"vac":true,"version":"7882260","steam_id":85568392924515193,"keywords":["nocrits","nodmgspread","payload","uncletopia"],"game_id":440,"stv_port":27046,"stv_name":"Uncletopia | Chicago | 4 | All Maps | STV","players":[{"user_id":128,"name":"Zhenaj","steam_id":76561199209016136,"connected_time":945000000000,"state":"active","ping":61},{"user_id":129,"name":"Likeia #Savetf2","steam_id":76561198005214207,"connected_time":915000000000,"state":"active","ping":59},{"user_id":141,"name":"Note","steam_id":76561198408747483,"connected_time":283000000000,"state":"active","ping":75},{"user_id":91,"name":"Sean Bae","steam_id":76561198036909521,"connected_time":3670000000000,"state":"active","ping":76},{"user_id":130,"name":"trollgenier","steam_id":76561198882404753,"connected_time":869000000000,"state":"active","ping":77},{"user_id":123,"name":"ElChuchoXf","steam_id":76561199235124146,"connected_time":1442000000000,"state":"active","ping":152},{"user_id":112,"name":"EmeraldCola","steam_id":76561198066663687,"connected_time":2189000000000,"state":"active","ping":68},{"user_id":100,"name":"A Sun","steam_id":76561198142545364,"connected_time":2450000000000,"state":"active","ping":69},{"user_id":131,"name":"Elora","steam_id":76561198040510572,"connected_time":824000000000,"state":"active","ping":139},{"user_id":132,"name":"OneManEnsemble","steam_id":76561198200890163,"connected_time":816000000000,"state":"active","ping":78},{"user_id":110,"name":"MrDarthMatt","steam_id":76561198043365882,"connected_time":2315000000000,"state":"active","ping":70},{"user_id":134,"name":"Eggnog","steam_id":76561198122399882,"connected_time":808000000000,"state":"active","ping":74},{"user_id":140,"name":"Gigabars","steam_id":76561198119267479,"connected_time":343000000000,"state":"active","ping":67},{"user_id":142,"name":"Axalu","steam_id":76561198357616679,"connected_time":269000000000,"state":"active","ping":98},{"user_id":93,"name":"Gomba","steam_id":76561198186115035,"connected_time":3658000000000,"state":"active","ping":60},{"user_id":127,"name":"zozo","steam_id":76561198332612319,"connected_time":1029000000000,"state":"active","ping":58},{"user_id":83,"name":"blitzkriiegi","steam_id":76561198200944766,"connected_time":3971000000000,"state":"active","ping":49},{"user_id":119,"name":"BD[PL]","steam_id":76561198115995871,"connected_time":1766000000000,"state":"active","ping":155},{"user_id":101,"name":"Fig Issac Newton","steam_id":76561198202149924,"connected_time":2449000000000,"state":"active","ping":87},{"user_id":137,"name":"St. Arnold of Soissons","steam_id":76561197974133892,"connected_time":691000000000,"state":"active","ping":81},{"user_id":138,"name":"Scita","steam_id":76561198066861559,"connected_time":552000000000,"state":"active","ping":76},{"user_id":124,"name":"Kng","steam_id":76561198993248203,"connected_time":1364000000000,"state":"active","ping":95},{"user_id":136,"name":"dr sex, md (sexologist)","steam_id":76561198115874625,"connected_time":759000000000,"state":"active","ping":68},{"user_id":116,"name":"keffers","steam_id":76561198202338796,"connected_time":2074000000000,"state":"active","ping":77}]},{"server_id":36,"name":"Uncletopia | Chicago | 5 | All Maps","name_short":"chi-5","host":"chi-2.us.uncletopia.com","port":27015,"enabled":true,"region":"us-central","cc":"us","latitude":41.881832,"longitude":-87.62318,"reserved":0,"last_update":"0001-01-01T00:00:00Z","name_a2s":"Uncletopia | Chicago | 5 | All Maps","protocol":17,"map":"pl_upward","folder":"tf","game":"Team Fortress","app_id":440,"player_count":23,"max_players":24,"Bots":0,"server_type":"Dedicated","server_os":"Linux","password":true,"vac":true,"version":"7882260","steam_id":85568392924866362,"keywords":["nocrits","nodmgspread","payload","uncletopia"],"game_id":440,"stv_port":27016,"stv_name":"Uncletopia | Chicago | 5 | All Maps | STV","players":[{"user_id":104,"name":"WhiteRabbit","steam_id":76561198027579538,"connected_time":3875000000000,"state":"active","ping":68},{"user_id":143,"name":"Tavros","steam_id":76561198297961039,"connected_time":951000000000,"state":"active","ping":98},{"user_id":158,"name":"lifted tater","steam_id":76561198404564240,"connected_time":11000000000,"state":"spawning","ping":61},{"user_id":108,"name":"Hammerhead","steam_id":76561198897122890,"connected_time":3405000000000,"state":"active","ping":55},{"user_id":144,"name":"ChillSasquatch","steam_id":76561198068408798,"connected_time":937000000000,"state":"active","ping":64},{"user_id":124,"name":"Also Known As Assteeth","steam_id":76561198049837377,"connected_time":1392000000000,"state":"active","ping":48},{"user_id":126,"name":"Lifial","steam_id":76561198271885819,"connected_time":1366000000000,"state":"active","ping":77},{"user_id":127,"name":"carrot cake","steam_id":76561198055174915,"connected_time":1363000000000,"state":"active","ping":70},{"user_id":140,"name":"Sectus","steam_id":76561198034616577,"connected_time":1034000000000,"state":"active","ping":47},{"user_id":51,"name":"[DEEP] Danmar33","steam_id":76561198056453091,"connected_time":8500000000000,"state":"active","ping":45},{"user_id":153,"name":"[TSG] Turner's Chocolate Milk","steam_id":76561198058963288,"connected_time":195000000000,"state":"active","ping":71},{"user_id":155,"name":"soundwave | sfm comms open!","steam_id":76561198454725718,"connected_time":56000000000,"state":"active","ping":48},{"user_id":130,"name":"Dawnstar","steam_id":76561198280876456,"connected_time":1303000000000,"state":"active","ping":81},{"user_id":151,"name":"weed","steam_id":76561199128192017,"connected_time":263000000000,"state":"active","ping":102},{"user_id":131,"name":"FIRE WIZARD","steam_id":76561198046115688,"connected_time":1262000000000,"state":"active","ping":62},{"user_id":132,"name":"blackout","steam_id":76561198101487802,"connected_time":1253000000000,"state":"active","ping":78},{"user_id":133,"name":"The Killer","steam_id":76561198313536233,"connected_time":1216000000000,"state":"active","ping":88},{"user_id":156,"name":"GingaNinja","steam_id":76561198048984325,"connected_time":54000000000,"state":"active","ping":56},{"user_id":136,"name":"anoobis","steam_id":76561199120731573,"connected_time":1132000000000,"state":"active","ping":72},{"user_id":154,"name":"thug shaker","steam_id":76561199207457676,"connected_time":138000000000,"state":"active","ping":87},{"user_id":157,"name":"chunguspilled","steam_id":76561198263122601,"connected_time":54000000000,"state":"active","ping":54},{"user_id":141,"name":"sxl #PLAYOFFSMODE","steam_id":76561198150627999,"connected_time":1026000000000,"state":"active","ping":85},{"user_id":49,"name":"[DEEP] Fitts1099","steam_id":76561198044986906,"connected_time":8982000000000,"state":"active","ping":49}]},{"server_id":37,"name":"Uncletopia | Chicago | 6 | All Maps","name_short":"chi-6","host":"chi-2.us.uncletopia.com","port":27025,"enabled":true,"region":"us-central","cc":"us","latitude":41.881832,"longitude":-87.62318,"reserved":0,"last_update":"0001-01-01T00:00:00Z","name_a2s":"Uncletopia | Chicago | 6 | All Maps","protocol":17,"map":"cp_altitude","folder":"tf","game":"Team Fortress","app_id":440,"player_count":24,"max_players":24,"Bots":0,"server_type":"Dedicated","server_os":"Linux","password":true,"vac":true,"version":"7882260","steam_id":85568392924866363,"keywords":["cp","nocrits","nodmgspread","uncletopia"],"game_id":440,"stv_port":27026,"stv_name":"Uncletopia | Chicago | 6 | All Maps | STV","players":[{"user_id":185,"name":"glowskull","steam_id":76561198013650292,"connected_time":177000000000,"state":"active","ping":109},{"user_id":158,"name":"cass","steam_id":76561198074502046,"connected_time":2253000000000,"state":"active","ping":105},{"user_id":144,"name":"msay","steam_id":76561198170888029,"connected_time":3667000000000,"state":"active","ping":90},{"user_id":179,"name":"Joey Lemons","steam_id":76561198068104187,"connected_time":382000000000,"state":"active","ping":41},{"user_id":183,"name":"Mops","steam_id":76561198058213741,"connected_time":285000000000,"state":"active","ping":63},{"user_id":184,"name":"kiv","steam_id":76561198838223023,"connected_time":251000000000,"state":"active","ping":51},{"user_id":175,"name":"toastman","steam_id":76561198207073088,"connected_time":855000000000,"state":"active","ping":96},{"user_id":174,"name":"helen keller","steam_id":76561197979870540,"connected_time":925000000000,"state":"active","ping":40},{"user_id":154,"name":"V!CT!M","steam_id":76561198962721502,"connected_time":2440000000000,"state":"active","ping":87},{"user_id":182,"name":"dino","steam_id":76561198072302537,"connected_time":363000000000,"state":"active","ping":55},{"user_id":163,"name":"Trollamoo","steam_id":76561198865767224,"connected_time":2209000000000,"state":"active","ping":48},{"user_id":172,"name":"FurryNates","steam_id":76561199085192881,"connected_time":1134000000000,"state":"active","ping":96},{"user_id":186,"name":"Punkin","steam_id":76561198334301755,"connected_time":130000000000,"state":"active","ping":68},{"user_id":133,"name":"Houston Calls","steam_id":76561197972316120,"connected_time":4772000000000,"state":"active","ping":67},{"user_id":187,"name":"its a doggy dog world","steam_id":76561198063064857,"connected_time":86000000000,"state":"active","ping":78},{"user_id":177,"name":"John West","steam_id":76561198018783676,"connected_time":527000000000,"state":"active","ping":99},{"user_id":130,"name":"we're so back","steam_id":76561198058485742,"connected_time":5353000000000,"state":"active","ping":95},{"user_id":153,"name":"bee","steam_id":76561198178015361,"connected_time":2516000000000,"state":"active","ping":59},{"user_id":176,"name":"eggo","steam_id":76561198105515914,"connected_time":814000000000,"state":"active","ping":51},{"user_id":173,"name":"trash juice","steam_id":76561198206662152,"connected_time":1128000000000,"state":"active","ping":83},{"user_id":152,"name":"--_Cook_--","steam_id":76561198080855748,"connected_time":2602000000000,"state":"active","ping":47},{"user_id":168,"name":"Wiscipline","steam_id":76561198019206178,"connected_time":2098000000000,"state":"active","ping":80},{"user_id":181,"name":"blank","steam_id":76561198105529673,"connected_time":368000000000,"state":"active","ping":91},{"user_id":170,"name":"Horse","steam_id":76561198004583631,"connected_time":1795000000000,"state":"active","ping":76}]},{"server_id":38,"name":"Uncletopia | Chicago | 7 | Stopwatch Beta","name_short":"chi-7","host":"chi-2.us.uncletopia.com","port":27035,"enabled":true,"region":"us-central","cc":"us","latitude":41.881832,"longitude":-87.62318,"reserved":0,"last_update":"0001-01-01T00:00:00Z","name_a2s":"Uncletopia | Chicago | 7 | Stopwatch Beta","protocol":17,"map":"pl_upward","folder":"tf","game":"Team Fortress","app_id":440,"player_count":0,"max_players":24,"Bots":0,"server_type":"Dedicated","server_os":"Linux","password":true,"vac":true,"version":"7882260","steam_id":85568392924866364,"keywords":["nocrits","nodmgspread","payload","uncletopia"],"game_id":440,"stv_port":27036,"stv_name":"Uncletopia | Chicago | 7 | Stopwatch Beta | STV","players":null},{"server_id":39,"name":"Uncletopia | Chicago | 8 | Community","name_short":"chi-8","host":"chi-2.us.uncletopia.com","port":27045,"enabled":true,"region":"us-central","cc":"us","latitude":41.881832,"longitude":-87.62318,"reserved":0,"last_update":"0001-01-01T00:00:00Z","name_a2s":"Uncletopia | Chicago | 8 | Community","protocol":17,"map":"workshop/pl_eruption_b9a.ugc2807898013","folder":"tf","game":"Team Fortress","app_id":440,"player_count":11,"max_players":24,"Bots":0,"server_type":"Dedicated","server_os":"Linux","password":true,"vac":true,"version":"7882260","steam_id":85568392924866365,"keywords":["nocrits","nodmgspread","payload","uncletopia"],"game_id":440,"stv_port":27046,"stv_name":"Uncletopia | Chicago | 8 | Community | STV","players":[{"user_id":7,"name":"Jade Greenleaf","steam_id":76561198304845413,"connected_time":2890000000000,"state":"active","ping":89},{"user_id":8,"name":"RefriedToast","steam_id":76561198166187853,"connected_time":2889000000000,"state":"active","ping":81},{"user_id":9,"name":"RollForGoose","steam_id":76561198258392559,"connected_time":2877000000000,"state":"active","ping":74},{"user_id":19,"name":"JACOB","steam_id":76561198211874895,"connected_time":481000000000,"state":"active","ping":75},{"user_id":24,"name":"Aeonspassed","steam_id":76561198014016451,"connected_time":202000000000,"state":"active","ping":55},{"user_id":13,"name":"max0r4axor","steam_id":76561197997380581,"connected_time":1754000000000,"state":"active","ping":82},{"user_id":23,"name":"Glowie Gus","steam_id":76561198047809106,"connected_time":210000000000,"state":"active","ping":99},{"user_id":21,"name":"JimFrel","steam_id":76561199476029852,"connected_time":451000000000,"state":"active","ping":99},{"user_id":25,"name":"Help! I'm Underwater!","steam_id":76561198030291655,"connected_time":193000000000,"state":"active","ping":44},{"user_id":26,"name":"Ritzy","steam_id":76561198381955342,"connected_time":182000000000,"state":"active","ping":134},{"user_id":27,"name":"PyroTechno","steam_id":76561198060929872,"connected_time":136000000000,"state":"active","ping":57}]},{"server_id":8,"name":"Uncletopia | Dallas | 1 | All Maps","name_short":"dal-1","host":"dal-1.us.uncletopia.com","port":27015,"enabled":true,"region":"us-central","cc":"us","latitude":32.779167,"longitude":-96.80889,"reserved":0,"last_update":"0001-01-01T00:00:00Z","name_a2s":"Uncletopia | Dallas | 1 | All Maps","protocol":17,"map":"pl_upward","folder":"tf","game":"Team Fortress","app_id":440,"player_count":24,"max_players":24,"Bots":0,"server_type":"Dedicated","server_os":"Linux","password":true,"vac":true,"version":"7882260","steam_id":85568392924469986,"keywords":["nocrits","nodmgspread","payload","uncletopia"],"game_id":440,"stv_port":27016,"stv_name":"Uncletopia | Dallas | 1 | All Maps | STV","players":[{"user_id":311,"name":"rmx^-^","steam_id":76561197961779026,"connected_time":1089000000000,"state":"active","ping":79},{"user_id":317,"name":"The_Epic_Conclusion","steam_id":76561198084250179,"connected_time":665000000000,"state":"active","ping":85},{"user_id":234,"name":"MellowBoy-2354","steam_id":76561199080630632,"connected_time":6682000000000,"state":"active","ping":95},{"user_id":269,"name":"Grumby","steam_id":76561198149175262,"connected_time":4609000000000,"state":"active","ping":56},{"user_id":289,"name":"NeptuneÀñ‚Å∫ÔΩ°Àö‚ãÜÀô‚ô•","steam_id":76561199054203198,"connected_time":2981000000000,"state":"active","ping":70},{"user_id":295,"name":"Pinetree w/ apples.","steam_id":76561198105411709,"connected_time":2029000000000,"state":"active","ping":107},{"user_id":326,"name":"Ferruco:3","steam_id":76561198431714229,"connected_time":82000000000,"state":"active","ping":62},{"user_id":302,"name":"James $pleen","steam_id":76561198206402815,"connected_time":1542000000000,"state":"active","ping":63},{"user_id":306,"name":"doug757","steam_id":76561198020534493,"connected_time":1469000000000,"state":"active","ping":90},{"user_id":312,"name":"dreams","steam_id":76561198225664572,"connected_time":1061000000000,"state":"active","ping":99},{"user_id":319,"name":"Wolverine Fingerblaster","steam_id":76561198095394582,"connected_time":573000000000,"state":"active","ping":60},{"user_id":313,"name":"Orange Triangle","steam_id":76561198320498182,"connected_time":1009000000000,"state":"active","ping":78},{"user_id":293,"name":"I am a mooshroom","steam_id":76561198104198295,"connected_time":2433000000000,"state":"active","ping":61},{"user_id":321,"name":"me","steam_id":76561198026281887,"connected_time":524000000000,"state":"active","ping":72},{"user_id":281,"name":"·ï¶(√≤_√≥Àá)·ï§","steam_id":76561198072646165,"connected_time":3927000000000,"state":"active","ping":81},{"user_id":285,"name":"WAT","steam_id":76561198941203517,"connected_time":3483000000000,"state":"active","ping":167},{"user_id":286,"name":"your little goofy homie","steam_id":76561198967158026,"connected_time":3481000000000,"state":"active","ping":82},{"user_id":301,"name":"Fuzzy Joe","steam_id":76561198427333656,"connected_time":1705000000000,"state":"active","ping":52},{"user_id":299,"name":"GamerMan","steam_id":76561199058616824,"connected_time":1905000000000,"state":"active","ping":75},{"user_id":328,"name":"cxcn","steam_id":76561199215821942,"connected_time":57000000000,"state":"active","ping":46},{"user_id":300,"name":"the private","steam_id":76561198232500756,"connected_time":1820000000000,"state":"active","ping":60},{"user_id":325,"name":"lil homie gay ass","steam_id":76561198044804626,"connected_time":145000000000,"state":"active","ping":61},{"user_id":329,"name":"Underwear Monster","steam_id":76561198175742775,"connected_time":22000000000,"state":"spawning","ping":81},{"user_id":316,"name":"tyg","steam_id":76561198056246867,"connected_time":696000000000,"state":"active","ping":89}]},{"server_id":108,"name":"Uncletopia | Dallas | 2 | All Maps","name_short":"dal-2","host":"dal-1.us.uncletopia.com","port":27025,"enabled":true,"region":"us-central","cc":"us","latitude":32.779167,"longitude":-96.80889,"reserved":0,"last_update":"0001-01-01T00:00:00Z","name_a2s":"Uncletopia | Dallas | 2 | All Maps","protocol":17,"map":"cp_gorge","folder":"tf","game":"Team Fortress","app_id":440,"player_count":22,"max_players":24,"Bots":0,"server_type":"Dedicated","server_os":"Linux","password":true,"vac":true,"version":"7882260","steam_id":85568392924469988,"keywords":["cp","nocrits","nodmgspread","uncletopia"],"game_id":440,"stv_port":27026,"stv_name":"Uncletopia | Dallas | 2 | All Maps | STV","players":[{"user_id":118,"name":"Phosu","steam_id":76561198180162801,"connected_time":1673000000000,"state":"active","ping":61},{"user_id":94,"name":"TheGhostThatWas","steam_id":76561198055836483,"connected_time":4509000000000,"state":"active","ping":75},{"user_id":135,"name":"TheRycard","steam_id":76561198054273996,"connected_time":53000000000,"state":"spawning","ping":42},{"user_id":103,"name":"The World's Softest Sandwich","steam_id":76561198015577707,"connected_time":3019000000000,"state":"active","ping":71},{"user_id":25,"name":"Fresh Lychee","steam_id":76561198045399559,"connected_time":9899000000000,"state":"active","ping":74},{"user_id":112,"name":"Corpse01","steam_id":76561198153671643,"connected_time":1891000000000,"state":"active","ping":75},{"user_id":110,"name":"Arc","steam_id":76561198057246982,"connected_time":1976000000000,"state":"active","ping":50},{"user_id":131,"name":"An Unhappy Clown","steam_id":76561198175516514,"connected_time":919000000000,"state":"active","ping":45},{"user_id":136,"name":"Emder","steam_id":76561198260747931,"connected_time":23000000000,"state":"active","ping":78},{"user_id":39,"name":"Bullwinkle J. Moose","steam_id":76561198075977196,"connected_time":7913000000000,"state":"active","ping":47},{"user_id":117,"name":"Uncle Dave","steam_id":76561198948815060,"connected_time":1716000000000,"state":"active","ping":75},{"user_id":127,"name":"ÍùöhŒØ·µ∞‚±∑","steam_id":76561197993123461,"connected_time":1280000000000,"state":"active","ping":83},{"user_id":129,"name":"Sableye","steam_id":76561198061247147,"connected_time":1115000000000,"state":"active","ping":73},{"user_id":124,"name":"Byte The Protogen","steam_id":76561199229871383,"connected_time":1390000000000,"state":"active","ping":81},{"user_id":130,"name":"Genius Meme","steam_id":76561198162911254,"connected_time":955000000000,"state":"active","ping":72},{"user_id":49,"name":"penguinever0","steam_id":76561198882179246,"connected_time":7685000000000,"state":"active","ping":56},{"user_id":132,"name":"NGsterson","steam_id":76561198162108154,"connected_time":835000000000,"state":"active","ping":100},{"user_id":51,"name":"Hulkminecraft3","steam_id":76561199130252428,"connected_time":7675000000000,"state":"active","ping":75},{"user_id":57,"name":"Lolxdloldx","steam_id":76561198136887125,"connected_time":7493000000000,"state":"active","ping":100},{"user_id":122,"name":"0x01FE","steam_id":76561198838881917,"connected_time":1540000000000,"state":"active","ping":63},{"user_id":123,"name":"Hottodoggu","steam_id":76561198084080712,"connected_time":1430000000000,"state":"active","ping":143},{"user_id":61,"name":"Hamburgerfan123","steam_id":76561199160718388,"connected_time":6760000000000,"state":"active","ping":46}]},{"server_id":5,"name":"Uncletopia | Frankfurt | 1 | All Maps","name_short":"frk-1","host":"frk-1.de.uncletopia.com","port":27015,"enabled":true,"region":"eu","cc":"de","latitude":50.110924,"longitude":8.682127,"reserved":0,"last_update":"0001-01-01T00:00:00Z","name_a2s":"Uncletopia | Frankfurt | 1 | All Maps","protocol":17,"map":"pl_upward","folder":"tf","game":"Team Fortress","app_id":440,"player_count":20,"max_players":24,"Bots":0,"server_type":"Dedicated","server_os":"Linux","password":true,"vac":true,"version":"7882260","steam_id":85568392924469989,"keywords":["nocrits","nodmgspread","payload","uncletopia"],"game_id":440,"stv_port":27016,"stv_name":"Uncletopia | Frankfurt | 1 | All Maps | STV","players":[{"user_id":484,"name":"crolee","steam_id":76561198865817316,"connected_time":1016000000000,"state":"active","ping":52},{"user_id":453,"name":"Engi-NearingMyFcknLimit","steam_id":76561198165732391,"connected_time":3171000000000,"state":"active","ping":97},{"user_id":495,"name":"Niko","steam_id":76561199006295285,"connected_time":88000000000,"state":"active","ping":77},{"user_id":493,"name":"Try finger, but hole","steam_id":76561198189553021,"connected_time":132000000000,"state":"active","ping":73},{"user_id":496,"name":"Mewdica","steam_id":76561199081625951,"connected_time":67000000000,"state":"active","ping":72},{"user_id":494,"name":"FoOzTV","steam_id":76561197998636728,"connected_time":115000000000,"state":"active","ping":69},{"user_id":485,"name":"proph","steam_id":76561197998803950,"connected_time":997000000000,"state":"active","ping":52},{"user_id":465,"name":"Timpanojnoj","steam_id":76561197970334448,"connected_time":2128000000000,"state":"active","ping":75},{"user_id":497,"name":"Sheer Heart Attack","steam_id":76561198333119104,"connected_time":47000000000,"state":"active","ping":111},{"user_id":448,"name":"s a i","steam_id":76561197970379754,"connected_time":3225000000000,"state":"active","ping":53},{"user_id":486,"name":"sup3rfr3ddy.","steam_id":76561198119371683,"connected_time":991000000000,"state":"active","ping":49},{"user_id":498,"name":"hai","steam_id":76561198074743037,"connected_time":41000000000,"state":"active","ping":61},{"user_id":499,"name":"Pascal Darras","steam_id":76561198052136478,"connected_time":0,"state":"spawning","ping":28},{"user_id":490,"name":"dunduu","steam_id":76561198875240717,"connected_time":732000000000,"state":"active","ping":61},{"user_id":491,"name":"LionKing","steam_id":76561198023399545,"connected_time":359000000000,"state":"active","ping":45},{"user_id":417,"name":"NO end to POOTIS","steam_id":76561198144879361,"connected_time":4955000000000,"state":"active","ping":120},{"user_id":488,"name":"Aleknat","steam_id":76561198055379857,"connected_time":989000000000,"state":"active","ping":67},{"user_id":451,"name":"DENZ3L","steam_id":76561198121892767,"connected_time":3211000000000,"state":"active","ping":78},{"user_id":452,"name":"zsonyik :^D","steam_id":76561198180119047,"connected_time":3193000000000,"state":"active","ping":78},{"user_id":492,"name":"ptsd","steam_id":76561199382587543,"connected_time":270000000000,"state":"active","ping":57}]},{"server_id":110,"name":"Uncletopia | Frankfurt | 2 | All Maps","name_short":"frk-2","host":"frk-1.de.uncletopia.com","port":27025,"enabled":true,"region":"eu","cc":"de","latitude":50.110924,"longitude":8.682127,"reserved":0,"last_update":"0001-01-01T00:00:00Z","name_a2s":"Uncletopia | Frankfurt | 2 | All Maps","protocol":17,"map":"pl_borneo","folder":"tf","game":"Team Fortress","app_id":440,"player_count":24,"max_players":24,"Bots":0,"server_type":"Dedicated","server_os":"Linux","password":true,"vac":true,"version":"7882260","steam_id":85568392924469990,"keywords":["nocrits","nodmgspread","payload","uncletopia"],"game_id":440,"stv_port":27026,"stv_name":"Uncletopia | Frankfurt | 2 | All Maps | STV","players":[{"user_id":357,"name":"MrLroy","steam_id":76561199053452683,"connected_time":3849000000000,"state":"active","ping":61},{"user_id":412,"name":"EastmoreRandoms.","steam_id":76561198048921203,"connected_time":1423000000000,"state":"active","ping":80},{"user_id":405,"name":"finbar","steam_id":76561198056812396,"connected_time":1664000000000,"state":"active","ping":75},{"user_id":403,"name":"Kukuruza","steam_id":76561198288516336,"connected_time":1714000000000,"state":"active","ping":78},{"user_id":401,"name":"Qwertuss","steam_id":76561198026305366,"connected_time":1776000000000,"state":"active","ping":58},{"user_id":416,"name":"cruza","steam_id":76561198827453907,"connected_time":1254000000000,"state":"active","ping":64},{"user_id":421,"name":"Laxslow","steam_id":76561198065361846,"connected_time":353000000000,"state":"active","ping":56},{"user_id":391,"name":"supercharger832","steam_id":76561198871408515,"connected_time":2002000000000,"state":"active","ping":63},{"user_id":417,"name":"MC","steam_id":76561198051729499,"connected_time":1156000000000,"state":"active","ping":62},{"user_id":420,"name":"S.V.I.L.A.R","steam_id":76561198828348612,"connected_time":763000000000,"state":"active","ping":101},{"user_id":368,"name":"Gray","steam_id":76561198185977442,"connected_time":3403000000000,"state":"active","ping":97},{"user_id":399,"name":"wvwaxhtp","steam_id":76561198237038646,"connected_time":1802000000000,"state":"active","ping":65},{"user_id":411,"name":"{TPF}Badaabing","steam_id":76561197996161449,"connected_time":1529000000000,"state":"active","ping":56},{"user_id":415,"name":"Hazisher","steam_id":76561199244861836,"connected_time":1364000000000,"state":"active","ping":109},{"user_id":410,"name":"Fizz","steam_id":76561197994814990,"connected_time":1608000000000,"state":"active","ping":208},{"user_id":430,"name":"Accident","steam_id":76561198115160396,"connected_time":169000000000,"state":"active","ping":72},{"user_id":347,"name":"Gryoss","steam_id":76561197999837111,"connected_time":4718000000000,"state":"active","ping":95},{"user_id":407,"name":"Syd","steam_id":76561198020515027,"connected_time":1658000000000,"state":"active","ping":70},{"user_id":419,"name":"Skatnaset","steam_id":76561198298457353,"connected_time":1049000000000,"state":"active","ping":84},{"user_id":266,"name":"Waltcha","steam_id":76561198007691468,"connected_time":9980000000000,"state":"active","ping":61},{"user_id":424,"name":"Peaky Blinder","steam_id":76561198979874772,"connected_time":342000000000,"state":"active","ping":71},{"user_id":353,"name":"SVNSS","steam_id":76561198802056171,"connected_time":4367000000000,"state":"active","ping":60},{"user_id":408,"name":"SPOOKY_","steam_id":76561198073395404,"connected_time":1637000000000,"state":"active","ping":79},{"user_id":427,"name":"Sexsmith","steam_id":76561197992927989,"connected_time":307000000000,"state":"active","ping":94}]},{"server_id":308,"name":"Uncletopia | Frankfurt | 3 | All Maps","name_short":"frk-3","host":"frk-1.de.uncletopia.com","port":27035,"enabled":true,"region":"eu","cc":"de","latitude":50.110924,"longitude":8.682127,"reserved":0,"last_update":"0001-01-01T00:00:00Z","name_a2s":"Uncletopia | Frankfurt | 3 | All Maps","protocol":17,"map":"cp_dustbowl","folder":"tf","game":"Team Fortress","app_id":440,"player_count":24,"max_players":24,"Bots":0,"server_type":"Dedicated","server_os":"Linux","password":true,"vac":true,"version":"7882260","steam_id":85568392924504274,"keywords":["cp","nocrits","nodmgspread","uncletopia"],"game_id":440,"stv_port":27036,"stv_name":"Uncletopia | Frankfurt | 3 | All Maps | STV","players":[{"user_id":536,"name":"The Lord William Campbell","steam_id":76561198105442559,"connected_time":5719000000000,"state":"active","ping":63},{"user_id":617,"name":"FNF","steam_id":76561199151422826,"connected_time":999000000000,"state":"active","ping":121},{"user_id":588,"name":"1couver","steam_id":76561198168553215,"connected_time":2850000000000,"state":"active","ping":94},{"user_id":607,"name":"Raingnome Noir","steam_id":76561198007394958,"connected_time":1209000000000,"state":"active","ping":64},{"user_id":608,"name":"Genesis","steam_id":76561198999652040,"connected_time":1208000000000,"state":"active","ping":45},{"user_id":613,"name":"Minister of cocks","steam_id":76561198829740342,"connected_time":1135000000000,"state":"active","ping":81},{"user_id":614,"name":"smile","steam_id":76561198365841841,"connected_time":1087000000000,"state":"active","ping":76},{"user_id":609,"name":"gosi","steam_id":76561198084111532,"connected_time":1202000000000,"state":"active","ping":57},{"user_id":611,"name":"jawA","steam_id":76561198070341774,"connected_time":1164000000000,"state":"active","ping":75},{"user_id":593,"name":"a bullet","steam_id":76561198809248362,"connected_time":2717000000000,"state":"active","ping":81},{"user_id":604,"name":"Akis—è–Ω","steam_id":76561198078706435,"connected_time":1490000000000,"state":"active","ping":70},{"user_id":584,"name":"xValio","steam_id":76561198810336151,"connected_time":3380000000000,"state":"active","ping":75},{"user_id":603,"name":"Ziemniaczki z koperkiem","steam_id":76561198829123464,"connected_time":1701000000000,"state":"active","ping":80},{"user_id":583,"name":"Papel","steam_id":76561199198176879,"connected_time":3398000000000,"state":"active","ping":64},{"user_id":615,"name":"arcticcu","steam_id":76561198002435882,"connected_time":1073000000000,"state":"active","ping":99},{"user_id":623,"name":"my mom","steam_id":76561199225201569,"connected_time":422000000000,"state":"active","ping":143},{"user_id":586,"name":"c4ctus","steam_id":76561198925655488,"connected_time":3316000000000,"state":"active","ping":94},{"user_id":612,"name":"beandog","steam_id":76561198192431550,"connected_time":1162000000000,"state":"active","ping":76},{"user_id":616,"name":"Tomfool","steam_id":76561197993256481,"connected_time":1051000000000,"state":"active","ping":73},{"user_id":624,"name":"FanFish","steam_id":76561199389558024,"connected_time":400000000000,"state":"active","ping":66},{"user_id":618,"name":"killbind irl","steam_id":76561198180637374,"connected_time":984000000000,"state":"active","ping":85},{"user_id":605,"name":"Spieller","steam_id":76561198057197847,"connected_time":1483000000000,"state":"active","ping":67},{"user_id":622,"name":"British Disapproval","steam_id":76561198001375260,"connected_time":774000000000,"state":"active","ping":71},{"user_id":621,"name":"Sheriff","steam_id":76561197999153301,"connected_time":899000000000,"state":"active","ping":85}]},{"server_id":309,"name":"Uncletopia | Frankfurt | 4 | All Maps","name_short":"frk-4","host":"frk-1.de.uncletopia.com","port":27045,"enabled":true,"region":"eu","cc":"de","latitude":50.110924,"longitude":8.682127,"reserved":0,"last_update":"0001-01-01T00:00:00Z","name_a2s":"Uncletopia | Frankfurt | 4 | All Maps","protocol":17,"map":"pl_pier","folder":"tf","game":"Team Fortress","app_id":440,"player_count":24,"max_players":24,"Bots":0,"server_type":"Dedicated","server_os":"Linux","password":true,"vac":true,"version":"7882260","steam_id":85568392924504275,"keywords":["nocrits","nodmgspread","payload","uncletopia"],"game_id":440,"stv_port":27046,"stv_name":"Uncletopia | Frankfurt | 4 | All Maps | STV","players":[{"user_id":395,"name":"Flyin'BBQ","steam_id":76561198021363070,"connected_time":2038000000000,"state":"active","ping":57},{"user_id":403,"name":"Faking.","steam_id":76561198823540483,"connected_time":1257000000000,"state":"active","ping":71},{"user_id":369,"name":"Hat Lover","steam_id":76561198312283433,"connected_time":3707000000000,"state":"active","ping":84},{"user_id":420,"name":"Thors","steam_id":76561197968739075,"connected_time":450000000000,"state":"active","ping":49},{"user_id":405,"name":"h","steam_id":76561198273551016,"connected_time":1126000000000,"state":"active","ping":61},{"user_id":419,"name":"Holo","steam_id":76561198348567663,"connected_time":550000000000,"state":"active","ping":71},{"user_id":392,"name":"What2eat","steam_id":76561198017985829,"connected_time":2347000000000,"state":"active","ping":45},{"user_id":409,"name":"Â∑ßÂÖãÂäõÂÜ∞Ê∑áÊ∑ã","steam_id":76561198364121077,"connected_time":1039000000000,"state":"active","ping":103},{"user_id":307,"name":"Gaxkang","steam_id":76561198125768571,"connected_time":10011000000000,"state":"active","ping":71},{"user_id":413,"name":"Dr. Le Quack","steam_id":76561197995711176,"connected_time":843000000000,"state":"active","ping":80},{"user_id":388,"name":"zek","steam_id":76561198862763731,"connected_time":2489000000000,"state":"active","ping":57},{"user_id":356,"name":"sunshine (he/him)","steam_id":76561198084597975,"connected_time":5635000000000,"state":"active","ping":66},{"user_id":378,"name":"roblan11","steam_id":76561198066839258,"connected_time":3305000000000,"state":"active","ping":42},{"user_id":363,"name":"Cock Thief","steam_id":76561199213400234,"connected_time":4564000000000,"state":"active","ping":65},{"user_id":406,"name":"Radegast the Brown","steam_id":76561198075489505,"connected_time":1126000000000,"state":"active","ping":56},{"user_id":394,"name":"remi, she wrote.","steam_id":76561198044045655,"connected_time":2280000000000,"state":"active","ping":84},{"user_id":415,"name":"slorp","steam_id":76561198239927434,"connected_time":779000000000,"state":"active","ping":90},{"user_id":401,"name":"Local Capybara","steam_id":76561198388321887,"connected_time":1576000000000,"state":"active","ping":56},{"user_id":361,"name":"Femboypawnguy","steam_id":76561198274894771,"connected_time":5479000000000,"state":"active","ping":54},{"user_id":407,"name":"TPC","steam_id":76561198127380768,"connected_time":1106000000000,"state":"active","ping":80},{"user_id":422,"name":"Maestro_69","steam_id":76561199153246582,"connected_time":145000000000,"state":"active","ping":111},{"user_id":408,"name":"bad farter","steam_id":76561198261853441,"connected_time":1092000000000,"state":"active","ping":60},{"user_id":402,"name":"Racist Buttplug","steam_id":76561198033024160,"connected_time":1280000000000,"state":"active","ping":71},{"user_id":412,"name":"Locke","steam_id":76561198339408300,"connected_time":938000000000,"state":"active","ping":69}]},{"server_id":310,"name":"Uncletopia | Frankfurt | 5 | All Maps","name_short":"frk-5","host":"frk-1.de.uncletopia.com","port":27055,"enabled":true,"region":"eu","cc":"de","latitude":50.110924,"longitude":8.682127,"reserved":0,"last_update":"0001-01-01T00:00:00Z","name_a2s":"Uncletopia | Frankfurt | 5 | All Maps","protocol":17,"map":"pl_borneo","folder":"tf","game":"Team Fortress","app_id":440,"player_count":23,"max_players":24,"Bots":0,"server_type":"Dedicated","server_os":"Linux","password":true,"vac":true,"version":"7882260","steam_id":85568392924504277,"keywords":["nocrits","nodmgspread","payload","uncletopia"],"game_id":440,"stv_port":27056,"stv_name":"Uncletopia | Frankfurt | 5 | All Maps | STV","players":[{"user_id":440,"name":"fregaropa","steam_id":76561198150806166,"connected_time":1943000000000,"state":"active","ping":83},{"user_id":470,"name":"Popop","steam_id":76561198004793795,"connected_time":251000000000,"state":"active","ping":55},{"user_id":425,"name":"Jeerven","steam_id":76561198259189841,"connected_time":3027000000000,"state":"active","ping":60},{"user_id":461,"name":"‚ô• trixy ‚ô•","steam_id":76561199474154775,"connected_time":461000000000,"state":"active","ping":55},{"user_id":449,"name":"Z[p_F]le.cfg","steam_id":76561198003251598,"connected_time":1525000000000,"state":"active","ping":85},{"user_id":467,"name":"TJ1212","steam_id":76561199013575313,"connected_time":304000000000,"state":"active","ping":62},{"user_id":464,"name":"bhalazs","steam_id":76561198248831634,"connected_time":389000000000,"state":"active","ping":70},{"user_id":453,"name":"Kestrel","steam_id":76561198144033005,"connected_time":1382000000000,"state":"active","ping":61},{"user_id":432,"name":"KnugenIV","steam_id":76561198127091993,"connected_time":2624000000000,"state":"active","ping":54},{"user_id":458,"name":"rets","steam_id":76561198061551392,"connected_time":857000000000,"state":"active","ping":56},{"user_id":471,"name":"HARU404","steam_id":76561198964152048,"connected_time":154000000000,"state":"active","ping":97},{"user_id":459,"name":"aGryphoN","steam_id":76561198245175308,"connected_time":520000000000,"state":"active","ping":66},{"user_id":447,"name":"LiterallyRyanGosling","steam_id":76561199017856691,"connected_time":1650000000000,"state":"active","ping":69},{"user_id":450,"name":"Epon","steam_id":76561198021462677,"connected_time":1524000000000,"state":"active","ping":51},{"user_id":436,"name":"After8","steam_id":76561198090750865,"connected_time":2379000000000,"state":"active","ping":62},{"user_id":415,"name":"James Bong","steam_id":76561198297199093,"connected_time":3937000000000,"state":"active","ping":87},{"user_id":469,"name":"Bottle O' Scrumpy","steam_id":76561199244250562,"connected_time":296000000000,"state":"active","ping":104},{"user_id":456,"name":"zilaz","steam_id":76561198416395887,"connected_time":1002000000000,"state":"active","ping":60},{"user_id":463,"name":"K.O.wal","steam_id":76561198317737261,"connected_time":457000000000,"state":"active","ping":56},{"user_id":443,"name":"[T]aKer","steam_id":76561198001778013,"connected_time":1880000000000,"state":"active","ping":55},{"user_id":445,"name":"Koli","steam_id":76561197992428783,"connected_time":1819000000000,"state":"active","ping":54},{"user_id":446,"name":"Random B!tch ‚ô•","steam_id":76561198162858633,"connected_time":1746000000000,"state":"active","ping":81},{"user_id":451,"name":"LemonLeCitron","steam_id":76561198215545267,"connected_time":1524000000000,"state":"active","ping":72}]},{"server_id":311,"name":"Uncletopia | Frankfurt | 6 | All Maps","name_short":"frk-6","host":"frk-1.de.uncletopia.com","port":27065,"enabled":true,"region":"eu","cc":"de","latitude":50.110924,"longitude":8.682127,"reserved":0,"last_update":"0001-01-01T00:00:00Z","name_a2s":"Uncletopia | Frankfurt | 6 | All Maps","protocol":17,"map":"pl_borneo","folder":"tf","game":"Team Fortress","app_id":440,"player_count":22,"max_players":24,"Bots":0,"server_type":"Dedicated","server_os":"Linux","password":true,"vac":true,"version":"7882260","steam_id":85568392924504278,"keywords":["nocrits","nodmgspread","payload","uncletopia"],"game_id":440,"stv_port":27066,"stv_name":"Uncletopia | Frankfurt | 6 | All Maps | STV","players":[{"user_id":331,"name":"muZ","steam_id":76561198060145190,"connected_time":260000000000,"state":"active","ping":48},{"user_id":326,"name":"Sboobs","steam_id":76561198106917849,"connected_time":612000000000,"state":"active","ping":46},{"user_id":305,"name":"Mike","steam_id":76561198228455736,"connected_time":1325000000000,"state":"active","ping":62},{"user_id":314,"name":"[Water Splash]","steam_id":76561198055389492,"connected_time":929000000000,"state":"active","ping":59},{"user_id":308,"name":"Mr_Pulse_","steam_id":76561198095001602,"connected_time":1104000000000,"state":"active","ping":88},{"user_id":313,"name":"QR code 78","steam_id":76561198073749509,"connected_time":969000000000,"state":"active","ping":65},{"user_id":273,"name":"Ink in veins","steam_id":76561199082262091,"connected_time":2324000000000,"state":"active","ping":84},{"user_id":274,"name":"ran is running","steam_id":76561199443185667,"connected_time":2252000000000,"state":"active","ping":139},{"user_id":310,"name":"m1","steam_id":76561198315992853,"connected_time":1009000000000,"state":"active","ping":59},{"user_id":324,"name":"denimchicken","steam_id":76561197989061982,"connected_time":727000000000,"state":"active","ping":76},{"user_id":306,"name":"Playad","steam_id":76561198977412147,"connected_time":1306000000000,"state":"active","ping":59},{"user_id":296,"name":"‚òÅ Lou1smeister ‚òÅ","steam_id":76561198004032968,"connected_time":1673000000000,"state":"active","ping":77},{"user_id":303,"name":"REN","steam_id":76561198000596385,"connected_time":1454000000000,"state":"active","ping":69},{"user_id":332,"name":"Pacyfista Feminista Frutarianin","steam_id":76561198435883762,"connected_time":1000000000,"state":"spawning","ping":55},{"user_id":325,"name":"Pumpkin Pie","steam_id":76561198115230959,"connected_time":663000000000,"state":"active","ping":85},{"user_id":315,"name":"Cabbch","steam_id":76561198045955679,"connected_time":904000000000,"state":"active","ping":48},{"user_id":316,"name":"Bumblebee","steam_id":76561198033551105,"connected_time":895000000000,"state":"active","ping":62},{"user_id":328,"name":"TF2","steam_id":76561198256328990,"connected_time":579000000000,"state":"active","ping":84},{"user_id":297,"name":"ksg","steam_id":76561198042894236,"connected_time":1628000000000,"state":"active","ping":70},{"user_id":330,"name":"Fr1Zer","steam_id":76561198357086270,"connected_time":528000000000,"state":"active","ping":97},{"user_id":301,"name":"Ecton","steam_id":76561198025103720,"connected_time":1589000000000,"state":"active","ping":61},{"user_id":322,"name":"THE Grosser","steam_id":76561197995530666,"connected_time":786000000000,"state":"active","ping":55}]},{"server_id":23,"name":"Uncletopia | Frankfurt | 7 | Stopwatch Beta","name_short":"frk-7","host":"frk-1.de.uncletopia.com","port":27075,"enabled":true,"region":"eu","cc":"de","latitude":50.110924,"longitude":8.682127,"reserved":0,"last_update":"0001-01-01T00:00:00Z","name_a2s":"Uncletopia | Frankfurt | 7 | Stopwatch Beta","protocol":17,"map":"pl_swiftwater_final1","folder":"tf","game":"Team Fortress","app_id":440,"player_count":0,"max_players":24,"Bots":0,"server_type":"Dedicated","server_os":"Linux","password":true,"vac":true,"version":"7882260","steam_id":85568392924742827,"keywords":["nocrits","nodmgspread","payload","uncletopia"],"game_id":440,"stv_port":27076,"stv_name":"Uncletopia | Frankfurt | 7 | Stopwatch Beta | STV","players":null},{"server_id":24,"name":"Uncletopia | Frankfurt | 8 | Community","name_short":"frk-8","host":"frk-1.de.uncletopia.com","port":27085,"enabled":true,"region":"eu","cc":"de","latitude":50.110924,"longitude":8.682127,"reserved":0,"last_update":"0001-01-01T00:00:00Z","name_a2s":"Uncletopia | Frankfurt | 8 | Community","protocol":17,"map":"workshop/koth_kemptown_rc1.ugc767410655","folder":"tf","game":"Team Fortress","app_id":440,"player_count":0,"max_players":24,"Bots":0,"server_type":"Dedicated","server_os":"Linux","password":true,"vac":true,"version":"7882260","steam_id":85568392924742828,"keywords":["cp","nocrits","nodmgspread","uncletopia"],"game_id":440,"stv_port":27086,"stv_name":"Uncletopia | Frankfurt | 8 | Community | STV","players":null},{"server_id":202,"name":"Uncletopia | Hong Kong | 1 | All Maps","name_short":"hgk-1","host":"hgk-1.hk.uncletopia.com","port":27015,"enabled":true,"region":"asia","cc":"hk","latitude":22.302711,"longitude":114.177216,"reserved":0,"last_update":"0001-01-01T00:00:00Z","name_a2s":"Uncletopia | Hong Kong | 1 | All Maps","protocol":17,"map":"pl_badwater","folder":"tf","game":"Team Fortress","app_id":440,"player_count":0,"max_players":24,"Bots":0,"server_type":"Dedicated","server_os":"Linux","password":true,"vac":true,"version":"7882260","steam_id":85568392924494504,"keywords":["nocrits","nodmgspread","payload","uncletopia"],"game_id":440,"stv_port":27016,"stv_name":"Uncletopia | Hong Kong | 1 | All Maps | STV","players":null},{"server_id":1,"name":"Uncletopia | Los Angeles | 1 | All Maps","name_short":"lax-1","host":"lax-1.us.uncletopia.com","port":27015,"enabled":true,"region":"us-west","cc":"us","latitude":33.94279,"longitude":-118.41004,"reserved":0,"last_update":"0001-01-01T00:00:00Z","name_a2s":"Uncletopia | Los Angeles | 1 | All Maps","protocol":17,"map":"pl_pier","folder":"tf","game":"Team Fortress","app_id":440,"player_count":23,"max_players":24,"Bots":0,"server_type":"Dedicated","server_os":"Linux","password":true,"vac":true,"version":"7882260","steam_id":85568392924469991,"keywords":["nocrits","nodmgspread","payload","uncletopia"],"game_id":440,"stv_port":27016,"stv_name":"Uncletopia | Los Angeles | 1 | All Maps | STV","players":[{"user_id":273,"name":"RIP Old Man Chico :(","steam_id":76561198865172720,"connected_time":771000000000,"state":"active","ping":62},{"user_id":260,"name":"Vicpop","steam_id":76561197970531290,"connected_time":1490000000000,"state":"active","ping":87},{"user_id":239,"name":"Meet The Kazoo","steam_id":76561199229748300,"connected_time":4234000000000,"state":"active","ping":54},{"user_id":283,"name":"Walrus","steam_id":76561198001799905,"connected_time":290000000000,"state":"active","ping":47},{"user_id":274,"name":"paint (oil lover)","steam_id":76561199006886644,"connected_time":729000000000,"state":"active","ping":72},{"user_id":281,"name":"MrWaffs","steam_id":76561198968747292,"connected_time":437000000000,"state":"active","ping":51},{"user_id":276,"name":"An00bis","steam_id":76561198044084508,"connected_time":728000000000,"state":"active","ping":45},{"user_id":285,"name":"basmati jarate","steam_id":76561198319442494,"connected_time":26000000000,"state":"active","ping":54},{"user_id":242,"name":"Board","steam_id":76561198134326473,"connected_time":4011000000000,"state":"active","ping":74},{"user_id":221,"name":"Neophyte","steam_id":76561198027183394,"connected_time":5957000000000,"state":"active","ping":90},{"user_id":269,"name":"Gek","steam_id":76561198173468837,"connected_time":818000000000,"state":"active","ping":87},{"user_id":225,"name":"jayzak24","steam_id":76561198354267509,"connected_time":5400000000000,"state":"active","ping":52},{"user_id":279,"name":"Sailor","steam_id":76561199081983517,"connected_time":614000000000,"state":"active","ping":79},{"user_id":257,"name":"cringeass nae-nae girl","steam_id":76561198108753857,"connected_time":2459000000000,"state":"active","ping":99},{"user_id":166,"name":"Snoopy","steam_id":76561198273735974,"connected_time":9592000000000,"state":"active","ping":86},{"user_id":253,"name":"ZeudokNou","steam_id":76561199380408262,"connected_time":2608000000000,"state":"active","ping":89},{"user_id":205,"name":"lasky","steam_id":76561198017030029,"connected_time":6554000000000,"state":"active","ping":67},{"user_id":282,"name":"bballbhuddababyboy","steam_id":76561198079516052,"connected_time":316000000000,"state":"active","ping":48},{"user_id":278,"name":"grape","steam_id":76561197993980328,"connected_time":695000000000,"state":"active","ping":97},{"user_id":284,"name":"kelvin","steam_id":76561198121215313,"connected_time":203000000000,"state":"active","ping":44},{"user_id":280,"name":"yoooooooooo chill","steam_id":76561199100342013,"connected_time":577000000000,"state":"active","ping":47},{"user_id":258,"name":"APOTATO","steam_id":76561198118199858,"connected_time":2449000000000,"state":"active","ping":46},{"user_id":236,"name":"PrimerChase","steam_id":76561198378826131,"connected_time":5003000000000,"state":"active","ping":113}]},{"server_id":112,"name":"Uncletopia | Los Angeles | 2 | All Maps","name_short":"lax-2","host":"lax-1.us.uncletopia.com","port":27025,"enabled":true,"region":"us-west","cc":"us","latitude":33.94279,"longitude":-118.41004,"reserved":0,"last_update":"0001-01-01T00:00:00Z","name_a2s":"Uncletopia | Los Angeles | 2 | All Maps","protocol":17,"map":"pl_swiftwater_final1","folder":"tf","game":"Team Fortress","app_id":440,"player_count":2,"max_players":24,"Bots":0,"server_type":"Dedicated","server_os":"Linux","password":true,"vac":true,"version":"7882260","steam_id":85568392924469992,"keywords":["nocrits","nodmgspread","payload","uncletopia"],"game_id":440,"stv_port":27026,"stv_name":"Uncletopia | Los Angeles | 2 | All Maps | STV","players":[{"user_id":8,"name":"mrzachab0i","steam_id":76561199444911765,"connected_time":1180000000000,"state":"active","ping":86},{"user_id":9,"name":"beans","steam_id":76561199082781884,"connected_time":1005000000000,"state":"active","ping":54}]},{"server_id":324,"name":"Uncletopia | Los Angeles | 3 | All Maps","name_short":"lax-3","host":"lax-1.us.uncletopia.com","port":27035,"enabled":true,"region":"us-west","cc":"us","latitude":33.94279,"longitude":-118.41004,"reserved":0,"last_update":"0001-01-01T00:00:00Z","name_a2s":"Uncletopia | Los Angeles | 3 | All Maps","protocol":17,"map":"pl_pier","folder":"tf","game":"Team Fortress","app_id":440,"player_count":0,"max_players":24,"Bots":0,"server_type":"Dedicated","server_os":"Linux","password":true,"vac":true,"version":"7882260","steam_id":85568392924510198,"keywords":["nocrits","nodmgspread","payload","uncletopia"],"game_id":440,"stv_port":27036,"stv_name":"Uncletopia | Los Angeles | 3 | All Maps | STV","players":null},{"server_id":25,"name":"Uncletopia | Los Angeles | 4 | Stopwatch Beta","name_short":"lax-4","host":"lax-1.us.uncletopia.com","port":27045,"enabled":true,"region":"us-west","cc":"us","latitude":33.94279,"longitude":-118.41004,"reserved":0,"last_update":"0001-01-01T00:00:00Z","name_a2s":"Uncletopia | Los Angeles | 4 | Stopwatch Beta","protocol":17,"map":"koth_viaduct","folder":"tf","game":"Team Fortress","app_id":440,"player_count":0,"max_players":24,"Bots":0,"server_type":"Dedicated","server_os":"Linux","password":true,"vac":true,"version":"7882260","steam_id":85568392924510199,"keywords":["cp","nocrits","nodmgspread","uncletopia"],"game_id":440,"stv_port":27046,"stv_name":"Uncletopia | Los Angeles | 4 | Stopwatch Beta | STV","players":null},{"server_id":11,"name":"Uncletopia | London | 1 | All Maps","name_short":"lon-1","host":"lon-1.uk.uncletopia.com","port":27015,"enabled":true,"region":"eu","cc":"gb","latitude":51.509865,"longitude":-0.118092,"reserved":0,"last_update":"0001-01-01T00:00:00Z","name_a2s":"Uncletopia | London | 1 | All Maps","protocol":17,"map":"pl_barnblitz","folder":"tf","game":"Team Fortress","app_id":440,"player_count":24,"max_players":24,"Bots":0,"server_type":"Dedicated","server_os":"Linux","password":true,"vac":true,"version":"7882260","steam_id":85568392924367362,"keywords":["nocrits","nodmgspread","payload","uncletopia"],"game_id":440,"stv_port":27016,"stv_name":"Uncletopia | London | 1 | All Maps | STV","players":[{"user_id":741,"name":"üòà COCKDESTROYER üòà","steam_id":76561198042846999,"connected_time":1431000000000,"state":"active","ping":75},{"user_id":700,"name":"long crab","steam_id":76561198136239861,"connected_time":3119000000000,"state":"active","ping":52},{"user_id":678,"name":"RLCrazyCat3","steam_id":76561197983757878,"connected_time":3712000000000,"state":"active","ping":61},{"user_id":749,"name":"SERIAL_CODE","steam_id":76561197981488663,"connected_time":874000000000,"state":"active","ping":64},{"user_id":746,"name":"Faustino","steam_id":76561198061771785,"connected_time":1181000000000,"state":"active","ping":83},{"user_id":748,"name":"W","steam_id":76561198273623211,"connected_time":1139000000000,"state":"active","ping":91},{"user_id":754,"name":"Nicolas Eisenstadt","steam_id":76561199213338939,"connected_time":541000000000,"state":"active","ping":144},{"user_id":750,"name":"Desj","steam_id":76561198114212636,"connected_time":576000000000,"state":"active","ping":59},{"user_id":728,"name":"vadr","steam_id":76561198334528186,"connected_time":2481000000000,"state":"active","ping":45},{"user_id":724,"name":"Pelaxis„ÉÑ","steam_id":76561198180030121,"connected_time":2602000000000,"state":"active","ping":93},{"user_id":739,"name":"froglids","steam_id":76561198045466919,"connected_time":1987000000000,"state":"active","ping":74},{"user_id":751,"name":"0lloe","steam_id":76561198070861443,"connected_time":569000000000,"state":"active","ping":53},{"user_id":705,"name":"Mads","steam_id":76561198089261782,"connected_time":3080000000000,"state":"active","ping":73},{"user_id":752,"name":"Dangerousbros","steam_id":76561198088952519,"connected_time":555000000000,"state":"active","ping":34},{"user_id":717,"name":"[PT] Kioto","steam_id":76561198990962542,"connected_time":2869000000000,"state":"active","ping":70},{"user_id":742,"name":"daanvanliempt05","steam_id":76561198355398948,"connected_time":1394000000000,"state":"active","ping":60},{"user_id":744,"name":"[P-roc] Cmm Bert","steam_id":76561198016658674,"connected_time":1345000000000,"state":"active","ping":58},{"user_id":753,"name":"\u003e:3","steam_id":76561198368312026,"connected_time":544000000000,"state":"active","ping":94},{"user_id":726,"name":"le big mac","steam_id":76561199026378253,"connected_time":2520000000000,"state":"active","ping":63},{"user_id":745,"name":"fence_","steam_id":76561198150386379,"connected_time":1277000000000,"state":"active","ping":48},{"user_id":743,"name":"Krefa12","steam_id":76561198268375393,"connected_time":1378000000000,"state":"active","ping":100},{"user_id":730,"name":"Gent","steam_id":76561198037167890,"connected_time":2446000000000,"state":"active","ping":81},{"user_id":757,"name":"Mitsos Dankhouse","steam_id":76561198073753149,"connected_time":232000000000,"state":"active","ping":79},{"user_id":756,"name":"Tywhip","steam_id":76561199207545191,"connected_time":447000000000,"state":"active","ping":59}]},{"server_id":114,"name":"Uncletopia | London | 2 | All Maps","name_short":"lon-2","host":"lon-1.uk.uncletopia.com","port":27025,"enabled":true,"region":"eu","cc":"gb","latitude":51.509865,"longitude":-0.118092,"reserved":0,"last_update":"0001-01-01T00:00:00Z","name_a2s":"Uncletopia | London | 2 | All Maps","protocol":17,"map":"pl_swiftwater_final1","folder":"tf","game":"Team Fortress","app_id":440,"player_count":5,"max_players":24,"Bots":0,"server_type":"Dedicated","server_os":"Linux","password":true,"vac":true,"version":"7882260","steam_id":85568392924470941,"keywords":["nocrits","nodmgspread","payload","uncletopia"],"game_id":440,"stv_port":27026,"stv_name":"Uncletopia | London | 2 | All Maps | STV","players":[{"user_id":41,"name":"Balls","steam_id":76561198086400484,"connected_time":114000000000,"state":"active","ping":58},{"user_id":33,"name":"[Sigilmare] SheepyMcBum","steam_id":76561198027187109,"connected_time":697000000000,"state":"active","ping":56},{"user_id":40,"name":"UnusedEngine","steam_id":76561199281868902,"connected_time":219000000000,"state":"active","ping":40},{"user_id":34,"name":"TheQueenInChess","steam_id":76561199045410906,"connected_time":680000000000,"state":"active","ping":55},{"user_id":35,"name":"ForgeFort","steam_id":76561199438332812,"connected_time":595000000000,"state":"active","ping":117}]},{"server_id":320,"name":"Uncletopia | London | 3 | All Maps","name_short":"lon-3","host":"lon-1.uk.uncletopia.com","port":27035,"enabled":true,"region":"eu","cc":"gb","latitude":51.509865,"longitude":-0.118092,"reserved":0,"last_update":"0001-01-01T00:00:00Z","name_a2s":"Uncletopia | London | 3 | All Maps","protocol":17,"map":"pl_barnblitz","folder":"tf","game":"Team Fortress","app_id":440,"player_count":24,"max_players":24,"Bots":0,"server_type":"Dedicated","server_os":"Linux","password":true,"vac":true,"version":"7882260","steam_id":85568392924510192,"keywords":["nocrits","nodmgspread","payload","uncletopia"],"game_id":440,"stv_port":27036,"stv_name":"Uncletopia | London | 3 | All Maps | STV","players":[{"user_id":160,"name":"rosepinkyfuzz","steam_id":76561198018546334,"connected_time":3005000000000,"state":"active","ping":75},{"user_id":169,"name":"Envy","steam_id":76561198132723219,"connected_time":1511000000000,"state":"active","ping":107},{"user_id":170,"name":"poliakov.noam","steam_id":76561199259322961,"connected_time":1502000000000,"state":"active","ping":101},{"user_id":124,"name":"Miss Bari","steam_id":76561198365286092,"connected_time":5187000000000,"state":"active","ping":38},{"user_id":185,"name":"LarsInABox","steam_id":76561198028329262,"connected_time":244000000000,"state":"active","ping":70},{"user_id":123,"name":"Jon","steam_id":76561199380849468,"connected_time":5226000000000,"state":"active","ping":61},{"user_id":156,"name":"FilipeLuk","steam_id":76561198150675438,"connected_time":3234000000000,"state":"active","ping":69},{"user_id":166,"name":"Son Goku","steam_id":76561199383437138,"connected_time":1794000000000,"state":"active","ping":124},{"user_id":186,"name":"Spurt","steam_id":76561198078523852,"connected_time":235000000000,"state":"active","ping":55},{"user_id":173,"name":"OakenTree","steam_id":76561198162668482,"connected_time":1441000000000,"state":"active","ping":45},{"user_id":152,"name":"Jackie Chan","steam_id":76561199378865926,"connected_time":3388000000000,"state":"active","ping":82},{"user_id":174,"name":"Dolcelatte","steam_id":76561198038501770,"connected_time":1438000000000,"state":"active","ping":60},{"user_id":181,"name":"Elsuedi","steam_id":76561198074722832,"connected_time":1057000000000,"state":"active","ping":60},{"user_id":178,"name":"Pajdog123","steam_id":76561198361873493,"connected_time":1335000000000,"state":"active","ping":45},{"user_id":163,"name":"kharnthebetrayer2002","steam_id":76561199482416509,"connected_time":2130000000000,"state":"active","ping":50},{"user_id":183,"name":"frosty","steam_id":76561198094560834,"connected_time":314000000000,"state":"active","ping":45},{"user_id":150,"name":"elio","steam_id":76561198142662131,"connected_time":3480000000000,"state":"active","ping":70},{"user_id":168,"name":"thebigcheif","steam_id":76561198236015392,"connected_time":1581000000000,"state":"active","ping":119},{"user_id":175,"name":"Sylvanas","steam_id":76561198154904165,"connected_time":1426000000000,"state":"active","ping":113},{"user_id":176,"name":"non-bionicle","steam_id":76561198200633643,"connected_time":1400000000000,"state":"active","ping":180},{"user_id":187,"name":"Chester","steam_id":76561198037913276,"connected_time":202000000000,"state":"active","ping":66},{"user_id":179,"name":"Kahvi","steam_id":76561198723244199,"connected_time":1281000000000,"state":"active","ping":80},{"user_id":118,"name":"Jim Milton","steam_id":76561198055788070,"connected_time":5712000000000,"state":"active","ping":60},{"user_id":159,"name":"ambiwalentna","steam_id":76561199010825303,"connected_time":3057000000000,"state":"active","ping":76}]},{"server_id":321,"name":"Uncletopia | London | 4 | All Maps","name_short":"lon-4","host":"lon-1.uk.uncletopia.com","port":27045,"enabled":true,"region":"eu","cc":"gb","latitude":51.509865,"longitude":-0.118092,"reserved":0,"last_update":"0001-01-01T00:00:00Z","name_a2s":"Uncletopia | London | 4 | All Maps","protocol":17,"map":"pl_badwater","folder":"tf","game":"Team Fortress","app_id":440,"player_count":24,"max_players":24,"Bots":0,"server_type":"Dedicated","server_os":"Linux","password":true,"vac":true,"version":"7882260","steam_id":85568392924510193,"keywords":["nocrits","nodmgspread","payload","uncletopia"],"game_id":440,"stv_port":27046,"stv_name":"Uncletopia | London | 4 | All Maps | STV","players":[{"user_id":581,"name":"i put rocks in your mattress","steam_id":76561198072892783,"connected_time":1971000000000,"state":"active","ping":70},{"user_id":612,"name":"axl#pizdaaim","steam_id":76561198991661832,"connected_time":107000000000,"state":"active","ping":84},{"user_id":595,"name":"ChPerette üéÆ","steam_id":76561198060004887,"connected_time":1593000000000,"state":"active","ping":44},{"user_id":596,"name":"Lethal","steam_id":76561198452042648,"connected_time":1421000000000,"state":"active","ping":70},{"user_id":586,"name":"bitkomet","steam_id":76561198058232147,"connected_time":1810000000000,"state":"active","ping":75},{"user_id":335,"name":"ShellBug","steam_id":76561198144187527,"connected_time":15308000000000,"state":"active","ping":149},{"user_id":551,"name":"rwota","steam_id":76561198385769722,"connected_time":3563000000000,"state":"active","ping":105},{"user_id":605,"name":"Eggcracker","steam_id":76561199274850641,"connected_time":226000000000,"state":"active","ping":74},{"user_id":608,"name":"Lyncurion","steam_id":76561199260022725,"connected_time":141000000000,"state":"active","ping":82},{"user_id":610,"name":"_lootgoblin_","steam_id":76561198029834199,"connected_time":119000000000,"state":"active","ping":88},{"user_id":613,"name":"UNRL","steam_id":76561198167986695,"connected_time":84000000000,"state":"active","ping":60},{"user_id":562,"name":"Thing","steam_id":76561197997904403,"connected_time":2749000000000,"state":"active","ping":94},{"user_id":601,"name":"e36 1.8","steam_id":76561198134203031,"connected_time":551000000000,"state":"active","ping":54},{"user_id":572,"name":"Moonkey","steam_id":76561199013741389,"connected_time":2365000000000,"state":"active","ping":105},{"user_id":579,"name":"‚Ñ≥-√°-∆ä-a","steam_id":76561198359578979,"connected_time":2014000000000,"state":"active","ping":167},{"user_id":609,"name":"Martini","steam_id":76561198086977720,"connected_time":136000000000,"state":"active","ping":85},{"user_id":589,"name":"darkwater","steam_id":76561197986978738,"connected_time":1805000000000,"state":"active","ping":59},{"user_id":611,"name":"quickfast","steam_id":76561199438900919,"connected_time":118000000000,"state":"active","ping":45},{"user_id":566,"name":"UltimateAura","steam_id":76561198338361324,"connected_time":2679000000000,"state":"active","ping":42},{"user_id":598,"name":"Jabussy","steam_id":76561198111148719,"connected_time":977000000000,"state":"active","ping":74},{"user_id":603,"name":"Spliffendor","steam_id":76561198144020209,"connected_time":435000000000,"state":"active","ping":48},{"user_id":606,"name":"sphere","steam_id":76561197971059842,"connected_time":179000000000,"state":"active","ping":38},{"user_id":592,"name":"‚ôÇ Animan ‚ôÇ Studios ‚ôÇ","steam_id":76561198308302932,"connected_time":1774000000000,"state":"active","ping":106},{"user_id":593,"name":"Invoker-sama","steam_id":76561198128470403,"connected_time":1774000000000,"state":"active","ping":121}]},{"server_id":21,"name":"Uncletopia | London | 5 | All Maps","name_short":"lon-5","host":"lon-1.uk.uncletopia.com","port":27055,"enabled":true,"region":"eu","cc":"gb","latitude":51.509865,"longitude":-0.118092,"reserved":0,"last_update":"0001-01-01T00:00:00Z","name_a2s":"Uncletopia | London | 5 | All Maps","protocol":17,"map":"pl_badwater","folder":"tf","game":"Team Fortress","app_id":440,"player_count":24,"max_players":24,"Bots":0,"server_type":"Dedicated","server_os":"Linux","password":true,"vac":true,"version":"7882260","steam_id":85568392924742829,"keywords":["nocrits","nodmgspread","payload","uncletopia"],"game_id":440,"stv_port":27056,"stv_name":"Uncletopia | London | 5 | All Maps | STV","players":[{"user_id":640,"name":"Dr Ultraman","steam_id":76561198060787567,"connected_time":942000000000,"state":"active","ping":70},{"user_id":645,"name":"vadim_kotler","steam_id":76561199016634369,"connected_time":717000000000,"state":"active","ping":112},{"user_id":641,"name":"UselessBrit","steam_id":76561198051346000,"connected_time":928000000000,"state":"active","ping":63},{"user_id":653,"name":"teodor the magic dragon","steam_id":76561198136362697,"connected_time":571000000000,"state":"active","ping":72},{"user_id":655,"name":"Med","steam_id":76561198148359093,"connected_time":525000000000,"state":"active","ping":37},{"user_id":654,"name":"Seron-Lowell","steam_id":76561198070291347,"connected_time":566000000000,"state":"active","ping":57},{"user_id":620,"name":"Udinese Dion","steam_id":76561198067931573,"connected_time":2837000000000,"state":"active","ping":60},{"user_id":616,"name":"Pilaarius","steam_id":76561198120273212,"connected_time":3065000000000,"state":"active","ping":105},{"user_id":621,"name":"flr","steam_id":76561198249327786,"connected_time":2797000000000,"state":"active","ping":75},{"user_id":644,"name":"punchmypotatoes","steam_id":76561198091255731,"connected_time":783000000000,"state":"active","ping":54},{"user_id":589,"name":"Hercules","steam_id":76561198041164170,"connected_time":5248000000000,"state":"active","ping":70},{"user_id":658,"name":"Lumbago","steam_id":76561199186027250,"connected_time":448000000000,"state":"active","ping":56},{"user_id":633,"name":"vurtun","steam_id":76561198857395274,"connected_time":2239000000000,"state":"active","ping":58},{"user_id":595,"name":"SODA!!!!!!!","steam_id":76561198107362485,"connected_time":4881000000000,"state":"active","ping":74},{"user_id":659,"name":"YARrICk.¬´+¬ª","steam_id":76561197990126485,"connected_time":423000000000,"state":"active","ping":59},{"user_id":649,"name":"MozPango","steam_id":76561198083556891,"connected_time":674000000000,"state":"active","ping":90},{"user_id":617,"name":"Bajas","steam_id":76561198179339326,"connected_time":2961000000000,"state":"active","ping":89},{"user_id":608,"name":"tiny carrots with big ambitions","steam_id":76561198069649097,"connected_time":4067000000000,"state":"active","ping":61},{"user_id":639,"name":"NoobfromHell","steam_id":76561198394221491,"connected_time":1467000000000,"state":"active","ping":74},{"user_id":635,"name":"SPONGE","steam_id":76561198040933472,"connected_time":2097000000000,"state":"active","ping":68},{"user_id":634,"name":"Adopted?","steam_id":76561198118667043,"connected_time":2223000000000,"state":"active","ping":44},{"user_id":651,"name":"ev1lboyo","steam_id":76561199199499453,"connected_time":659000000000,"state":"active","ping":79},{"user_id":652,"name":"Rock..","steam_id":76561198004641963,"connected_time":658000000000,"state":"active","ping":85},{"user_id":657,"name":"Na'vi Misato (by popular demand","steam_id":76561198130860698,"connected_time":504000000000,"state":"active","ping":63}]},{"server_id":22,"name":"Uncletopia | London | 6 | All Maps","name_short":"lon-6","host":"lon-1.uk.uncletopia.com","port":27065,"enabled":true,"region":"eu","cc":"gb","latitude":51.509865,"longitude":-0.118092,"reserved":0,"last_update":"0001-01-01T00:00:00Z","name_a2s":"Uncletopia | London | 6 | All Maps","protocol":17,"map":"pl_badwater","folder":"tf","game":"Team Fortress","app_id":440,"player_count":23,"max_players":24,"Bots":0,"server_type":"Dedicated","server_os":"Linux","password":true,"vac":true,"version":"7882260","steam_id":85568392924742830,"keywords":["nocrits","nodmgspread","payload","uncletopia"],"game_id":440,"stv_port":27066,"stv_name":"Uncletopia | London | 6 | All Maps | STV","players":[{"user_id":415,"name":"Camele0pard","steam_id":76561198145191589,"connected_time":2343000000000,"state":"active","ping":74},{"user_id":456,"name":"Ecy","steam_id":76561198110756682,"connected_time":119000000000,"state":"active","ping":52},{"user_id":452,"name":"Michael Raw","steam_id":76561198319181326,"connected_time":191000000000,"state":"active","ping":71},{"user_id":412,"name":"Moth","steam_id":76561198845262365,"connected_time":2641000000000,"state":"active","ping":102},{"user_id":429,"name":"Some Guy","steam_id":76561198137335527,"connected_time":1021000000000,"state":"active","ping":57},{"user_id":424,"name":"F","steam_id":76561199149462792,"connected_time":1472000000000,"state":"active","ping":58},{"user_id":431,"name":"Impressive Knight of Stirling","steam_id":76561197992844841,"connected_time":842000000000,"state":"active","ping":47},{"user_id":457,"name":"Ch0rys","steam_id":76561198314985318,"connected_time":82000000000,"state":"active","ping":61},{"user_id":436,"name":"VBW","steam_id":76561198281405578,"connected_time":613000000000,"state":"active","ping":36},{"user_id":437,"name":"Bego","steam_id":76561199093369711,"connected_time":571000000000,"state":"active","ping":96},{"user_id":438,"name":"Alyosha","steam_id":76561198032771167,"connected_time":543000000000,"state":"active","ping":87},{"user_id":439,"name":"mark of the outsider","steam_id":76561198309246388,"connected_time":499000000000,"state":"active","ping":53},{"user_id":440,"name":"BoBunny McGlitter","steam_id":76561198057403817,"connected_time":492000000000,"state":"active","ping":62},{"user_id":441,"name":"3L","steam_id":76561198007208996,"connected_time":471000000000,"state":"active","ping":57},{"user_id":455,"name":"Andrzej Konieczny","steam_id":76561198087715921,"connected_time":160000000000,"state":"active","ping":74},{"user_id":443,"name":"Mental","steam_id":76561198057117092,"connected_time":461000000000,"state":"active","ping":68},{"user_id":458,"name":"FlukeY","steam_id":76561198026137327,"connected_time":70000000000,"state":"active","ping":65},{"user_id":453,"name":"KODE","steam_id":76561198053212394,"connected_time":188000000000,"state":"active","ping":76},{"user_id":446,"name":"Walrus","steam_id":76561198063217868,"connected_time":399000000000,"state":"active","ping":51},{"user_id":454,"name":"Daan77","steam_id":76561198129940468,"connected_time":167000000000,"state":"active","ping":70},{"user_id":448,"name":"Worcestershire","steam_id":76561197982352114,"connected_time":393000000000,"state":"active","ping":43},{"user_id":449,"name":"Shino247","steam_id":76561199243968485,"connected_time":382000000000,"state":"active","ping":84},{"user_id":451,"name":"Dummy","steam_id":76561198349741126,"connected_time":283000000000,"state":"active","ping":69}]},{"server_id":40,"name":"Uncletopia | London | 7 | No Payload","name_short":"lon-7","host":"lon-1.uk.uncletopia.com","port":27075,"enabled":true,"region":"eu","cc":"gb","latitude":51.509865,"longitude":-0.118092,"reserved":0,"last_update":"0001-01-01T00:00:00Z","name_a2s":"Uncletopia | London | 7 | No Payload","protocol":17,"map":"ctf_2fort","folder":"tf","game":"Team Fortress","app_id":440,"player_count":23,"max_players":24,"Bots":0,"server_type":"Dedicated","server_os":"Linux","password":true,"vac":true,"version":"7882260","steam_id":85568392924964314,"keywords":["ctf","nocrits","nodmgspread","uncletopia"],"game_id":440,"stv_port":27076,"stv_name":"Uncletopia | London | 7 | No Payload | STV","players":[{"user_id":396,"name":"Plep","steam_id":76561198840259819,"connected_time":1505000000000,"state":"active","ping":60},{"user_id":418,"name":"Fofenho (She/They)","steam_id":76561198436817109,"connected_time":105000000000,"state":"active","ping":45},{"user_id":397,"name":"niandits","steam_id":76561198419798900,"connected_time":1451000000000,"state":"active","ping":872},{"user_id":402,"name":"Meryn","steam_id":76561197994118811,"connected_time":1073000000000,"state":"active","ping":66},{"user_id":395,"name":"‚ù§G a n K","steam_id":76561199125995565,"connected_time":1653000000000,"state":"active","ping":65},{"user_id":381,"name":"Endi","steam_id":76561198914938199,"connected_time":2530000000000,"state":"active","ping":101},{"user_id":417,"name":"mlody jimmy","steam_id":76561199487292009,"connected_time":212000000000,"state":"active","ping":76},{"user_id":398,"name":"Rook","steam_id":76561197995204779,"connected_time":1345000000000,"state":"active","ping":43},{"user_id":401,"name":"ScaryTree","steam_id":76561199384362833,"connected_time":1264000000000,"state":"active","ping":53},{"user_id":409,"name":"Cannabis Enjoyer","steam_id":76561198051685232,"connected_time":826000000000,"state":"active","ping":41},{"user_id":400,"name":"The storm that is approaching","steam_id":76561198982155864,"connected_time":1296000000000,"state":"active","ping":72},{"user_id":403,"name":"Frosty","steam_id":76561199055987798,"connected_time":1032000000000,"state":"active","ping":64},{"user_id":404,"name":"Jon","steam_id":76561197983349449,"connected_time":1016000000000,"state":"active","ping":67},{"user_id":419,"name":"Purpurea","steam_id":76561198075376419,"connected_time":92000000000,"state":"spawning","ping":103},{"user_id":420,"name":"PingouinPoilu","steam_id":76561198025089253,"connected_time":79000000000,"state":"active","ping":56},{"user_id":407,"name":"Pootis penser","steam_id":76561198944032480,"connected_time":899000000000,"state":"active","ping":96},{"user_id":408,"name":"Bulczany","steam_id":76561198116469727,"connected_time":889000000000,"state":"active","ping":87},{"user_id":389,"name":"Urfangonultasadana","steam_id":76561199389286151,"connected_time":2019000000000,"state":"active","ping":95},{"user_id":410,"name":"foursixsixseven","steam_id":76561199123727043,"connected_time":815000000000,"state":"active","ping":52},{"user_id":414,"name":"Wontairr","steam_id":76561198161581147,"connected_time":676000000000,"state":"active","ping":159},{"user_id":413,"name":"Trollstoy","steam_id":76561198072017175,"connected_time":786000000000,"state":"active","ping":65},{"user_id":383,"name":"M2rtRa","steam_id":76561198111036466,"connected_time":2361000000000,"state":"active","ping":77},{"user_id":415,"name":"TheMelonApocalypse","steam_id":76561199107057681,"connected_time":435000000000,"state":"active","ping":54}]},{"server_id":41,"name":"Uncletopia | London | 8 | Community","name_short":"lon-8","host":"lon-1.uk.uncletopia.com","port":27085,"enabled":true,"region":"eu","cc":"gb","latitude":51.509865,"longitude":-0.118092,"reserved":0,"last_update":"0001-01-01T00:00:00Z","name_a2s":"Uncletopia | London | 8 | Community","protocol":17,"map":"workshop/koth_synthetic_rc6a.ugc1549817316","folder":"tf","game":"Team Fortress","app_id":440,"player_count":2,"max_players":24,"Bots":0,"server_type":"Dedicated","server_os":"Linux","password":true,"vac":true,"version":"7882260","steam_id":85568392924964315,"keywords":["cp","nocrits","nodmgspread","uncletopia"],"game_id":440,"stv_port":27086,"stv_name":"Uncletopia | London | 8 | Community | STV","players":[{"user_id":167,"name":"Kiz","steam_id":76561198811732820,"connected_time":1791000000000,"state":"active","ping":71},{"user_id":169,"name":"DicyPicky","steam_id":76561198078873335,"connected_time":1418000000000,"state":"active","ping":60}]},{"server_id":300,"name":"Uncletopia | Montr√©al | 1 | All Maps","name_short":"mtl-1","host":"mtl-1.ca.uncletopia.com","port":27015,"enabled":true,"region":"us-east","cc":"ca","latitude":45.50889,"longitude":-73.56167,"reserved":0,"last_update":"0001-01-01T00:00:00Z","name_a2s":"Uncletopia | Montr√©al | 1 | All Maps","protocol":17,"map":"pl_swiftwater_final1","folder":"tf","game":"Team Fortress","app_id":440,"player_count":0,"max_players":24,"Bots":0,"server_type":"Dedicated","server_os":"Linux","password":true,"vac":true,"version":"7882260","steam_id":85568392924500087,"keywords":["nocrits","nodmgspread","payload","uncletopia"],"game_id":440,"stv_port":27016,"stv_name":"Uncletopia | Montr√©al | 1 | All Maps | STV","players":null},{"server_id":301,"name":"Uncletopia | Montr√©al | 2 | All Maps","name_short":"mtl-2","host":"mtl-1.ca.uncletopia.com","port":27025,"enabled":true,"region":"us-east","cc":"ca","latitude":45.50889,"longitude":-73.56167,"reserved":0,"last_update":"0001-01-01T00:00:00Z","name_a2s":"Uncletopia | Montr√©al | 2 | All Maps","protocol":17,"map":"pl_swiftwater_final1","folder":"tf","game":"Team Fortress","app_id":440,"player_count":0,"max_players":24,"Bots":0,"server_type":"Dedicated","server_os":"Linux","password":true,"vac":true,"version":"7882260","steam_id":85568392924500088,"keywords":["nocrits","nodmgspread","payload","uncletopia"],"game_id":440,"stv_port":27026,"stv_name":"Uncletopia | Montr√©al | 2 | All Maps | STV","players":null},{"server_id":302,"name":"Uncletopia | Montr√©al | 3 | All Maps","name_short":"mtl-3","host":"mtl-1.ca.uncletopia.com","port":27035,"enabled":true,"region":"us-east","cc":"ca","latitude":45.50889,"longitude":-73.56167,"reserved":0,"last_update":"0001-01-01T00:00:00Z","name_a2s":"Uncletopia | Montr√©al | 3 | All Maps","protocol":17,"map":"koth_highpass","folder":"tf","game":"Team Fortress","app_id":440,"player_count":0,"max_players":24,"Bots":0,"server_type":"Dedicated","server_os":"Linux","password":true,"vac":true,"version":"7882260","steam_id":85568392924500089,"keywords":["cp","nocrits","nodmgspread","uncletopia"],"game_id":440,"stv_port":27036,"stv_name":"Uncletopia | Montr√©al | 3 | All Maps | STV","players":null},{"server_id":303,"name":"Uncletopia | Montr√©al | 4 | No Payload","name_short":"mtl-4","host":"mtl-1.ca.uncletopia.com","port":27045,"enabled":true,"region":"us-east","cc":"ca","latitude":45.50889,"longitude":-73.56167,"reserved":0,"last_update":"0001-01-01T00:00:00Z","name_a2s":"Uncletopia | Montr√©al | 4 | No Payload","protocol":17,"map":"koth_highpass","folder":"tf","game":"Team Fortress","app_id":440,"player_count":0,"max_players":24,"Bots":0,"server_type":"Dedicated","server_os":"Linux","password":true,"vac":true,"version":"7882260","steam_id":85568392924500090,"keywords":["cp","nocrits","nodmgspread","uncletopia"],"game_id":440,"stv_port":27046,"stv_name":"Uncletopia | Montr√©al | 4 | No Payload | STV","players":null},{"server_id":13,"name":"Uncletopia | New York City | 1 | All Maps","name_short":"nyc-1","host":"nyc-1.us.uncletopia.com","port":27015,"enabled":true,"region":"us-east","cc":"us","latitude":40.73061,"longitude":-73.93524,"reserved":0,"last_update":"0001-01-01T00:00:00Z","name_a2s":"Uncletopia | New York City | 1 | All Maps","protocol":17,"map":"pl_badwater","folder":"tf","game":"Team Fortress","app_id":440,"player_count":21,"max_players":24,"Bots":0,"server_type":"Dedicated","server_os":"Linux","password":true,"vac":true,"version":"7882260","steam_id":85568392924469993,"keywords":["nocrits","nodmgspread","payload","uncletopia"],"game_id":440,"stv_port":27016,"stv_name":"Uncletopia | New York City | 1 | All Maps | STV","players":[{"user_id":55,"name":"FlabberGhaster","steam_id":76561199479442146,"connected_time":520000000000,"state":"active","ping":113},{"user_id":38,"name":"Baby Shaker","steam_id":76561199438872346,"connected_time":2119000000000,"state":"active","ping":86},{"user_id":40,"name":"DrMisteryous2","steam_id":76561198336307012,"connected_time":2036000000000,"state":"active","ping":181},{"user_id":42,"name":"Ghworg","steam_id":76561198324891401,"connected_time":1680000000000,"state":"active","ping":60},{"user_id":58,"name":"Periculosum PhD in Funny","steam_id":76561198123370914,"connected_time":472000000000,"state":"active","ping":86},{"user_id":57,"name":"ChubbinsMothYT","steam_id":76561198999215730,"connected_time":486000000000,"state":"active","ping":70},{"user_id":83,"name":"Joe","steam_id":76561198024482793,"connected_time":25000000000,"state":"active","ping":60},{"user_id":60,"name":"sentient soup","steam_id":76561198887503216,"connected_time":378000000000,"state":"active","ping":77},{"user_id":77,"name":"FUSION","steam_id":76561197972659738,"connected_time":146000000000,"state":"active","ping":32},{"user_id":62,"name":"TheWallaby","steam_id":76561198948037546,"connected_time":364000000000,"state":"active","ping":49},{"user_id":71,"name":"Gibby","steam_id":76561199336569123,"connected_time":238000000000,"state":"active","ping":116},{"user_id":74,"name":"fliggoo giggoo","steam_id":76561198986534519,"connected_time":209000000000,"state":"active","ping":118},{"user_id":65,"name":"gmaay","steam_id":76561199104911185,"connected_time":312000000000,"state":"active","ping":60},{"user_id":69,"name":"Hemiphix","steam_id":76561198329316429,"connected_time":258000000000,"state":"active","ping":60},{"user_id":73,"name":"the bone zone","steam_id":76561198022141048,"connected_time":219000000000,"state":"active","ping":70},{"user_id":75,"name":"cunt served on a plate","steam_id":76561198013483349,"connected_time":206000000000,"state":"active","ping":120},{"user_id":80,"name":"fi_ji","steam_id":76561198126087725,"connected_time":92000000000,"state":"active","ping":54},{"user_id":81,"name":"MetalBear4","steam_id":76561198255788714,"connected_time":86000000000,"state":"active","ping":126},{"user_id":82,"name":"Timon's high on crack cocaine!","steam_id":76561198180396430,"connected_time":80000000000,"state":"active","ping":52},{"user_id":84,"name":"poop fart 900","steam_id":76561198165299077,"connected_time":22000000000,"state":"spawning","ping":53}]},{"server_id":14,"name":"Uncletopia | New York City | 2 | All Maps","name_short":"nyc-2","host":"nyc-1.us.uncletopia.com","port":27025,"enabled":true,"region":"us-east","cc":"us","latitude":40.73061,"longitude":-73.93524,"reserved":0,"last_update":"0001-01-01T00:00:00Z","name_a2s":"Uncletopia | New York City | 2 | All Maps","protocol":17,"map":"pl_badwater","folder":"tf","game":"Team Fortress","app_id":440,"player_count":24,"max_players":24,"Bots":0,"server_type":"Dedicated","server_os":"Linux","password":true,"vac":true,"version":"7882260","steam_id":85568392924469994,"keywords":["nocrits","nodmgspread","payload","uncletopia"],"game_id":440,"stv_port":27026,"stv_name":"Uncletopia | New York City | 2 | All Maps | STV","players":[{"user_id":18,"name":"Aycey Spacey","steam_id":76561198862522941,"connected_time":4847000000000,"state":"active","ping":58},{"user_id":19,"name":"Daisy Le Nerd","steam_id":76561198149350087,"connected_time":4823000000000,"state":"active","ping":163},{"user_id":20,"name":"CBTGaeming","steam_id":76561199089290128,"connected_time":4548000000000,"state":"active","ping":120},{"user_id":55,"name":"Idiot Princess","steam_id":76561198048205270,"connected_time":1883000000000,"state":"active","ping":62},{"user_id":28,"name":"gritty 2024","steam_id":76561198165567310,"connected_time":2959000000000,"state":"active","ping":54},{"user_id":49,"name":"Guil","steam_id":76561197993289176,"connected_time":2359000000000,"state":"active","ping":62},{"user_id":70,"name":"Al Cabone","steam_id":76561198956823243,"connected_time":591000000000,"state":"active","ping":55},{"user_id":51,"name":"Wang of Wall St","steam_id":76561198047460598,"connected_time":2044000000000,"state":"active","ping":67},{"user_id":29,"name":"ThatOneLatiasUser","steam_id":76561198968544387,"connected_time":2954000000000,"state":"active","ping":126},{"user_id":68,"name":"ChoiBoi9001","steam_id":76561199401392691,"connected_time":1400000000000,"state":"active","ping":75},{"user_id":59,"name":"Galaxy","steam_id":76561198035134466,"connected_time":1754000000000,"state":"active","ping":57},{"user_id":53,"name":"Bad Rollout","steam_id":76561197971948876,"connected_time":1962000000000,"state":"active","ping":91},{"user_id":66,"name":"FunkyTown.mp3.exe","steam_id":76561199435939261,"connected_time":1513000000000,"state":"active","ping":54},{"user_id":50,"name":"Wique","steam_id":76561198071217597,"connected_time":2127000000000,"state":"active","ping":72},{"user_id":60,"name":"Blitz3k","steam_id":76561198055758741,"connected_time":1747000000000,"state":"active","ping":44},{"user_id":37,"name":"Auto_Correct","steam_id":76561198254988078,"connected_time":2720000000000,"state":"active","ping":66},{"user_id":45,"name":"Zigadox","steam_id":76561198079813479,"connected_time":2596000000000,"state":"active","ping":86},{"user_id":39,"name":"emerge","steam_id":76561198186882891,"connected_time":2666000000000,"state":"active","ping":88},{"user_id":69,"name":"castlerock","steam_id":76561198857184966,"connected_time":722000000000,"state":"active","ping":46},{"user_id":62,"name":"Gocel","steam_id":76561198071467515,"connected_time":1743000000000,"state":"active","ping":47},{"user_id":63,"name":"Major Woody","steam_id":76561198835541533,"connected_time":1730000000000,"state":"active","ping":59},{"user_id":43,"name":"Uzi bin Laden","steam_id":76561198218811453,"connected_time":2644000000000,"state":"active","ping":60},{"user_id":65,"name":"J.G. Klaus","steam_id":76561198001111196,"connected_time":1627000000000,"state":"active","ping":89},{"user_id":71,"name":"BigNugs","steam_id":76561198056402610,"connected_time":591000000000,"state":"active","ping":85}]},{"server_id":15,"name":"Uncletopia | New York City | 3 | Stopwatch Beta","name_short":"nyc-3","host":"nyc-1.us.uncletopia.com","port":27035,"enabled":true,"region":"us-east","cc":"us","latitude":40.73061,"longitude":-73.93524,"reserved":0,"last_update":"0001-01-01T00:00:00Z","name_a2s":"Uncletopia | New York City | 3 | Stopwatch Beta","protocol":17,"map":"pl_borneo","folder":"tf","game":"Team Fortress","app_id":440,"player_count":0,"max_players":24,"Bots":0,"server_type":"Dedicated","server_os":"Linux","password":true,"vac":true,"version":"7882260","steam_id":85568392924742820,"keywords":["nocrits","nodmgspread","payload","uncletopia"],"game_id":440,"stv_port":27036,"stv_name":"Uncletopia | New York City | 3 | Stopwatch Beta | STV","players":null},{"server_id":16,"name":"Uncletopia | New York City | 4 | Community","name_short":"nyc-4","host":"nyc-1.us.uncletopia.com","port":27045,"enabled":true,"region":"us-east","cc":"us","latitude":40.73061,"longitude":-73.93524,"reserved":0,"last_update":"0001-01-01T00:00:00Z","name_a2s":"Uncletopia | New York City | 4 | Community","protocol":17,"map":"workshop/cp_glacier_rc6.ugc2905735376","folder":"tf","game":"Team Fortress","app_id":440,"player_count":22,"max_players":24,"Bots":0,"server_type":"Dedicated","server_os":"Linux","password":true,"vac":true,"version":"7882260","steam_id":85568392924742821,"keywords":["cp","nocrits","nodmgspread","uncletopia"],"game_id":440,"stv_port":27046,"stv_name":"Uncletopia | New York City | 4 | Community | STV","players":[{"user_id":225,"name":"Bee","steam_id":76561198074681324,"connected_time":620000000000,"state":"active","ping":49},{"user_id":218,"name":"Musica Universalis","steam_id":76561198184794174,"connected_time":1009000000000,"state":"active","ping":56},{"user_id":227,"name":"Billy","steam_id":76561199196160426,"connected_time":512000000000,"state":"active","ping":75},{"user_id":228,"name":"Mr. Durian","steam_id":76561198093813212,"connected_time":480000000000,"state":"active","ping":64},{"user_id":229,"name":"ballstothewalls","steam_id":76561199131172615,"connected_time":468000000000,"state":"active","ping":58},{"user_id":206,"name":"veemo","steam_id":76561198321393225,"connected_time":1907000000000,"state":"active","ping":139},{"user_id":168,"name":"SHADY SWEATER SALESMAN","steam_id":76561198014616865,"connected_time":5867000000000,"state":"active","ping":48},{"user_id":234,"name":"‚ùÄTheFlyingSpaghettiMonster‚ùÄ","steam_id":76561198094145477,"connected_time":211000000000,"state":"active","ping":82},{"user_id":235,"name":"T9 Raincool","steam_id":76561198042953645,"connected_time":206000000000,"state":"active","ping":47},{"user_id":203,"name":"Scatterman","steam_id":76561198041965264,"connected_time":2499000000000,"state":"active","ping":60},{"user_id":236,"name":"The Mug Man","steam_id":76561198283468122,"connected_time":116000000000,"state":"active","ping":59},{"user_id":233,"name":"Huntpk","steam_id":76561198340591674,"connected_time":243000000000,"state":"active","ping":74},{"user_id":208,"name":"the piss boiling machine","steam_id":76561198113716047,"connected_time":1577000000000,"state":"active","ping":59},{"user_id":237,"name":"Look at me Ma! No jaw!","steam_id":76561198870122769,"connected_time":92000000000,"state":"active","ping":85},{"user_id":209,"name":"Lamination Sensation","steam_id":76561198362916241,"connected_time":1574000000000,"state":"active","ping":74},{"user_id":238,"name":"Koopa Stomper","steam_id":76561198084230569,"connected_time":50000000000,"state":"active","ping":64},{"user_id":239,"name":"Tony Tortellini","steam_id":76561198155690576,"connected_time":1000000000,"state":"spawning","ping":55},{"user_id":165,"name":"B","steam_id":76561198042003086,"connected_time":6296000000000,"state":"active","ping":46},{"user_id":194,"name":"Not Ghostie","steam_id":76561198068686762,"connected_time":3340000000000,"state":"active","ping":45},{"user_id":216,"name":"Frenemy \u003e:D","steam_id":76561198011363677,"connected_time":1216000000000,"state":"active","ping":73},{"user_id":223,"name":"Swedish Crowbar","steam_id":76561199105488936,"connected_time":836000000000,"state":"active","ping":136},{"user_id":214,"name":"d00ie","steam_id":76561198151032242,"connected_time":1315000000000,"state":"active","ping":55}]},{"server_id":142,"name":"Uncletopia | S√£o Paulo | 1 | All Maps","name_short":"sao-1","host":"sao-1.br.uncletopia.com","port":27015,"enabled":true,"region":"sa","cc":"br","latitude":-23.533773,"longitude":-46.62529,"reserved":0,"last_update":"0001-01-01T00:00:00Z","name_a2s":"Uncletopia | S√£o Paulo | 1 | All Maps","protocol":17,"map":"koth_cascade","folder":"tf","game":"Team Fortress","app_id":440,"player_count":0,"max_players":24,"Bots":0,"server_type":"Dedicated","server_os":"Linux","password":true,"vac":true,"version":"7882260","steam_id":85568392924469996,"keywords":["cp","nocrits","nodmgspread","uncletopia"],"game_id":440,"stv_port":27016,"stv_name":"Uncletopia | S√£o Paulo | 1 | All Maps | STV","players":null},{"server_id":143,"name":"Uncletopia | S√£o Paulo | 2 | All Maps","name_short":"sao-2","host":"sao-2.br.uncletopia.com","port":27015,"enabled":true,"region":"sa","cc":"br","latitude":-23.533773,"longitude":-46.62529,"reserved":0,"last_update":"0001-01-01T00:00:00Z","name_a2s":"Uncletopia | S√£o Paulo | 2 | All Maps","protocol":17,"map":"pl_upward","folder":"tf","game":"Team Fortress","app_id":440,"player_count":21,"max_players":24,"Bots":0,"server_type":"Dedicated","server_os":"Linux","password":true,"vac":true,"version":"7882260","steam_id":85568392924485349,"keywords":["nocrits","nodmgspread","payload","uncletopia"],"game_id":440,"stv_port":27016,"stv_name":"Uncletopia | S√£o Paulo | 2 | All Maps | STV","players":[{"user_id":284,"name":"matheus_lanches","steam_id":76561199359501901,"connected_time":87000000000,"state":"active","ping":39},{"user_id":249,"name":"Tou_Matt","steam_id":76561198898317327,"connected_time":2847000000000,"state":"active","ping":52},{"user_id":219,"name":"hadinode","steam_id":76561198191475573,"connected_time":4917000000000,"state":"active","ping":59},{"user_id":285,"name":"The FalleN","steam_id":76561198978428326,"connected_time":47000000000,"state":"active","ping":59},{"user_id":250,"name":"Tio KillerParty","steam_id":76561198067918814,"connected_time":2830000000000,"state":"active","ping":58},{"user_id":258,"name":"ekj75","steam_id":76561199063979966,"connected_time":2108000000000,"state":"active","ping":102},{"user_id":104,"name":"starm0nster","steam_id":76561199016975635,"connected_time":13855000000000,"state":"active","ping":43},{"user_id":260,"name":"‚úìRodrigo_hamb√∫rguers‚úì","steam_id":76561199063941794,"connected_time":2005000000000,"state":"active","ping":40},{"user_id":262,"name":"Firenew","steam_id":76561199057241801,"connected_time":1896000000000,"state":"active","ping":178},{"user_id":263,"name":"Derretimento Geral 2017","steam_id":76561198194300069,"connected_time":1767000000000,"state":"active","ping":46},{"user_id":275,"name":"kazwhal","steam_id":76561198207508964,"connected_time":1282000000000,"state":"active","ping":64},{"user_id":277,"name":"SwearsGamers","steam_id":76561198985449294,"connected_time":1157000000000,"state":"active","ping":45},{"user_id":266,"name":"SciFi17","steam_id":76561198294394078,"connected_time":1529000000000,"state":"active","ping":71},{"user_id":223,"name":"Kamikaze Soldier#SaveTF2","steam_id":76561198860370749,"connected_time":4771000000000,"state":"active","ping":52},{"user_id":229,"name":"vacaloca25","steam_id":76561198082683352,"connected_time":4140000000000,"state":"active","ping":48},{"user_id":267,"name":"DiL","steam_id":76561198088033609,"connected_time":1528000000000,"state":"active","ping":46},{"user_id":276,"name":"OwOKath","steam_id":76561199478827836,"connected_time":1219000000000,"state":"active","ping":75},{"user_id":271,"name":"Capitalism 101","steam_id":76561198017214464,"connected_time":1403000000000,"state":"active","ping":171},{"user_id":273,"name":"Mikael_01","steam_id":76561199080253129,"connected_time":1353000000000,"state":"active","ping":58},{"user_id":274,"name":"shima‚ô°","steam_id":76561199079561482,"connected_time":1350000000000,"state":"active","ping":77}]},{"server_id":7,"name":"Uncletopia | Seattle | 1 | All Maps","name_short":"sea-1","host":"sea-1.us.uncletopia.com","port":27015,"enabled":true,"region":"us-west","cc":"us","latitude":47.608013,"longitude":-122.33517,"reserved":0,"last_update":"0001-01-01T00:00:00Z","name_a2s":"Uncletopia | Seattle | 1 | All Maps","protocol":17,"map":"cp_mountainlab","folder":"tf","game":"Team Fortress","app_id":440,"player_count":24,"max_players":24,"Bots":0,"server_type":"Dedicated","server_os":"Linux","password":true,"vac":true,"version":"7882260","steam_id":85568392924469997,"keywords":["cp","nocrits","nodmgspread","uncletopia"],"game_id":440,"stv_port":27016,"stv_name":"Uncletopia | Seattle | 1 | All Maps | STV","players":[{"user_id":123,"name":"TheCowledWiz","steam_id":76561198016735868,"connected_time":2831000000000,"state":"active","ping":50},{"user_id":141,"name":"Leidon","steam_id":76561198078386945,"connected_time":1137000000000,"state":"active","ping":81},{"user_id":158,"name":"steve","steam_id":76561198207881077,"connected_time":193000000000,"state":"active","ping":101},{"user_id":55,"name":"Keamy","steam_id":76561199471434875,"connected_time":9639000000000,"state":"active","ping":45},{"user_id":136,"name":"YouAreReadingThis","steam_id":76561198367831600,"connected_time":1431000000000,"state":"active","ping":86},{"user_id":142,"name":"ejschild745","steam_id":76561199013388867,"connected_time":1132000000000,"state":"active","ping":72},{"user_id":152,"name":"Can of Oranges","steam_id":76561199121813529,"connected_time":272000000000,"state":"active","ping":42},{"user_id":107,"name":"ZEKKER","steam_id":76561197967968980,"connected_time":4227000000000,"state":"active","ping":46},{"user_id":155,"name":"Strikerbolt","steam_id":76561199095622897,"connected_time":199000000000,"state":"active","ping":78},{"user_id":103,"name":"a cat plushie","steam_id":76561198080046542,"connected_time":4974000000000,"state":"active","ping":46},{"user_id":115,"name":"lili","steam_id":76561199391478575,"connected_time":3784000000000,"state":"active","ping":57},{"user_id":159,"name":"PepperNSalt","steam_id":76561198169000533,"connected_time":163000000000,"state":"active","ping":50},{"user_id":137,"name":"exephur","steam_id":76561198135763234,"connected_time":1196000000000,"state":"active","ping":61},{"user_id":101,"name":"Illusionism","steam_id":76561198167878499,"connected_time":5141000000000,"state":"active","ping":71},{"user_id":149,"name":"armpit fetishist","steam_id":76561199008452637,"connected_time":939000000000,"state":"active","ping":93},{"user_id":150,"name":"joe mama","steam_id":76561198044597012,"connected_time":860000000000,"state":"active","ping":51},{"user_id":153,"name":"Cron","steam_id":76561199162277093,"connected_time":213000000000,"state":"active","ping":115},{"user_id":133,"name":"PheebsyDeebsy","steam_id":76561198101509436,"connected_time":1758000000000,"state":"active","ping":71},{"user_id":156,"name":"YahYeeterson","steam_id":76561198120480906,"connected_time":198000000000,"state":"active","ping":61},{"user_id":146,"name":"Mr. Bean","steam_id":76561198146240309,"connected_time":1077000000000,"state":"active","ping":71},{"user_id":160,"name":"Ryanabss","steam_id":76561198326211765,"connected_time":127000000000,"state":"active","ping":75},{"user_id":147,"name":"memphis mafioso","steam_id":76561198223416492,"connected_time":1075000000000,"state":"active","ping":75},{"user_id":148,"name":"SibilantSerpent","steam_id":76561198154488754,"connected_time":947000000000,"state":"active","ping":58},{"user_id":89,"name":"catch and claim","steam_id":76561198042913843,"connected_time":6770000000000,"state":"active","ping":60}]},{"server_id":119,"name":"Uncletopia | Seattle | 2 | All Maps","name_short":"sea-2","host":"sea-1.us.uncletopia.com","port":27025,"enabled":true,"region":"us-west","cc":"us","latitude":47.608013,"longitude":-122.33517,"reserved":0,"last_update":"0001-01-01T00:00:00Z","name_a2s":"Uncletopia | Seattle | 2 | All Maps","protocol":17,"map":"koth_cascade","folder":"tf","game":"Team Fortress","app_id":440,"player_count":0,"max_players":24,"Bots":0,"server_type":"Dedicated","server_os":"Linux","password":true,"vac":true,"version":"7882260","steam_id":85568392924469998,"keywords":["cp","nocrits","nodmgspread","uncletopia"],"game_id":440,"stv_port":27026,"stv_name":"Uncletopia | Seattle | 2 | All Maps | STV","players":null},{"server_id":406,"name":"Uncletopia | Seattle | 3 | Stopwatch Beta","name_short":"sea-3","host":"sea-1.us.uncletopia.com","port":27035,"enabled":true,"region":"us-west","cc":"us","latitude":47.608013,"longitude":-122.33517,"reserved":0,"last_update":"0001-01-01T00:00:00Z","name_a2s":"Uncletopia | Seattle | 3 | Stopwatch Beta","protocol":17,"map":"koth_viaduct","folder":"tf","game":"Team Fortress","app_id":440,"player_count":0,"max_players":24,"Bots":0,"server_type":"Dedicated","server_os":"Linux","password":true,"vac":true,"version":"7882260","steam_id":85568392924515217,"keywords":["cp","nocrits","nodmgspread","uncletopia"],"game_id":440,"stv_port":27036,"stv_name":"Uncletopia | Seattle | 3 | Stopwatch Beta | STV","players":null},{"server_id":17,"name":"Uncletopia | San Francisco | 1 | All Maps","name_short":"sfo-1","host":"sfo-1.us.uncletopia.com","port":27015,"enabled":true,"region":"us-west","cc":"us","latitude":37.77397,"longitude":-122.4313,"reserved":0,"last_update":"0001-01-01T00:00:00Z","name_a2s":"Uncletopia | San Francisco | 1 | All Maps","protocol":17,"map":"pl_barnblitz","folder":"tf","game":"Team Fortress","app_id":440,"player_count":0,"max_players":24,"Bots":0,"server_type":"Dedicated","server_os":"Linux","password":true,"vac":true,"version":"7882260","steam_id":85568392924469999,"keywords":["nocrits","nodmgspread","payload","uncletopia"],"game_id":440,"stv_port":27016,"stv_name":"Uncletopia | San Francisco | 1 | All Maps | STV","players":null},{"server_id":18,"name":"Uncletopia | San Francisco | 2 | All Maps","name_short":"sfo-2","host":"sfo-1.us.uncletopia.com","port":27025,"enabled":true,"region":"us-west","cc":"us","latitude":37.77397,"longitude":-122.4313,"reserved":0,"last_update":"0001-01-01T00:00:00Z","name_a2s":"Uncletopia | San Francisco | 2 | All Maps","protocol":17,"map":"pl_swiftwater_final1","folder":"tf","game":"Team Fortress","app_id":440,"player_count":0,"max_players":24,"Bots":0,"server_type":"Dedicated","server_os":"Linux","password":true,"vac":true,"version":"7882260","steam_id":85568392924470000,"keywords":["nocrits","nodmgspread","payload","uncletopia"],"game_id":440,"stv_port":27026,"stv_name":"Uncletopia | San Francisco | 2 | All Maps | STV","players":null},{"server_id":19,"name":"Uncletopia | San Francisco | 3 | Stopwatch Beta","name_short":"sfo-3","host":"sfo-1.us.uncletopia.com","port":27035,"enabled":true,"region":"us-west","cc":"us","latitude":37.77397,"longitude":-122.4313,"reserved":0,"last_update":"0001-01-01T00:00:00Z","name_a2s":"Uncletopia | San Francisco | 3 | Stopwatch Beta","protocol":17,"map":"pl_snowycoast","folder":"tf","game":"Team Fortress","app_id":440,"player_count":0,"max_players":24,"Bots":0,"server_type":"Dedicated","server_os":"Linux","password":true,"vac":true,"version":"7882260","steam_id":85568392924742824,"keywords":["nocrits","nodmgspread","payload","uncletopia"],"game_id":440,"stv_port":27036,"stv_name":"Uncletopia | San Francisco | 3 | Stopwatch Beta | STV","players":null},{"server_id":20,"name":"Uncletopia | San Francisco | 4 | Community","name_short":"sfo-4","host":"sfo-1.us.uncletopia.com","port":27045,"enabled":true,"region":"us-west","cc":"us","latitude":37.77397,"longitude":-122.4313,"reserved":0,"last_update":"0001-01-01T00:00:00Z","name_a2s":"Uncletopia | San Francisco | 4 | Community","protocol":17,"map":"workshop/pl_highwood_b13.ugc1769496557","folder":"tf","game":"Team Fortress","app_id":440,"player_count":22,"max_players":24,"Bots":0,"server_type":"Dedicated","server_os":"Linux","password":true,"vac":true,"version":"7882260","steam_id":85568392924742826,"keywords":["nocrits","nodmgspread","payload","uncletopia"],"game_id":440,"stv_port":27046,"stv_name":"Uncletopia | San Francisco | 4 | Community | STV","players":[{"user_id":31,"name":"Acro Banwagon","steam_id":76561198092451804,"connected_time":2881000000000,"state":"active","ping":108},{"user_id":102,"name":"Jim","steam_id":76561198998398262,"connected_time":356000000000,"state":"active","ping":47},{"user_id":50,"name":"lord setch","steam_id":76561198252328518,"connected_time":2265000000000,"state":"active","ping":63},{"user_id":71,"name":"achoo","steam_id":76561198009091066,"connected_time":1355000000000,"state":"active","ping":62},{"user_id":12,"name":"Prez Pineapple","steam_id":76561198253755258,"connected_time":4486000000000,"state":"active","ping":67},{"user_id":92,"name":"shadow wizard money gang","steam_id":76561198089421742,"connected_time":555000000000,"state":"active","ping":71},{"user_id":72,"name":"WitchyPorcupine","steam_id":76561198271676310,"connected_time":1351000000000,"state":"active","ping":62},{"user_id":58,"name":"IkeEsq","steam_id":76561197998394349,"connected_time":2027000000000,"state":"active","ping":113},{"user_id":23,"name":"Regal","steam_id":76561198092422621,"connected_time":3248000000000,"state":"active","ping":104},{"user_id":98,"name":"krd","steam_id":76561198347660282,"connected_time":396000000000,"state":"active","ping":77},{"user_id":97,"name":"Dougtherouge","steam_id":76561198211300573,"connected_time":417000000000,"state":"active","ping":115},{"user_id":99,"name":"oo","steam_id":76561198119626492,"connected_time":377000000000,"state":"active","ping":87},{"user_id":41,"name":"soda drink","steam_id":76561198092422065,"connected_time":2608000000000,"state":"active","ping":119},{"user_id":70,"name":"en.wikipedia.org/wiki/Nae_Nae","steam_id":76561198418288939,"connected_time":1508000000000,"state":"active","ping":59},{"user_id":100,"name":"bob from vegetable","steam_id":76561199089515791,"connected_time":371000000000,"state":"active","ping":57},{"user_id":101,"name":"Good Mudkip","steam_id":76561198439784449,"connected_time":371000000000,"state":"active","ping":84},{"user_id":75,"name":"ShikuTeshi","steam_id":76561198070874740,"connected_time":1293000000000,"state":"active","ping":70},{"user_id":76,"name":"kittenkitchen24","steam_id":76561199171056489,"connected_time":1265000000000,"state":"active","ping":62},{"user_id":89,"name":"Meth Goblin","steam_id":76561198086355221,"connected_time":648000000000,"state":"active","ping":98},{"user_id":53,"name":"green bean","steam_id":76561198113099204,"connected_time":2188000000000,"state":"active","ping":30},{"user_id":54,"name":"Tom Cr√∫aich","steam_id":76561197999439911,"connected_time":2152000000000,"state":"active","ping":75},{"user_id":91,"name":"naturia","steam_id":76561198092317849,"connected_time":584000000000,"state":"active","ping":51}]},{"server_id":141,"name":"Uncletopia | Sydney | 1 | All Maps","name_short":"syd-1","host":"syd-1.au.uncletopia.com","port":27015,"enabled":true,"region":"au","cc":"au","latitude":-33.865143,"longitude":151.2099,"reserved":0,"last_update":"0001-01-01T00:00:00Z","name_a2s":"Uncletopia | Sydney | 1 | All Maps","protocol":17,"map":"cp_altitude","folder":"tf","game":"Team Fortress","app_id":440,"player_count":0,"max_players":24,"Bots":0,"server_type":"Dedicated","server_os":"Linux","password":true,"vac":true,"version":"7882260","steam_id":85568392924470001,"keywords":["cp","nocrits","nodmgspread","uncletopia"],"game_id":440,"stv_port":27016,"stv_name":"Uncletopia | Sydney | 1 | All Maps | STV","players":null},{"server_id":123,"name":"Uncletopia | Sydney | 2 | All Maps","name_short":"syd-2","host":"syd-1.au.uncletopia.com","port":27025,"enabled":true,"region":"au","cc":"au","latitude":-33.865143,"longitude":151.2099,"reserved":0,"last_update":"0001-01-01T00:00:00Z","name_a2s":"Uncletopia | Sydney | 2 | All Maps","protocol":17,"map":"cp_snakewater_final1","folder":"tf","game":"Team Fortress","app_id":440,"player_count":0,"max_players":24,"Bots":0,"server_type":"Dedicated","server_os":"Linux","password":true,"vac":true,"version":"7882260","steam_id":85568392924470002,"keywords":["cp","nocrits","nodmgspread","uncletopia"],"game_id":440,"stv_port":27026,"stv_name":"Uncletopia | Sydney | 2 | All Maps | STV","players":null},{"server_id":395,"name":"Uncletopia | Sydney | 3 | All Maps","name_short":"syd-3","host":"syd-1.au.uncletopia.com","port":27035,"enabled":true,"region":"au","cc":"au","latitude":-33.865143,"longitude":151.2099,"reserved":0,"last_update":"0001-01-01T00:00:00Z","name_a2s":"Uncletopia | Sydney | 3 | All Maps","protocol":17,"map":"pl_badwater","folder":"tf","game":"Team Fortress","app_id":440,"player_count":0,"max_players":24,"Bots":0,"server_type":"Dedicated","server_os":"Linux","password":true,"vac":true,"version":"7882260","steam_id":85568392925194467,"keywords":["nocrits","nodmgspread","payload","uncletopia"],"game_id":440,"stv_port":27036,"stv_name":"Uncletopia | Sydney | 3 | All Maps | STV","players":null},{"server_id":396,"name":"Uncletopia | Sydney | 4 | All Maps","name_short":"syd-4","host":"syd-1.au.uncletopia.com","port":27045,"enabled":true,"region":"au","cc":"au","latitude":-33.865143,"longitude":151.2099,"reserved":0,"last_update":"0001-01-01T00:00:00Z","name_a2s":"Uncletopia | Sydney | 4 | All Maps","protocol":17,"map":"cp_altitude","folder":"tf","game":"Team Fortress","app_id":440,"player_count":0,"max_players":24,"Bots":0,"server_type":"Dedicated","server_os":"Linux","password":true,"vac":true,"version":"7882260","steam_id":85568392925397958,"keywords":["cp","nocrits","nodmgspread","uncletopia"],"game_id":440,"stv_port":27046,"stv_name":"Uncletopia | Sydney | 4 | All Maps | STV","players":null},{"server_id":58,"name":"Uncletopia | Sydney | 5 | Stopwatch Beta","name_short":"syd-5","host":"syd-1.au.uncletopia.com","port":27055,"enabled":true,"region":"au","cc":"au","latitude":-33.865143,"longitude":151.2099,"reserved":0,"last_update":"0001-01-01T00:00:00Z","name_a2s":"Uncletopia | Sydney | 5 | Stopwatch Beta","protocol":17,"map":"koth_viaduct","folder":"tf","game":"Team Fortress","app_id":440,"player_count":0,"max_players":24,"Bots":0,"server_type":"Dedicated","server_os":"Linux","password":true,"vac":true,"version":"7882260","steam_id":85568392925397959,"keywords":["cp","nocrits","nodmgspread","uncletopia"],"game_id":440,"stv_port":27056,"stv_name":"Uncletopia | Sydney | 5 | Stopwatch Beta | STV","players":null},{"server_id":59,"name":"Uncletopia | Sydney | 6 | Community","name_short":"syd-6","host":"syd-1.au.uncletopia.com","port":27065,"enabled":true,"region":"au","cc":"au","latitude":-33.865143,"longitude":151.2099,"reserved":0,"last_update":"0001-01-01T00:00:00Z","name_a2s":"Uncletopia | Sydney | 6 | Community","protocol":17,"map":"pl_upward","folder":"tf","game":"Team Fortress","app_id":440,"player_count":0,"max_players":24,"Bots":0,"server_type":"Dedicated","server_os":"Linux","password":true,"vac":true,"version":"7882260","steam_id":85568392925397960,"keywords":["nocrits","nodmgspread","payload","uncletopia"],"game_id":440,"stv_port":27066,"stv_name":"Uncletopia | Sydney | 6 | Community | STV","players":null},{"server_id":49,"name":"Uncletopia | Warsaw | 1 | All Maps","name_short":"waw-1","host":"waw-1.pl.uncletopia.com","port":27015,"enabled":true,"region":"eu","cc":"pl","latitude":52.2297,"longitude":21.017532,"reserved":0,"last_update":"0001-01-01T00:00:00Z","name_a2s":"","protocol":0,"map":"","folder":"","game":"","app_id":0,"player_count":0,"max_players":0,"Bots":0,"server_type":"","server_os":"","password":false,"vac":false,"version":"","steam_id":0,"keywords":null,"game_id":0,"stv_port":0,"stv_name":"","players":null},{"server_id":50,"name":"Uncletopia | Warsaw | 2 | All Maps","name_short":"waw-2","host":"waw-1.pl.uncletopia.com","port":27025,"enabled":true,"region":"eu","cc":"pl","latitude":52.2297,"longitude":21.017532,"reserved":0,"last_update":"0001-01-01T00:00:00Z","name_a2s":"Uncletopia | Warsaw | 2 | All Maps","protocol":17,"map":"koth_viaduct","folder":"tf","game":"Team Fortress","app_id":440,"player_count":0,"max_players":24,"Bots":0,"server_type":"Dedicated","server_os":"Linux","password":true,"vac":true,"version":"7882260","steam_id":85568392925397851,"keywords":["cp","nocrits","nodmgspread","uncletopia"],"game_id":440,"stv_port":27026,"stv_name":"Uncletopia | Warsaw | 2 | All Maps | STV","players":null},{"server_id":51,"name":"Uncletopia | Warsaw | 3 | All Maps","name_short":"waw-3","host":"waw-1.pl.uncletopia.com","port":27035,"enabled":true,"region":"eu","cc":"pl","latitude":52.2297,"longitude":21.017532,"reserved":0,"last_update":"0001-01-01T00:00:00Z","name_a2s":"Uncletopia | Warsaw | 3 | All Maps","protocol":17,"map":"koth_lakeside_final","folder":"tf","game":"Team Fortress","app_id":440,"player_count":2,"max_players":24,"Bots":0,"server_type":"Dedicated","server_os":"Linux","password":true,"vac":true,"version":"7882260","steam_id":85568392925397852,"keywords":["cp","nocrits","nodmgspread","uncletopia"],"game_id":440,"stv_port":27036,"stv_name":"Uncletopia | Warsaw | 3 | All Maps | STV","players":[{"user_id":19,"name":"Nefafad","steam_id":76561198364394138,"connected_time":354000000000,"state":"active","ping":75},{"user_id":20,"name":"Vaber","steam_id":76561198862971069,"connected_time":324000000000,"state":"active","ping":156}]},{"server_id":52,"name":"Uncletopia | Warsaw | 4 | All Maps","name_short":"waw-4","host":"waw-1.pl.uncletopia.com","port":27045,"enabled":true,"region":"eu","cc":"pl","latitude":52.2297,"longitude":21.017532,"reserved":0,"last_update":"0001-01-01T00:00:00Z","name_a2s":"Uncletopia | Warsaw | 4 | All Maps","protocol":17,"map":"koth_cascade","folder":"tf","game":"Team Fortress","app_id":440,"player_count":0,"max_players":24,"Bots":0,"server_type":"Dedicated","server_os":"Linux","password":true,"vac":true,"version":"7882260","steam_id":85568392925397853,"keywords":["cp","nocrits","nodmgspread","uncletopia"],"game_id":440,"stv_port":27046,"stv_name":"Uncletopia | Warsaw | 4 | All Maps | STV","players":null},{"server_id":53,"name":"Uncletopia | Warsaw | 5 | Stopwatch Beta","name_short":"waw-5","host":"waw-1.pl.uncletopia.com","port":27055,"enabled":true,"region":"eu","cc":"pl","latitude":52.2297,"longitude":21.017532,"reserved":0,"last_update":"0001-01-01T00:00:00Z","name_a2s":"Uncletopia | Warsaw | 5 | Stopwatch Beta","protocol":17,"map":"workshop/koth_ramjam_rc1.ugc459778887","folder":"tf","game":"Team Fortress","app_id":440,"player_count":0,"max_players":24,"Bots":0,"server_type":"Dedicated","server_os":"Linux","password":true,"vac":true,"version":"7882260","steam_id":85568392925397854,"keywords":["cp","nocrits","nodmgspread","uncletopia"],"game_id":440,"stv_port":27056,"stv_name":"Uncletopia | Warsaw | 5 | Stopwatch Beta | STV","players":null},{"server_id":54,"name":"Uncletopia | Warsaw | 6 | Community","name_short":"waw-6","host":"waw-1.pl.uncletopia.com","port":27065,"enabled":true,"region":"eu","cc":"pl","latitude":52.2297,"longitude":21.017532,"reserved":0,"last_update":"0001-01-01T00:00:00Z","name_a2s":"Uncletopia | Warsaw | 6 | Community","protocol":17,"map":"workshop/cp_reckoner_rc6.ugc674719999","folder":"tf","game":"Team Fortress","app_id":440,"player_count":0,"max_players":24,"Bots":0,"server_type":"Dedicated","server_os":"Linux","password":true,"vac":true,"version":"7882260","steam_id":85568392925397856,"keywords":["cp","nocrits","nodmgspread","uncletopia"],"game_id":440,"stv_port":27066,"stv_name":"Uncletopia | Warsaw | 6 | Community | STV","players":null}]}