{"status":true,"message":"","result":[{"server_id":9,"name":"Uncletopia | Atlanta | 1 | All Maps","name_short":"atl-1","host":"atl-1.us.uncletopia.com","port":27015,"enabled":true,"region":"us-east","cc":"us","latitude":33.753746,"longitude":-84.38633,"reserved":0,"last_update":"0001-01-01T00:00:00Z","name_a2s":"Uncletopia | Atlanta | 1 | All Maps","protocol":17,"map":"pl_upward","folder":"tf","game":"Team Fortress","app_id":440,"player_count":24,"max_players":24,"Bots":0,"server_type":"Dedicated","server_os":"Linux","password":true,"vac":true,"version":"7961495","steam_id":85568392924469982,"keywords":["nocrits","nodmgspread","payload","uncletopia"],"game_id":440,"stv_port":27016,"stv_name":"Uncletopia | Atlanta | 1 | All Maps | STV","players":[{"user_id":613,"name":"Transfem Bumblebee","steam_id":76561198119393205,"connected_time":846000000000,"state":"active","ping":59},{"user_id":594,"name":"Waffle Wannabe","steam_id":76561198064510650,"connected_time":2098000000000,"state":"active","ping":59},{"user_id":595,"name":"chexo4","steam_id":76561198150532531,"connected_time":2097000000000,"state":"active","ping":50},{"user_id":619,"name":"Jared","steam_id":76561198027210228,"connected_time":246000000000,"state":"active","ping":84},{"user_id":622,"name":"Sinta","steam_id":76561198098398841,"connected_time":127000000000,"state":"active","ping":59},{"user_id":547,"name":"Punchy","steam_id":76561198200000641,"connected_time":7442000000000,"state":"active","ping":53},{"user_id":616,"name":"Drilly22","steam_id":76561198068838338,"connected_time":806000000000,"state":"active","ping":77},{"user_id":610,"name":"kite","steam_id":76561198346516392,"connected_time":1061000000000,"state":"active","ping":86},{"user_id":486,"name":"Heathcliff","steam_id":76561198044288534,"connected_time":12524000000000,"state":"active","ping":75},{"user_id":582,"name":"hayes","steam_id":76561198057101042,"connected_time":4004000000000,"state":"active","ping":74},{"user_id":611,"name":"Echo","steam_id":76561198072092594,"connected_time":1008000000000,"state":"active","ping":51},{"user_id":604,"name":"SynthRider","steam_id":76561198014297889,"connected_time":1413000000000,"state":"active","ping":67},{"user_id":607,"name":"ATL1 | to4st","steam_id":76561198981009008,"connected_time":1302000000000,"state":"active","ping":68},{"user_id":614,"name":"jackass","steam_id":76561198209380493,"connected_time":831000000000,"state":"active","ping":60},{"user_id":612,"name":"Scita","steam_id":76561198066861559,"connected_time":875000000000,"state":"active","ping":67},{"user_id":620,"name":"HL1 | A girl named Lavie","steam_id":76561198825997674,"connected_time":192000000000,"state":"active","ping":50},{"user_id":605,"name":"z","steam_id":76561198377478982,"connected_time":1403000000000,"state":"active","ping":68},{"user_id":623,"name":"chrisblue2005","steam_id":76561199385222289,"connected_time":117000000000,"state":"active","ping":123},{"user_id":624,"name":"Danny Deleto","steam_id":76561199165126320,"connected_time":115000000000,"state":"active","ping":64},{"user_id":602,"name":"King Cotton","steam_id":76561198292444376,"connected_time":1546000000000,"state":"active","ping":93},{"user_id":617,"name":"stankboxers #savetf2","steam_id":76561198058609582,"connected_time":803000000000,"state":"active","ping":83},{"user_id":606,"name":"Dreszerg","steam_id":76561198838757422,"connected_time":1345000000000,"state":"active","ping":87},{"user_id":609,"name":"PK","steam_id":76561198368722500,"connected_time":1079000000000,"state":"active","ping":77},{"user_id":625,"name":"TheGamingCobra","steam_id":76561198077403309,"connected_time":69000000000,"state":"active","ping":70}]},{"server_id":104,"name":"Uncletopia | Atlanta | 2 | All Maps","name_short":"atl-2","host":"atl-1.us.uncletopia.com","port":27025,"enabled":true,"region":"us-east","cc":"us","latitude":33.753746,"longitude":-84.38633,"reserved":0,"last_update":"0001-01-01T00:00:00Z","name_a2s":"Uncletopia | Atlanta | 2 | All Maps","protocol":17,"map":"pl_borneo","folder":"tf","game":"Team Fortress","app_id":440,"player_count":24,"max_players":24,"Bots":0,"server_type":"Dedicated","server_os":"Linux","password":true,"vac":true,"version":"7961495","steam_id":85568392924469983,"keywords":["nocrits","nodmgspread","payload","uncletopia"],"game_id":440,"stv_port":27026,"stv_name":"Uncletopia | Atlanta | 2 | All Maps | STV","players":[{"user_id":421,"name":"Dreamer","steam_id":76561198800478056,"connected_time":1217000000000,"state":"active","ping":98},{"user_id":430,"name":"FreshlyBrewed","steam_id":76561198181099881,"connected_time":121000000000,"state":"active","ping":91},{"user_id":422,"name":"Howell at the Moon","steam_id":76561198060827426,"connected_time":676000000000,"state":"active","ping":65},{"user_id":385,"name":"NAEM CHEGG","steam_id":76561199074984482,"connected_time":3007000000000,"state":"active","ping":82},{"user_id":388,"name":"GingerToePics","steam_id":76561199418178639,"connected_time":2809000000000,"state":"active","ping":69},{"user_id":373,"name":"ChocoMcFudgeCake","steam_id":76561197994591295,"connected_time":3649000000000,"state":"active","ping":73},{"user_id":409,"name":"denzell05","steam_id":76561198086987061,"connected_time":1527000000000,"state":"active","ping":91},{"user_id":398,"name":"quack","steam_id":76561198138783216,"connected_time":2428000000000,"state":"active","ping":51},{"user_id":428,"name":"DarkenedPolarity","steam_id":76561199073099596,"connected_time":145000000000,"state":"active","ping":67},{"user_id":356,"name":"aisu","steam_id":76561198043768507,"connected_time":4948000000000,"state":"active","ping":90},{"user_id":395,"name":"lalman","steam_id":76561198196605887,"connected_time":2537000000000,"state":"active","ping":63},{"user_id":427,"name":"kat","steam_id":76561198099191938,"connected_time":198000000000,"state":"active","ping":67},{"user_id":417,"name":"CHIEF_JUSTICE_FUCKASS","steam_id":76561199261675844,"connected_time":1343000000000,"state":"active","ping":135},{"user_id":426,"name":"0bliv","steam_id":76561198122715915,"connected_time":462000000000,"state":"active","ping":182},{"user_id":423,"name":"dunky donut","steam_id":76561198070574618,"connected_time":619000000000,"state":"active","ping":73},{"user_id":429,"name":"Strider1","steam_id":76561198117980228,"connected_time":126000000000,"state":"active","ping":70},{"user_id":415,"name":"-W3E- grim10465","steam_id":76561198045698581,"connected_time":1357000000000,"state":"active","ping":60},{"user_id":416,"name":"scrapheap","steam_id":76561198202407087,"connected_time":1354000000000,"state":"active","ping":80},{"user_id":413,"name":"Mr. Beans","steam_id":76561198859924231,"connected_time":1381000000000,"state":"active","ping":59},{"user_id":392,"name":"Lolxdloldx","steam_id":76561198136887125,"connected_time":2768000000000,"state":"active","ping":96},{"user_id":383,"name":"Garfield","steam_id":76561199251237007,"connected_time":3091000000000,"state":"active","ping":120},{"user_id":407,"name":"melvyn","steam_id":76561198113226381,"connected_time":1617000000000,"state":"active","ping":60},{"user_id":393,"name":"Crystall","steam_id":76561198346607700,"connected_time":2767000000000,"state":"active","ping":80},{"user_id":420,"name":"I came (up)","steam_id":76561198057745131,"connected_time":1251000000000,"state":"active","ping":39}]},{"server_id":400,"name":"Uncletopia | Atlanta | 3 | Stopwatch","name_short":"atl-3","host":"atl-1.us.uncletopia.com","port":27035,"enabled":true,"region":"us-east","cc":"us","latitude":33.753746,"longitude":-84.38633,"reserved":0,"last_update":"0001-01-01T00:00:00Z","name_a2s":"Uncletopia | Atlanta | 3 | Stopwatch","protocol":17,"map":"pl_badwater","folder":"tf","game":"Team Fortress","app_id":440,"player_count":0,"max_players":24,"Bots":0,"server_type":"Dedicated","server_os":"Linux","password":true,"vac":true,"version":"7961495","steam_id":85568392924515187,"keywords":["nocrits","nodmgspread","payload","uncletopia"],"game_id":440,"stv_port":27036,"stv_name":"Uncletopia | Atlanta | 3 | Stopwatch | STV","players":null},{"server_id":401,"name":"Uncletopia | Atlanta | 4 | Community","name_short":"atl-4","host":"atl-1.us.uncletopia.com","port":27045,"enabled":true,"region":"us-east","cc":"us","latitude":33.753746,"longitude":-84.38633,"reserved":0,"last_update":"0001-01-01T00:00:00Z","name_a2s":"Uncletopia | Atlanta | 4 | Community","protocol":17,"map":"workshop/cp_overgrown_rc8.ugc503939302","folder":"tf","game":"Team Fortress","app_id":440,"player_count":0,"max_players":24,"Bots":0,"server_type":"Dedicated","server_os":"Linux","password":true,"vac":true,"version":"7961495","steam_id":85568392924515188,"keywords":["cp","nocrits","nodmgspread","uncletopia"],"game_id":440,"stv_port":27046,"stv_name":"Uncletopia | Atlanta | 4 | Community | STV","players":null},{"server_id":2,"name":"Uncletopia | Chicago | 1 | All Maps","name_short":"chi-1","host":"chi-1.us.uncletopia.com","port":27015,"enabled":true,"region":"us-central","cc":"us","latitude":41.881832,"longitude":-87.62318,"reserved":0,"last_update":"0001-01-01T00:00:00Z","name_a2s":"Uncletopia | Chicago | 1 | All Maps","protocol":17,"map":"pl_upward","folder":"tf","game":"Team Fortress","app_id":440,"player_count":24,"max_players":24,"Bots":0,"server_type":"Dedicated","server_os":"Linux","password":true,"vac":true,"version":"7961495","steam_id":85568392924469984,"keywords":["nocrits","nodmgspread","payload","uncletopia"],"game_id":440,"stv_port":27016,"stv_name":"Uncletopia | Chicago | 1 | All Maps | STV","players":[{"user_id":451,"name":"cookies","steam_id":76561198280864779,"connected_time":1300000000000,"state":"active","ping":84},{"user_id":423,"name":"Baka!â‘¨â‘¨â‘¨â‘¨","steam_id":76561198152948254,"connected_time":4681000000000,"state":"active","ping":64},{"user_id":438,"name":"Der Krieger105","steam_id":76561197978384609,"connected_time":2795000000000,"state":"active","ping":87},{"user_id":444,"name":"I came (up)","steam_id":76561198057745131,"connected_time":2079000000000,"state":"active","ping":58},{"user_id":478,"name":"Kuato","steam_id":76561198070591328,"connected_time":241000000000,"state":"active","ping":47},{"user_id":479,"name":"Praise_to_the_Flashlight!","steam_id":76561199001728789,"connected_time":233000000000,"state":"active","ping":64},{"user_id":450,"name":"Snom","steam_id":76561198333827920,"connected_time":1673000000000,"state":"active","ping":99},{"user_id":440,"name":"donatello ãƒ„","steam_id":76561198091157081,"connected_time":2787000000000,"state":"active","ping":59},{"user_id":463,"name":"Scheduled Program","steam_id":76561198196911453,"connected_time":1061000000000,"state":"active","ping":45},{"user_id":452,"name":"â™¥Bunnyâ™¥Slutâ™¥","steam_id":76561198206376851,"connected_time":1298000000000,"state":"active","ping":94},{"user_id":474,"name":"Phos","steam_id":76561198122339506,"connected_time":619000000000,"state":"active","ping":75},{"user_id":475,"name":"Steve","steam_id":76561199066660022,"connected_time":540000000000,"state":"active","ping":81},{"user_id":466,"name":"joyeuxnoelle","steam_id":76561198062423120,"connected_time":1011000000000,"state":"active","ping":76},{"user_id":435,"name":"richard clock","steam_id":76561198048455671,"connected_time":3475000000000,"state":"active","ping":60},{"user_id":441,"name":"TehOneZoot","steam_id":76561198121944243,"connected_time":2784000000000,"state":"active","ping":56},{"user_id":476,"name":"Emperor J","steam_id":76561199014663561,"connected_time":421000000000,"state":"active","ping":46},{"user_id":470,"name":"[TF2Apples] Intense Green Apple","steam_id":76561198803561622,"connected_time":705000000000,"state":"active","ping":87},{"user_id":477,"name":"Bear bird","steam_id":76561198166769479,"connected_time":364000000000,"state":"active","ping":87},{"user_id":462,"name":"capybara","steam_id":76561198798828328,"connected_time":1226000000000,"state":"active","ping":47},{"user_id":468,"name":"Kattnesta","steam_id":76561198210927551,"connected_time":971000000000,"state":"active","ping":58},{"user_id":422,"name":"daffodil","steam_id":76561198049480053,"connected_time":4778000000000,"state":"active","ping":62},{"user_id":443,"name":"wiiblob","steam_id":76561198109106242,"connected_time":2768000000000,"state":"active","ping":136},{"user_id":405,"name":"Lia_Rein","steam_id":76561198151569597,"connected_time":7749000000000,"state":"active","ping":137},{"user_id":448,"name":"Your Local Queer Librarian","steam_id":76561198013077080,"connected_time":2008000000000,"state":"active","ping":59}]},{"server_id":106,"name":"Uncletopia | Chicago | 2 | All Maps","name_short":"chi-2","host":"chi-1.us.uncletopia.com","port":27025,"enabled":true,"region":"us-central","cc":"us","latitude":41.881832,"longitude":-87.62318,"reserved":0,"last_update":"0001-01-01T00:00:00Z","name_a2s":"Uncletopia | Chicago | 2 | All Maps","protocol":17,"map":"pl_pier","folder":"tf","game":"Team Fortress","app_id":440,"player_count":24,"max_players":24,"Bots":0,"server_type":"Dedicated","server_os":"Linux","password":true,"vac":true,"version":"7961495","steam_id":85568392924469985,"keywords":["nocrits","nodmgspread","payload","uncletopia"],"game_id":440,"stv_port":27026,"stv_name":"Uncletopia | Chicago | 2 | All Maps | STV","players":[{"user_id":351,"name":"aisu","steam_id":76561198043768507,"connected_time":697000000000,"state":"active","ping":65},{"user_id":292,"name":"GumCuzzler69","steam_id":76561198257418930,"connected_time":4754000000000,"state":"active","ping":61},{"user_id":350,"name":"30day","steam_id":76561198219163831,"connected_time":733000000000,"state":"active","ping":63},{"user_id":352,"name":"scrungle","steam_id":76561198041102272,"connected_time":688000000000,"state":"active","ping":74},{"user_id":338,"name":"Beau","steam_id":76561198162587622,"connected_time":1652000000000,"state":"active","ping":74},{"user_id":312,"name":"Phat Cat","steam_id":76561198123017274,"connected_time":2859000000000,"state":"active","ping":50},{"user_id":342,"name":"The Grim Heaper","steam_id":76561197987759101,"connected_time":1512000000000,"state":"active","ping":106},{"user_id":334,"name":"Skiddy","steam_id":76561198125942665,"connected_time":1791000000000,"state":"active","ping":89},{"user_id":314,"name":"Artemisia (She/They)","steam_id":76561198265616793,"connected_time":2805000000000,"state":"active","ping":71},{"user_id":349,"name":"UwU","steam_id":76561198971629959,"connected_time":790000000000,"state":"active","ping":133},{"user_id":344,"name":"Dieu-Sama","steam_id":76561198002075862,"connected_time":1306000000000,"state":"active","ping":79},{"user_id":254,"name":"Kero","steam_id":76561198343231436,"connected_time":7951000000000,"state":"active","ping":58},{"user_id":343,"name":"Bunni","steam_id":76561198065169997,"connected_time":1382000000000,"state":"active","ping":86},{"user_id":316,"name":"failure of a gamer... maybe","steam_id":76561199499794979,"connected_time":2769000000000,"state":"active","ping":103},{"user_id":348,"name":"Dan","steam_id":76561199236719411,"connected_time":1028000000000,"state":"active","ping":70},{"user_id":319,"name":"Engineer Gaming","steam_id":76561198840761529,"connected_time":2740000000000,"state":"active","ping":60},{"user_id":346,"name":"what","steam_id":76561198062459671,"connected_time":1281000000000,"state":"active","ping":104},{"user_id":321,"name":"Soupcan","steam_id":76561198012807915,"connected_time":2737000000000,"state":"active","ping":80},{"user_id":324,"name":"kicks","steam_id":76561199228854923,"connected_time":2674000000000,"state":"active","ping":57},{"user_id":354,"name":"monsterkill4567","steam_id":76561198272986367,"connected_time":681000000000,"state":"active","ping":112},{"user_id":357,"name":"Weary","steam_id":76561198145767546,"connected_time":616000000000,"state":"active","ping":59},{"user_id":326,"name":"Junipyre","steam_id":76561198044819364,"connected_time":2651000000000,"state":"active","ping":78},{"user_id":359,"name":"TF2 Enjoyer","steam_id":76561199151545966,"connected_time":33000000000,"state":"spawning","ping":44},{"user_id":247,"name":"Tito","steam_id":76561198041702529,"connected_time":8925000000000,"state":"active","ping":86}]},{"server_id":402,"name":"Uncletopia | Chicago | 3 | All Maps","name_short":"chi-3","host":"chi-1.us.uncletopia.com","port":27035,"enabled":true,"region":"us-central","cc":"us","latitude":41.881832,"longitude":-87.62318,"reserved":0,"last_update":"0001-01-01T00:00:00Z","name_a2s":"Uncletopia | Chicago | 3 | All Maps","protocol":17,"map":"pl_upward","folder":"tf","game":"Team Fortress","app_id":440,"player_count":24,"max_players":24,"Bots":0,"server_type":"Dedicated","server_os":"Linux","password":true,"vac":true,"version":"7961495","steam_id":85568392924515191,"keywords":["nocrits","nodmgspread","payload","uncletopia"],"game_id":440,"stv_port":27036,"stv_name":"Uncletopia | Chicago | 3 | All Maps | STV","players":[{"user_id":316,"name":"Kaestal","steam_id":76561198033174157,"connected_time":1277000000000,"state":"active","ping":69},{"user_id":305,"name":"BigBear","steam_id":76561198105227261,"connected_time":1864000000000,"state":"active","ping":94},{"user_id":321,"name":"A gnome with a globe","steam_id":76561199025698552,"connected_time":1153000000000,"state":"active","ping":81},{"user_id":328,"name":"Andrew's Taint","steam_id":76561198131400543,"connected_time":78000000000,"state":"active","ping":71},{"user_id":325,"name":"PK","steam_id":76561198368722500,"connected_time":839000000000,"state":"active","ping":71},{"user_id":309,"name":"dirty30","steam_id":76561198021226566,"connected_time":1820000000000,"state":"active","ping":90},{"user_id":280,"name":"MoomyBoomy","steam_id":76561198150787961,"connected_time":3847000000000,"state":"active","ping":83},{"user_id":311,"name":"Pop Pop","steam_id":76561198211396781,"connected_time":1703000000000,"state":"active","ping":64},{"user_id":281,"name":"IdkProlly","steam_id":76561198269212968,"connected_time":3837000000000,"state":"active","ping":59},{"user_id":282,"name":"the foreskin collector","steam_id":76561198034377946,"connected_time":3817000000000,"state":"active","ping":85},{"user_id":303,"name":"president card holder","steam_id":76561198375348510,"connected_time":1945000000000,"state":"active","ping":86},{"user_id":307,"name":"vcx","steam_id":76561198139371143,"connected_time":1845000000000,"state":"active","ping":72},{"user_id":222,"name":"sheeesh","steam_id":76561198038080028,"connected_time":8216000000000,"state":"active","ping":90},{"user_id":293,"name":"Hankel Tom","steam_id":76561199446367874,"connected_time":3050000000000,"state":"active","ping":48},{"user_id":319,"name":"playguy carter","steam_id":76561198080679337,"connected_time":1184000000000,"state":"active","ping":60},{"user_id":312,"name":"mr.meaner","steam_id":76561199468236392,"connected_time":1700000000000,"state":"active","ping":107},{"user_id":320,"name":"aversa","steam_id":76561198840460101,"connected_time":1174000000000,"state":"active","ping":73},{"user_id":323,"name":"Bush.exe","steam_id":76561198124385307,"connected_time":1147000000000,"state":"active","ping":75},{"user_id":306,"name":"Echolu","steam_id":76561198158613750,"connected_time":1863000000000,"state":"active","ping":112},{"user_id":167,"name":"Gen-E  TTV/geneoftf2","steam_id":76561199497800989,"connected_time":11376000000000,"state":"active","ping":86},{"user_id":313,"name":"BananaMangoFestival2013","steam_id":76561198218558897,"connected_time":1697000000000,"state":"active","ping":140},{"user_id":314,"name":"Volteer","steam_id":76561198069395024,"connected_time":1669000000000,"state":"active","ping":76},{"user_id":326,"name":"WumpisWumbo","steam_id":76561199238214734,"connected_time":500000000000,"state":"active","ping":92},{"user_id":324,"name":"EliteSpartan","steam_id":76561198174023582,"connected_time":1126000000000,"state":"active","ping":56}]},{"server_id":403,"name":"Uncletopia | Chicago | 4 | All Maps","name_short":"chi-4","host":"chi-1.us.uncletopia.com","port":27045,"enabled":true,"region":"us-central","cc":"us","latitude":41.881832,"longitude":-87.62318,"reserved":0,"last_update":"0001-01-01T00:00:00Z","name_a2s":"Uncletopia | Chicago | 4 | All Maps","protocol":17,"map":"pl_frontier_final","folder":"tf","game":"Team Fortress","app_id":440,"player_count":24,"max_players":24,"Bots":0,"server_type":"Dedicated","server_os":"Linux","password":true,"vac":true,"version":"7961495","steam_id":85568392924515193,"keywords":["nocrits","nodmgspread","payload","uncletopia"],"game_id":440,"stv_port":27046,"stv_name":"Uncletopia | Chicago | 4 | All Maps | STV","players":[{"user_id":309,"name":"og biden pack cart","steam_id":76561198253731826,"connected_time":3567000000000,"state":"active","ping":54},{"user_id":348,"name":"Big Bill Haywood","steam_id":76561198142290733,"connected_time":849000000000,"state":"active","ping":63},{"user_id":346,"name":"Female Gamer","steam_id":76561199366482682,"connected_time":872000000000,"state":"active","ping":115},{"user_id":356,"name":"undigestedcorn","steam_id":76561198033451312,"connected_time":616000000000,"state":"active","ping":113},{"user_id":278,"name":"thetroupegang","steam_id":76561198340510098,"connected_time":5420000000000,"state":"active","ping":72},{"user_id":357,"name":"Epha","steam_id":76561198079379951,"connected_time":5000000000,"state":"spawning","ping":92},{"user_id":347,"name":"slep.py","steam_id":76561197988287144,"connected_time":869000000000,"state":"active","ping":51},{"user_id":343,"name":"I'll wrestle ya!","steam_id":76561198077249707,"connected_time":1244000000000,"state":"active","ping":81},{"user_id":336,"name":"Harpua","steam_id":76561197988020228,"connected_time":2012000000000,"state":"active","ping":68},{"user_id":330,"name":"Snorlax","steam_id":76561198123124356,"connected_time":2292000000000,"state":"active","ping":47},{"user_id":345,"name":"HenryHJ","steam_id":76561198206291528,"connected_time":916000000000,"state":"active","ping":98},{"user_id":332,"name":"J4el","steam_id":76561199218545556,"connected_time":2268000000000,"state":"active","ping":169},{"user_id":349,"name":"RedCo","steam_id":76561198335366889,"connected_time":809000000000,"state":"active","ping":60},{"user_id":340,"name":"mp4 ?","steam_id":76561198826820952,"connected_time":1330000000000,"state":"active","ping":60},{"user_id":342,"name":"Johnny Lawrence #JohnnyMaxxing","steam_id":76561199367141671,"connected_time":1295000000000,"state":"active","ping":72},{"user_id":339,"name":"Deathbringer097","steam_id":76561198806994937,"connected_time":1640000000000,"state":"active","ping":50},{"user_id":351,"name":"ChocoMcFudgeCake","steam_id":76561197994591295,"connected_time":805000000000,"state":"active","ping":45},{"user_id":352,"name":"SpringSloth","steam_id":76561199211310022,"connected_time":803000000000,"state":"active","ping":77},{"user_id":353,"name":"kup","steam_id":76561198046816932,"connected_time":802000000000,"state":"active","ping":61},{"user_id":315,"name":"Splexiey","steam_id":76561199122155213,"connected_time":2999000000000,"state":"active","ping":88},{"user_id":287,"name":"R@cing74m","steam_id":76561199036177043,"connected_time":4961000000000,"state":"active","ping":71},{"user_id":271,"name":"Baby gaming","steam_id":76561198867319323,"connected_time":5862000000000,"state":"active","ping":63},{"user_id":259,"name":"Pants Charming","steam_id":76561198217858291,"connected_time":6753000000000,"state":"active","ping":64},{"user_id":355,"name":"AMistake","steam_id":76561199379196708,"connected_time":682000000000,"state":"active","ping":64}]},{"server_id":36,"name":"Uncletopia | Chicago | 5 | All Maps","name_short":"chi-5","host":"chi-2.us.uncletopia.com","port":27015,"enabled":true,"region":"us-central","cc":"us","latitude":41.881832,"longitude":-87.62318,"reserved":0,"last_update":"0001-01-01T00:00:00Z","name_a2s":"Uncletopia | Chicago | 5 | All Maps","protocol":17,"map":"ctf_turbine","folder":"tf","game":"Team Fortress","app_id":440,"player_count":24,"max_players":24,"Bots":0,"server_type":"Dedicated","server_os":"Linux","password":true,"vac":true,"version":"7961495","steam_id":85568392924866362,"keywords":["ctf","nocrits","nodmgspread","uncletopia"],"game_id":440,"stv_port":27016,"stv_name":"Uncletopia | Chicago | 5 | All Maps | STV","players":[{"user_id":112,"name":"Steve (from Minecraft)","steam_id":76561198232026076,"connected_time":2580000000000,"state":"active","ping":58},{"user_id":108,"name":"shy femboy â™¥","steam_id":76561199105702683,"connected_time":2825000000000,"state":"active","ping":79},{"user_id":35,"name":"Elias","steam_id":76561198106431732,"connected_time":9342000000000,"state":"active","ping":59},{"user_id":137,"name":"munch","steam_id":76561198820480684,"connected_time":78000000000,"state":"active","ping":53},{"user_id":97,"name":"ndvr (femboy (REAL))","steam_id":76561199379200102,"connected_time":3676000000000,"state":"active","ping":64},{"user_id":99,"name":"Femboy Medic Main","steam_id":76561198268225109,"connected_time":3622000000000,"state":"active","ping":90},{"user_id":128,"name":"EverythingIsRed","steam_id":76561198000147208,"connected_time":1098000000000,"state":"active","ping":76},{"user_id":138,"name":"guitarfreak","steam_id":76561198139851357,"connected_time":52000000000,"state":"active","ping":90},{"user_id":101,"name":"SkiDootDoot","steam_id":76561198128394623,"connected_time":3157000000000,"state":"active","ping":99},{"user_id":109,"name":"Slavaskii","steam_id":76561198046673499,"connected_time":2824000000000,"state":"active","ping":82},{"user_id":123,"name":"larssnakes","steam_id":76561198438229911,"connected_time":1884000000000,"state":"active","ping":100},{"user_id":110,"name":"/JELL-E/","steam_id":76561198031000001,"connected_time":2807000000000,"state":"active","ping":93},{"user_id":121,"name":"Sobertoday","steam_id":76561198010606163,"connected_time":1932000000000,"state":"active","ping":76},{"user_id":131,"name":"Pork Soda","steam_id":76561198119575082,"connected_time":1041000000000,"state":"active","ping":81},{"user_id":95,"name":"Beebo, Son of Beebo","steam_id":76561198055948497,"connected_time":4179000000000,"state":"active","ping":57},{"user_id":125,"name":"GasterDog","steam_id":76561198844423506,"connected_time":1590000000000,"state":"active","ping":105},{"user_id":130,"name":"flarifier","steam_id":76561198315072848,"connected_time":1094000000000,"state":"active","ping":70},{"user_id":133,"name":"BoyWithTheBeanie","steam_id":76561199435079308,"connected_time":941000000000,"state":"active","ping":158},{"user_id":98,"name":"Brook Prime","steam_id":76561198185126222,"connected_time":3663000000000,"state":"active","ping":125},{"user_id":132,"name":"Method Mon Mothma","steam_id":76561197976110189,"connected_time":1024000000000,"state":"active","ping":66},{"user_id":126,"name":"Eblizard","steam_id":76561198111481965,"connected_time":1318000000000,"state":"active","ping":79},{"user_id":124,"name":"Scribble","steam_id":76561198046115675,"connected_time":1834000000000,"state":"active","ping":69},{"user_id":113,"name":"White","steam_id":76561198305863331,"connected_time":2527000000000,"state":"active","ping":82},{"user_id":135,"name":"Gaming","steam_id":76561198107080532,"connected_time":488000000000,"state":"active","ping":79}]},{"server_id":37,"name":"Uncletopia | Chicago | 6 | All Maps","name_short":"chi-6","host":"chi-2.us.uncletopia.com","port":27025,"enabled":true,"region":"us-central","cc":"us","latitude":41.881832,"longitude":-87.62318,"reserved":0,"last_update":"0001-01-01T00:00:00Z","name_a2s":"Uncletopia | Chicago | 6 | All Maps","protocol":17,"map":"cp_dustbowl","folder":"tf","game":"Team Fortress","app_id":440,"player_count":24,"max_players":24,"Bots":0,"server_type":"Dedicated","server_os":"Linux","password":true,"vac":true,"version":"7961495","steam_id":85568392924866363,"keywords":["cp","nocrits","nodmgspread","uncletopia"],"game_id":440,"stv_port":27026,"stv_name":"Uncletopia | Chicago | 6 | All Maps | STV","players":[{"user_id":284,"name":"bkiller","steam_id":76561198029265697,"connected_time":1810000000000,"state":"active","ping":76},{"user_id":263,"name":"SpongedSocks","steam_id":76561198374009086,"connected_time":2668000000000,"state":"active","ping":71},{"user_id":276,"name":"Coup de Grass","steam_id":76561198011643226,"connected_time":2101000000000,"state":"active","ping":68},{"user_id":285,"name":"Frontier Psychiatrist","steam_id":76561198038689088,"connected_time":1803000000000,"state":"active","ping":85},{"user_id":182,"name":"RusticCarp42989","steam_id":76561198361151865,"connected_time":7837000000000,"state":"active","ping":127},{"user_id":293,"name":"Voodo133","steam_id":76561198042670351,"connected_time":537000000000,"state":"active","ping":86},{"user_id":294,"name":"p1zza","steam_id":76561197967631939,"connected_time":530000000000,"state":"active","ping":45},{"user_id":180,"name":"SiltyStar85","steam_id":76561198309175923,"connected_time":7866000000000,"state":"active","ping":104},{"user_id":244,"name":"Dr Smeggman","steam_id":76561197966614845,"connected_time":4488000000000,"state":"active","ping":135},{"user_id":295,"name":"Luciâ˜…Fer","steam_id":76561199030343810,"connected_time":517000000000,"state":"active","ping":53},{"user_id":296,"name":"absolutelypibbed","steam_id":76561198260973385,"connected_time":483000000000,"state":"active","ping":102},{"user_id":287,"name":"Sammich Slinger","steam_id":76561198007644532,"connected_time":1768000000000,"state":"active","ping":105},{"user_id":297,"name":"squaggles!","steam_id":76561197994995011,"connected_time":473000000000,"state":"active","ping":60},{"user_id":267,"name":"Bullwinkle J. Moose","steam_id":76561198075977196,"connected_time":2578000000000,"state":"active","ping":92},{"user_id":291,"name":"boo_thefeared","steam_id":76561198127967685,"connected_time":1257000000000,"state":"active","ping":147},{"user_id":228,"name":"Magnus Rex","steam_id":76561197987091236,"connected_time":5280000000000,"state":"active","ping":80},{"user_id":288,"name":"Kantamoe","steam_id":76561198046661611,"connected_time":1750000000000,"state":"active","ping":89},{"user_id":198,"name":"Boofenshmirtz","steam_id":76561198071649858,"connected_time":6847000000000,"state":"active","ping":70},{"user_id":249,"name":"yobany","steam_id":76561198339606152,"connected_time":4227000000000,"state":"active","ping":89},{"user_id":298,"name":"Ace Chromatica","steam_id":76561198042211131,"connected_time":455000000000,"state":"active","ping":72},{"user_id":247,"name":"Doubie","steam_id":76561198104492019,"connected_time":4384000000000,"state":"active","ping":84},{"user_id":292,"name":"Swag Messiah","steam_id":76561198400058665,"connected_time":918000000000,"state":"active","ping":79},{"user_id":299,"name":"(âˆ©'-Â´)âŠƒ â˜† Lezbean Cat","steam_id":76561199500664171,"connected_time":384000000000,"state":"active","ping":75},{"user_id":300,"name":"Takeover","steam_id":76561197996081461,"connected_time":350000000000,"state":"active","ping":58}]},{"server_id":38,"name":"Uncletopia | Chicago | 7 | Stopwatch","name_short":"chi-7","host":"chi-2.us.uncletopia.com","port":27035,"enabled":true,"region":"us-central","cc":"us","latitude":41.881832,"longitude":-87.62318,"reserved":0,"last_update":"0001-01-01T00:00:00Z","name_a2s":"Uncletopia | Chicago | 7 | Stopwatch","protocol":17,"map":"cp_metalworks","folder":"tf","game":"Team Fortress","app_id":440,"player_count":24,"max_players":24,"Bots":0,"server_type":"Dedicated","server_os":"Linux","password":true,"vac":true,"version":"7961495","steam_id":85568392924866364,"keywords":["cp","nocrits","nodmgspread","uncletopia"],"game_id":440,"stv_port":27036,"stv_name":"Uncletopia | Chicago | 7 | Stopwatch | STV","players":[{"user_id":90,"name":"Sock Box Crab","steam_id":76561198154115187,"connected_time":428000000000,"state":"active","ping":120},{"user_id":69,"name":"LordOfTheNoobs","steam_id":76561197962697523,"connected_time":3100000000000,"state":"active","ping":75},{"user_id":85,"name":"whirlybird","steam_id":76561198353887173,"connected_time":1407000000000,"state":"active","ping":32},{"user_id":14,"name":"Yeti","steam_id":76561198035450920,"connected_time":6282000000000,"state":"active","ping":86},{"user_id":93,"name":"truck freak","steam_id":76561198062712676,"connected_time":271000000000,"state":"active","ping":99},{"user_id":91,"name":"plaguecrow","steam_id":76561198312524974,"connected_time":415000000000,"state":"active","ping":102},{"user_id":40,"name":"Captain Malarkey","steam_id":76561198869924281,"connected_time":5366000000000,"state":"active","ping":83},{"user_id":92,"name":"Schizoid","steam_id":76561198088687988,"connected_time":366000000000,"state":"active","ping":55},{"user_id":55,"name":"wajanta","steam_id":76561199040280852,"connected_time":4238000000000,"state":"active","ping":86},{"user_id":94,"name":"shellaa","steam_id":76561198044124102,"connected_time":270000000000,"state":"active","ping":78},{"user_id":81,"name":"checkswing","steam_id":76561198999816132,"connected_time":1904000000000,"state":"active","ping":75},{"user_id":71,"name":"HEEHAW","steam_id":76561198027435726,"connected_time":3070000000000,"state":"active","ping":85},{"user_id":84,"name":"Greatcascade","steam_id":76561198161218812,"connected_time":1442000000000,"state":"active","ping":96},{"user_id":86,"name":"Evan","steam_id":76561197972292926,"connected_time":1407000000000,"state":"active","ping":75},{"user_id":65,"name":"AlFury1003","steam_id":76561198219881904,"connected_time":3292000000000,"state":"active","ping":82},{"user_id":39,"name":"BB Lorexav","steam_id":76561198207565988,"connected_time":5451000000000,"state":"active","ping":80},{"user_id":77,"name":"Wawa","steam_id":76561198077716836,"connected_time":2489000000000,"state":"active","ping":58},{"user_id":95,"name":"Skeeter Squash","steam_id":76561198129162464,"connected_time":262000000000,"state":"active","ping":80},{"user_id":73,"name":"Aristotle Voulton","steam_id":76561198100174923,"connected_time":3034000000000,"state":"active","ping":110},{"user_id":32,"name":"DJ_Ohm","steam_id":76561198147746914,"connected_time":5746000000000,"state":"active","ping":68},{"user_id":78,"name":"TwistyBoi","steam_id":76561198201410603,"connected_time":2341000000000,"state":"active","ping":67},{"user_id":74,"name":"Olitude","steam_id":76561199238964574,"connected_time":3005000000000,"state":"active","ping":71},{"user_id":35,"name":"toritora","steam_id":76561198023859737,"connected_time":5742000000000,"state":"active","ping":72},{"user_id":67,"name":"Natsuki the Scunt","steam_id":76561199175922684,"connected_time":3228000000000,"state":"active","ping":120}]},{"server_id":39,"name":"Uncletopia | Chicago | 8 | Community","name_short":"chi-8","host":"chi-2.us.uncletopia.com","port":27045,"enabled":true,"region":"us-central","cc":"us","latitude":41.881832,"longitude":-87.62318,"reserved":0,"last_update":"0001-01-01T00:00:00Z","name_a2s":"Uncletopia | Chicago | 8 | Community","protocol":17,"map":"workshop/rd_asteroid_redux_b1.ugc2154902912","folder":"tf","game":"Team Fortress","app_id":440,"player_count":1,"max_players":24,"Bots":0,"server_type":"Dedicated","server_os":"Linux","password":true,"vac":true,"version":"7961495","steam_id":85568392924866365,"keywords":["beta","nocrits","nodmgspread","rd","uncletopia"],"game_id":440,"stv_port":27046,"stv_name":"Uncletopia | Chicago | 8 | Community | STV","players":[{"user_id":13,"name":"phaazers","steam_id":76561198053874300,"connected_time":58000000000,"state":"active","ping":84}]},{"server_id":8,"name":"Uncletopia | Dallas | 1 | All Maps","name_short":"dal-1","host":"dal-1.us.uncletopia.com","port":27015,"enabled":true,"region":"us-central","cc":"us","latitude":32.779167,"longitude":-96.80889,"reserved":0,"last_update":"0001-01-01T00:00:00Z","name_a2s":"Uncletopia | Dallas | 1 | All Maps","protocol":17,"map":"pl_swiftwater_final1","folder":"tf","game":"Team Fortress","app_id":440,"player_count":24,"max_players":24,"Bots":0,"server_type":"Dedicated","server_os":"Linux","password":true,"vac":true,"version":"7961495","steam_id":85568392924469986,"keywords":["nocrits","nodmgspread","payload","uncletopia"],"game_id":440,"stv_port":27016,"stv_name":"Uncletopia | Dallas | 1 | All Maps | STV","players":[{"user_id":779,"name":"{ST} Oxythemoron","steam_id":76561198060089965,"connected_time":3265000000000,"state":"active","ping":55},{"user_id":748,"name":"fish","steam_id":76561198182052198,"connected_time":5181000000000,"state":"active","ping":82},{"user_id":805,"name":"caiptaincreemo","steam_id":76561198221714116,"connected_time":1882000000000,"state":"active","ping":57},{"user_id":780,"name":"chrischrischris3018@yahoo.com","steam_id":76561198137316053,"connected_time":3261000000000,"state":"active","ping":67},{"user_id":795,"name":"The Pootis'd Berd","steam_id":76561198141903490,"connected_time":2443000000000,"state":"active","ping":112},{"user_id":823,"name":"â™¥Katiaâ™¥","steam_id":76561198977212642,"connected_time":247000000000,"state":"active","ping":85},{"user_id":824,"name":"Q47","steam_id":76561198087128341,"connected_time":89000000000,"state":"active","ping":136},{"user_id":813,"name":"Batso","steam_id":76561198106589452,"connected_time":1277000000000,"state":"active","ping":83},{"user_id":819,"name":"Monkey Mode","steam_id":76561197961267543,"connected_time":355000000000,"state":"active","ping":73},{"user_id":796,"name":"Toasterduds","steam_id":76561198163477584,"connected_time":2430000000000,"state":"active","ping":94},{"user_id":810,"name":"sebjzy â™¥","steam_id":76561198009959034,"connected_time":1291000000000,"state":"active","ping":61},{"user_id":817,"name":"barker bill","steam_id":76561198018451994,"connected_time":411000000000,"state":"active","ping":72},{"user_id":760,"name":"Bad Medic Buddy","steam_id":76561198093222632,"connected_time":4843000000000,"state":"active","ping":87},{"user_id":801,"name":"PowerGem3000","steam_id":76561198944644691,"connected_time":2209000000000,"state":"active","ping":84},{"user_id":782,"name":"Swag Messiah","steam_id":76561198290152114,"connected_time":3244000000000,"state":"active","ping":89},{"user_id":816,"name":"pool man","steam_id":76561198093145483,"connected_time":416000000000,"state":"active","ping":51},{"user_id":797,"name":"Fatpoob","steam_id":76561198056730096,"connected_time":2420000000000,"state":"active","ping":81},{"user_id":821,"name":"Agent Bowtie","steam_id":76561198175839279,"connected_time":325000000000,"state":"active","ping":69},{"user_id":812,"name":"Howell at the Moon","steam_id":76561198060827426,"connected_time":1287000000000,"state":"active","ping":85},{"user_id":807,"name":"ImmenseWraith","steam_id":76561198963757884,"connected_time":1597000000000,"state":"active","ping":79},{"user_id":822,"name":"celery","steam_id":76561199004451589,"connected_time":319000000000,"state":"active","ping":55},{"user_id":802,"name":"FreshlyBrewed","steam_id":76561198181099881,"connected_time":2163000000000,"state":"active","ping":87},{"user_id":746,"name":"Scremz","steam_id":76561198090314229,"connected_time":5509000000000,"state":"active","ping":74}]},{"server_id":108,"name":"Uncletopia | Dallas | 2 | All Maps","name_short":"dal-2","host":"dal-1.us.uncletopia.com","port":27025,"enabled":true,"region":"us-central","cc":"us","latitude":32.779167,"longitude":-96.80889,"reserved":0,"last_update":"0001-01-01T00:00:00Z","name_a2s":"Uncletopia | Dallas | 2 | All Maps","protocol":17,"map":"cp_snakewater_final1","folder":"tf","game":"Team Fortress","app_id":440,"player_count":24,"max_players":24,"Bots":0,"server_type":"Dedicated","server_os":"Linux","password":true,"vac":true,"version":"7961495","steam_id":85568392924469988,"keywords":["cp","nocrits","nodmgspread","uncletopia"],"game_id":440,"stv_port":27026,"stv_name":"Uncletopia | Dallas | 2 | All Maps | STV","players":[{"user_id":665,"name":"Valenhart","steam_id":76561198354036240,"connected_time":1270000000000,"state":"active","ping":78},{"user_id":675,"name":"Robo Boss","steam_id":76561199067098696,"connected_time":547000000000,"state":"active","ping":85},{"user_id":650,"name":"BatMatt","steam_id":76561198045910433,"connected_time":2211000000000,"state":"active","ping":54},{"user_id":621,"name":"Gubbington","steam_id":76561198959381302,"connected_time":4616000000000,"state":"active","ping":75},{"user_id":622,"name":"TwelvePackofSaltyBones","steam_id":76561198224764664,"connected_time":4601000000000,"state":"active","ping":77},{"user_id":645,"name":"Gemmma","steam_id":76561198102160302,"connected_time":2324000000000,"state":"active","ping":65},{"user_id":656,"name":"Proud Swift City Resident","steam_id":76561198036283992,"connected_time":1382000000000,"state":"active","ping":84},{"user_id":678,"name":"RC","steam_id":76561198048127881,"connected_time":469000000000,"state":"active","ping":61},{"user_id":684,"name":"Strangelove","steam_id":76561198353773611,"connected_time":105000000000,"state":"active","ping":102},{"user_id":658,"name":"mkl","steam_id":76561197986401685,"connected_time":1363000000000,"state":"active","ping":60},{"user_id":647,"name":"menonamed","steam_id":76561198199564382,"connected_time":2315000000000,"state":"active","ping":89},{"user_id":676,"name":"SkoranShogun","steam_id":76561198091811218,"connected_time":545000000000,"state":"active","ping":70},{"user_id":672,"name":"Luffliet.","steam_id":76561198186593707,"connected_time":621000000000,"state":"active","ping":53},{"user_id":625,"name":"bluebluepickles","steam_id":76561198119503953,"connected_time":4573000000000,"state":"active","ping":83},{"user_id":651,"name":"Lolxdloldx","steam_id":76561198136887125,"connected_time":2207000000000,"state":"active","ping":80},{"user_id":668,"name":"Lord Moldybutt","steam_id":76561198049203455,"connected_time":1007000000000,"state":"active","ping":61},{"user_id":673,"name":"TamerMushroom64","steam_id":76561199128190180,"connected_time":586000000000,"state":"active","ping":154},{"user_id":667,"name":"viva la vida","steam_id":76561198072179483,"connected_time":1056000000000,"state":"active","ping":108},{"user_id":681,"name":"zogs","steam_id":76561198323491654,"connected_time":447000000000,"state":"active","ping":43},{"user_id":682,"name":"frickfart","steam_id":76561199037053629,"connected_time":430000000000,"state":"active","ping":54},{"user_id":639,"name":"EightySix","steam_id":76561198186678831,"connected_time":3297000000000,"state":"active","ping":92},{"user_id":683,"name":"Weafdfs","steam_id":76561199088728706,"connected_time":261000000000,"state":"active","ping":67},{"user_id":482,"name":"rat ðŸ¥²ðŸ˜¶ðŸŒ«","steam_id":76561198130412963,"connected_time":13888000000000,"state":"active","ping":72},{"user_id":662,"name":"akkasami","steam_id":76561198055695987,"connected_time":1306000000000,"state":"active","ping":124}]},{"server_id":404,"name":"Uncletopia | Dallas | 3 | All Maps","name_short":"dal-3","host":"dal-1.us.uncletopia.com","port":27035,"enabled":true,"region":"us-central","cc":"us","latitude":32.779167,"longitude":-96.80889,"reserved":0,"last_update":"0001-01-01T00:00:00Z","name_a2s":"Uncletopia | Dallas | 3 | All Maps","protocol":17,"map":"cp_metalworks","folder":"tf","game":"Team Fortress","app_id":440,"player_count":24,"max_players":24,"Bots":0,"server_type":"Dedicated","server_os":"Linux","password":true,"vac":true,"version":"7961495","steam_id":85568392924515219,"keywords":["cp","nocrits","nodmgspread","uncletopia"],"game_id":440,"stv_port":27036,"stv_name":"Uncletopia | Dallas | 3 | All Maps | STV","players":[{"user_id":445,"name":"Fishandfish","steam_id":76561198298483804,"connected_time":678000000000,"state":"active","ping":102},{"user_id":383,"name":"iluvTifa","steam_id":76561199428183473,"connected_time":7169000000000,"state":"active","ping":74},{"user_id":443,"name":"Menachem","steam_id":76561198041226420,"connected_time":882000000000,"state":"active","ping":65},{"user_id":412,"name":"Jordan Schlansky","steam_id":76561198127395608,"connected_time":4500000000000,"state":"active","ping":115},{"user_id":419,"name":"cupsovietxeno","steam_id":76561198997539399,"connected_time":3880000000000,"state":"active","ping":99},{"user_id":411,"name":"Intrepid","steam_id":76561198125321034,"connected_time":4920000000000,"state":"active","ping":74},{"user_id":441,"name":"Vladimir Puddin","steam_id":76561198139674520,"connected_time":1175000000000,"state":"active","ping":86},{"user_id":444,"name":"greg","steam_id":76561198051075489,"connected_time":699000000000,"state":"active","ping":60},{"user_id":447,"name":"Hovg9000","steam_id":76561199191556710,"connected_time":343000000000,"state":"active","ping":87},{"user_id":374,"name":"J The Jounin","steam_id":76561198034583622,"connected_time":7910000000000,"state":"active","ping":84},{"user_id":397,"name":"Decapitation Station","steam_id":76561198201796098,"connected_time":6337000000000,"state":"active","ping":81},{"user_id":394,"name":"B0B_Bobson","steam_id":76561198400694217,"connected_time":6759000000000,"state":"active","ping":94},{"user_id":414,"name":"Blake...","steam_id":76561198064090974,"connected_time":4469000000000,"state":"active","ping":95},{"user_id":373,"name":"Boxxed","steam_id":76561198255787237,"connected_time":7959000000000,"state":"active","ping":54},{"user_id":393,"name":"Sku11yy","steam_id":76561198378094265,"connected_time":6846000000000,"state":"active","ping":84},{"user_id":439,"name":"Mcfighter2","steam_id":76561198168073956,"connected_time":1254000000000,"state":"active","ping":93},{"user_id":442,"name":"joebot","steam_id":76561197975606100,"connected_time":1065000000000,"state":"active","ping":90},{"user_id":446,"name":"YoteDab McFapDab.jpg","steam_id":76561197984870380,"connected_time":576000000000,"state":"active","ping":108},{"user_id":435,"name":"adam0o0","steam_id":76561198052250279,"connected_time":1795000000000,"state":"active","ping":72},{"user_id":422,"name":"Damian0gre","steam_id":76561197970831355,"connected_time":3813000000000,"state":"active","ping":50},{"user_id":432,"name":"meth","steam_id":76561198118715586,"connected_time":2437000000000,"state":"active","ping":75},{"user_id":382,"name":"YouButFromThePast","steam_id":76561198368198172,"connected_time":7415000000000,"state":"active","ping":68},{"user_id":433,"name":"Raz","steam_id":76561198002426150,"connected_time":2435000000000,"state":"active","ping":52},{"user_id":440,"name":"rach9411","steam_id":76561198256535721,"connected_time":1207000000000,"state":"active","ping":143}]},{"server_id":405,"name":"Uncletopia | Dallas | 4 | Community","name_short":"dal-4","host":"dal-1.us.uncletopia.com","port":27045,"enabled":true,"region":"us-central","cc":"us","latitude":32.779167,"longitude":-96.80889,"reserved":0,"last_update":"0001-01-01T00:00:00Z","name_a2s":"Uncletopia | Dallas | 4 | Community","protocol":17,"map":"workshop/koth_ashville_final.ugc2130459942","folder":"tf","game":"Team Fortress","app_id":440,"player_count":7,"max_players":24,"Bots":0,"server_type":"Dedicated","server_os":"Linux","password":true,"vac":true,"version":"7961495","steam_id":85568392924515220,"keywords":["cp","nocrits","nodmgspread","uncletopia"],"game_id":440,"stv_port":27046,"stv_name":"Uncletopia | Dallas | 4 | Community | STV","players":[{"user_id":23,"name":"flamingo","steam_id":76561198854099251,"connected_time":1379000000000,"state":"active","ping":208},{"user_id":21,"name":"DeadlyPinkSheep","steam_id":76561198271773858,"connected_time":1579000000000,"state":"active","ping":53},{"user_id":22,"name":"DivineBanana","steam_id":76561198026529731,"connected_time":1541000000000,"state":"active","ping":90},{"user_id":27,"name":"polarbub","steam_id":76561198991022799,"connected_time":761000000000,"state":"active","ping":84},{"user_id":26,"name":"My Beloved","steam_id":76561198427996315,"connected_time":868000000000,"state":"active","ping":107},{"user_id":29,"name":"object permanence","steam_id":76561198050393061,"connected_time":111000000000,"state":"active","ping":93},{"user_id":30,"name":"bigo9913","steam_id":76561199013131930,"connected_time":97000000000,"state":"active","ping":62}]},{"server_id":5,"name":"Uncletopia | Frankfurt | 1 | All Maps","name_short":"frk-1","host":"frk-1.de.uncletopia.com","port":27015,"enabled":true,"region":"eu","cc":"de","latitude":50.110924,"longitude":8.682127,"reserved":0,"last_update":"0001-01-01T00:00:00Z","name_a2s":"Uncletopia | Frankfurt | 1 | All Maps","protocol":17,"map":"koth_lakeside_final","folder":"tf","game":"Team Fortress","app_id":440,"player_count":0,"max_players":24,"Bots":0,"server_type":"Dedicated","server_os":"Linux","password":true,"vac":true,"version":"7961495","steam_id":85568392924469989,"keywords":["cp","nocrits","nodmgspread","uncletopia"],"game_id":440,"stv_port":27016,"stv_name":"Uncletopia | Frankfurt | 1 | All Maps | STV","players":null},{"server_id":110,"name":"Uncletopia | Frankfurt | 2 | All Maps","name_short":"frk-2","host":"frk-1.de.uncletopia.com","port":27025,"enabled":true,"region":"eu","cc":"de","latitude":50.110924,"longitude":8.682127,"reserved":0,"last_update":"0001-01-01T00:00:00Z","name_a2s":"Uncletopia | Frankfurt | 2 | All Maps","protocol":17,"map":"cp_dustbowl","folder":"tf","game":"Team Fortress","app_id":440,"player_count":0,"max_players":24,"Bots":0,"server_type":"Dedicated","server_os":"Linux","password":true,"vac":true,"version":"7961495","steam_id":85568392924469990,"keywords":["cp","nocrits","nodmgspread","uncletopia"],"game_id":440,"stv_port":27026,"stv_name":"Uncletopia | Frankfurt | 2 | All Maps | STV","players":null},{"server_id":308,"name":"Uncletopia | Frankfurt | 3 | All Maps","name_short":"frk-3","host":"frk-1.de.uncletopia.com","port":27035,"enabled":true,"region":"eu","cc":"de","latitude":50.110924,"longitude":8.682127,"reserved":0,"last_update":"0001-01-01T00:00:00Z","name_a2s":"Uncletopia | Frankfurt | 3 | All Maps","protocol":17,"map":"pl_pier","folder":"tf","game":"Team Fortress","app_id":440,"player_count":0,"max_players":24,"Bots":0,"server_type":"Dedicated","server_os":"Linux","password":true,"vac":true,"version":"7961495","steam_id":85568392924504274,"keywords":["nocrits","nodmgspread","payload","uncletopia"],"game_id":440,"stv_port":27036,"stv_name":"Uncletopia | Frankfurt | 3 | All Maps | STV","players":null},{"server_id":309,"name":"Uncletopia | Frankfurt | 4 | All Maps","name_short":"frk-4","host":"frk-1.de.uncletopia.com","port":27045,"enabled":true,"region":"eu","cc":"de","latitude":50.110924,"longitude":8.682127,"reserved":0,"last_update":"0001-01-01T00:00:00Z","name_a2s":"Uncletopia | Frankfurt | 4 | All Maps","protocol":17,"map":"koth_cascade","folder":"tf","game":"Team Fortress","app_id":440,"player_count":0,"max_players":24,"Bots":0,"server_type":"Dedicated","server_os":"Linux","password":true,"vac":true,"version":"7961495","steam_id":85568392924504275,"keywords":["cp","nocrits","nodmgspread","uncletopia"],"game_id":440,"stv_port":27046,"stv_name":"Uncletopia | Frankfurt | 4 | All Maps | STV","players":null},{"server_id":310,"name":"Uncletopia | Frankfurt | 5 | All Maps","name_short":"frk-5","host":"frk-1.de.uncletopia.com","port":27055,"enabled":true,"region":"eu","cc":"de","latitude":50.110924,"longitude":8.682127,"reserved":0,"last_update":"0001-01-01T00:00:00Z","name_a2s":"Uncletopia | Frankfurt | 5 | All Maps","protocol":17,"map":"cp_dustbowl","folder":"tf","game":"Team Fortress","app_id":440,"player_count":0,"max_players":24,"Bots":0,"server_type":"Dedicated","server_os":"Linux","password":true,"vac":true,"version":"7961495","steam_id":85568392924504277,"keywords":["cp","nocrits","nodmgspread","uncletopia"],"game_id":440,"stv_port":27056,"stv_name":"Uncletopia | Frankfurt | 5 | All Maps | STV","players":null},{"server_id":311,"name":"Uncletopia | Frankfurt | 6 | All Maps","name_short":"frk-6","host":"frk-1.de.uncletopia.com","port":27065,"enabled":true,"region":"eu","cc":"de","latitude":50.110924,"longitude":8.682127,"reserved":0,"last_update":"0001-01-01T00:00:00Z","name_a2s":"Uncletopia | Frankfurt | 6 | All Maps","protocol":17,"map":"plr_pipeline","folder":"tf","game":"Team Fortress","app_id":440,"player_count":0,"max_players":24,"Bots":0,"server_type":"Dedicated","server_os":"Linux","password":true,"vac":true,"version":"7961495","steam_id":85568392924504278,"keywords":["nocrits","nodmgspread","payload","uncletopia"],"game_id":440,"stv_port":27066,"stv_name":"Uncletopia | Frankfurt | 6 | All Maps | STV","players":null},{"server_id":23,"name":"Uncletopia | Frankfurt | 7 | Stopwatch","name_short":"frk-7","host":"frk-1.de.uncletopia.com","port":27075,"enabled":true,"region":"eu","cc":"de","latitude":50.110924,"longitude":8.682127,"reserved":0,"last_update":"0001-01-01T00:00:00Z","name_a2s":"Uncletopia | Frankfurt | 7 | Stopwatch","protocol":17,"map":"workshop/koth_ashville_final.ugc2130459942","folder":"tf","game":"Team Fortress","app_id":440,"player_count":0,"max_players":24,"Bots":0,"server_type":"Dedicated","server_os":"Linux","password":true,"vac":true,"version":"7961495","steam_id":85568392924742827,"keywords":["cp","nocrits","nodmgspread","uncletopia"],"game_id":440,"stv_port":27076,"stv_name":"Uncletopia | Frankfurt | 7 | Stopwatch | STV","players":null},{"server_id":24,"name":"Uncletopia | Frankfurt | 8 | Community","name_short":"frk-8","host":"frk-1.de.uncletopia.com","port":27085,"enabled":true,"region":"eu","cc":"de","latitude":50.110924,"longitude":8.682127,"reserved":0,"last_update":"0001-01-01T00:00:00Z","name_a2s":"Uncletopia | Frankfurt | 8 | Community","protocol":17,"map":"workshop/rd_asteroid_redux_b1.ugc2154902912","folder":"tf","game":"Team Fortress","app_id":440,"player_count":0,"max_players":24,"Bots":0,"server_type":"Dedicated","server_os":"Linux","password":true,"vac":true,"version":"7961495","steam_id":85568392924742828,"keywords":["beta","nocrits","nodmgspread","rd","uncletopia"],"game_id":440,"stv_port":27086,"stv_name":"Uncletopia | Frankfurt | 8 | Community | STV","players":null},{"server_id":202,"name":"Uncletopia | Hong Kong | 1 | All Maps","name_short":"hgk-1","host":"hgk-1.hk.uncletopia.com","port":27015,"enabled":true,"region":"asia","cc":"hk","latitude":22.302711,"longitude":114.177216,"reserved":0,"last_update":"0001-01-01T00:00:00Z","name_a2s":"Uncletopia | Hong Kong | 1 | All Maps","protocol":17,"map":"koth_cascade","folder":"tf","game":"Team Fortress","app_id":440,"player_count":0,"max_players":24,"Bots":0,"server_type":"Dedicated","server_os":"Linux","password":true,"vac":true,"version":"7961495","steam_id":85568392924494504,"keywords":["cp","nocrits","nodmgspread","uncletopia"],"game_id":440,"stv_port":27016,"stv_name":"Uncletopia | Hong Kong | 1 | All Maps | STV","players":null},{"server_id":1,"name":"Uncletopia | Los Angeles | 1 | All Maps","name_short":"lax-1","host":"lax-1.us.uncletopia.com","port":27015,"enabled":true,"region":"us-west","cc":"us","latitude":33.94279,"longitude":-118.41004,"reserved":0,"last_update":"0001-01-01T00:00:00Z","name_a2s":"Uncletopia | Los Angeles | 1 | All Maps","protocol":17,"map":"koth_highpass","folder":"tf","game":"Team Fortress","app_id":440,"player_count":1,"max_players":24,"Bots":0,"server_type":"Dedicated","server_os":"Linux","password":true,"vac":true,"version":"7961495","steam_id":85568392924469991,"keywords":["cp","nocrits","nodmgspread","uncletopia"],"game_id":440,"stv_port":27016,"stv_name":"Uncletopia | Los Angeles | 1 | All Maps | STV","players":[{"user_id":16,"name":"jordanfer111","steam_id":76561198044993097,"connected_time":101000000000,"state":"active","ping":77}]},{"server_id":112,"name":"Uncletopia | Los Angeles | 2 | All Maps","name_short":"lax-2","host":"lax-1.us.uncletopia.com","port":27025,"enabled":true,"region":"us-west","cc":"us","latitude":33.94279,"longitude":-118.41004,"reserved":0,"last_update":"0001-01-01T00:00:00Z","name_a2s":"Uncletopia | Los Angeles | 2 | All Maps","protocol":17,"map":"cp_altitude","folder":"tf","game":"Team Fortress","app_id":440,"player_count":24,"max_players":24,"Bots":0,"server_type":"Dedicated","server_os":"Linux","password":true,"vac":true,"version":"7961495","steam_id":85568392924469992,"keywords":["cp","nocrits","nodmgspread","uncletopia"],"game_id":440,"stv_port":27026,"stv_name":"Uncletopia | Los Angeles | 2 | All Maps | STV","players":[{"user_id":29,"name":"\"Gay Panic\"","steam_id":76561198132531594,"connected_time":5946000000000,"state":"active","ping":59},{"user_id":30,"name":"Beep","steam_id":76561198166649901,"connected_time":5842000000000,"state":"active","ping":91},{"user_id":94,"name":"Robogineer","steam_id":76561198026994739,"connected_time":188000000000,"state":"active","ping":49},{"user_id":99,"name":"Cresant Ape","steam_id":76561198127425559,"connected_time":68000000000,"state":"active","ping":79},{"user_id":58,"name":"(TTV) The_Astrum_Guardian","steam_id":76561198130134103,"connected_time":2288000000000,"state":"active","ping":91},{"user_id":95,"name":"bear","steam_id":76561198909415646,"connected_time":182000000000,"state":"active","ping":101},{"user_id":85,"name":"Rum Pirate","steam_id":76561198195844129,"connected_time":897000000000,"state":"active","ping":66},{"user_id":96,"name":"Thexx â¤","steam_id":76561198113823050,"connected_time":168000000000,"state":"active","ping":68},{"user_id":76,"name":"Eden","steam_id":76561198081284664,"connected_time":1758000000000,"state":"active","ping":56},{"user_id":88,"name":"TheColdChiliPepper","steam_id":76561199027155811,"connected_time":775000000000,"state":"active","ping":125},{"user_id":60,"name":"Tacobell_nugget","steam_id":76561199248567851,"connected_time":2284000000000,"state":"active","ping":159},{"user_id":92,"name":"Schnitz","steam_id":76561198265484253,"connected_time":636000000000,"state":"active","ping":59},{"user_id":97,"name":"Sak","steam_id":76561198307655707,"connected_time":115000000000,"state":"active","ping":51},{"user_id":82,"name":"Future Tusk","steam_id":76561198199635217,"connected_time":1197000000000,"state":"active","ping":58},{"user_id":64,"name":"Pontifex Maximus","steam_id":76561198060281192,"connected_time":2130000000000,"state":"active","ping":111},{"user_id":65,"name":"BIG DICK BANDITO","steam_id":76561198047945799,"connected_time":2102000000000,"state":"active","ping":107},{"user_id":66,"name":"Weegee","steam_id":76561198140095755,"connected_time":2101000000000,"state":"active","ping":54},{"user_id":67,"name":"Frankenstitch","steam_id":76561198027590921,"connected_time":2086000000000,"state":"active","ping":100},{"user_id":68,"name":"chrisblue2005","steam_id":76561199385222289,"connected_time":2074000000000,"state":"active","ping":96},{"user_id":98,"name":"TruthHut","steam_id":76561198093452436,"connected_time":101000000000,"state":"active","ping":84},{"user_id":81,"name":"corg","steam_id":76561198338740292,"connected_time":1218000000000,"state":"active","ping":53},{"user_id":72,"name":"La()VaJ()86","steam_id":76561198247547042,"connected_time":2016000000000,"state":"active","ping":76},{"user_id":73,"name":"NÃ¼Ã¾","steam_id":76561198043956703,"connected_time":1985000000000,"state":"active","ping":50},{"user_id":84,"name":"Smokey The VietCong Veteran","steam_id":76561198030988939,"connected_time":1086000000000,"state":"active","ping":113}]},{"server_id":324,"name":"Uncletopia | Los Angeles | 3 | All Maps","name_short":"lax-3","host":"lax-1.us.uncletopia.com","port":27035,"enabled":true,"region":"us-west","cc":"us","latitude":33.94279,"longitude":-118.41004,"reserved":0,"last_update":"0001-01-01T00:00:00Z","name_a2s":"Uncletopia | Los Angeles | 3 | All Maps","protocol":17,"map":"pl_thundermountain","folder":"tf","game":"Team Fortress","app_id":440,"player_count":24,"max_players":24,"Bots":0,"server_type":"Dedicated","server_os":"Linux","password":true,"vac":true,"version":"7961495","steam_id":85568392924510198,"keywords":["nocrits","nodmgspread","payload","uncletopia"],"game_id":440,"stv_port":27036,"stv_name":"Uncletopia | Los Angeles | 3 | All Maps | STV","players":[{"user_id":149,"name":"Bhx625","steam_id":76561198041943090,"connected_time":5175000000000,"state":"active","ping":101},{"user_id":185,"name":"duddlee","steam_id":76561198030052564,"connected_time":2989000000000,"state":"active","ping":86},{"user_id":215,"name":"jesus marie they're minerals","steam_id":76561198168492250,"connected_time":1078000000000,"state":"active","ping":69},{"user_id":191,"name":"Taco+Taco=Burrito","steam_id":76561198063128663,"connected_time":2705000000000,"state":"active","ping":46},{"user_id":102,"name":"GRONT","steam_id":76561198040464533,"connected_time":8110000000000,"state":"active","ping":107},{"user_id":218,"name":"leumas","steam_id":76561198240408540,"connected_time":652000000000,"state":"active","ping":97},{"user_id":219,"name":"TheBrocklobster","steam_id":76561198039682984,"connected_time":513000000000,"state":"active","ping":74},{"user_id":175,"name":"[DATSâž¡] Sugar Meowth","steam_id":76561197995251793,"connected_time":3538000000000,"state":"active","ping":66},{"user_id":209,"name":"BlazingDamon","steam_id":76561198053452536,"connected_time":1267000000000,"state":"active","ping":117},{"user_id":204,"name":"mellowhype","steam_id":76561198040675606,"connected_time":1628000000000,"state":"active","ping":78},{"user_id":220,"name":"Max Headass","steam_id":76561198964210411,"connected_time":313000000000,"state":"active","ping":46},{"user_id":187,"name":"SafetyInstructor","steam_id":76561199195205705,"connected_time":2960000000000,"state":"active","ping":92},{"user_id":192,"name":"Quetzalcoatl","steam_id":76561198094826250,"connected_time":2654000000000,"state":"active","ping":45},{"user_id":216,"name":"sqnguine","steam_id":76561199481839224,"connected_time":825000000000,"state":"active","ping":70},{"user_id":188,"name":"roody","steam_id":76561198066260405,"connected_time":2954000000000,"state":"active","ping":76},{"user_id":157,"name":"sunroof defecation alliance","steam_id":76561198054260599,"connected_time":4916000000000,"state":"active","ping":86},{"user_id":205,"name":"Pokecat273","steam_id":76561198373768228,"connected_time":1623000000000,"state":"active","ping":64},{"user_id":208,"name":"Dingelsmurf the Orange","steam_id":76561198212489267,"connected_time":1540000000000,"state":"active","ping":123},{"user_id":189,"name":"Samhain","steam_id":76561198005331286,"connected_time":2910000000000,"state":"active","ping":83},{"user_id":196,"name":"drank baby","steam_id":76561199483723843,"connected_time":2372000000000,"state":"active","ping":57},{"user_id":203,"name":"dogerich404","steam_id":76561199124102546,"connected_time":2008000000000,"state":"active","ping":62},{"user_id":217,"name":"moongoose","steam_id":76561198045089347,"connected_time":674000000000,"state":"active","ping":119},{"user_id":117,"name":"Jimmy","steam_id":76561198857959855,"connected_time":7399000000000,"state":"active","ping":43},{"user_id":58,"name":"heck","steam_id":76561198315694520,"connected_time":10006000000000,"state":"active","ping":53}]},{"server_id":25,"name":"Uncletopia | Los Angeles | 4 | Stopwatch","name_short":"lax-4","host":"lax-1.us.uncletopia.com","port":27045,"enabled":true,"region":"us-west","cc":"us","latitude":33.94279,"longitude":-118.41004,"reserved":0,"last_update":"0001-01-01T00:00:00Z","name_a2s":"Uncletopia | Los Angeles | 4 | Stopwatch","protocol":17,"map":"workshop/koth_bagel_rc6.ugc2514036946","folder":"tf","game":"Team Fortress","app_id":440,"player_count":0,"max_players":24,"Bots":0,"server_type":"Dedicated","server_os":"Linux","password":true,"vac":true,"version":"7961495","steam_id":85568392924510199,"keywords":["cp","nocrits","nodmgspread","uncletopia"],"game_id":440,"stv_port":27046,"stv_name":"Uncletopia | Los Angeles | 4 | Stopwatch | STV","players":null},{"server_id":11,"name":"Uncletopia | London | 1 | All Maps","name_short":"lon-1","host":"lon-1.uk.uncletopia.com","port":27015,"enabled":true,"region":"eu","cc":"gb","latitude":51.509865,"longitude":-0.118092,"reserved":0,"last_update":"0001-01-01T00:00:00Z","name_a2s":"Uncletopia | London | 1 | All Maps","protocol":17,"map":"pl_borneo","folder":"tf","game":"Team Fortress","app_id":440,"player_count":24,"max_players":24,"Bots":0,"server_type":"Dedicated","server_os":"Linux","password":true,"vac":true,"version":"7961495","steam_id":85568392924367362,"keywords":["nocrits","nodmgspread","payload","uncletopia"],"game_id":440,"stv_port":27016,"stv_name":"Uncletopia | London | 1 | All Maps | STV","players":[{"user_id":1408,"name":"scungo","steam_id":76561198316654855,"connected_time":1556000000000,"state":"active","ping":157},{"user_id":1425,"name":"PancholÃ­n","steam_id":76561198262777640,"connected_time":534000000000,"state":"active","ping":72},{"user_id":1393,"name":"dvn","steam_id":76561198119495788,"connected_time":2336000000000,"state":"active","ping":71},{"user_id":1410,"name":"bro.Scrub[MicBroke]","steam_id":76561197971095217,"connected_time":1512000000000,"state":"active","ping":73},{"user_id":1429,"name":"audiotrack a08","steam_id":76561197998776185,"connected_time":373000000000,"state":"active","ping":44},{"user_id":1411,"name":"Dusky25","steam_id":76561198148815290,"connected_time":1504000000000,"state":"active","ping":96},{"user_id":1434,"name":"Open Mailbox","steam_id":76561198051933580,"connected_time":137000000000,"state":"active","ping":140},{"user_id":1418,"name":"^-^","steam_id":76561198127480206,"connected_time":955000000000,"state":"active","ping":67},{"user_id":1430,"name":"THE MAN WHO SOLD THE WORLD â˜†","steam_id":76561199004289077,"connected_time":371000000000,"state":"active","ping":53},{"user_id":1431,"name":"I might knife you","steam_id":76561199267543998,"connected_time":363000000000,"state":"active","ping":71},{"user_id":1417,"name":"SuperBob103","steam_id":76561199175360012,"connected_time":1152000000000,"state":"active","ping":59},{"user_id":1419,"name":"ZenkoZSprite","steam_id":76561198190132250,"connected_time":943000000000,"state":"active","ping":156},{"user_id":1420,"name":"TobyM88","steam_id":76561198073691812,"connected_time":909000000000,"state":"active","ping":119},{"user_id":1360,"name":"××‘×","steam_id":76561198184360615,"connected_time":4781000000000,"state":"active","ping":117},{"user_id":1396,"name":"your heavy","steam_id":76561198346638308,"connected_time":2245000000000,"state":"active","ping":56},{"user_id":1381,"name":"SnareBreaker","steam_id":76561198854045058,"connected_time":3398000000000,"state":"active","ping":73},{"user_id":1383,"name":"Minimi","steam_id":76561198873850443,"connected_time":3162000000000,"state":"active","ping":41},{"user_id":1414,"name":"Penis Contortionist","steam_id":76561198073663784,"connected_time":1438000000000,"state":"active","ping":33},{"user_id":1415,"name":"Refurbished Boy","steam_id":76561197995834697,"connected_time":1391000000000,"state":"active","ping":98},{"user_id":1421,"name":"Peat","steam_id":76561197992168067,"connected_time":786000000000,"state":"active","ping":67},{"user_id":1427,"name":"Koji","steam_id":76561199060626329,"connected_time":460000000000,"state":"active","ping":164},{"user_id":1428,"name":"raguspchennai","steam_id":76561199153121364,"connected_time":432000000000,"state":"active","ping":183},{"user_id":1432,"name":"DayneDragon","steam_id":76561198088728883,"connected_time":324000000000,"state":"active","ping":56},{"user_id":1433,"name":"Visphiric - Ping Comms Only","steam_id":76561198071938027,"connected_time":315000000000,"state":"active","ping":35}]},{"server_id":114,"name":"Uncletopia | London | 2 | All Maps","name_short":"lon-2","host":"lon-1.uk.uncletopia.com","port":27025,"enabled":true,"region":"eu","cc":"gb","latitude":51.509865,"longitude":-0.118092,"reserved":0,"last_update":"0001-01-01T00:00:00Z","name_a2s":"Uncletopia | London | 2 | All Maps","protocol":17,"map":"koth_cascade","folder":"tf","game":"Team Fortress","app_id":440,"player_count":0,"max_players":24,"Bots":0,"server_type":"Dedicated","server_os":"Linux","password":true,"vac":true,"version":"7961495","steam_id":85568392924470941,"keywords":["cp","nocrits","nodmgspread","uncletopia"],"game_id":440,"stv_port":27026,"stv_name":"Uncletopia | London | 2 | All Maps | STV","players":null},{"server_id":320,"name":"Uncletopia | London | 3 | All Maps","name_short":"lon-3","host":"lon-1.uk.uncletopia.com","port":27035,"enabled":true,"region":"eu","cc":"gb","latitude":51.509865,"longitude":-0.118092,"reserved":0,"last_update":"0001-01-01T00:00:00Z","name_a2s":"Uncletopia | London | 3 | All Maps","protocol":17,"map":"cp_snakewater_final1","folder":"tf","game":"Team Fortress","app_id":440,"player_count":0,"max_players":24,"Bots":0,"server_type":"Dedicated","server_os":"Linux","password":true,"vac":true,"version":"7961495","steam_id":85568392924510192,"keywords":["cp","nocrits","nodmgspread","uncletopia"],"game_id":440,"stv_port":27036,"stv_name":"Uncletopia | London | 3 | All Maps | STV","players":null},{"server_id":321,"name":"Uncletopia | London | 4 | All Maps","name_short":"lon-4","host":"lon-1.uk.uncletopia.com","port":27045,"enabled":true,"region":"eu","cc":"gb","latitude":51.509865,"longitude":-0.118092,"reserved":0,"last_update":"0001-01-01T00:00:00Z","name_a2s":"Uncletopia | London | 4 | All Maps","protocol":17,"map":"cp_snakewater_final1","folder":"tf","game":"Team Fortress","app_id":440,"player_count":0,"max_players":24,"Bots":0,"server_type":"Dedicated","server_os":"Linux","password":true,"vac":true,"version":"7961495","steam_id":85568392924510193,"keywords":["cp","nocrits","nodmgspread","uncletopia"],"game_id":440,"stv_port":27046,"stv_name":"Uncletopia | London | 4 | All Maps | STV","players":null},{"server_id":21,"name":"Uncletopia | London | 5 | All Maps","name_short":"lon-5","host":"lon-1.uk.uncletopia.com","port":27055,"enabled":true,"region":"eu","cc":"gb","latitude":51.509865,"longitude":-0.118092,"reserved":0,"last_update":"0001-01-01T00:00:00Z","name_a2s":"Uncletopia | London | 5 | All Maps","protocol":17,"map":"cp_mercenarypark","folder":"tf","game":"Team Fortress","app_id":440,"player_count":16,"max_players":24,"Bots":0,"server_type":"Dedicated","server_os":"Linux","password":true,"vac":true,"version":"7961495","steam_id":85568392924742829,"keywords":["cp","nocrits","nodmgspread","uncletopia"],"game_id":440,"stv_port":27056,"stv_name":"Uncletopia | London | 5 | All Maps | STV","players":[{"user_id":601,"name":"Blondelashes19","steam_id":76561197989281781,"connected_time":241000000000,"state":"active","ping":60},{"user_id":572,"name":"AyCe","steam_id":76561198036082570,"connected_time":3537000000000,"state":"active","ping":61},{"user_id":603,"name":"Keifim","steam_id":76561198030547398,"connected_time":182000000000,"state":"active","ping":72},{"user_id":591,"name":"DNA","steam_id":76561198095477557,"connected_time":1422000000000,"state":"active","ping":56},{"user_id":544,"name":"REN","steam_id":76561198000596385,"connected_time":6203000000000,"state":"active","ping":67},{"user_id":595,"name":"purz","steam_id":76561199504168033,"connected_time":1183000000000,"state":"active","ping":46},{"user_id":605,"name":"Garry","steam_id":76561198070584586,"connected_time":60000000000,"state":"active","ping":119},{"user_id":571,"name":"Nyhde","steam_id":76561198012771416,"connected_time":3693000000000,"state":"active","ping":91},{"user_id":606,"name":"who is gavin?","steam_id":76561198069415057,"connected_time":23000000000,"state":"active","ping":116},{"user_id":590,"name":"rizook","steam_id":76561198055010039,"connected_time":1436000000000,"state":"active","ping":71},{"user_id":597,"name":"myon","steam_id":76561197992528570,"connected_time":1033000000000,"state":"active","ping":79},{"user_id":500,"name":"jones","steam_id":76561198044434971,"connected_time":9148000000000,"state":"active","ping":62},{"user_id":600,"name":"chillrend_morphs_high_lod6","steam_id":76561198452963141,"connected_time":995000000000,"state":"active","ping":90},{"user_id":599,"name":"Nomakh","steam_id":76561198096414653,"connected_time":1012000000000,"state":"active","ping":91},{"user_id":553,"name":"doomed user","steam_id":76561198010299230,"connected_time":5500000000000,"state":"active","ping":81},{"user_id":543,"name":"Zerfesh","steam_id":76561198117534358,"connected_time":6251000000000,"state":"active","ping":102}]},{"server_id":22,"name":"Uncletopia | London | 6 | All Maps","name_short":"lon-6","host":"lon-1.uk.uncletopia.com","port":27065,"enabled":true,"region":"eu","cc":"gb","latitude":51.509865,"longitude":-0.118092,"reserved":0,"last_update":"0001-01-01T00:00:00Z","name_a2s":"Uncletopia | London | 6 | All Maps","protocol":17,"map":"koth_lakeside_final","folder":"tf","game":"Team Fortress","app_id":440,"player_count":0,"max_players":24,"Bots":0,"server_type":"Dedicated","server_os":"Linux","password":true,"vac":true,"version":"7961495","steam_id":85568392924742830,"keywords":["cp","nocrits","nodmgspread","uncletopia"],"game_id":440,"stv_port":27066,"stv_name":"Uncletopia | London | 6 | All Maps | STV","players":null},{"server_id":40,"name":"Uncletopia | London | 7 | Stopwatch","name_short":"lon-7","host":"lon-1.uk.uncletopia.com","port":27075,"enabled":true,"region":"eu","cc":"gb","latitude":51.509865,"longitude":-0.118092,"reserved":0,"last_update":"0001-01-01T00:00:00Z","name_a2s":"Uncletopia | London | 7 | Stopwatch","protocol":17,"map":"cp_snakewater_final1","folder":"tf","game":"Team Fortress","app_id":440,"player_count":0,"max_players":24,"Bots":0,"server_type":"Dedicated","server_os":"Linux","password":true,"vac":true,"version":"7961495","steam_id":85568392924964314,"keywords":["cp","nocrits","nodmgspread","uncletopia"],"game_id":440,"stv_port":27076,"stv_name":"Uncletopia | London | 7 | Stopwatch | STV","players":null},{"server_id":41,"name":"Uncletopia | London | 8 | Community","name_short":"lon-8","host":"lon-1.uk.uncletopia.com","port":27085,"enabled":true,"region":"eu","cc":"gb","latitude":51.509865,"longitude":-0.118092,"reserved":0,"last_update":"0001-01-01T00:00:00Z","name_a2s":"Uncletopia | London | 8 | Community","protocol":17,"map":"workshop/pl_cashworks_final1.ugc2904065412","folder":"tf","game":"Team Fortress","app_id":440,"player_count":0,"max_players":24,"Bots":0,"server_type":"Dedicated","server_os":"Linux","password":true,"vac":true,"version":"7961495","steam_id":85568392924964315,"keywords":["nocrits","nodmgspread","payload","uncletopia"],"game_id":440,"stv_port":27086,"stv_name":"Uncletopia | London | 8 | Community | STV","players":null},{"server_id":300,"name":"Uncletopia | MontrÃ©al | 1 | One Thousand Uncles","name_short":"mtl-1","host":"mtl-1.ca.uncletopia.com","port":27015,"enabled":true,"region":"us-east","cc":"ca","latitude":45.50889,"longitude":-73.56167,"reserved":0,"last_update":"0001-01-01T00:00:00Z","name_a2s":"","protocol":0,"map":"","folder":"","game":"","app_id":0,"player_count":0,"max_players":0,"Bots":0,"server_type":"","server_os":"","password":false,"vac":false,"version":"","steam_id":0,"keywords":null,"game_id":0,"stv_port":0,"stv_name":"","players":null},{"server_id":301,"name":"Uncletopia | MontrÃ©al | 2 | One Thousand Uncles","name_short":"mtl-2","host":"mtl-1.ca.uncletopia.com","port":27025,"enabled":true,"region":"us-east","cc":"ca","latitude":45.50889,"longitude":-73.56167,"reserved":0,"last_update":"0001-01-01T00:00:00Z","name_a2s":"","protocol":0,"map":"","folder":"","game":"","app_id":0,"player_count":3,"max_players":0,"Bots":0,"server_type":"","server_os":"","password":false,"vac":false,"version":"","steam_id":0,"keywords":null,"game_id":0,"stv_port":0,"stv_name":"","players":[{"user_id":98,"name":"Lots0","steam_id":76561198043143145,"connected_time":1247000000000,"state":"active","ping":90},{"user_id":115,"name":"Why not Zoidberg?","steam_id":76561197982207556,"connected_time":1065000000000,"state":"active","ping":76},{"user_id":118,"name":"Sinta","steam_id":76561198098398841,"connected_time":376000000000,"state":"active","ping":46}]},{"server_id":302,"name":"Uncletopia | MontrÃ©al | 3 | One Thousand Uncles","name_short":"mtl-3","host":"mtl-1.ca.uncletopia.com","port":27035,"enabled":true,"region":"us-east","cc":"ca","latitude":45.50889,"longitude":-73.56167,"reserved":0,"last_update":"0001-01-01T00:00:00Z","name_a2s":"","protocol":0,"map":"","folder":"","game":"","app_id":0,"player_count":0,"max_players":0,"Bots":0,"server_type":"","server_os":"","password":false,"vac":false,"version":"","steam_id":0,"keywords":null,"game_id":0,"stv_port":0,"stv_name":"","players":null},{"server_id":13,"name":"Uncletopia | New York City | 1 | All Maps","name_short":"nyc-1","host":"nyc-1.us.uncletopia.com","port":27015,"enabled":true,"region":"us-east","cc":"us","latitude":40.73061,"longitude":-73.93524,"reserved":0,"last_update":"0001-01-01T00:00:00Z","name_a2s":"Uncletopia | New York City | 1 | All Maps","protocol":17,"map":"pl_swiftwater_final1","folder":"tf","game":"Team Fortress","app_id":440,"player_count":24,"max_players":24,"Bots":0,"server_type":"Dedicated","server_os":"Linux","password":true,"vac":true,"version":"7961495","steam_id":85568392924469993,"keywords":["nocrits","nodmgspread","payload","uncletopia"],"game_id":440,"stv_port":27016,"stv_name":"Uncletopia | New York City | 1 | All Maps | STV","players":[{"user_id":474,"name":"0bliv","steam_id":76561198122715915,"connected_time":1458000000000,"state":"active","ping":183},{"user_id":457,"name":"Tarot Warden","steam_id":76561198284383023,"connected_time":2314000000000,"state":"active","ping":72},{"user_id":485,"name":"Yuzu","steam_id":76561198417913035,"connected_time":324000000000,"state":"active","ping":65},{"user_id":459,"name":"Scita","steam_id":76561198066861559,"connected_time":2291000000000,"state":"active","ping":57},{"user_id":454,"name":"Grandma","steam_id":76561198192419939,"connected_time":2601000000000,"state":"active","ping":134},{"user_id":470,"name":"OKAY","steam_id":76561198091980659,"connected_time":1780000000000,"state":"active","ping":58},{"user_id":482,"name":"Dent","steam_id":76561198304978514,"connected_time":661000000000,"state":"active","ping":51},{"user_id":468,"name":"SCATTER","steam_id":76561198405168492,"connected_time":1892000000000,"state":"active","ping":64},{"user_id":473,"name":"GoldtoothFour","steam_id":76561198055529332,"connected_time":1496000000000,"state":"active","ping":84},{"user_id":476,"name":"Cat doin laundry","steam_id":76561198063895852,"connected_time":1430000000000,"state":"active","ping":84},{"user_id":443,"name":"Elvis Dwarvley","steam_id":76561198117231611,"connected_time":3501000000000,"state":"active","ping":143},{"user_id":461,"name":"GoodleShoes/ttv","steam_id":76561198030993521,"connected_time":2280000000000,"state":"active","ping":78},{"user_id":480,"name":"Trevor_Hoppin","steam_id":76561199080420666,"connected_time":1320000000000,"state":"active","ping":108},{"user_id":486,"name":"Ê•â€¢á´¥â€¢Ê” the bear","steam_id":76561197989591976,"connected_time":92000000000,"state":"active","ping":61},{"user_id":396,"name":"astron","steam_id":76561198058546328,"connected_time":6644000000000,"state":"active","ping":76},{"user_id":453,"name":"GamingTNT","steam_id":76561198164384967,"connected_time":2635000000000,"state":"active","ping":49},{"user_id":483,"name":"Chewbacca","steam_id":76561198041927925,"connected_time":621000000000,"state":"active","ping":53},{"user_id":481,"name":"Dareu","steam_id":76561198081781710,"connected_time":1051000000000,"state":"active","ping":58},{"user_id":467,"name":"Bigsumoslammer","steam_id":76561198044505076,"connected_time":1921000000000,"state":"active","ping":44},{"user_id":472,"name":"Sentry Gun Main Man","steam_id":76561198327938247,"connected_time":1578000000000,"state":"active","ping":86},{"user_id":381,"name":"nice tea. good house","steam_id":76561197992669506,"connected_time":7400000000000,"state":"active","ping":99},{"user_id":398,"name":"spooky","steam_id":76561198122964663,"connected_time":6597000000000,"state":"active","ping":57},{"user_id":402,"name":"non professional nouns.","steam_id":76561198294013916,"connected_time":6194000000000,"state":"active","ping":45},{"user_id":455,"name":"c64guy","steam_id":76561198023022744,"connected_time":2600000000000,"state":"active","ping":77}]},{"server_id":14,"name":"Uncletopia | New York City | 2 | All Maps","name_short":"nyc-2","host":"nyc-1.us.uncletopia.com","port":27025,"enabled":true,"region":"us-east","cc":"us","latitude":40.73061,"longitude":-73.93524,"reserved":0,"last_update":"0001-01-01T00:00:00Z","name_a2s":"Uncletopia | New York City | 2 | All Maps","protocol":17,"map":"pl_thundermountain","folder":"tf","game":"Team Fortress","app_id":440,"player_count":24,"max_players":24,"Bots":0,"server_type":"Dedicated","server_os":"Linux","password":true,"vac":true,"version":"7961495","steam_id":85568392924469994,"keywords":["nocrits","nodmgspread","payload","uncletopia"],"game_id":440,"stv_port":27026,"stv_name":"Uncletopia | New York City | 2 | All Maps | STV","players":[{"user_id":234,"name":"z","steam_id":76561198377478982,"connected_time":330000000000,"state":"active","ping":71},{"user_id":211,"name":"DREW PEACOCK","steam_id":76561198065057392,"connected_time":3447000000000,"state":"active","ping":128},{"user_id":220,"name":"Jeffypoo","steam_id":76561198066384337,"connected_time":2382000000000,"state":"active","ping":74},{"user_id":233,"name":"HalfDead","steam_id":76561198049700226,"connected_time":1271000000000,"state":"active","ping":72},{"user_id":224,"name":"Skyline","steam_id":76561198018382060,"connected_time":1986000000000,"state":"active","ping":44},{"user_id":235,"name":"Remix.SMG","steam_id":76561198052895933,"connected_time":325000000000,"state":"active","ping":70},{"user_id":205,"name":"Underscorn","steam_id":76561198374209415,"connected_time":3770000000000,"state":"active","ping":89},{"user_id":199,"name":"âœªType_Alpha","steam_id":76561198122780598,"connected_time":3892000000000,"state":"active","ping":62},{"user_id":200,"name":"Bee_Pirate","steam_id":76561199000599111,"connected_time":3875000000000,"state":"active","ping":60},{"user_id":238,"name":"Girl Liker","steam_id":76561198022302843,"connected_time":306000000000,"state":"active","ping":111},{"user_id":174,"name":"castronaut2000","steam_id":76561198263221039,"connected_time":5716000000000,"state":"active","ping":48},{"user_id":222,"name":"jackass","steam_id":76561198209380493,"connected_time":2096000000000,"state":"active","ping":44},{"user_id":225,"name":"Frost â™¥","steam_id":76561198168870617,"connected_time":1985000000000,"state":"active","ping":53},{"user_id":236,"name":"Poyo Boyo","steam_id":76561198010201227,"connected_time":324000000000,"state":"active","ping":90},{"user_id":216,"name":"ÐŸÐ²Ñ‚ Ð”Ð¸Ð½Ð³Ð¾","steam_id":76561198119683217,"connected_time":2629000000000,"state":"active","ping":113},{"user_id":186,"name":"MrPebbsGaming","steam_id":76561199075070296,"connected_time":5149000000000,"state":"active","ping":73},{"user_id":237,"name":"tommy","steam_id":76561198111753974,"connected_time":324000000000,"state":"active","ping":39},{"user_id":227,"name":"Tara","steam_id":76561198020696265,"connected_time":1979000000000,"state":"active","ping":129},{"user_id":223,"name":"YesMargaret","steam_id":76561198127971751,"connected_time":2094000000000,"state":"active","ping":81},{"user_id":219,"name":"DededeMain | trade.tf","steam_id":76561198310951632,"connected_time":2580000000000,"state":"active","ping":55},{"user_id":242,"name":"Shemply","steam_id":76561198193658910,"connected_time":115000000000,"state":"active","ping":108},{"user_id":240,"name":"Vaude","steam_id":76561198369187511,"connected_time":234000000000,"state":"active","ping":64},{"user_id":241,"name":"bigSMALL","steam_id":76561198964101426,"connected_time":230000000000,"state":"active","ping":39},{"user_id":196,"name":"Squiddysquibbles","steam_id":76561198268476001,"connected_time":4275000000000,"state":"active","ping":53}]},{"server_id":15,"name":"Uncletopia | New York City | 3 | Stopwatch","name_short":"nyc-3","host":"nyc-1.us.uncletopia.com","port":27035,"enabled":true,"region":"us-east","cc":"us","latitude":40.73061,"longitude":-73.93524,"reserved":0,"last_update":"0001-01-01T00:00:00Z","name_a2s":"Uncletopia | New York City | 3 | Stopwatch","protocol":17,"map":"workshop/cp_process_f12.ugc2302948105","folder":"tf","game":"Team Fortress","app_id":440,"player_count":0,"max_players":24,"Bots":0,"server_type":"Dedicated","server_os":"Linux","password":true,"vac":true,"version":"7961495","steam_id":85568392924742820,"keywords":["cp","nocrits","nodmgspread","uncletopia"],"game_id":440,"stv_port":27036,"stv_name":"Uncletopia | New York City | 3 | Stopwatch | STV","players":null},{"server_id":16,"name":"Uncletopia | New York City | 4 | Community","name_short":"nyc-4","host":"nyc-1.us.uncletopia.com","port":27045,"enabled":true,"region":"us-east","cc":"us","latitude":40.73061,"longitude":-73.93524,"reserved":0,"last_update":"0001-01-01T00:00:00Z","name_a2s":"Uncletopia | New York City | 4 | Community","protocol":17,"map":"workshop/koth_slaughter_rc1.ugc1712845210","folder":"tf","game":"Team Fortress","app_id":440,"player_count":0,"max_players":24,"Bots":0,"server_type":"Dedicated","server_os":"Linux","password":true,"vac":true,"version":"7961495","steam_id":85568392924742821,"keywords":["cp","nocrits","nodmgspread","uncletopia"],"game_id":440,"stv_port":27046,"stv_name":"Uncletopia | New York City | 4 | Community | STV","players":null},{"server_id":142,"name":"Uncletopia | SÃ£o Paulo | 1 | All Maps","name_short":"sao-1","host":"sao-1.br.uncletopia.com","port":27015,"enabled":true,"region":"sa","cc":"br","latitude":-23.533773,"longitude":-46.62529,"reserved":0,"last_update":"0001-01-01T00:00:00Z","name_a2s":"Uncletopia | SÃ£o Paulo | 1 | All Maps","protocol":17,"map":"koth_lakeside_final","folder":"tf","game":"Team Fortress","app_id":440,"player_count":0,"max_players":24,"Bots":0,"server_type":"Dedicated","server_os":"Linux","password":true,"vac":true,"version":"7961495","steam_id":85568392924469996,"keywords":["cp","nocrits","nodmgspread","uncletopia"],"game_id":440,"stv_port":27016,"stv_name":"Uncletopia | SÃ£o Paulo | 1 | All Maps | STV","players":null},{"server_id":143,"name":"Uncletopia | SÃ£o Paulo | 2 | Community","name_short":"sao-2","host":"sao-2.br.uncletopia.com","port":27015,"enabled":true,"region":"sa","cc":"br","latitude":-23.533773,"longitude":-46.62529,"reserved":0,"last_update":"0001-01-01T00:00:00Z","name_a2s":"Uncletopia | SÃ£o Paulo | 2 | Community","protocol":17,"map":"workshop/koth_slaughter_rc1.ugc1712845210","folder":"tf","game":"Team Fortress","app_id":440,"player_count":0,"max_players":24,"Bots":0,"server_type":"Dedicated","server_os":"Linux","password":true,"vac":true,"version":"7961495","steam_id":85568392924485349,"keywords":["cp","nocrits","nodmgspread","uncletopia"],"game_id":440,"stv_port":27016,"stv_name":"Uncletopia | SÃ£o Paulo | 2 | Community | STV","players":null},{"server_id":7,"name":"Uncletopia | Seattle | 1 | All Maps","name_short":"sea-1","host":"sea-1.us.uncletopia.com","port":27015,"enabled":true,"region":"us-west","cc":"us","latitude":47.608013,"longitude":-122.33517,"reserved":0,"last_update":"0001-01-01T00:00:00Z","name_a2s":"Uncletopia | Seattle | 1 | All Maps","protocol":17,"map":"pl_barnblitz","folder":"tf","game":"Team Fortress","app_id":440,"player_count":24,"max_players":24,"Bots":0,"server_type":"Dedicated","server_os":"Linux","password":true,"vac":true,"version":"7961495","steam_id":85568392924469997,"keywords":["nocrits","nodmgspread","payload","uncletopia"],"game_id":440,"stv_port":27016,"stv_name":"Uncletopia | Seattle | 1 | All Maps | STV","players":[{"user_id":1062,"name":"tummy punch","steam_id":76561198049258493,"connected_time":311000000000,"state":"active","ping":56},{"user_id":1055,"name":"Common","steam_id":76561198041083863,"connected_time":410000000000,"state":"active","ping":56},{"user_id":1056,"name":"William P. Ennis","steam_id":76561198073464877,"connected_time":410000000000,"state":"active","ping":97},{"user_id":1042,"name":"Bomby24","steam_id":76561199224779013,"connected_time":2024000000000,"state":"active","ping":85},{"user_id":997,"name":"toes","steam_id":76561198221151676,"connected_time":5589000000000,"state":"active","ping":60},{"user_id":1059,"name":"Shah","steam_id":76561198047508851,"connected_time":385000000000,"state":"active","ping":49},{"user_id":966,"name":"Timemx63","steam_id":76561198062377543,"connected_time":8040000000000,"state":"active","ping":43},{"user_id":1034,"name":"CashGordon","steam_id":76561197975594096,"connected_time":2786000000000,"state":"active","ping":41},{"user_id":1051,"name":"TROY","steam_id":76561197983852176,"connected_time":1525000000000,"state":"active","ping":80},{"user_id":1070,"name":"TimeSnake","steam_id":76561198052098233,"connected_time":108000000000,"state":"active","ping":63},{"user_id":1054,"name":"Spectreâ¹â¹â¹","steam_id":76561198037535169,"connected_time":418000000000,"state":"active","ping":74},{"user_id":1012,"name":"no.1 medic boyfriend","steam_id":76561198873478305,"connected_time":4746000000000,"state":"active","ping":44},{"user_id":1060,"name":"Furry Femboy Hooters (CEO)","steam_id":76561198097745857,"connected_time":348000000000,"state":"active","ping":54},{"user_id":1061,"name":"AWGER (don't uber)","steam_id":76561198284683624,"connected_time":326000000000,"state":"active","ping":79},{"user_id":1063,"name":"choi","steam_id":76561198053669887,"connected_time":285000000000,"state":"active","ping":88},{"user_id":1020,"name":"valley","steam_id":76561199433415153,"connected_time":3885000000000,"state":"active","ping":59},{"user_id":1052,"name":"Smiles","steam_id":76561198107197973,"connected_time":979000000000,"state":"active","ping":72},{"user_id":1035,"name":"Keamy","steam_id":76561199471434875,"connected_time":2723000000000,"state":"active","ping":44},{"user_id":1027,"name":"squart guy","steam_id":76561199411560141,"connected_time":3521000000000,"state":"active","ping":52},{"user_id":1064,"name":"FREAKS","steam_id":76561198285819311,"connected_time":269000000000,"state":"active","ping":74},{"user_id":1025,"name":"Eraser cat","steam_id":76561199045570463,"connected_time":3620000000000,"state":"active","ping":51},{"user_id":1057,"name":"Greenwood RN","steam_id":76561198088641060,"connected_time":409000000000,"state":"active","ping":40},{"user_id":1050,"name":"Hazel Nutts \u003c3","steam_id":76561199247095754,"connected_time":1562000000000,"state":"active","ping":52},{"user_id":1058,"name":"Kc","steam_id":76561198210734407,"connected_time":409000000000,"state":"active","ping":118}]},{"server_id":119,"name":"Uncletopia | Seattle | 2 | All Maps","name_short":"sea-2","host":"sea-1.us.uncletopia.com","port":27025,"enabled":true,"region":"us-west","cc":"us","latitude":47.608013,"longitude":-122.33517,"reserved":0,"last_update":"0001-01-01T00:00:00Z","name_a2s":"Uncletopia | Seattle | 2 | All Maps","protocol":17,"map":"pl_swiftwater_final1","folder":"tf","game":"Team Fortress","app_id":440,"player_count":24,"max_players":24,"Bots":0,"server_type":"Dedicated","server_os":"Linux","password":true,"vac":true,"version":"7961495","steam_id":85568392924469998,"keywords":["nocrits","nodmgspread","payload","uncletopia"],"game_id":440,"stv_port":27026,"stv_name":"Uncletopia | Seattle | 2 | All Maps | STV","players":[{"user_id":260,"name":"TeriyakiDynamite","steam_id":76561198050049346,"connected_time":706000000000,"state":"active","ping":81},{"user_id":272,"name":"southern hospitality","steam_id":76561198862785401,"connected_time":123000000000,"state":"active","ping":84},{"user_id":271,"name":"Headshotsnake","steam_id":76561198067130248,"connected_time":163000000000,"state":"active","ping":97},{"user_id":273,"name":"Stoopnagle","steam_id":76561198011942560,"connected_time":100000000000,"state":"active","ping":41},{"user_id":259,"name":"Other Players, My One Weakness","steam_id":76561197989247588,"connected_time":878000000000,"state":"active","ping":74},{"user_id":276,"name":"á²¼á²¼á²¼","steam_id":76561198845246815,"connected_time":71000000000,"state":"active","ping":79},{"user_id":265,"name":"Mayor McCheese","steam_id":76561198347579460,"connected_time":326000000000,"state":"active","ping":106},{"user_id":159,"name":"Big Yoshi","steam_id":76561199160576376,"connected_time":5884000000000,"state":"active","ping":86},{"user_id":253,"name":"Dullahan","steam_id":76561198119668908,"connected_time":1300000000000,"state":"active","ping":102},{"user_id":220,"name":"spes","steam_id":76561198081496581,"connected_time":3179000000000,"state":"active","ping":47},{"user_id":202,"name":"goofy goober","steam_id":76561199024079388,"connected_time":4166000000000,"state":"active","ping":46},{"user_id":264,"name":"Gwuf","steam_id":76561198091503282,"connected_time":409000000000,"state":"active","ping":85},{"user_id":277,"name":"cool beans","steam_id":76561198321591685,"connected_time":33000000000,"state":"active","ping":75},{"user_id":266,"name":"blueboy23","steam_id":76561199121889873,"connected_time":299000000000,"state":"active","ping":41},{"user_id":216,"name":"Butteryback","steam_id":76561198049642485,"connected_time":3345000000000,"state":"active","ping":64},{"user_id":221,"name":"Kazoo","steam_id":76561199229748300,"connected_time":3156000000000,"state":"active","ping":70},{"user_id":262,"name":"BONER MAN","steam_id":76561198043251593,"connected_time":444000000000,"state":"active","ping":68},{"user_id":267,"name":"Double Cheeseburger","steam_id":76561198107807617,"connected_time":285000000000,"state":"active","ping":67},{"user_id":268,"name":"Deku_2667","steam_id":76561199232121911,"connected_time":248000000000,"state":"active","ping":47},{"user_id":225,"name":"Arkus","steam_id":76561199092478198,"connected_time":3040000000000,"state":"active","ping":45},{"user_id":224,"name":"Weed Pyro (real)","steam_id":76561199388058358,"connected_time":3056000000000,"state":"active","ping":60},{"user_id":255,"name":"GreenApples","steam_id":76561198120559543,"connected_time":1293000000000,"state":"active","ping":104},{"user_id":275,"name":"JeffTrash","steam_id":76561198975550775,"connected_time":88000000000,"state":"spawning","ping":114},{"user_id":263,"name":"wrongthink","steam_id":76561198830293087,"connected_time":443000000000,"state":"active","ping":91}]},{"server_id":406,"name":"Uncletopia | Seattle | 3 | Stopwatch","name_short":"sea-3","host":"sea-1.us.uncletopia.com","port":27035,"enabled":true,"region":"us-west","cc":"us","latitude":47.608013,"longitude":-122.33517,"reserved":0,"last_update":"0001-01-01T00:00:00Z","name_a2s":"Uncletopia | Seattle | 3 | Stopwatch","protocol":17,"map":"workshop/koth_ramjam_rc1.ugc459778887","folder":"tf","game":"Team Fortress","app_id":440,"player_count":0,"max_players":24,"Bots":0,"server_type":"Dedicated","server_os":"Linux","password":true,"vac":true,"version":"7961495","steam_id":85568392924515217,"keywords":["cp","nocrits","nodmgspread","uncletopia"],"game_id":440,"stv_port":27036,"stv_name":"Uncletopia | Seattle | 3 | Stopwatch | STV","players":null},{"server_id":17,"name":"Uncletopia | San Francisco | 1 | All Maps","name_short":"sfo-1","host":"sfo-1.us.uncletopia.com","port":27015,"enabled":true,"region":"us-west","cc":"us","latitude":37.77397,"longitude":-122.4313,"reserved":0,"last_update":"0001-01-01T00:00:00Z","name_a2s":"Uncletopia | San Francisco | 1 | All Maps","protocol":17,"map":"pl_swiftwater_final1","folder":"tf","game":"Team Fortress","app_id":440,"player_count":25,"max_players":24,"Bots":0,"server_type":"Dedicated","server_os":"Linux","password":true,"vac":true,"version":"7961495","steam_id":85568392924469999,"keywords":["nocrits","nodmgspread","payload","uncletopia"],"game_id":440,"stv_port":27016,"stv_name":"Uncletopia | San Francisco | 1 | All Maps | STV","players":[{"user_id":196,"name":"Zycorge","steam_id":76561198049414191,"connected_time":1647000000000,"state":"active","ping":75},{"user_id":228,"name":"lytewerk","steam_id":76561198002819791,"connected_time":576000000000,"state":"active","ping":81},{"user_id":230,"name":"Ralph Kramden (Slim Charles)","steam_id":76561197981687895,"connected_time":526000000000,"state":"active","ping":67},{"user_id":220,"name":"zinnk","steam_id":76561198092081825,"connected_time":1138000000000,"state":"active","ping":40},{"user_id":206,"name":"Dob16","steam_id":76561198176738623,"connected_time":1390000000000,"state":"active","ping":73},{"user_id":226,"name":"Sakilla","steam_id":76561198025224152,"connected_time":622000000000,"state":"active","ping":101},{"user_id":197,"name":"K.A.R.M.A.","steam_id":76561198240750142,"connected_time":1645000000000,"state":"active","ping":52},{"user_id":233,"name":"Phantom Boss","steam_id":76561198119329027,"connected_time":397000000000,"state":"active","ping":115},{"user_id":234,"name":"WeAreTheSpirits","steam_id":76561198191555728,"connected_time":275000000000,"state":"active","ping":49},{"user_id":224,"name":"One Frame","steam_id":76561198143287731,"connected_time":853000000000,"state":"active","ping":56},{"user_id":214,"name":"lordstinkdemon666","steam_id":76561198073914311,"connected_time":1272000000000,"state":"active","ping":56},{"user_id":209,"name":"amaricantanker#574","steam_id":76561198343584037,"connected_time":1366000000000,"state":"active","ping":61},{"user_id":201,"name":"zpalmtree","steam_id":76561198134307620,"connected_time":1545000000000,"state":"active","ping":106},{"user_id":210,"name":"Marge \"ZaZa\" Simpson","steam_id":76561198156496197,"connected_time":1355000000000,"state":"active","ping":103},{"user_id":192,"name":"King of Koopas","steam_id":76561197984558396,"connected_time":2108000000000,"state":"active","ping":86},{"user_id":236,"name":"cowboy","steam_id":76561198266320078,"connected_time":70000000000,"state":"active","ping":110},{"user_id":229,"name":"Brando","steam_id":76561198078306678,"connected_time":560000000000,"state":"active","ping":76},{"user_id":217,"name":"Wang of Wall St","steam_id":76561198047460598,"connected_time":1220000000000,"state":"active","ping":130},{"user_id":237,"name":"Spider_god","steam_id":76561199097791017,"connected_time":26000000000,"state":"spawning","ping":90},{"user_id":231,"name":"Gojira19","steam_id":76561198206384351,"connected_time":506000000000,"state":"active","ping":165},{"user_id":121,"name":"Lambchop","steam_id":76561198043900363,"connected_time":6984000000000,"state":"active","ping":61},{"user_id":154,"name":"pat","steam_id":76561198040595468,"connected_time":4671000000000,"state":"active","ping":71},{"user_id":179,"name":"SonnyMarsh","steam_id":76561198188103746,"connected_time":3000000000000,"state":"active","ping":59},{"user_id":232,"name":"level 7 firemancer","steam_id":76561198209571677,"connected_time":480000000000,"state":"active","ping":104},{"user_id":181,"name":"rad killl raccoon","steam_id":76561198980975595,"connected_time":2745000000000,"state":"active","ping":81}]},{"server_id":18,"name":"Uncletopia | San Francisco | 2 | All Maps","name_short":"sfo-2","host":"sfo-1.us.uncletopia.com","port":27025,"enabled":true,"region":"us-west","cc":"us","latitude":37.77397,"longitude":-122.4313,"reserved":0,"last_update":"0001-01-01T00:00:00Z","name_a2s":"Uncletopia | San Francisco | 2 | All Maps","protocol":17,"map":"pl_frontier_final","folder":"tf","game":"Team Fortress","app_id":440,"player_count":0,"max_players":24,"Bots":0,"server_type":"Dedicated","server_os":"Linux","password":true,"vac":true,"version":"7961495","steam_id":85568392924470000,"keywords":["nocrits","nodmgspread","payload","uncletopia"],"game_id":440,"stv_port":27026,"stv_name":"Uncletopia | San Francisco | 2 | All Maps | STV","players":null},{"server_id":19,"name":"Uncletopia | San Francisco | 3 | Stopwatch","name_short":"sfo-3","host":"sfo-1.us.uncletopia.com","port":27035,"enabled":true,"region":"us-west","cc":"us","latitude":37.77397,"longitude":-122.4313,"reserved":0,"last_update":"0001-01-01T00:00:00Z","name_a2s":"Uncletopia | San Francisco | 3 | Stopwatch","protocol":17,"map":"pl_borneo","folder":"tf","game":"Team Fortress","app_id":440,"player_count":0,"max_players":24,"Bots":0,"server_type":"Dedicated","server_os":"Linux","password":true,"vac":true,"version":"7961495","steam_id":85568392924742824,"keywords":["nocrits","nodmgspread","payload","uncletopia"],"game_id":440,"stv_port":27036,"stv_name":"Uncletopia | San Francisco | 3 | Stopwatch | STV","players":null},{"server_id":20,"name":"Uncletopia | San Francisco | 4 | Community","name_short":"sfo-4","host":"sfo-1.us.uncletopia.com","port":27045,"enabled":true,"region":"us-west","cc":"us","latitude":37.77397,"longitude":-122.4313,"reserved":0,"last_update":"0001-01-01T00:00:00Z","name_a2s":"Uncletopia | San Francisco | 4 | Community","protocol":17,"map":"pl_pier","folder":"tf","game":"Team Fortress","app_id":440,"player_count":10,"max_players":24,"Bots":0,"server_type":"Dedicated","server_os":"Linux","password":true,"vac":true,"version":"7961495","steam_id":85568392924742826,"keywords":["nocrits","nodmgspread","payload","uncletopia"],"game_id":440,"stv_port":27046,"stv_name":"Uncletopia | San Francisco | 4 | Community | STV","players":[{"user_id":4,"name":"CHIEF_JUSTICE_FUCKASS","steam_id":76561199261675844,"connected_time":1668000000000,"state":"active","ping":81},{"user_id":5,"name":"Dreamer","steam_id":76561198800478056,"connected_time":1619000000000,"state":"active","ping":130},{"user_id":6,"name":"Sun","steam_id":76561198201205911,"connected_time":1501000000000,"state":"active","ping":60},{"user_id":8,"name":"NoobNoob","steam_id":76561198447655340,"connected_time":550000000000,"state":"active","ping":122},{"user_id":9,"name":"Soap","steam_id":76561198074619142,"connected_time":532000000000,"state":"active","ping":90},{"user_id":10,"name":"Kitsunian","steam_id":76561199223189107,"connected_time":511000000000,"state":"active","ping":159},{"user_id":11,"name":"Bones0010","steam_id":76561198096186958,"connected_time":344000000000,"state":"active","ping":99},{"user_id":12,"name":"NovaDome","steam_id":76561198292309598,"connected_time":156000000000,"state":"active","ping":83},{"user_id":13,"name":"GoGo","steam_id":76561198023080645,"connected_time":136000000000,"state":"active","ping":124},{"user_id":14,"name":"Chap","steam_id":76561198294226443,"connected_time":10000000000,"state":"spawning","ping":48}]},{"server_id":141,"name":"Uncletopia | Sydney | 1 | All Maps","name_short":"syd-1","host":"syd-1.au.uncletopia.com","port":27015,"enabled":true,"region":"au","cc":"au","latitude":-33.865143,"longitude":151.2099,"reserved":0,"last_update":"0001-01-01T00:00:00Z","name_a2s":"Uncletopia | Sydney | 1 | All Maps","protocol":17,"map":"koth_viaduct","folder":"tf","game":"Team Fortress","app_id":440,"player_count":0,"max_players":24,"Bots":0,"server_type":"Dedicated","server_os":"Linux","password":true,"vac":true,"version":"7961495","steam_id":85568392924470001,"keywords":["cp","nocrits","nodmgspread","uncletopia"],"game_id":440,"stv_port":27016,"stv_name":"Uncletopia | Sydney | 1 | All Maps | STV","players":null},{"server_id":123,"name":"Uncletopia | Sydney | 2 | All Maps","name_short":"syd-2","host":"syd-1.au.uncletopia.com","port":27025,"enabled":true,"region":"au","cc":"au","latitude":-33.865143,"longitude":151.2099,"reserved":0,"last_update":"0001-01-01T00:00:00Z","name_a2s":"Uncletopia | Sydney | 2 | All Maps","protocol":17,"map":"koth_lakeside_final","folder":"tf","game":"Team Fortress","app_id":440,"player_count":0,"max_players":24,"Bots":0,"server_type":"Dedicated","server_os":"Linux","password":true,"vac":true,"version":"7961495","steam_id":85568392924470002,"keywords":["cp","nocrits","nodmgspread","uncletopia"],"game_id":440,"stv_port":27026,"stv_name":"Uncletopia | Sydney | 2 | All Maps | STV","players":null},{"server_id":395,"name":"Uncletopia | Sydney | 3 | All Maps","name_short":"syd-3","host":"syd-1.au.uncletopia.com","port":27035,"enabled":true,"region":"au","cc":"au","latitude":-33.865143,"longitude":151.2099,"reserved":0,"last_update":"0001-01-01T00:00:00Z","name_a2s":"Uncletopia | Sydney | 3 | All Maps","protocol":17,"map":"pl_frontier_final","folder":"tf","game":"Team Fortress","app_id":440,"player_count":0,"max_players":24,"Bots":0,"server_type":"Dedicated","server_os":"Linux","password":true,"vac":true,"version":"7961495","steam_id":85568392925194467,"keywords":["nocrits","nodmgspread","payload","uncletopia"],"game_id":440,"stv_port":27036,"stv_name":"Uncletopia | Sydney | 3 | All Maps | STV","players":null},{"server_id":396,"name":"Uncletopia | Sydney | 4 | All Maps","name_short":"syd-4","host":"syd-1.au.uncletopia.com","port":27045,"enabled":true,"region":"au","cc":"au","latitude":-33.865143,"longitude":151.2099,"reserved":0,"last_update":"0001-01-01T00:00:00Z","name_a2s":"Uncletopia | Sydney | 4 | All Maps","protocol":17,"map":"cp_process_final","folder":"tf","game":"Team Fortress","app_id":440,"player_count":0,"max_players":24,"Bots":0,"server_type":"Dedicated","server_os":"Linux","password":true,"vac":true,"version":"7961495","steam_id":85568392925397958,"keywords":["cp","nocrits","nodmgspread","uncletopia"],"game_id":440,"stv_port":27046,"stv_name":"Uncletopia | Sydney | 4 | All Maps | STV","players":null},{"server_id":58,"name":"Uncletopia | Sydney | 5 | Stopwatch","name_short":"syd-5","host":"syd-1.au.uncletopia.com","port":27055,"enabled":true,"region":"au","cc":"au","latitude":-33.865143,"longitude":151.2099,"reserved":0,"last_update":"0001-01-01T00:00:00Z","name_a2s":"Uncletopia | Sydney | 5 | Stopwatch","protocol":17,"map":"pl_frontier_final","folder":"tf","game":"Team Fortress","app_id":440,"player_count":0,"max_players":24,"Bots":0,"server_type":"Dedicated","server_os":"Linux","password":true,"vac":true,"version":"7961495","steam_id":85568392925397959,"keywords":["nocrits","nodmgspread","payload","uncletopia"],"game_id":440,"stv_port":27056,"stv_name":"Uncletopia | Sydney | 5 | Stopwatch | STV","players":null},{"server_id":59,"name":"Uncletopia | Sydney | 6 | Community","name_short":"syd-6","host":"syd-1.au.uncletopia.com","port":27065,"enabled":true,"region":"au","cc":"au","latitude":-33.865143,"longitude":151.2099,"reserved":0,"last_update":"0001-01-01T00:00:00Z","name_a2s":"Uncletopia | Sydney | 6 | Community","protocol":17,"map":"cp_sunshine","folder":"tf","game":"Team Fortress","app_id":440,"player_count":0,"max_players":24,"Bots":0,"server_type":"Dedicated","server_os":"Linux","password":true,"vac":true,"version":"7961495","steam_id":85568392925397960,"keywords":["cp","nocrits","nodmgspread","uncletopia"],"game_id":440,"stv_port":27066,"stv_name":"Uncletopia | Sydney | 6 | Community | STV","players":null},{"server_id":49,"name":"Uncletopia | Warsaw | 1 | One Thousand Uncles","name_short":"waw-1","host":"waw-1.pl.uncletopia.com","port":27015,"enabled":true,"region":"eu","cc":"pl","latitude":52.2297,"longitude":21.017532,"reserved":0,"last_update":"0001-01-01T00:00:00Z","name_a2s":"Uncletopia | Warsaw | 1 | One Thousand Uncles","protocol":17,"map":"cp_dustbowl","folder":"tf","game":"Team Fortress","app_id":440,"player_count":0,"max_players":32,"Bots":0,"server_type":"Dedicated","server_os":"Linux","password":true,"vac":true,"version":"7961495","steam_id":85568392925397850,"keywords":["alltalk","cp","danepve","increased_maxplayers","nocrits","norespawntime","uncletopia"],"game_id":440,"stv_port":0,"stv_name":"","players":null},{"server_id":50,"name":"Uncletopia | Warsaw | 2 | One Thousand Uncles","name_short":"waw-2","host":"waw-1.pl.uncletopia.com","port":27025,"enabled":true,"region":"eu","cc":"pl","latitude":52.2297,"longitude":21.017532,"reserved":0,"last_update":"0001-01-01T00:00:00Z","name_a2s":"Uncletopia | Warsaw | 2 | One Thousand Uncles","protocol":17,"map":"pl_goldrush","folder":"tf","game":"Team Fortress","app_id":440,"player_count":0,"max_players":32,"Bots":0,"server_type":"Dedicated","server_os":"Linux","password":true,"vac":true,"version":"7961495","steam_id":85568392925397851,"keywords":["alltalk","danepve","increased_maxplayers","nocrits","norespawntime","payload","uncletopia"],"game_id":440,"stv_port":0,"stv_name":"","players":null},{"server_id":51,"name":"Uncletopia | Warsaw | 3 | All Maps","name_short":"waw-3","host":"waw-1.pl.uncletopia.com","port":27035,"enabled":true,"region":"eu","cc":"pl","latitude":52.2297,"longitude":21.017532,"reserved":0,"last_update":"0001-01-01T00:00:00Z","name_a2s":"Uncletopia | Warsaw | 3 | All Maps","protocol":17,"map":"cp_process_final","folder":"tf","game":"Team Fortress","app_id":440,"player_count":0,"max_players":24,"Bots":0,"server_type":"Dedicated","server_os":"Linux","password":true,"vac":true,"version":"7961495","steam_id":85568392925397852,"keywords":["cp","nocrits","nodmgspread","uncletopia"],"game_id":440,"stv_port":27036,"stv_name":"Uncletopia | Warsaw | 3 | All Maps | STV","players":null},{"server_id":52,"name":"Uncletopia | Warsaw | 4 | All Maps","name_short":"waw-4","host":"waw-1.pl.uncletopia.com","port":27045,"enabled":true,"region":"eu","cc":"pl","latitude":52.2297,"longitude":21.017532,"reserved":0,"last_update":"0001-01-01T00:00:00Z","name_a2s":"Uncletopia | Warsaw | 4 | All Maps","protocol":17,"map":"pl_snowycoast","folder":"tf","game":"Team Fortress","app_id":440,"player_count":0,"max_players":24,"Bots":0,"server_type":"Dedicated","server_os":"Linux","password":true,"vac":true,"version":"7961495","steam_id":85568392925397853,"keywords":["nocrits","nodmgspread","payload","uncletopia"],"game_id":440,"stv_port":27046,"stv_name":"Uncletopia | Warsaw | 4 | All Maps | STV","players":null},{"server_id":53,"name":"Uncletopia | Warsaw | 5 | Stopwatch","name_short":"waw-5","host":"waw-1.pl.uncletopia.com","port":27055,"enabled":true,"region":"eu","cc":"pl","latitude":52.2297,"longitude":21.017532,"reserved":0,"last_update":"0001-01-01T00:00:00Z","name_a2s":"Uncletopia | Warsaw | 5 | Stopwatch","protocol":17,"map":"koth_lakeside_final","folder":"tf","game":"Team Fortress","app_id":440,"player_count":0,"max_players":24,"Bots":0,"server_type":"Dedicated","server_os":"Linux","password":true,"vac":true,"version":"7961495","steam_id":85568392925397854,"keywords":["cp","nocrits","nodmgspread","uncletopia"],"game_id":440,"stv_port":27056,"stv_name":"Uncletopia | Warsaw | 5 | Stopwatch | STV","players":null},{"server_id":54,"name":"Uncletopia | Warsaw | 6 | Community","name_short":"waw-6","host":"waw-1.pl.uncletopia.com","port":27065,"enabled":true,"region":"eu","cc":"pl","latitude":52.2297,"longitude":21.017532,"reserved":0,"last_update":"0001-01-01T00:00:00Z","name_a2s":"Uncletopia | Warsaw | 6 | Community","protocol":17,"map":"workshop/pl_corrode_rc2.ugc546577989","folder":"tf","game":"Team Fortress","app_id":440,"player_count":0,"max_players":24,"Bots":0,"server_type":"Dedicated","server_os":"Linux","password":true,"vac":true,"version":"7961495","steam_id":85568392925397856,"keywords":["nocrits","nodmgspread","payload","uncletopia"],"game_id":440,"stv_port":27066,"stv_name":"Uncletopia | Warsaw | 6 | Community | STV","players":null}]}