{"status":true,"message":"","result":[{"server_id":9,"name":"Uncletopia | Atlanta | 1 | All Maps","name_short":"atl-1","host":"atl-1.us.uncletopia.com","port":27015,"enabled":true,"region":"us-east","cc":"us","latitude":33.753746,"longitude":-84.38633,"reserved":0,"last_update":"0001-01-01T00:00:00Z","name_a2s":"Uncletopia | Atlanta | 1 | All Maps","protocol":17,"map":"pl_upward","folder":"tf","game":"Team Fortress","app_id":440,"player_count":0,"max_players":24,"Bots":0,"server_type":"Dedicated","server_os":"Linux","password":true,"vac":true,"version":"7961495","steam_id":85568392924469982,"keywords":["nocrits","nodmgspread","payload","uncletopia"],"game_id":440,"stv_port":27016,"stv_name":"Uncletopia | Atlanta | 1 | All Maps | STV","players":null},{"server_id":104,"name":"Uncletopia | Atlanta | 2 | All Maps","name_short":"atl-2","host":"atl-1.us.uncletopia.com","port":27025,"enabled":true,"region":"us-east","cc":"us","latitude":33.753746,"longitude":-84.38633,"reserved":0,"last_update":"0001-01-01T00:00:00Z","name_a2s":"","protocol":0,"map":"","folder":"","game":"","app_id":0,"player_count":0,"max_players":0,"Bots":0,"server_type":"","server_os":"","password":false,"vac":false,"version":"","steam_id":0,"keywords":null,"game_id":0,"stv_port":0,"stv_name":"","players":null},{"server_id":400,"name":"Uncletopia | Atlanta | 3 | All Maps","name_short":"atl-3","host":"atl-1.us.uncletopia.com","port":27035,"enabled":true,"region":"us-east","cc":"us","latitude":33.753746,"longitude":-84.38633,"reserved":0,"last_update":"0001-01-01T00:00:00Z","name_a2s":"","protocol":0,"map":"","folder":"","game":"","app_id":0,"player_count":0,"max_players":0,"Bots":0,"server_type":"","server_os":"","password":false,"vac":false,"version":"","steam_id":0,"keywords":null,"game_id":0,"stv_port":0,"stv_name":"","players":null},{"server_id":401,"name":"Uncletopia | Atlanta | 4 | Community","name_short":"atl-4","host":"atl-1.us.uncletopia.com","port":27045,"enabled":true,"region":"us-east","cc":"us","latitude":33.753746,"longitude":-84.38633,"reserved":0,"last_update":"0001-01-01T00:00:00Z","name_a2s":"","protocol":0,"map":"","folder":"","game":"","app_id":0,"player_count":0,"max_players":0,"Bots":0,"server_type":"","server_os":"","password":false,"vac":false,"version":"","steam_id":0,"keywords":null,"game_id":0,"stv_port":0,"stv_name":"","players":null},{"server_id":2,"name":"Uncletopia | Chicago | 1 | All Maps","name_short":"chi-1","host":"chi-1.us.uncletopia.com","port":27015,"enabled":true,"region":"us-central","cc":"us","latitude":41.881832,"longitude":-87.62318,"reserved":0,"last_update":"0001-01-01T00:00:00Z","name_a2s":"Uncletopia | Chicago | 1 | All Maps","protocol":17,"map":"pl_swiftwater_final1","folder":"tf","game":"Team Fortress","app_id":440,"player_count":24,"max_players":24,"Bots":0,"server_type":"Dedicated","server_os":"Linux","password":true,"vac":true,"version":"7961495","steam_id":85568392924469984,"keywords":["nocrits","nodmgspread","payload","uncletopia"],"game_id":440,"stv_port":27016,"stv_name":"Uncletopia | Chicago | 1 | All Maps | STV","players":[{"user_id":206,"name":"Mongo","steam_id":76561198242548846,"connected_time":37000000000,"state":"active","ping":106},{"user_id":176,"name":"MetalNavigator","steam_id":76561198974231439,"connected_time":2156000000000,"state":"active","ping":115},{"user_id":204,"name":"Just PYE","steam_id":76561199439622967,"connected_time":398000000000,"state":"active","ping":90},{"user_id":177,"name":"Deph Pyro","steam_id":76561198065033546,"connected_time":2139000000000,"state":"active","ping":70},{"user_id":168,"name":"denzy_","steam_id":76561198873788683,"connected_time":3369000000000,"state":"active","ping":64},{"user_id":42,"name":"hi","steam_id":76561198809577048,"connected_time":14377000000000,"state":"active","ping":107},{"user_id":202,"name":"Tommy Pickles (Very Cool)","steam_id":76561198391261463,"connected_time":680000000000,"state":"active","ping":67},{"user_id":179,"name":"MikeLovesRabbit","steam_id":76561197997742625,"connected_time":2110000000000,"state":"active","ping":58},{"user_id":205,"name":"GooniOoni","steam_id":76561198102154561,"connected_time":224000000000,"state":"active","ping":44},{"user_id":181,"name":"Raizen","steam_id":76561199092445367,"connected_time":2087000000000,"state":"active","ping":51},{"user_id":154,"name":"Obelisk","steam_id":76561198049416866,"connected_time":4612000000000,"state":"active","ping":78},{"user_id":203,"name":"Big Yoshi","steam_id":76561199160576376,"connected_time":659000000000,"state":"active","ping":119},{"user_id":182,"name":"Dr_Riddler","steam_id":76561198139493285,"connected_time":2075000000000,"state":"active","ping":82},{"user_id":195,"name":"kasper","steam_id":76561198263271697,"connected_time":1424000000000,"state":"active","ping":42},{"user_id":172,"name":"McGruble","steam_id":76561198136317340,"connected_time":3012000000000,"state":"active","ping":76},{"user_id":153,"name":"dog","steam_id":76561198295237946,"connected_time":4923000000000,"state":"active","ping":77},{"user_id":188,"name":"JohnPlumber88","steam_id":76561198170203473,"connected_time":1767000000000,"state":"active","ping":64},{"user_id":194,"name":"mountain","steam_id":76561198078395002,"connected_time":1480000000000,"state":"active","ping":68},{"user_id":200,"name":"aeon","steam_id":76561198068654532,"connected_time":722000000000,"state":"active","ping":74},{"user_id":175,"name":"LocaKola","steam_id":76561198173435430,"connected_time":2540000000000,"state":"active","ping":78},{"user_id":186,"name":"NooseNeck","steam_id":76561198202416199,"connected_time":1810000000000,"state":"active","ping":73},{"user_id":167,"name":"The Entire Population of Canada","steam_id":76561198090187112,"connected_time":3411000000000,"state":"active","ping":70},{"user_id":187,"name":"indi","steam_id":76561198045917538,"connected_time":1804000000000,"state":"active","ping":51},{"user_id":197,"name":"Undertime Slopper","steam_id":76561198396789061,"connected_time":839000000000,"state":"active","ping":74}]},{"server_id":106,"name":"Uncletopia | Chicago | 2 | All Maps","name_short":"chi-2","host":"chi-1.us.uncletopia.com","port":27025,"enabled":true,"region":"us-central","cc":"us","latitude":41.881832,"longitude":-87.62318,"reserved":0,"last_update":"0001-01-01T00:00:00Z","name_a2s":"Uncletopia | Chicago | 2 | All Maps","protocol":17,"map":"pl_borneo","folder":"tf","game":"Team Fortress","app_id":440,"player_count":23,"max_players":24,"Bots":0,"server_type":"Dedicated","server_os":"Linux","password":true,"vac":true,"version":"7961495","steam_id":85568392924469985,"keywords":["nocrits","nodmgspread","payload","uncletopia"],"game_id":440,"stv_port":27026,"stv_name":"Uncletopia | Chicago | 2 | All Maps | STV","players":[{"user_id":129,"name":"FanGirl Troutsupply.net","steam_id":76561199140940650,"connected_time":679000000000,"state":"active","ping":51},{"user_id":134,"name":"Moonkey","steam_id":76561199013741389,"connected_time":63000000000,"state":"active","ping":58},{"user_id":103,"name":"PbyFortress","steam_id":76561199046192860,"connected_time":2298000000000,"state":"active","ping":55},{"user_id":80,"name":"1-800-GHOST-DANCE","steam_id":76561198835430429,"connected_time":4386000000000,"state":"active","ping":88},{"user_id":135,"name":"BLANK3T [They/He femboy on THC]","steam_id":76561198028875624,"connected_time":53000000000,"state":"active","ping":95},{"user_id":126,"name":"NovusOrdoDux","steam_id":76561198271936289,"connected_time":954000000000,"state":"active","ping":131},{"user_id":120,"name":"professional nonprofessional","steam_id":76561199200442395,"connected_time":1181000000000,"state":"active","ping":175},{"user_id":110,"name":"孫子","steam_id":76561198083112681,"connected_time":2180000000000,"state":"active","ping":47},{"user_id":133,"name":"xiPoison","steam_id":76561198064961659,"connected_time":108000000000,"state":"active","ping":67},{"user_id":106,"name":"blitz","steam_id":76561198246638226,"connected_time":2263000000000,"state":"active","ping":54},{"user_id":121,"name":"some tree","steam_id":76561198166093346,"connected_time":1174000000000,"state":"active","ping":58},{"user_id":71,"name":"fischman","steam_id":76561199064142670,"connected_time":4770000000000,"state":"active","ping":151},{"user_id":131,"name":"el wiwi","steam_id":76561198857304367,"connected_time":431000000000,"state":"active","ping":74},{"user_id":132,"name":"Bulk","steam_id":76561199009814535,"connected_time":163000000000,"state":"active","ping":60},{"user_id":130,"name":"Uplego13","steam_id":76561198135415659,"connected_time":656000000000,"state":"active","ping":88},{"user_id":122,"name":"Sir Cumcision","steam_id":76561199219817716,"connected_time":1153000000000,"state":"active","ping":110},{"user_id":137,"name":"Stiffy Magnum","steam_id":76561198000036722,"connected_time":35000000000,"state":"active","ping":90},{"user_id":127,"name":"Breadboy","steam_id":76561199092359175,"connected_time":883000000000,"state":"active","ping":79},{"user_id":138,"name":"Cool for Cats","steam_id":76561199046667189,"connected_time":24000000000,"state":"active","ping":68},{"user_id":102,"name":"Placcid","steam_id":76561197996898905,"connected_time":2463000000000,"state":"active","ping":78},{"user_id":116,"name":"I'm not real you're real","steam_id":76561199491138825,"connected_time":1717000000000,"state":"active","ping":77},{"user_id":118,"name":"TheFriendlyPybro","steam_id":76561198119425604,"connected_time":1337000000000,"state":"active","ping":75},{"user_id":125,"name":"Xodium","steam_id":76561199009403605,"connected_time":1060000000000,"state":"active","ping":67}]},{"server_id":402,"name":"Uncletopia | Chicago | 3 | All Maps","name_short":"chi-3","host":"chi-1.us.uncletopia.com","port":27035,"enabled":true,"region":"us-central","cc":"us","latitude":41.881832,"longitude":-87.62318,"reserved":0,"last_update":"0001-01-01T00:00:00Z","name_a2s":"Uncletopia | Chicago | 3 | All Maps","protocol":17,"map":"cp_mountainlab","folder":"tf","game":"Team Fortress","app_id":440,"player_count":24,"max_players":24,"Bots":0,"server_type":"Dedicated","server_os":"Linux","password":true,"vac":true,"version":"7961495","steam_id":85568392924515191,"keywords":["cp","nocrits","nodmgspread","uncletopia"],"game_id":440,"stv_port":27036,"stv_name":"Uncletopia | Chicago | 3 | All Maps | STV","players":[{"user_id":54,"name":"Acehay14","steam_id":76561198052373291,"connected_time":636000000000,"state":"active","ping":55},{"user_id":6,"name":"Deborp","steam_id":76561198118868430,"connected_time":3155000000000,"state":"active","ping":90},{"user_id":40,"name":"Urbanzpinapple","steam_id":76561198115426938,"connected_time":2152000000000,"state":"active","ping":74},{"user_id":9,"name":"Wolfsandwich123","steam_id":76561198332742794,"connected_time":2979000000000,"state":"active","ping":84},{"user_id":58,"name":"Aeonspassed","steam_id":76561198014016451,"connected_time":113000000000,"state":"active","ping":49},{"user_id":45,"name":"ggiP","steam_id":76561198815264672,"connected_time":1565000000000,"state":"active","ping":54},{"user_id":16,"name":"Lazy Bones","steam_id":76561198198928941,"connected_time":2808000000000,"state":"active","ping":89},{"user_id":28,"name":"Willem Dafoe","steam_id":76561198037453253,"connected_time":2508000000000,"state":"active","ping":55},{"user_id":14,"name":"McDonald's Filet-O-Fish","steam_id":76561198104086771,"connected_time":2826000000000,"state":"active","ping":91},{"user_id":15,"name":"lucky","steam_id":76561198323426623,"connected_time":2815000000000,"state":"active","ping":111},{"user_id":56,"name":"MarauderOP","steam_id":76561199087316861,"connected_time":603000000000,"state":"active","ping":70},{"user_id":29,"name":"Npcutz64","steam_id":76561198320867336,"connected_time":2468000000000,"state":"active","ping":76},{"user_id":46,"name":"i wish you obelisk","steam_id":76561198032482394,"connected_time":1554000000000,"state":"active","ping":75},{"user_id":51,"name":"de","steam_id":76561198105327039,"connected_time":1343000000000,"state":"active","ping":86},{"user_id":41,"name":"Spykiller42","steam_id":76561199027962230,"connected_time":2096000000000,"state":"active","ping":152},{"user_id":43,"name":"Mr. Durian","steam_id":76561198093813212,"connected_time":1695000000000,"state":"active","ping":65},{"user_id":48,"name":"Maurice","steam_id":76561198064989343,"connected_time":1548000000000,"state":"active","ping":82},{"user_id":42,"name":"Pixler544","steam_id":76561198240575132,"connected_time":1899000000000,"state":"active","ping":80},{"user_id":27,"name":"suns","steam_id":76561198079583278,"connected_time":2632000000000,"state":"active","ping":50},{"user_id":34,"name":"creeeeeee","steam_id":76561198392539722,"connected_time":2409000000000,"state":"active","ping":84},{"user_id":53,"name":"artixes","steam_id":76561198379574232,"connected_time":668000000000,"state":"active","ping":60},{"user_id":57,"name":"Chippers","steam_id":76561198104536093,"connected_time":213000000000,"state":"active","ping":65},{"user_id":50,"name":"chippy","steam_id":76561198089779022,"connected_time":1545000000000,"state":"active","ping":85},{"user_id":38,"name":"Locus","steam_id":76561198129833463,"connected_time":2320000000000,"state":"active","ping":141}]},{"server_id":403,"name":"Uncletopia | Chicago | 4 | All Maps","name_short":"chi-4","host":"chi-1.us.uncletopia.com","port":27045,"enabled":true,"region":"us-central","cc":"us","latitude":41.881832,"longitude":-87.62318,"reserved":0,"last_update":"0001-01-01T00:00:00Z","name_a2s":"Uncletopia | Chicago | 4 | All Maps","protocol":17,"map":"cp_altitude","folder":"tf","game":"Team Fortress","app_id":440,"player_count":0,"max_players":24,"Bots":0,"server_type":"Dedicated","server_os":"Linux","password":true,"vac":true,"version":"7961495","steam_id":85568392924515193,"keywords":["cp","nocrits","nodmgspread","uncletopia"],"game_id":440,"stv_port":27046,"stv_name":"Uncletopia | Chicago | 4 | All Maps | STV","players":null},{"server_id":36,"name":"Uncletopia | Chicago | 5 | All Maps","name_short":"chi-5","host":"chi-2.us.uncletopia.com","port":27015,"enabled":true,"region":"us-central","cc":"us","latitude":41.881832,"longitude":-87.62318,"reserved":0,"last_update":"0001-01-01T00:00:00Z","name_a2s":"Uncletopia | Chicago | 5 | All Maps","protocol":17,"map":"cp_snakewater_final1","folder":"tf","game":"Team Fortress","app_id":440,"player_count":0,"max_players":24,"Bots":0,"server_type":"Dedicated","server_os":"Linux","password":true,"vac":true,"version":"7961495","steam_id":85568392924866362,"keywords":["cp","nocrits","nodmgspread","uncletopia"],"game_id":440,"stv_port":27016,"stv_name":"Uncletopia | Chicago | 5 | All Maps | STV","players":null},{"server_id":37,"name":"Uncletopia | Chicago | 6 | All Maps","name_short":"chi-6","host":"chi-2.us.uncletopia.com","port":27025,"enabled":true,"region":"us-central","cc":"us","latitude":41.881832,"longitude":-87.62318,"reserved":0,"last_update":"0001-01-01T00:00:00Z","name_a2s":"Uncletopia | Chicago | 6 | All Maps","protocol":17,"map":"cp_altitude","folder":"tf","game":"Team Fortress","app_id":440,"player_count":0,"max_players":24,"Bots":0,"server_type":"Dedicated","server_os":"Linux","password":true,"vac":true,"version":"7961495","steam_id":85568392924866363,"keywords":["cp","nocrits","nodmgspread","uncletopia"],"game_id":440,"stv_port":27026,"stv_name":"Uncletopia | Chicago | 6 | All Maps | STV","players":null},{"server_id":38,"name":"Uncletopia | Chicago | 7 | Stopwatch Beta","name_short":"chi-7","host":"chi-2.us.uncletopia.com","port":27035,"enabled":true,"region":"us-central","cc":"us","latitude":41.881832,"longitude":-87.62318,"reserved":0,"last_update":"0001-01-01T00:00:00Z","name_a2s":"Uncletopia | Chicago | 7 | Stopwatch Beta","protocol":17,"map":"pl_badwater","folder":"tf","game":"Team Fortress","app_id":440,"player_count":0,"max_players":24,"Bots":0,"server_type":"Dedicated","server_os":"Linux","password":true,"vac":true,"version":"7961495","steam_id":85568392924866364,"keywords":["nocrits","nodmgspread","payload","uncletopia"],"game_id":440,"stv_port":27036,"stv_name":"Uncletopia | Chicago | 7 | Stopwatch Beta | STV","players":null},{"server_id":39,"name":"Uncletopia | Chicago | 8 | Community","name_short":"chi-8","host":"chi-2.us.uncletopia.com","port":27045,"enabled":true,"region":"us-central","cc":"us","latitude":41.881832,"longitude":-87.62318,"reserved":0,"last_update":"0001-01-01T00:00:00Z","name_a2s":"Uncletopia | Chicago | 8 | Community","protocol":17,"map":"koth_cascade","folder":"tf","game":"Team Fortress","app_id":440,"player_count":0,"max_players":24,"Bots":0,"server_type":"Dedicated","server_os":"Linux","password":true,"vac":true,"version":"7961495","steam_id":85568392924866365,"keywords":["cp","nocrits","nodmgspread","uncletopia"],"game_id":440,"stv_port":27046,"stv_name":"Uncletopia | Chicago | 8 | Community | STV","players":null},{"server_id":8,"name":"Uncletopia | Dallas | 1 | All Maps","name_short":"dal-1","host":"dal-1.us.uncletopia.com","port":27015,"enabled":true,"region":"us-central","cc":"us","latitude":32.779167,"longitude":-96.80889,"reserved":0,"last_update":"0001-01-01T00:00:00Z","name_a2s":"Uncletopia | Dallas | 1 | All Maps","protocol":17,"map":"pl_upward","folder":"tf","game":"Team Fortress","app_id":440,"player_count":24,"max_players":24,"Bots":0,"server_type":"Dedicated","server_os":"Linux","password":true,"vac":true,"version":"7961495","steam_id":85568392924469986,"keywords":["nocrits","nodmgspread","payload","uncletopia"],"game_id":440,"stv_port":27016,"stv_name":"Uncletopia | Dallas | 1 | All Maps | STV","players":[{"user_id":133,"name":"Fletcher","steam_id":76561198317846538,"connected_time":1663000000000,"state":"active","ping":89},{"user_id":125,"name":"˗ˏˋKüki´ˎ˗","steam_id":76561198102045762,"connected_time":2867000000000,"state":"active","ping":99},{"user_id":117,"name":"Обама","steam_id":76561198134415874,"connected_time":3478000000000,"state":"active","ping":60},{"user_id":146,"name":"Bobby Dazzler 魔鐘","steam_id":76561198007405067,"connected_time":192000000000,"state":"active","ping":48},{"user_id":103,"name":"Likeia #Savetf2","steam_id":76561198005214207,"connected_time":5054000000000,"state":"active","ping":57},{"user_id":131,"name":"TurkeyJuice","steam_id":76561198193109422,"connected_time":1698000000000,"state":"active","ping":60},{"user_id":138,"name":"Jork","steam_id":76561198121415366,"connected_time":1262000000000,"state":"active","ping":100},{"user_id":115,"name":"Taco","steam_id":76561198034670953,"connected_time":3580000000000,"state":"active","ping":64},{"user_id":139,"name":"GangstaPuddin","steam_id":76561198045414782,"connected_time":1180000000000,"state":"active","ping":80},{"user_id":142,"name":"guy who loves eating cigarettes","steam_id":76561198094495920,"connected_time":264000000000,"state":"active","ping":56},{"user_id":137,"name":"DrFlapJack","steam_id":76561199075410469,"connected_time":1408000000000,"state":"active","ping":86},{"user_id":141,"name":"lego star wars on the psp","steam_id":76561198148014773,"connected_time":666000000000,"state":"active","ping":97},{"user_id":144,"name":"BOT Positronic♥June","steam_id":76561198042556857,"connected_time":230000000000,"state":"active","ping":72},{"user_id":134,"name":"Punished Eric","steam_id":76561198074482804,"connected_time":1641000000000,"state":"active","ping":104},{"user_id":112,"name":"Neptune˖⁺｡˚⋆˙♥","steam_id":76561199054203198,"connected_time":4128000000000,"state":"active","ping":89},{"user_id":130,"name":"flaccid","steam_id":76561198299241777,"connected_time":1783000000000,"state":"active","ping":93},{"user_id":128,"name":"floofy","steam_id":76561198389769098,"connected_time":2073000000000,"state":"active","ping":79},{"user_id":145,"name":"Cosmic Torgue","steam_id":76561198828724945,"connected_time":208000000000,"state":"active","ping":102},{"user_id":147,"name":"DB2","steam_id":76561198176618461,"connected_time":187000000000,"state":"active","ping":73},{"user_id":124,"name":"hopdon","steam_id":76561198051616613,"connected_time":3139000000000,"state":"active","ping":80},{"user_id":99,"name":"*Gage*","steam_id":76561197975233869,"connected_time":5186000000000,"state":"active","ping":72},{"user_id":140,"name":"Zaid","steam_id":76561199142840666,"connected_time":829000000000,"state":"active","ping":189},{"user_id":106,"name":"Boingo","steam_id":76561199086931535,"connected_time":4911000000000,"state":"active","ping":57},{"user_id":148,"name":"arsenic microdoser","steam_id":76561198418172095,"connected_time":95000000000,"state":"active","ping":89}]},{"server_id":108,"name":"Uncletopia | Dallas | 2 | All Maps","name_short":"dal-2","host":"dal-1.us.uncletopia.com","port":27025,"enabled":true,"region":"us-central","cc":"us","latitude":32.779167,"longitude":-96.80889,"reserved":0,"last_update":"0001-01-01T00:00:00Z","name_a2s":"Uncletopia | Dallas | 2 | All Maps","protocol":17,"map":"koth_highpass","folder":"tf","game":"Team Fortress","app_id":440,"player_count":4,"max_players":24,"Bots":0,"server_type":"Dedicated","server_os":"Linux","password":true,"vac":true,"version":"7961495","steam_id":85568392924469988,"keywords":["cp","nocrits","nodmgspread","uncletopia"],"game_id":440,"stv_port":27026,"stv_name":"Uncletopia | Dallas | 2 | All Maps | STV","players":[{"user_id":4,"name":"Ceo of Anti-Racism","steam_id":76561198831997540,"connected_time":1170000000000,"state":"active","ping":64},{"user_id":5,"name":"Gettiz","steam_id":76561198160801090,"connected_time":1091000000000,"state":"active","ping":104},{"user_id":7,"name":"Fizite","steam_id":76561199061965517,"connected_time":255000000000,"state":"active","ping":60},{"user_id":8,"name":"Wendo_Gogh","steam_id":76561198080999985,"connected_time":255000000000,"state":"active","ping":92}]},{"server_id":404,"name":"Uncletopia | Dallas | 3 | All Maps","name_short":"dal-3","host":"dal-1.us.uncletopia.com","port":27035,"enabled":true,"region":"us-central","cc":"us","latitude":32.779167,"longitude":-96.80889,"reserved":0,"last_update":"0001-01-01T00:00:00Z","name_a2s":"Uncletopia | Dallas | 3 | All Maps","protocol":17,"map":"koth_highpass","folder":"tf","game":"Team Fortress","app_id":440,"player_count":0,"max_players":24,"Bots":0,"server_type":"Dedicated","server_os":"Linux","password":true,"vac":true,"version":"7961495","steam_id":85568392924515219,"keywords":["cp","nocrits","nodmgspread","uncletopia"],"game_id":440,"stv_port":27036,"stv_name":"Uncletopia | Dallas | 3 | All Maps | STV","players":null},{"server_id":405,"name":"Uncletopia | Dallas | 4 | Community","name_short":"dal-4","host":"dal-1.us.uncletopia.com","port":27045,"enabled":true,"region":"us-central","cc":"us","latitude":32.779167,"longitude":-96.80889,"reserved":0,"last_update":"0001-01-01T00:00:00Z","name_a2s":"Uncletopia | Dallas | 4 | Community","protocol":17,"map":"pl_badwater","folder":"tf","game":"Team Fortress","app_id":440,"player_count":0,"max_players":24,"Bots":0,"server_type":"Dedicated","server_os":"Linux","password":true,"vac":true,"version":"7961495","steam_id":85568392924515220,"keywords":["nocrits","nodmgspread","payload","uncletopia"],"game_id":440,"stv_port":27046,"stv_name":"Uncletopia | Dallas | 4 | Community | STV","players":null},{"server_id":5,"name":"Uncletopia | Frankfurt | 1 | All Maps","name_short":"frk-1","host":"frk-1.de.uncletopia.com","port":27015,"enabled":true,"region":"eu","cc":"de","latitude":50.110924,"longitude":8.682127,"reserved":0,"last_update":"0001-01-01T00:00:00Z","name_a2s":"Uncletopia | Frankfurt | 1 | All Maps","protocol":17,"map":"cp_mercenarypark","folder":"tf","game":"Team Fortress","app_id":440,"player_count":23,"max_players":24,"Bots":0,"server_type":"Dedicated","server_os":"Linux","password":true,"vac":true,"version":"7961495","steam_id":85568392924469989,"keywords":["cp","nocrits","nodmgspread","uncletopia"],"game_id":440,"stv_port":27016,"stv_name":"Uncletopia | Frankfurt | 1 | All Maps | STV","players":[{"user_id":500,"name":"Kolomaster","steam_id":76561198143356545,"connected_time":733000000000,"state":"active","ping":71},{"user_id":499,"name":"mashete","steam_id":76561198151829282,"connected_time":785000000000,"state":"active","ping":70},{"user_id":428,"name":"Urfangonultasadana","steam_id":76561199389286151,"connected_time":5246000000000,"state":"active","ping":92},{"user_id":489,"name":"simon","steam_id":76561198880361394,"connected_time":1471000000000,"state":"active","ping":51},{"user_id":506,"name":"Mega Saturn","steam_id":76561198024750500,"connected_time":4000000000,"state":"spawning","ping":89},{"user_id":403,"name":"cargo_conductor_754","steam_id":76561198165604007,"connected_time":7258000000000,"state":"active","ping":55},{"user_id":492,"name":"The Batter (2Fort Resident)","steam_id":76561199012408710,"connected_time":1288000000000,"state":"active","ping":55},{"user_id":503,"name":"zak","steam_id":76561197998895428,"connected_time":409000000000,"state":"active","ping":56},{"user_id":504,"name":"Dragon","steam_id":76561198163255365,"connected_time":324000000000,"state":"active","ping":101},{"user_id":425,"name":"rokasbambyzas","steam_id":76561198267458427,"connected_time":5468000000000,"state":"active","ping":70},{"user_id":485,"name":"john fortress","steam_id":76561198013237629,"connected_time":1606000000000,"state":"active","ping":108},{"user_id":464,"name":"alphareroooo","steam_id":76561198380799823,"connected_time":2742000000000,"state":"active","ping":73},{"user_id":493,"name":"DeCypher \u003c3","steam_id":76561198171992619,"connected_time":1241000000000,"state":"active","ping":69},{"user_id":462,"name":"Twik","steam_id":76561198023835056,"connected_time":3010000000000,"state":"active","ping":57},{"user_id":487,"name":"Dani Drengen","steam_id":76561198348731500,"connected_time":1513000000000,"state":"active","ping":71},{"user_id":393,"name":"Dominus Di Spiritus","steam_id":76561198200488383,"connected_time":7568000000000,"state":"active","ping":78},{"user_id":488,"name":"bankrobbr #SaveTF2","steam_id":76561198061096515,"connected_time":1498000000000,"state":"active","ping":72},{"user_id":456,"name":"britishairpower","steam_id":76561198053392245,"connected_time":3390000000000,"state":"active","ping":69},{"user_id":494,"name":"femboy enjoyer","steam_id":76561198372077936,"connected_time":1239000000000,"state":"active","ping":77},{"user_id":435,"name":"A.D.H.|Artem","steam_id":76561198041801369,"connected_time":4911000000000,"state":"active","ping":81},{"user_id":491,"name":"depressed","steam_id":76561198336523288,"connected_time":1450000000000,"state":"active","ping":128},{"user_id":458,"name":"Osek","steam_id":76561197972646003,"connected_time":3344000000000,"state":"active","ping":57},{"user_id":496,"name":"seigfried","steam_id":76561198047260133,"connected_time":1149000000000,"state":"active","ping":94}]},{"server_id":110,"name":"Uncletopia | Frankfurt | 2 | All Maps","name_short":"frk-2","host":"frk-1.de.uncletopia.com","port":27025,"enabled":true,"region":"eu","cc":"de","latitude":50.110924,"longitude":8.682127,"reserved":0,"last_update":"0001-01-01T00:00:00Z","name_a2s":"Uncletopia | Frankfurt | 2 | All Maps","protocol":17,"map":"cp_foundry","folder":"tf","game":"Team Fortress","app_id":440,"player_count":23,"max_players":24,"Bots":0,"server_type":"Dedicated","server_os":"Linux","password":true,"vac":true,"version":"7961495","steam_id":85568392924469990,"keywords":["cp","nocrits","nodmgspread","uncletopia"],"game_id":440,"stv_port":27026,"stv_name":"Uncletopia | Frankfurt | 2 | All Maps | STV","players":[{"user_id":101,"name":"Nyhde","steam_id":76561198012771416,"connected_time":8635000000000,"state":"active","ping":89},{"user_id":220,"name":"le'pablo","steam_id":76561199009805208,"connected_time":405000000000,"state":"active","ping":106},{"user_id":198,"name":"Professional PP Rater","steam_id":76561198393134915,"connected_time":2816000000000,"state":"active","ping":69},{"user_id":217,"name":"[NL] JTI","steam_id":76561198173153699,"connected_time":1001000000000,"state":"active","ping":55},{"user_id":221,"name":"Leibeigener","steam_id":76561199275478305,"connected_time":402000000000,"state":"active","ping":42},{"user_id":228,"name":"Gordon","steam_id":76561198303652059,"connected_time":184000000000,"state":"active","ping":75},{"user_id":189,"name":"꧁༒Xenon༒꧂","steam_id":76561198120502313,"connected_time":3895000000000,"state":"active","ping":71},{"user_id":213,"name":"willus212","steam_id":76561199182615246,"connected_time":1488000000000,"state":"active","ping":82},{"user_id":167,"name":"Suvis","steam_id":76561198153048602,"connected_time":5494000000000,"state":"active","ping":85},{"user_id":177,"name":"disposablesuperbread","steam_id":76561199074703607,"connected_time":4685000000000,"state":"active","ping":66},{"user_id":215,"name":"Lag","steam_id":76561198159360376,"connected_time":1253000000000,"state":"active","ping":54},{"user_id":219,"name":"Durin sein Vater","steam_id":76561198021246713,"connected_time":863000000000,"state":"active","ping":41},{"user_id":224,"name":"frank fleshmonkey","steam_id":76561198880772755,"connected_time":337000000000,"state":"active","ping":158},{"user_id":172,"name":"BD[PL]","steam_id":76561198115995871,"connected_time":5150000000000,"state":"active","ping":77},{"user_id":205,"name":"KENZO","steam_id":76561197993520279,"connected_time":2133000000000,"state":"active","ping":61},{"user_id":194,"name":"Flostro","steam_id":76561198259793697,"connected_time":3384000000000,"state":"active","ping":61},{"user_id":204,"name":"Mébh Óg MacTíre","steam_id":76561198346399624,"connected_time":2180000000000,"state":"active","ping":73},{"user_id":225,"name":"Groose","steam_id":76561198261094295,"connected_time":333000000000,"state":"active","ping":60},{"user_id":176,"name":"Commander DM","steam_id":76561198059236770,"connected_time":4965000000000,"state":"active","ping":70},{"user_id":211,"name":"Jouppi","steam_id":76561198063725468,"connected_time":1627000000000,"state":"active","ping":105},{"user_id":226,"name":"The Cock Inspector","steam_id":76561198355608148,"connected_time":329000000000,"state":"active","ping":123},{"user_id":193,"name":"Spy is Sapping my Sandwich","steam_id":76561198011840096,"connected_time":3507000000000,"state":"active","ping":60},{"user_id":216,"name":"Soerlssoelssöen","steam_id":76561197993060585,"connected_time":1098000000000,"state":"active","ping":71}]},{"server_id":308,"name":"Uncletopia | Frankfurt | 3 | All Maps","name_short":"frk-3","host":"frk-1.de.uncletopia.com","port":27035,"enabled":true,"region":"eu","cc":"de","latitude":50.110924,"longitude":8.682127,"reserved":0,"last_update":"0001-01-01T00:00:00Z","name_a2s":"Uncletopia | Frankfurt | 3 | All Maps","protocol":17,"map":"pl_swiftwater_final1","folder":"tf","game":"Team Fortress","app_id":440,"player_count":2,"max_players":24,"Bots":0,"server_type":"Dedicated","server_os":"Linux","password":true,"vac":true,"version":"7961495","steam_id":85568392924504274,"keywords":["nocrits","nodmgspread","payload","uncletopia"],"game_id":440,"stv_port":27036,"stv_name":"Uncletopia | Frankfurt | 3 | All Maps | STV","players":[{"user_id":12,"name":"Dimitri_612","steam_id":76561199223984137,"connected_time":562000000000,"state":"active","ping":57},{"user_id":13,"name":"Dark|TBE","steam_id":76561199093438455,"connected_time":559000000000,"state":"active","ping":43}]},{"server_id":309,"name":"Uncletopia | Frankfurt | 4 | All Maps","name_short":"frk-4","host":"frk-1.de.uncletopia.com","port":27045,"enabled":true,"region":"eu","cc":"de","latitude":50.110924,"longitude":8.682127,"reserved":0,"last_update":"0001-01-01T00:00:00Z","name_a2s":"Uncletopia | Frankfurt | 4 | All Maps","protocol":17,"map":"cp_sunshine","folder":"tf","game":"Team Fortress","app_id":440,"player_count":23,"max_players":24,"Bots":0,"server_type":"Dedicated","server_os":"Linux","password":true,"vac":true,"version":"7961495","steam_id":85568392924504275,"keywords":["cp","nocrits","nodmgspread","uncletopia"],"game_id":440,"stv_port":27046,"stv_name":"Uncletopia | Frankfurt | 4 | All Maps | STV","players":[{"user_id":41,"name":"Henry Fonda","steam_id":76561199378865926,"connected_time":6713000000000,"state":"active","ping":90},{"user_id":163,"name":"why rum gone","steam_id":76561198158484784,"connected_time":695000000000,"state":"active","ping":59},{"user_id":125,"name":"mt","steam_id":76561197961319303,"connected_time":2920000000000,"state":"active","ping":45},{"user_id":140,"name":"Rare bulldog owner","steam_id":76561199407941086,"connected_time":1850000000000,"state":"active","ping":60},{"user_id":169,"name":"bAdmon","steam_id":76561197961785793,"connected_time":589000000000,"state":"active","ping":53},{"user_id":149,"name":"KnugenIV","steam_id":76561198127091993,"connected_time":1500000000000,"state":"active","ping":55},{"user_id":128,"name":"Mr. Masturbeast","steam_id":76561198942024930,"connected_time":2496000000000,"state":"active","ping":99},{"user_id":150,"name":"soldier tf2","steam_id":76561198372186715,"connected_time":1423000000000,"state":"active","ping":105},{"user_id":141,"name":"iIMOFIi","steam_id":76561199000483925,"connected_time":1848000000000,"state":"active","ping":166},{"user_id":158,"name":"ムGeRmAn |×UA×ム","steam_id":76561199044754898,"connected_time":1011000000000,"state":"active","ping":70},{"user_id":174,"name":"Mong","steam_id":76561198254497427,"connected_time":343000000000,"state":"active","ping":60},{"user_id":102,"name":"clouds","steam_id":76561198111134021,"connected_time":4527000000000,"state":"active","ping":107},{"user_id":176,"name":"huskey","steam_id":76561198152392309,"connected_time":34000000000,"state":"active","ping":45},{"user_id":173,"name":"Shadowdrake88","steam_id":76561198113085367,"connected_time":438000000000,"state":"active","ping":85},{"user_id":148,"name":"Woman (Real)","steam_id":76561199151823932,"connected_time":1580000000000,"state":"active","ping":74},{"user_id":106,"name":"HelwiiHill","steam_id":76561198066730552,"connected_time":3755000000000,"state":"active","ping":79},{"user_id":135,"name":"Fat Pigeon","steam_id":76561198817940142,"connected_time":1900000000000,"state":"active","ping":54},{"user_id":91,"name":"Welder","steam_id":76561198355300561,"connected_time":4970000000000,"state":"active","ping":65},{"user_id":165,"name":"Sky Tree","steam_id":76561198027103242,"connected_time":676000000000,"state":"active","ping":126},{"user_id":167,"name":"Bruschetta","steam_id":76561198251927162,"connected_time":641000000000,"state":"active","ping":62},{"user_id":133,"name":"XPullaHiiri","steam_id":76561198031652375,"connected_time":2096000000000,"state":"active","ping":86},{"user_id":147,"name":"♂ Dungeon Master ♂","steam_id":76561198106441033,"connected_time":1687000000000,"state":"active","ping":98},{"user_id":171,"name":"Mussolini","steam_id":76561198218384865,"connected_time":562000000000,"state":"active","ping":94}]},{"server_id":310,"name":"Uncletopia | Frankfurt | 5 | All Maps","name_short":"frk-5","host":"frk-1.de.uncletopia.com","port":27055,"enabled":true,"region":"eu","cc":"de","latitude":50.110924,"longitude":8.682127,"reserved":0,"last_update":"0001-01-01T00:00:00Z","name_a2s":"Uncletopia | Frankfurt | 5 | All Maps","protocol":17,"map":"cp_process_final","folder":"tf","game":"Team Fortress","app_id":440,"player_count":22,"max_players":24,"Bots":0,"server_type":"Dedicated","server_os":"Linux","password":true,"vac":true,"version":"7961495","steam_id":85568392924504277,"keywords":["cp","nocrits","nodmgspread","uncletopia"],"game_id":440,"stv_port":27056,"stv_name":"Uncletopia | Frankfurt | 5 | All Maps | STV","players":[{"user_id":203,"name":"GZimmer","steam_id":76561198088794767,"connected_time":42000000000,"state":"active","ping":45},{"user_id":181,"name":"ehehehehehhe","steam_id":76561198044502435,"connected_time":2981000000000,"state":"active","ping":82},{"user_id":145,"name":"Unseen","steam_id":76561198154670360,"connected_time":5324000000000,"state":"active","ping":74},{"user_id":174,"name":"HE TPAXAH","steam_id":76561198115779730,"connected_time":3567000000000,"state":"active","ping":79},{"user_id":164,"name":"Lordware","steam_id":76561198022011299,"connected_time":4359000000000,"state":"active","ping":96},{"user_id":178,"name":"Gruset","steam_id":76561198327512432,"connected_time":3006000000000,"state":"active","ping":76},{"user_id":200,"name":"ЯН ЭФРИК","steam_id":76561198083849136,"connected_time":503000000000,"state":"active","ping":61},{"user_id":179,"name":"s a i","steam_id":76561197970379754,"connected_time":2998000000000,"state":"active","ping":45},{"user_id":161,"name":"roblan11","steam_id":76561198066839258,"connected_time":4397000000000,"state":"active","ping":42},{"user_id":190,"name":"Romultra","steam_id":76561198354105082,"connected_time":2158000000000,"state":"active","ping":46},{"user_id":199,"name":"boneez","steam_id":76561198186800982,"connected_time":536000000000,"state":"active","ping":60},{"user_id":196,"name":"EEEEEH","steam_id":76561198126717413,"connected_time":1095000000000,"state":"active","ping":86},{"user_id":158,"name":"joachym","steam_id":76561198428579761,"connected_time":4482000000000,"state":"active","ping":55},{"user_id":116,"name":"SuntanPikachu","steam_id":76561198121242476,"connected_time":6520000000000,"state":"active","ping":68},{"user_id":201,"name":"kenny","steam_id":76561199102477437,"connected_time":401000000000,"state":"active","ping":105},{"user_id":191,"name":"jawA","steam_id":76561198070341774,"connected_time":2036000000000,"state":"active","ping":65},{"user_id":180,"name":"DrExplosive","steam_id":76561198063678579,"connected_time":2997000000000,"state":"active","ping":53},{"user_id":167,"name":"mge brother","steam_id":76561198996092998,"connected_time":4110000000000,"state":"active","ping":93},{"user_id":193,"name":"soup","steam_id":76561198386933065,"connected_time":1571000000000,"state":"active","ping":64},{"user_id":168,"name":"AleXandriX","steam_id":76561198035203950,"connected_time":3874000000000,"state":"active","ping":62},{"user_id":170,"name":"jonathan","steam_id":76561198076107263,"connected_time":3759000000000,"state":"active","ping":54},{"user_id":173,"name":"ПолковникКапуст\ufffd","steam_id":76561198127253183,"connected_time":3661000000000,"state":"active","ping":72}]},{"server_id":311,"name":"Uncletopia | Frankfurt | 6 | All Maps","name_short":"frk-6","host":"frk-1.de.uncletopia.com","port":27065,"enabled":true,"region":"eu","cc":"de","latitude":50.110924,"longitude":8.682127,"reserved":0,"last_update":"0001-01-01T00:00:00Z","name_a2s":"Uncletopia | Frankfurt | 6 | All Maps","protocol":17,"map":"koth_cascade","folder":"tf","game":"Team Fortress","app_id":440,"player_count":0,"max_players":24,"Bots":0,"server_type":"Dedicated","server_os":"Linux","password":true,"vac":true,"version":"7961495","steam_id":85568392924504278,"keywords":["cp","nocrits","nodmgspread","uncletopia"],"game_id":440,"stv_port":27066,"stv_name":"Uncletopia | Frankfurt | 6 | All Maps | STV","players":null},{"server_id":23,"name":"Uncletopia | Frankfurt | 7 | Stopwatch Beta","name_short":"frk-7","host":"frk-1.de.uncletopia.com","port":27075,"enabled":true,"region":"eu","cc":"de","latitude":50.110924,"longitude":8.682127,"reserved":0,"last_update":"0001-01-01T00:00:00Z","name_a2s":"Uncletopia | Frankfurt | 7 | Stopwatch Beta","protocol":17,"map":"koth_cascade","folder":"tf","game":"Team Fortress","app_id":440,"player_count":0,"max_players":24,"Bots":0,"server_type":"Dedicated","server_os":"Linux","password":true,"vac":true,"version":"7961495","steam_id":85568392924742827,"keywords":["cp","nocrits","nodmgspread","uncletopia"],"game_id":440,"stv_port":27076,"stv_name":"Uncletopia | Frankfurt | 7 | Stopwatch Beta | STV","players":null},{"server_id":24,"name":"Uncletopia | Frankfurt | 8 | Community","name_short":"frk-8","host":"frk-1.de.uncletopia.com","port":27085,"enabled":true,"region":"eu","cc":"de","latitude":50.110924,"longitude":8.682127,"reserved":0,"last_update":"0001-01-01T00:00:00Z","name_a2s":"Uncletopia | Frankfurt | 8 | Community","protocol":17,"map":"workshop/cp_indulge.ugc528106646","folder":"tf","game":"Team Fortress","app_id":440,"player_count":0,"max_players":24,"Bots":0,"server_type":"Dedicated","server_os":"Linux","password":true,"vac":true,"version":"7961495","steam_id":85568392924742828,"keywords":["cp","nocrits","nodmgspread","uncletopia"],"game_id":440,"stv_port":27086,"stv_name":"Uncletopia | Frankfurt | 8 | Community | STV","players":null},{"server_id":202,"name":"Uncletopia | Hong Kong | 1 | All Maps","name_short":"hgk-1","host":"hgk-1.hk.uncletopia.com","port":27015,"enabled":true,"region":"asia","cc":"hk","latitude":22.302711,"longitude":114.177216,"reserved":0,"last_update":"0001-01-01T00:00:00Z","name_a2s":"Uncletopia | Hong Kong | 1 | All Maps","protocol":17,"map":"pl_snowycoast","folder":"tf","game":"Team Fortress","app_id":440,"player_count":20,"max_players":24,"Bots":0,"server_type":"Dedicated","server_os":"Linux","password":true,"vac":true,"version":"7961495","steam_id":85568392924494504,"keywords":["nocrits","nodmgspread","payload","uncletopia"],"game_id":440,"stv_port":27016,"stv_name":"Uncletopia | Hong Kong | 1 | All Maps | STV","players":[{"user_id":304,"name":"母の肉団子@hao123.com","steam_id":76561198069561896,"connected_time":4474000000000,"state":"active","ping":32},{"user_id":272,"name":"Weecasca","steam_id":76561198358138376,"connected_time":9203000000000,"state":"active","ping":99},{"user_id":334,"name":"trcs","steam_id":76561198125946388,"connected_time":1759000000000,"state":"active","ping":79},{"user_id":349,"name":"Crazywayne","steam_id":76561198056504010,"connected_time":583000000000,"state":"active","ping":70},{"user_id":318,"name":"Michael Scott","steam_id":76561198023082794,"connected_time":3775000000000,"state":"active","ping":50},{"user_id":324,"name":"screaming sniper","steam_id":76561199085568674,"connected_time":3149000000000,"state":"active","ping":64},{"user_id":337,"name":"Slonk","steam_id":76561198845070475,"connected_time":1522000000000,"state":"active","ping":108},{"user_id":347,"name":"Karkaval","steam_id":76561198029356878,"connected_time":816000000000,"state":"active","ping":95},{"user_id":356,"name":"not good:(((((","steam_id":76561199256628701,"connected_time":45000000000,"state":"active","ping":73},{"user_id":348,"name":"不法雞肉","steam_id":76561198210108965,"connected_time":809000000000,"state":"active","ping":86},{"user_id":333,"name":"j_rex","steam_id":76561198132473926,"connected_time":1781000000000,"state":"active","ping":61},{"user_id":313,"name":"TomProPlayer","steam_id":76561199223292521,"connected_time":4377000000000,"state":"active","ping":71},{"user_id":216,"name":"Stewb","steam_id":76561198131423270,"connected_time":12718000000000,"state":"active","ping":92},{"user_id":280,"name":"쿠키","steam_id":76561197997220367,"connected_time":7533000000000,"state":"active","ping":46},{"user_id":323,"name":"Othopeus","steam_id":76561198283534382,"connected_time":3265000000000,"state":"active","ping":63},{"user_id":355,"name":"Cinderacelover500","steam_id":76561198981987710,"connected_time":286000000000,"state":"active","ping":93},{"user_id":343,"name":"BFE102 | hut.tf","steam_id":76561199182696283,"connected_time":1253000000000,"state":"active","ping":65},{"user_id":341,"name":"Samoyed","steam_id":76561198299150410,"connected_time":1439000000000,"state":"active","ping":74},{"user_id":308,"name":"Hay","steam_id":76561199438952901,"connected_time":4452000000000,"state":"active","ping":48},{"user_id":344,"name":"Rocc005","steam_id":76561199394412867,"connected_time":1246000000000,"state":"active","ping":80}]},{"server_id":1,"name":"Uncletopia | Los Angeles | 1 | All Maps","name_short":"lax-1","host":"lax-1.us.uncletopia.com","port":27015,"enabled":true,"region":"us-west","cc":"us","latitude":33.94279,"longitude":-118.41004,"reserved":0,"last_update":"0001-01-01T00:00:00Z","name_a2s":"Uncletopia | Los Angeles | 1 | All Maps","protocol":17,"map":"cp_altitude","folder":"tf","game":"Team Fortress","app_id":440,"player_count":0,"max_players":24,"Bots":0,"server_type":"Dedicated","server_os":"Linux","password":true,"vac":true,"version":"7961495","steam_id":85568392924469991,"keywords":["cp","nocrits","nodmgspread","uncletopia"],"game_id":440,"stv_port":27016,"stv_name":"Uncletopia | Los Angeles | 1 | All Maps | STV","players":null},{"server_id":112,"name":"Uncletopia | Los Angeles | 2 | All Maps","name_short":"lax-2","host":"lax-1.us.uncletopia.com","port":27025,"enabled":true,"region":"us-west","cc":"us","latitude":33.94279,"longitude":-118.41004,"reserved":0,"last_update":"0001-01-01T00:00:00Z","name_a2s":"Uncletopia | Los Angeles | 2 | All Maps","protocol":17,"map":"pl_borneo","folder":"tf","game":"Team Fortress","app_id":440,"player_count":0,"max_players":24,"Bots":0,"server_type":"Dedicated","server_os":"Linux","password":true,"vac":true,"version":"7961495","steam_id":85568392924469992,"keywords":["nocrits","nodmgspread","payload","uncletopia"],"game_id":440,"stv_port":27026,"stv_name":"Uncletopia | Los Angeles | 2 | All Maps | STV","players":null},{"server_id":324,"name":"Uncletopia | Los Angeles | 3 | All Maps","name_short":"lax-3","host":"lax-1.us.uncletopia.com","port":27035,"enabled":true,"region":"us-west","cc":"us","latitude":33.94279,"longitude":-118.41004,"reserved":0,"last_update":"0001-01-01T00:00:00Z","name_a2s":"Uncletopia | Los Angeles | 3 | All Maps","protocol":17,"map":"cp_process_final","folder":"tf","game":"Team Fortress","app_id":440,"player_count":0,"max_players":24,"Bots":0,"server_type":"Dedicated","server_os":"Linux","password":true,"vac":true,"version":"7961495","steam_id":85568392924510198,"keywords":["cp","nocrits","nodmgspread","uncletopia"],"game_id":440,"stv_port":27036,"stv_name":"Uncletopia | Los Angeles | 3 | All Maps | STV","players":null},{"server_id":25,"name":"Uncletopia | Los Angeles | 4 | Stopwatch Beta","name_short":"lax-4","host":"lax-1.us.uncletopia.com","port":27045,"enabled":true,"region":"us-west","cc":"us","latitude":33.94279,"longitude":-118.41004,"reserved":0,"last_update":"0001-01-01T00:00:00Z","name_a2s":"Uncletopia | Los Angeles | 4 | Stopwatch Beta","protocol":17,"map":"pl_upward","folder":"tf","game":"Team Fortress","app_id":440,"player_count":0,"max_players":24,"Bots":0,"server_type":"Dedicated","server_os":"Linux","password":true,"vac":true,"version":"7961495","steam_id":85568392924510199,"keywords":["nocrits","nodmgspread","payload","uncletopia"],"game_id":440,"stv_port":27046,"stv_name":"Uncletopia | Los Angeles | 4 | Stopwatch Beta | STV","players":null},{"server_id":11,"name":"Uncletopia | London | 1 | All Maps","name_short":"lon-1","host":"lon-1.uk.uncletopia.com","port":27015,"enabled":true,"region":"eu","cc":"gb","latitude":51.509865,"longitude":-0.118092,"reserved":0,"last_update":"0001-01-01T00:00:00Z","name_a2s":"Uncletopia | London | 1 | All Maps","protocol":17,"map":"pl_badwater","folder":"tf","game":"Team Fortress","app_id":440,"player_count":24,"max_players":24,"Bots":0,"server_type":"Dedicated","server_os":"Linux","password":true,"vac":true,"version":"7961495","steam_id":85568392924367362,"keywords":["nocrits","nodmgspread","payload","uncletopia"],"game_id":440,"stv_port":27016,"stv_name":"Uncletopia | London | 1 | All Maps | STV","players":[{"user_id":172,"name":"fabacher","steam_id":76561198057905272,"connected_time":1018000000000,"state":"active","ping":59},{"user_id":178,"name":"Chikapu_Xek","steam_id":76561198428023493,"connected_time":938000000000,"state":"active","ping":68},{"user_id":173,"name":"FilipeLuk","steam_id":76561198150675438,"connected_time":1007000000000,"state":"active","ping":60},{"user_id":170,"name":"Oak","steam_id":76561198067315672,"connected_time":1064000000000,"state":"active","ping":46},{"user_id":159,"name":"Umbraprism","steam_id":76561197984504910,"connected_time":1975000000000,"state":"active","ping":56},{"user_id":190,"name":"Chester","steam_id":76561198037913276,"connected_time":142000000000,"state":"active","ping":215},{"user_id":72,"name":"Ullr","steam_id":76561198140547483,"connected_time":8144000000000,"state":"active","ping":44},{"user_id":163,"name":"Peep","steam_id":76561198132508552,"connected_time":1737000000000,"state":"active","ping":47},{"user_id":168,"name":"vnmhbi","steam_id":76561197996468677,"connected_time":1420000000000,"state":"active","ping":60},{"user_id":126,"name":"Average Medic Enjoyer","steam_id":76561198048867302,"connected_time":3904000000000,"state":"active","ping":61},{"user_id":171,"name":"jge","steam_id":76561198123186387,"connected_time":1059000000000,"state":"active","ping":59},{"user_id":128,"name":"Kahvi","steam_id":76561198723244199,"connected_time":3366000000000,"state":"active","ping":74},{"user_id":188,"name":"Golden Boy","steam_id":76561198049072159,"connected_time":306000000000,"state":"active","ping":60},{"user_id":187,"name":"Irme","steam_id":76561198161590299,"connected_time":342000000000,"state":"active","ping":77},{"user_id":189,"name":"cinder block enthusiast","steam_id":76561199062160061,"connected_time":205000000000,"state":"active","ping":60},{"user_id":184,"name":"DwoaC","steam_id":76561198005686118,"connected_time":669000000000,"state":"active","ping":65},{"user_id":146,"name":"Princess Fuzz","steam_id":76561198025783000,"connected_time":2406000000000,"state":"active","ping":34},{"user_id":77,"name":"Grillem Dafoe","steam_id":76561198306874574,"connected_time":7531000000000,"state":"active","ping":70},{"user_id":150,"name":"scrunt","steam_id":76561198128250460,"connected_time":2334000000000,"state":"active","ping":111},{"user_id":169,"name":"The Daniella","steam_id":76561198023075547,"connected_time":1215000000000,"state":"active","ping":66},{"user_id":175,"name":"krayy (she/her)","steam_id":76561198035037830,"connected_time":983000000000,"state":"active","ping":56},{"user_id":176,"name":"cazador","steam_id":76561198123096922,"connected_time":974000000000,"state":"active","ping":98},{"user_id":191,"name":"Voxel","steam_id":76561199225333422,"connected_time":117000000000,"state":"active","ping":120},{"user_id":185,"name":"Anadddest","steam_id":76561198992528373,"connected_time":517000000000,"state":"active","ping":85}]},{"server_id":114,"name":"Uncletopia | London | 2 | All Maps","name_short":"lon-2","host":"lon-1.uk.uncletopia.com","port":27025,"enabled":true,"region":"eu","cc":"gb","latitude":51.509865,"longitude":-0.118092,"reserved":0,"last_update":"0001-01-01T00:00:00Z","name_a2s":"Uncletopia | London | 2 | All Maps","protocol":17,"map":"pl_borneo","folder":"tf","game":"Team Fortress","app_id":440,"player_count":24,"max_players":24,"Bots":0,"server_type":"Dedicated","server_os":"Linux","password":true,"vac":true,"version":"7961495","steam_id":85568392924470941,"keywords":["nocrits","nodmgspread","payload","uncletopia"],"game_id":440,"stv_port":27026,"stv_name":"Uncletopia | London | 2 | All Maps | STV","players":[{"user_id":18,"name":"Labomarcelo","steam_id":76561198211186473,"connected_time":2825000000000,"state":"active","ping":90},{"user_id":39,"name":"Varsk","steam_id":76561198061398890,"connected_time":1064000000000,"state":"active","ping":40},{"user_id":22,"name":"Purpurea","steam_id":76561198075376419,"connected_time":2327000000000,"state":"active","ping":63},{"user_id":45,"name":"i am bread","steam_id":76561199180277321,"connected_time":824000000000,"state":"active","ping":62},{"user_id":31,"name":"quickfast","steam_id":76561199438900919,"connected_time":1275000000000,"state":"active","ping":44},{"user_id":23,"name":"nemelex","steam_id":76561198958005865,"connected_time":2139000000000,"state":"active","ping":58},{"user_id":24,"name":"Nickel","steam_id":76561199037745941,"connected_time":2057000000000,"state":"active","ping":141},{"user_id":44,"name":"the gloorp","steam_id":76561199105196433,"connected_time":896000000000,"state":"active","ping":77},{"user_id":57,"name":"Sim","steam_id":76561198086641180,"connected_time":349000000000,"state":"active","ping":85},{"user_id":46,"name":"Doorman","steam_id":76561198284086634,"connected_time":818000000000,"state":"active","ping":76},{"user_id":51,"name":"Pinochet","steam_id":76561198194042394,"connected_time":626000000000,"state":"active","ping":152},{"user_id":32,"name":"God´s Cock","steam_id":76561198058947923,"connected_time":1261000000000,"state":"active","ping":60},{"user_id":59,"name":"LOBZIK","steam_id":76561198114830120,"connected_time":113000000000,"state":"active","ping":86},{"user_id":34,"name":"Loyde","steam_id":76561198029919524,"connected_time":1217000000000,"state":"active","ping":95},{"user_id":35,"name":"SODA!!!!!!!","steam_id":76561198107362485,"connected_time":1172000000000,"state":"active","ping":74},{"user_id":36,"name":"CAR DOOR","steam_id":76561198055283295,"connected_time":1130000000000,"state":"active","ping":57},{"user_id":53,"name":"rachel aldana's massive milkers","steam_id":76561198025916703,"connected_time":579000000000,"state":"active","ping":86},{"user_id":54,"name":"Lifes Lemons","steam_id":76561199033413195,"connected_time":575000000000,"state":"active","ping":54},{"user_id":40,"name":"Firesnakefr","steam_id":76561199452641819,"connected_time":1054000000000,"state":"active","ping":97},{"user_id":42,"name":"Two-Eyed Dancer","steam_id":76561198872013525,"connected_time":1010000000000,"state":"active","ping":108},{"user_id":48,"name":"Your Local Pybro","steam_id":76561198801472157,"connected_time":732000000000,"state":"active","ping":39},{"user_id":49,"name":"sparkynerd","steam_id":76561199040106887,"connected_time":722000000000,"state":"active","ping":56},{"user_id":50,"name":"Male_07","steam_id":76561198079411460,"connected_time":715000000000,"state":"active","ping":55},{"user_id":56,"name":"Spinya","steam_id":76561198086653667,"connected_time":569000000000,"state":"active","ping":59}]},{"server_id":320,"name":"Uncletopia | London | 3 | All Maps","name_short":"lon-3","host":"lon-1.uk.uncletopia.com","port":27035,"enabled":true,"region":"eu","cc":"gb","latitude":51.509865,"longitude":-0.118092,"reserved":0,"last_update":"0001-01-01T00:00:00Z","name_a2s":"Uncletopia | London | 3 | All Maps","protocol":17,"map":"cp_foundry","folder":"tf","game":"Team Fortress","app_id":440,"player_count":3,"max_players":24,"Bots":0,"server_type":"Dedicated","server_os":"Linux","password":true,"vac":true,"version":"7961495","steam_id":85568392924510192,"keywords":["cp","nocrits","nodmgspread","uncletopia"],"game_id":440,"stv_port":27036,"stv_name":"Uncletopia | London | 3 | All Maps | STV","players":[{"user_id":18,"name":"Tx_madmash","steam_id":76561198924656512,"connected_time":7000000000,"state":"active","ping":76},{"user_id":14,"name":"Truegr","steam_id":76561198811912339,"connected_time":1325000000000,"state":"active","ping":71},{"user_id":17,"name":"Secretti","steam_id":76561198151480179,"connected_time":717000000000,"state":"active","ping":103}]},{"server_id":321,"name":"Uncletopia | London | 4 | All Maps","name_short":"lon-4","host":"lon-1.uk.uncletopia.com","port":27045,"enabled":true,"region":"eu","cc":"gb","latitude":51.509865,"longitude":-0.118092,"reserved":0,"last_update":"0001-01-01T00:00:00Z","name_a2s":"Uncletopia | London | 4 | All Maps","protocol":17,"map":"cp_steel","folder":"tf","game":"Team Fortress","app_id":440,"player_count":23,"max_players":24,"Bots":0,"server_type":"Dedicated","server_os":"Linux","password":true,"vac":true,"version":"7961495","steam_id":85568392924510193,"keywords":["cp","nocrits","nodmgspread","uncletopia"],"game_id":440,"stv_port":27046,"stv_name":"Uncletopia | London | 4 | All Maps | STV","players":[{"user_id":90,"name":"juicy","steam_id":76561198127264835,"connected_time":917000000000,"state":"active","ping":47},{"user_id":120,"name":"skullhead289","steam_id":76561199086481600,"connected_time":4000000000,"state":"spawning","ping":97},{"user_id":89,"name":"Mirage","steam_id":76561199013190566,"connected_time":1513000000000,"state":"active","ping":47},{"user_id":106,"name":"GlueTasty {she/her}","steam_id":76561199086480891,"connected_time":459000000000,"state":"active","ping":76},{"user_id":107,"name":"Skatnaset","steam_id":76561198298457353,"connected_time":449000000000,"state":"active","ping":70},{"user_id":79,"name":"romaingallo","steam_id":76561198268112907,"connected_time":2430000000000,"state":"active","ping":59},{"user_id":114,"name":"your_local_penguin","steam_id":76561199224954346,"connected_time":239000000000,"state":"active","ping":98},{"user_id":108,"name":"Kjat","steam_id":76561198839433592,"connected_time":375000000000,"state":"active","ping":61},{"user_id":92,"name":"Zambiealex","steam_id":76561198356826485,"connected_time":895000000000,"state":"active","ping":43},{"user_id":104,"name":"ArikMor","steam_id":76561199124472513,"connected_time":547000000000,"state":"active","ping":120},{"user_id":94,"name":"gronk","steam_id":76561199031539961,"connected_time":849000000000,"state":"active","ping":61},{"user_id":105,"name":"Ixsus\u003c3","steam_id":76561198094756869,"connected_time":543000000000,"state":"active","ping":62},{"user_id":113,"name":"Jeffrey Harpen","steam_id":76561199073314677,"connected_time":283000000000,"state":"active","ping":82},{"user_id":117,"name":"someone","steam_id":76561199471582243,"connected_time":164000000000,"state":"active","ping":98},{"user_id":95,"name":"Geoff the Oracle","steam_id":76561198053759965,"connected_time":799000000000,"state":"active","ping":57},{"user_id":97,"name":"Orpheus","steam_id":76561198442035906,"connected_time":740000000000,"state":"active","ping":62},{"user_id":110,"name":"fence_","steam_id":76561198150386379,"connected_time":335000000000,"state":"active","ping":55},{"user_id":86,"name":"mlemdic","steam_id":76561198090001673,"connected_time":1778000000000,"state":"active","ping":119},{"user_id":111,"name":"Astilla2.1","steam_id":76561199415385283,"connected_time":323000000000,"state":"active","ping":75},{"user_id":112,"name":"I.AM.THE.BOOP.WHICH.IS.APROACHI","steam_id":76561198049342507,"connected_time":316000000000,"state":"active","ping":88},{"user_id":115,"name":"Jack","steam_id":76561198079575891,"connected_time":220000000000,"state":"active","ping":44},{"user_id":116,"name":"KaiserStonewall","steam_id":76561199127172877,"connected_time":185000000000,"state":"active","ping":68},{"user_id":118,"name":"Verin","steam_id":76561199440799610,"connected_time":154000000000,"state":"active","ping":89}]},{"server_id":21,"name":"Uncletopia | London | 5 | All Maps","name_short":"lon-5","host":"lon-1.uk.uncletopia.com","port":27055,"enabled":true,"region":"eu","cc":"gb","latitude":51.509865,"longitude":-0.118092,"reserved":0,"last_update":"0001-01-01T00:00:00Z","name_a2s":"Uncletopia | London | 5 | All Maps","protocol":17,"map":"pl_barnblitz","folder":"tf","game":"Team Fortress","app_id":440,"player_count":0,"max_players":24,"Bots":0,"server_type":"Dedicated","server_os":"Linux","password":true,"vac":true,"version":"7961495","steam_id":85568392924742829,"keywords":["nocrits","nodmgspread","payload","uncletopia"],"game_id":440,"stv_port":27056,"stv_name":"Uncletopia | London | 5 | All Maps | STV","players":null},{"server_id":22,"name":"Uncletopia | London | 6 | All Maps","name_short":"lon-6","host":"lon-1.uk.uncletopia.com","port":27065,"enabled":true,"region":"eu","cc":"gb","latitude":51.509865,"longitude":-0.118092,"reserved":0,"last_update":"0001-01-01T00:00:00Z","name_a2s":"Uncletopia | London | 6 | All Maps","protocol":17,"map":"pl_badwater","folder":"tf","game":"Team Fortress","app_id":440,"player_count":23,"max_players":24,"Bots":0,"server_type":"Dedicated","server_os":"Linux","password":true,"vac":true,"version":"7961495","steam_id":85568392924742830,"keywords":["nocrits","nodmgspread","payload","uncletopia"],"game_id":440,"stv_port":27066,"stv_name":"Uncletopia | London | 6 | All Maps | STV","players":[{"user_id":131,"name":"Andy","steam_id":76561198046918834,"connected_time":2399000000000,"state":"active","ping":64},{"user_id":148,"name":"Popop","steam_id":76561198004793795,"connected_time":1494000000000,"state":"active","ping":45},{"user_id":110,"name":"SparteonRage","steam_id":76561197963401834,"connected_time":3498000000000,"state":"active","ping":60},{"user_id":77,"name":"Ash","steam_id":76561198148738525,"connected_time":6091000000000,"state":"active","ping":105},{"user_id":169,"name":"Hoodley","steam_id":76561198066974902,"connected_time":415000000000,"state":"active","ping":93},{"user_id":171,"name":"Luuk","steam_id":76561198088266026,"connected_time":330000000000,"state":"active","ping":44},{"user_id":147,"name":"fénix","steam_id":76561198083199151,"connected_time":1547000000000,"state":"active","ping":59},{"user_id":161,"name":"flub_","steam_id":76561198337519315,"connected_time":716000000000,"state":"active","ping":47},{"user_id":178,"name":"dozer58","steam_id":76561198133812159,"connected_time":48000000000,"state":"active","ping":99},{"user_id":176,"name":"Asfreild","steam_id":76561198055901120,"connected_time":92000000000,"state":"active","ping":75},{"user_id":134,"name":"The Builder","steam_id":76561198403959663,"connected_time":2176000000000,"state":"active","ping":99},{"user_id":135,"name":"klefedroniarz thc","steam_id":76561198087437472,"connected_time":2114000000000,"state":"active","ping":60},{"user_id":168,"name":"Dolcelatte","steam_id":76561198038501770,"connected_time":459000000000,"state":"active","ping":61},{"user_id":170,"name":"t0ast","steam_id":76561198141722573,"connected_time":374000000000,"state":"active","ping":45},{"user_id":177,"name":"pilszmati","steam_id":76561199200267341,"connected_time":78000000000,"state":"active","ping":80},{"user_id":173,"name":"lidl","steam_id":76561198895235231,"connected_time":273000000000,"state":"active","ping":54},{"user_id":33,"name":"♂ Animan ♂ Studios ♂","steam_id":76561198308302932,"connected_time":9473000000000,"state":"active","ping":102},{"user_id":123,"name":"Real (Real)","steam_id":76561198323425034,"connected_time":2976000000000,"state":"active","ping":86},{"user_id":124,"name":"Syd","steam_id":76561198020515027,"connected_time":2900000000000,"state":"active","ping":82},{"user_id":155,"name":"Puss in Boots","steam_id":76561198211599767,"connected_time":1283000000000,"state":"active","ping":55},{"user_id":45,"name":"hyvakii705","steam_id":76561198086630552,"connected_time":8750000000000,"state":"active","ping":90},{"user_id":174,"name":"SIA","steam_id":76561198377453187,"connected_time":182000000000,"state":"active","ping":57},{"user_id":143,"name":" Sir-Ignyr ","steam_id":76561198043828572,"connected_time":1963000000000,"state":"active","ping":44}]},{"server_id":40,"name":"Uncletopia | London | 7 | No Payload","name_short":"lon-7","host":"lon-1.uk.uncletopia.com","port":27075,"enabled":true,"region":"eu","cc":"gb","latitude":51.509865,"longitude":-0.118092,"reserved":0,"last_update":"0001-01-01T00:00:00Z","name_a2s":"Uncletopia | London | 7 | No Payload","protocol":17,"map":"cp_dustbowl","folder":"tf","game":"Team Fortress","app_id":440,"player_count":19,"max_players":24,"Bots":0,"server_type":"Dedicated","server_os":"Linux","password":true,"vac":true,"version":"7961495","steam_id":85568392924964314,"keywords":["cp","nocrits","nodmgspread","uncletopia"],"game_id":440,"stv_port":27076,"stv_name":"Uncletopia | London | 7 | No Payload | STV","players":[{"user_id":73,"name":"xpitipitx","steam_id":76561198343333412,"connected_time":1255000000000,"state":"active","ping":91},{"user_id":80,"name":"ShadowVincent","steam_id":76561198950588763,"connected_time":390000000000,"state":"active","ping":81},{"user_id":74,"name":"Daniel","steam_id":76561198358104049,"connected_time":1239000000000,"state":"active","ping":107},{"user_id":79,"name":"dame","steam_id":76561199057279551,"connected_time":652000000000,"state":"active","ping":60},{"user_id":76,"name":"pepsi gaming","steam_id":76561199440200558,"connected_time":1121000000000,"state":"active","ping":103},{"user_id":72,"name":"Dr Dino D. Diplodocus","steam_id":76561198269645882,"connected_time":1362000000000,"state":"active","ping":36},{"user_id":81,"name":"david.klemen","steam_id":76561198382246222,"connected_time":260000000000,"state":"active","ping":87},{"user_id":16,"name":"WHUSSKEY","steam_id":76561198137827441,"connected_time":3522000000000,"state":"active","ping":78},{"user_id":44,"name":"A fish and sea","steam_id":76561198194745827,"connected_time":2990000000000,"state":"active","ping":60},{"user_id":58,"name":"jerf(estrogen needer)","steam_id":76561199213901239,"connected_time":2149000000000,"state":"active","ping":45},{"user_id":82,"name":"SkippityScopity","steam_id":76561198801187351,"connected_time":199000000000,"state":"active","ping":56},{"user_id":83,"name":"Killer Fish from San Diego","steam_id":76561198416693014,"connected_time":150000000000,"state":"active","ping":179},{"user_id":84,"name":"Twin","steam_id":76561198286940977,"connected_time":136000000000,"state":"active","ping":168},{"user_id":85,"name":"dallas","steam_id":76561198860559249,"connected_time":112000000000,"state":"active","ping":102},{"user_id":50,"name":"RedPyro2009","steam_id":76561198935824363,"connected_time":2449000000000,"state":"active","ping":62},{"user_id":86,"name":"Incomus","steam_id":76561198058342600,"connected_time":33000000000,"state":"active","ping":75},{"user_id":87,"name":"SourMyth","steam_id":76561198071818351,"connected_time":15000000000,"state":"active","ping":60},{"user_id":60,"name":"SpaceBoxxer","steam_id":76561198798211513,"connected_time":2099000000000,"state":"active","ping":77},{"user_id":62,"name":"spxcy","steam_id":76561198080296853,"connected_time":1978000000000,"state":"active","ping":90}]},{"server_id":41,"name":"Uncletopia | London | 8 | Community","name_short":"lon-8","host":"lon-1.uk.uncletopia.com","port":27085,"enabled":true,"region":"eu","cc":"gb","latitude":51.509865,"longitude":-0.118092,"reserved":0,"last_update":"0001-01-01T00:00:00Z","name_a2s":"Uncletopia | London | 8 | Community","protocol":17,"map":"workshop/cp_fulgur_rc2a.ugc2068252300","folder":"tf","game":"Team Fortress","app_id":440,"player_count":0,"max_players":24,"Bots":0,"server_type":"Dedicated","server_os":"Linux","password":true,"vac":true,"version":"7961495","steam_id":85568392924964315,"keywords":["cp","nocrits","nodmgspread","uncletopia"],"game_id":440,"stv_port":27086,"stv_name":"Uncletopia | London | 8 | Community | STV","players":null},{"server_id":300,"name":"Uncletopia | Montréal | 1 | All Maps","name_short":"mtl-1","host":"mtl-1.ca.uncletopia.com","port":27015,"enabled":true,"region":"us-east","cc":"ca","latitude":45.50889,"longitude":-73.56167,"reserved":0,"last_update":"0001-01-01T00:00:00Z","name_a2s":"Uncletopia | Montréal | 1 | All Maps","protocol":17,"map":"pl_swiftwater_final1","folder":"tf","game":"Team Fortress","app_id":440,"player_count":0,"max_players":24,"Bots":0,"server_type":"Dedicated","server_os":"Linux","password":true,"vac":true,"version":"7961495","steam_id":85568392924500087,"keywords":["nocrits","nodmgspread","payload","uncletopia"],"game_id":440,"stv_port":27016,"stv_name":"Uncletopia | Montréal | 1 | All Maps | STV","players":null},{"server_id":301,"name":"Uncletopia | Montréal | 2 | All Maps","name_short":"mtl-2","host":"mtl-1.ca.uncletopia.com","port":27025,"enabled":true,"region":"us-east","cc":"ca","latitude":45.50889,"longitude":-73.56167,"reserved":0,"last_update":"0001-01-01T00:00:00Z","name_a2s":"Uncletopia | Montréal | 2 | All Maps","protocol":17,"map":"cp_dustbowl","folder":"tf","game":"Team Fortress","app_id":440,"player_count":0,"max_players":24,"Bots":0,"server_type":"Dedicated","server_os":"Linux","password":true,"vac":true,"version":"7961495","steam_id":85568392924500088,"keywords":["cp","nocrits","nodmgspread","uncletopia"],"game_id":440,"stv_port":27026,"stv_name":"Uncletopia | Montréal | 2 | All Maps | STV","players":null},{"server_id":302,"name":"Uncletopia | Montréal | 3 | All Maps","name_short":"mtl-3","host":"mtl-1.ca.uncletopia.com","port":27035,"enabled":true,"region":"us-east","cc":"ca","latitude":45.50889,"longitude":-73.56167,"reserved":0,"last_update":"0001-01-01T00:00:00Z","name_a2s":"Uncletopia | Montréal | 3 | All Maps","protocol":17,"map":"koth_cascade","folder":"tf","game":"Team Fortress","app_id":440,"player_count":0,"max_players":24,"Bots":0,"server_type":"Dedicated","server_os":"Linux","password":true,"vac":true,"version":"7961495","steam_id":85568392924500089,"keywords":["cp","nocrits","nodmgspread","uncletopia"],"game_id":440,"stv_port":27036,"stv_name":"Uncletopia | Montréal | 3 | All Maps | STV","players":null},{"server_id":303,"name":"Uncletopia | Montréal | 4 | No Payload","name_short":"mtl-4","host":"mtl-1.ca.uncletopia.com","port":27045,"enabled":true,"region":"us-east","cc":"ca","latitude":45.50889,"longitude":-73.56167,"reserved":0,"last_update":"0001-01-01T00:00:00Z","name_a2s":"Uncletopia | Montréal | 4 | No Payload","protocol":17,"map":"koth_lakeside_final","folder":"tf","game":"Team Fortress","app_id":440,"player_count":0,"max_players":24,"Bots":0,"server_type":"Dedicated","server_os":"Linux","password":true,"vac":true,"version":"7961495","steam_id":85568392924500090,"keywords":["cp","nocrits","nodmgspread","uncletopia"],"game_id":440,"stv_port":27046,"stv_name":"Uncletopia | Montréal | 4 | No Payload | STV","players":null},{"server_id":13,"name":"Uncletopia | New York City | 1 | All Maps","name_short":"nyc-1","host":"nyc-1.us.uncletopia.com","port":27015,"enabled":true,"region":"us-east","cc":"us","latitude":40.73061,"longitude":-73.93524,"reserved":0,"last_update":"0001-01-01T00:00:00Z","name_a2s":"Uncletopia | New York City | 1 | All Maps","protocol":17,"map":"pl_badwater","folder":"tf","game":"Team Fortress","app_id":440,"player_count":0,"max_players":24,"Bots":0,"server_type":"Dedicated","server_os":"Linux","password":true,"vac":true,"version":"7961495","steam_id":85568392924469993,"keywords":["nocrits","nodmgspread","payload","uncletopia"],"game_id":440,"stv_port":27016,"stv_name":"Uncletopia | New York City | 1 | All Maps | STV","players":null},{"server_id":14,"name":"Uncletopia | New York City | 2 | All Maps","name_short":"nyc-2","host":"nyc-1.us.uncletopia.com","port":27025,"enabled":true,"region":"us-east","cc":"us","latitude":40.73061,"longitude":-73.93524,"reserved":0,"last_update":"0001-01-01T00:00:00Z","name_a2s":"Uncletopia | New York City | 2 | All Maps","protocol":17,"map":"pl_upward","folder":"tf","game":"Team Fortress","app_id":440,"player_count":0,"max_players":24,"Bots":0,"server_type":"Dedicated","server_os":"Linux","password":true,"vac":true,"version":"7961495","steam_id":85568392924469994,"keywords":["nocrits","nodmgspread","payload","uncletopia"],"game_id":440,"stv_port":27026,"stv_name":"Uncletopia | New York City | 2 | All Maps | STV","players":null},{"server_id":15,"name":"Uncletopia | New York City | 3 | Stopwatch Beta","name_short":"nyc-3","host":"nyc-1.us.uncletopia.com","port":27035,"enabled":true,"region":"us-east","cc":"us","latitude":40.73061,"longitude":-73.93524,"reserved":0,"last_update":"0001-01-01T00:00:00Z","name_a2s":"Uncletopia | New York City | 3 | Stopwatch Beta","protocol":17,"map":"cp_mountainlab","folder":"tf","game":"Team Fortress","app_id":440,"player_count":0,"max_players":24,"Bots":0,"server_type":"Dedicated","server_os":"Linux","password":true,"vac":true,"version":"7961495","steam_id":85568392924742820,"keywords":["cp","nocrits","nodmgspread","uncletopia"],"game_id":440,"stv_port":27036,"stv_name":"Uncletopia | New York City | 3 | Stopwatch Beta | STV","players":null},{"server_id":16,"name":"Uncletopia | New York City | 4 | Community","name_short":"nyc-4","host":"nyc-1.us.uncletopia.com","port":27045,"enabled":true,"region":"us-east","cc":"us","latitude":40.73061,"longitude":-73.93524,"reserved":0,"last_update":"0001-01-01T00:00:00Z","name_a2s":"Uncletopia | New York City | 4 | Community","protocol":17,"map":"koth_lakeside_final","folder":"tf","game":"Team Fortress","app_id":440,"player_count":0,"max_players":24,"Bots":0,"server_type":"Dedicated","server_os":"Linux","password":true,"vac":true,"version":"7961495","steam_id":85568392924742821,"keywords":["cp","nocrits","nodmgspread","uncletopia"],"game_id":440,"stv_port":27046,"stv_name":"Uncletopia | New York City | 4 | Community | STV","players":null},{"server_id":142,"name":"Uncletopia | São Paulo | 1 | All Maps","name_short":"sao-1","host":"sao-1.br.uncletopia.com","port":27015,"enabled":true,"region":"sa","cc":"br","latitude":-23.533773,"longitude":-46.62529,"reserved":0,"last_update":"0001-01-01T00:00:00Z","name_a2s":"Uncletopia | São Paulo | 1 | All Maps","protocol":17,"map":"koth_highpass","folder":"tf","game":"Team Fortress","app_id":440,"player_count":0,"max_players":24,"Bots":0,"server_type":"Dedicated","server_os":"Linux","password":true,"vac":true,"version":"7961495","steam_id":85568392924469996,"keywords":["cp","nocrits","nodmgspread","uncletopia"],"game_id":440,"stv_port":27016,"stv_name":"Uncletopia | São Paulo | 1 | All Maps | STV","players":null},{"server_id":143,"name":"Uncletopia | São Paulo | 2 | Community","name_short":"sao-2","host":"sao-2.br.uncletopia.com","port":27015,"enabled":true,"region":"sa","cc":"br","latitude":-23.533773,"longitude":-46.62529,"reserved":0,"last_update":"0001-01-01T00:00:00Z","name_a2s":"Uncletopia | São Paulo | 2 | Community","protocol":17,"map":"cp_snakewater_final1","folder":"tf","game":"Team Fortress","app_id":440,"player_count":0,"max_players":24,"Bots":0,"server_type":"Dedicated","server_os":"Linux","password":true,"vac":true,"version":"7961495","steam_id":85568392924485349,"keywords":["cp","nocrits","nodmgspread","uncletopia"],"game_id":440,"stv_port":27016,"stv_name":"Uncletopia | São Paulo | 2 | Community | STV","players":null},{"server_id":7,"name":"Uncletopia | Seattle | 1 | All Maps","name_short":"sea-1","host":"sea-1.us.uncletopia.com","port":27015,"enabled":true,"region":"us-west","cc":"us","latitude":47.608013,"longitude":-122.33517,"reserved":0,"last_update":"0001-01-01T00:00:00Z","name_a2s":"Uncletopia | Seattle | 1 | All Maps","protocol":17,"map":"koth_lakeside_final","folder":"tf","game":"Team Fortress","app_id":440,"player_count":0,"max_players":24,"Bots":0,"server_type":"Dedicated","server_os":"Linux","password":true,"vac":true,"version":"7961495","steam_id":85568392924469997,"keywords":["cp","nocrits","nodmgspread","uncletopia"],"game_id":440,"stv_port":27016,"stv_name":"Uncletopia | Seattle | 1 | All Maps | STV","players":null},{"server_id":119,"name":"Uncletopia | Seattle | 2 | All Maps","name_short":"sea-2","host":"sea-1.us.uncletopia.com","port":27025,"enabled":true,"region":"us-west","cc":"us","latitude":47.608013,"longitude":-122.33517,"reserved":0,"last_update":"0001-01-01T00:00:00Z","name_a2s":"Uncletopia | Seattle | 2 | All Maps","protocol":17,"map":"cp_dustbowl","folder":"tf","game":"Team Fortress","app_id":440,"player_count":19,"max_players":24,"Bots":0,"server_type":"Dedicated","server_os":"Linux","password":true,"vac":true,"version":"7961495","steam_id":85568392924469998,"keywords":["cp","nocrits","nodmgspread","uncletopia"],"game_id":440,"stv_port":27026,"stv_name":"Uncletopia | Seattle | 2 | All Maps | STV","players":[{"user_id":152,"name":"VixianUwU","steam_id":76561198948815060,"connected_time":298000000000,"state":"active","ping":83},{"user_id":153,"name":"Grand Piano Tuna","steam_id":76561198135137213,"connected_time":230000000000,"state":"active","ping":83},{"user_id":120,"name":"Hottodoggu","steam_id":76561198084080712,"connected_time":2010000000000,"state":"active","ping":95},{"user_id":124,"name":"dust | she/it","steam_id":76561198045218909,"connected_time":1369000000000,"state":"active","ping":44},{"user_id":114,"name":"Feet Gangbang (Ascended)","steam_id":76561198873979109,"connected_time":3124000000000,"state":"active","ping":51},{"user_id":125,"name":"ian","steam_id":76561198119616750,"connected_time":1351000000000,"state":"active","ping":160},{"user_id":154,"name":"Ventastega","steam_id":76561197999366317,"connected_time":121000000000,"state":"active","ping":122},{"user_id":127,"name":"Movarc'h Princess","steam_id":76561198024057411,"connected_time":1278000000000,"state":"active","ping":99},{"user_id":134,"name":"Enkinanna","steam_id":76561198045965821,"connected_time":1178000000000,"state":"active","ping":117},{"user_id":155,"name":"atmBomb","steam_id":76561198055557988,"connected_time":93000000000,"state":"active","ping":100},{"user_id":156,"name":"Da Big Bumby","steam_id":76561198044511738,"connected_time":83000000000,"state":"spawning","ping":111},{"user_id":132,"name":"John fortnite kennedy","steam_id":76561199009132907,"connected_time":1218000000000,"state":"active","ping":98},{"user_id":79,"name":"Goose","steam_id":76561198036774894,"connected_time":4880000000000,"state":"active","ping":59},{"user_id":148,"name":"Lemon","steam_id":76561198119362095,"connected_time":515000000000,"state":"active","ping":101},{"user_id":137,"name":"Chirp","steam_id":76561198240780230,"connected_time":960000000000,"state":"active","ping":70},{"user_id":141,"name":"AstronautPug","steam_id":76561198162372709,"connected_time":828000000000,"state":"active","ping":113},{"user_id":94,"name":"TheEmeraldDuck","steam_id":76561197999692032,"connected_time":4058000000000,"state":"active","ping":117},{"user_id":149,"name":"BetoelAff es","steam_id":76561198377842585,"connected_time":505000000000,"state":"active","ping":136},{"user_id":150,"name":"Peppino","steam_id":76561199139504199,"connected_time":450000000000,"state":"active","ping":88}]},{"server_id":406,"name":"Uncletopia | Seattle | 3 | Stopwatch Beta","name_short":"sea-3","host":"sea-1.us.uncletopia.com","port":27035,"enabled":true,"region":"us-west","cc":"us","latitude":47.608013,"longitude":-122.33517,"reserved":0,"last_update":"0001-01-01T00:00:00Z","name_a2s":"Uncletopia | Seattle | 3 | Stopwatch Beta","protocol":17,"map":"koth_lakeside_final","folder":"tf","game":"Team Fortress","app_id":440,"player_count":0,"max_players":24,"Bots":0,"server_type":"Dedicated","server_os":"Linux","password":true,"vac":true,"version":"7961495","steam_id":85568392924515217,"keywords":["cp","nocrits","nodmgspread","uncletopia"],"game_id":440,"stv_port":27036,"stv_name":"Uncletopia | Seattle | 3 | Stopwatch Beta | STV","players":null},{"server_id":17,"name":"Uncletopia | San Francisco | 1 | All Maps","name_short":"sfo-1","host":"sfo-1.us.uncletopia.com","port":27015,"enabled":true,"region":"us-west","cc":"us","latitude":37.77397,"longitude":-122.4313,"reserved":0,"last_update":"0001-01-01T00:00:00Z","name_a2s":"Uncletopia | San Francisco | 1 | All Maps","protocol":17,"map":"pl_snowycoast","folder":"tf","game":"Team Fortress","app_id":440,"player_count":0,"max_players":24,"Bots":0,"server_type":"Dedicated","server_os":"Linux","password":true,"vac":true,"version":"7961495","steam_id":85568392924469999,"keywords":["nocrits","nodmgspread","payload","uncletopia"],"game_id":440,"stv_port":27016,"stv_name":"Uncletopia | San Francisco | 1 | All Maps | STV","players":null},{"server_id":18,"name":"Uncletopia | San Francisco | 2 | All Maps","name_short":"sfo-2","host":"sfo-1.us.uncletopia.com","port":27025,"enabled":true,"region":"us-west","cc":"us","latitude":37.77397,"longitude":-122.4313,"reserved":0,"last_update":"0001-01-01T00:00:00Z","name_a2s":"Uncletopia | San Francisco | 2 | All Maps","protocol":17,"map":"cp_process_final","folder":"tf","game":"Team Fortress","app_id":440,"player_count":0,"max_players":24,"Bots":0,"server_type":"Dedicated","server_os":"Linux","password":true,"vac":true,"version":"7961495","steam_id":85568392924470000,"keywords":["cp","nocrits","nodmgspread","uncletopia"],"game_id":440,"stv_port":27026,"stv_name":"Uncletopia | San Francisco | 2 | All Maps | STV","players":null},{"server_id":19,"name":"Uncletopia | San Francisco | 3 | Stopwatch Beta","name_short":"sfo-3","host":"sfo-1.us.uncletopia.com","port":27035,"enabled":true,"region":"us-west","cc":"us","latitude":37.77397,"longitude":-122.4313,"reserved":0,"last_update":"0001-01-01T00:00:00Z","name_a2s":"Uncletopia | San Francisco | 3 | Stopwatch Beta","protocol":17,"map":"pl_borneo","folder":"tf","game":"Team Fortress","app_id":440,"player_count":0,"max_players":24,"Bots":0,"server_type":"Dedicated","server_os":"Linux","password":true,"vac":true,"version":"7961495","steam_id":85568392924742824,"keywords":["nocrits","nodmgspread","payload","uncletopia"],"game_id":440,"stv_port":27036,"stv_name":"Uncletopia | San Francisco | 3 | Stopwatch Beta | STV","players":null},{"server_id":20,"name":"Uncletopia | San Francisco | 4 | Community","name_short":"sfo-4","host":"sfo-1.us.uncletopia.com","port":27045,"enabled":true,"region":"us-west","cc":"us","latitude":37.77397,"longitude":-122.4313,"reserved":0,"last_update":"0001-01-01T00:00:00Z","name_a2s":"Uncletopia | San Francisco | 4 | Community","protocol":17,"map":"koth_viaduct","folder":"tf","game":"Team Fortress","app_id":440,"player_count":0,"max_players":24,"Bots":0,"server_type":"Dedicated","server_os":"Linux","password":true,"vac":true,"version":"7961495","steam_id":85568392924742826,"keywords":["cp","nocrits","nodmgspread","uncletopia"],"game_id":440,"stv_port":27046,"stv_name":"Uncletopia | San Francisco | 4 | Community | STV","players":null},{"server_id":141,"name":"Uncletopia | Sydney | 1 | All Maps","name_short":"syd-1","host":"syd-1.au.uncletopia.com","port":27015,"enabled":true,"region":"au","cc":"au","latitude":-33.865143,"longitude":151.2099,"reserved":0,"last_update":"0001-01-01T00:00:00Z","name_a2s":"Uncletopia | Sydney | 1 | All Maps","protocol":17,"map":"koth_viaduct","folder":"tf","game":"Team Fortress","app_id":440,"player_count":0,"max_players":24,"Bots":0,"server_type":"Dedicated","server_os":"Linux","password":true,"vac":true,"version":"7961495","steam_id":85568392924470001,"keywords":["cp","nocrits","nodmgspread","uncletopia"],"game_id":440,"stv_port":27016,"stv_name":"Uncletopia | Sydney | 1 | All Maps | STV","players":null},{"server_id":123,"name":"Uncletopia | Sydney | 2 | All Maps","name_short":"syd-2","host":"syd-1.au.uncletopia.com","port":27025,"enabled":true,"region":"au","cc":"au","latitude":-33.865143,"longitude":151.2099,"reserved":0,"last_update":"0001-01-01T00:00:00Z","name_a2s":"Uncletopia | Sydney | 2 | All Maps","protocol":17,"map":"cp_altitude","folder":"tf","game":"Team Fortress","app_id":440,"player_count":0,"max_players":24,"Bots":0,"server_type":"Dedicated","server_os":"Linux","password":true,"vac":true,"version":"7961495","steam_id":85568392924470002,"keywords":["cp","nocrits","nodmgspread","uncletopia"],"game_id":440,"stv_port":27026,"stv_name":"Uncletopia | Sydney | 2 | All Maps | STV","players":null},{"server_id":395,"name":"Uncletopia | Sydney | 3 | All Maps","name_short":"syd-3","host":"syd-1.au.uncletopia.com","port":27035,"enabled":true,"region":"au","cc":"au","latitude":-33.865143,"longitude":151.2099,"reserved":0,"last_update":"0001-01-01T00:00:00Z","name_a2s":"Uncletopia | Sydney | 3 | All Maps","protocol":17,"map":"pl_borneo","folder":"tf","game":"Team Fortress","app_id":440,"player_count":0,"max_players":24,"Bots":0,"server_type":"Dedicated","server_os":"Linux","password":true,"vac":true,"version":"7961495","steam_id":85568392925194467,"keywords":["nocrits","nodmgspread","payload","uncletopia"],"game_id":440,"stv_port":27036,"stv_name":"Uncletopia | Sydney | 3 | All Maps | STV","players":null},{"server_id":396,"name":"Uncletopia | Sydney | 4 | All Maps","name_short":"syd-4","host":"syd-1.au.uncletopia.com","port":27045,"enabled":true,"region":"au","cc":"au","latitude":-33.865143,"longitude":151.2099,"reserved":0,"last_update":"0001-01-01T00:00:00Z","name_a2s":"Uncletopia | Sydney | 4 | All Maps","protocol":17,"map":"koth_highpass","folder":"tf","game":"Team Fortress","app_id":440,"player_count":0,"max_players":24,"Bots":0,"server_type":"Dedicated","server_os":"Linux","password":true,"vac":true,"version":"7961495","steam_id":85568392925397958,"keywords":["cp","nocrits","nodmgspread","uncletopia"],"game_id":440,"stv_port":27046,"stv_name":"Uncletopia | Sydney | 4 | All Maps | STV","players":null},{"server_id":58,"name":"Uncletopia | Sydney | 5 | Stopwatch Beta","name_short":"syd-5","host":"syd-1.au.uncletopia.com","port":27055,"enabled":true,"region":"au","cc":"au","latitude":-33.865143,"longitude":151.2099,"reserved":0,"last_update":"0001-01-01T00:00:00Z","name_a2s":"Uncletopia | Sydney | 5 | Stopwatch Beta","protocol":17,"map":"koth_viaduct","folder":"tf","game":"Team Fortress","app_id":440,"player_count":0,"max_players":24,"Bots":0,"server_type":"Dedicated","server_os":"Linux","password":true,"vac":true,"version":"7961495","steam_id":85568392925397959,"keywords":["cp","nocrits","nodmgspread","uncletopia"],"game_id":440,"stv_port":27056,"stv_name":"Uncletopia | Sydney | 5 | Stopwatch Beta | STV","players":null},{"server_id":59,"name":"Uncletopia | Sydney | 6 | Community","name_short":"syd-6","host":"syd-1.au.uncletopia.com","port":27065,"enabled":true,"region":"au","cc":"au","latitude":-33.865143,"longitude":151.2099,"reserved":0,"last_update":"0001-01-01T00:00:00Z","name_a2s":"Uncletopia | Sydney | 6 | Community","protocol":17,"map":"koth_cascade","folder":"tf","game":"Team Fortress","app_id":440,"player_count":0,"max_players":24,"Bots":0,"server_type":"Dedicated","server_os":"Linux","password":true,"vac":true,"version":"7961495","steam_id":85568392925397960,"keywords":["cp","nocrits","nodmgspread","uncletopia"],"game_id":440,"stv_port":27066,"stv_name":"Uncletopia | Sydney | 6 | Community | STV","players":null},{"server_id":49,"name":"Uncletopia | Warsaw | 1 | All Maps","name_short":"waw-1","host":"waw-1.pl.uncletopia.com","port":27015,"enabled":true,"region":"eu","cc":"pl","latitude":52.2297,"longitude":21.017532,"reserved":0,"last_update":"0001-01-01T00:00:00Z","name_a2s":"Uncletopia | Warsaw | 1 | All Maps","protocol":17,"map":"cp_altitude","folder":"tf","game":"Team Fortress","app_id":440,"player_count":0,"max_players":24,"Bots":0,"server_type":"Dedicated","server_os":"Linux","password":true,"vac":true,"version":"7961495","steam_id":85568392925397850,"keywords":["cp","nocrits","nodmgspread","uncletopia"],"game_id":440,"stv_port":27016,"stv_name":"Uncletopia | Warsaw | 1 | All Maps | STV","players":null},{"server_id":50,"name":"Uncletopia | Warsaw | 2 | All Maps","name_short":"waw-2","host":"waw-1.pl.uncletopia.com","port":27025,"enabled":true,"region":"eu","cc":"pl","latitude":52.2297,"longitude":21.017532,"reserved":0,"last_update":"0001-01-01T00:00:00Z","name_a2s":"Uncletopia | Warsaw | 2 | All Maps","protocol":17,"map":"koth_lakeside_final","folder":"tf","game":"Team Fortress","app_id":440,"player_count":0,"max_players":24,"Bots":0,"server_type":"Dedicated","server_os":"Linux","password":true,"vac":true,"version":"7961495","steam_id":85568392925397851,"keywords":["cp","nocrits","nodmgspread","uncletopia"],"game_id":440,"stv_port":27026,"stv_name":"Uncletopia | Warsaw | 2 | All Maps | STV","players":null},{"server_id":51,"name":"Uncletopia | Warsaw | 3 | All Maps","name_short":"waw-3","host":"waw-1.pl.uncletopia.com","port":27035,"enabled":true,"region":"eu","cc":"pl","latitude":52.2297,"longitude":21.017532,"reserved":0,"last_update":"0001-01-01T00:00:00Z","name_a2s":"Uncletopia | Warsaw | 3 | All Maps","protocol":17,"map":"cp_snakewater_final1","folder":"tf","game":"Team Fortress","app_id":440,"player_count":0,"max_players":24,"Bots":0,"server_type":"Dedicated","server_os":"Linux","password":true,"vac":true,"version":"7961495","steam_id":85568392925397852,"keywords":["cp","nocrits","nodmgspread","uncletopia"],"game_id":440,"stv_port":27036,"stv_name":"Uncletopia | Warsaw | 3 | All Maps | STV","players":null},{"server_id":52,"name":"Uncletopia | Warsaw | 4 | All Maps","name_short":"waw-4","host":"waw-1.pl.uncletopia.com","port":27045,"enabled":true,"region":"eu","cc":"pl","latitude":52.2297,"longitude":21.017532,"reserved":0,"last_update":"0001-01-01T00:00:00Z","name_a2s":"Uncletopia | Warsaw | 4 | All Maps","protocol":17,"map":"koth_viaduct","folder":"tf","game":"Team Fortress","app_id":440,"player_count":0,"max_players":24,"Bots":0,"server_type":"Dedicated","server_os":"Linux","password":true,"vac":true,"version":"7961495","steam_id":85568392925397853,"keywords":["cp","nocrits","nodmgspread","uncletopia"],"game_id":440,"stv_port":27046,"stv_name":"Uncletopia | Warsaw | 4 | All Maps | STV","players":null},{"server_id":53,"name":"Uncletopia | Warsaw | 5 | Stopwatch Beta","name_short":"waw-5","host":"waw-1.pl.uncletopia.com","port":27055,"enabled":true,"region":"eu","cc":"pl","latitude":52.2297,"longitude":21.017532,"reserved":0,"last_update":"0001-01-01T00:00:00Z","name_a2s":"Uncletopia | Warsaw | 5 | Stopwatch Beta","protocol":17,"map":"pl_swiftwater_final1","folder":"tf","game":"Team Fortress","app_id":440,"player_count":0,"max_players":24,"Bots":0,"server_type":"Dedicated","server_os":"Linux","password":true,"vac":true,"version":"7961495","steam_id":85568392925397854,"keywords":["nocrits","nodmgspread","payload","uncletopia"],"game_id":440,"stv_port":27056,"stv_name":"Uncletopia | Warsaw | 5 | Stopwatch Beta | STV","players":null},{"server_id":54,"name":"Uncletopia | Warsaw | 6 | Community","name_short":"waw-6","host":"waw-1.pl.uncletopia.com","port":27065,"enabled":true,"region":"eu","cc":"pl","latitude":52.2297,"longitude":21.017532,"reserved":0,"last_update":"0001-01-01T00:00:00Z","name_a2s":"Uncletopia | Warsaw | 6 | Community","protocol":17,"map":"workshop/cp_glacier_rc6.ugc2905735376","folder":"tf","game":"Team Fortress","app_id":440,"player_count":0,"max_players":24,"Bots":0,"server_type":"Dedicated","server_os":"Linux","password":true,"vac":true,"version":"7961495","steam_id":85568392925397856,"keywords":["cp","nocrits","nodmgspread","uncletopia"],"game_id":440,"stv_port":27066,"stv_name":"Uncletopia | Warsaw | 6 | Community | STV","players":null}]}