{"status":true,"message":"","result":[{"server_id":9,"name":"Uncletopia | Atlanta | 1 | All Maps","name_short":"atl-1","host":"atl-1.us.uncletopia.com","port":27015,"enabled":true,"region":"us-east","cc":"us","latitude":33.753746,"longitude":-84.38633,"reserved":0,"last_update":"0001-01-01T00:00:00Z","name_a2s":"Uncletopia | Atlanta | 1 | All Maps","protocol":17,"map":"cp_process_final","folder":"tf","game":"Team Fortress","app_id":440,"player_count":0,"max_players":24,"Bots":0,"server_type":"Dedicated","server_os":"Linux","password":true,"vac":true,"version":"7932396","steam_id":85568392924469982,"keywords":["cp","nocrits","nodmgspread","uncletopia"],"game_id":440,"stv_port":27016,"stv_name":"Uncletopia | Atlanta | 1 | All Maps | STV","players":null},{"server_id":104,"name":"Uncletopia | Atlanta | 2 | All Maps","name_short":"atl-2","host":"atl-1.us.uncletopia.com","port":27025,"enabled":true,"region":"us-east","cc":"us","latitude":33.753746,"longitude":-84.38633,"reserved":0,"last_update":"0001-01-01T00:00:00Z","name_a2s":"Uncletopia | Atlanta | 2 | All Maps","protocol":17,"map":"pl_frontier_final","folder":"tf","game":"Team Fortress","app_id":440,"player_count":17,"max_players":24,"Bots":0,"server_type":"Dedicated","server_os":"Linux","password":true,"vac":true,"version":"7932396","steam_id":85568392924469983,"keywords":["nocrits","nodmgspread","payload","uncletopia"],"game_id":440,"stv_port":27026,"stv_name":"Uncletopia | Atlanta | 2 | All Maps | STV","players":[{"user_id":596,"name":"Double Dip","steam_id":76561198067483536,"connected_time":167000000000,"state":"active","ping":83},{"user_id":585,"name":"M1K3 :)","steam_id":76561198072217407,"connected_time":411000000000,"state":"active","ping":67},{"user_id":600,"name":"a Hippobottomus","steam_id":76561198126853441,"connected_time":148000000000,"state":"active","ping":71},{"user_id":587,"name":"salsa","steam_id":76561198317584223,"connected_time":332000000000,"state":"active","ping":129},{"user_id":574,"name":"Youralmightydino","steam_id":76561198052379730,"connected_time":583000000000,"state":"active","ping":100},{"user_id":588,"name":"laurencegabe","steam_id":76561199229727508,"connected_time":320000000000,"state":"active","ping":99},{"user_id":589,"name":"hihohe","steam_id":76561197987823936,"connected_time":309000000000,"state":"active","ping":98},{"user_id":500,"name":"DanFango","steam_id":76561198078300753,"connected_time":2270000000000,"state":"active","ping":80},{"user_id":580,"name":"BarrowBaron","steam_id":76561198013633236,"connected_time":538000000000,"state":"active","ping":108},{"user_id":602,"name":"gorf?","steam_id":76561198142286417,"connected_time":55000000000,"state":"active","ping":93},{"user_id":549,"name":"Minty✩","steam_id":76561198251581966,"connected_time":1307000000000,"state":"active","ping":96},{"user_id":579,"name":"Weeb","steam_id":76561198333568146,"connected_time":544000000000,"state":"active","ping":94},{"user_id":597,"name":"Kimba","steam_id":76561199092078325,"connected_time":163000000000,"state":"active","ping":110},{"user_id":365,"name":"MrRobbins","steam_id":76561199171169987,"connected_time":5032000000000,"state":"active","ping":101},{"user_id":581,"name":"woah","steam_id":76561198993008247,"connected_time":529000000000,"state":"active","ping":130},{"user_id":601,"name":"duck lover duck lover duck love","steam_id":76561198042255864,"connected_time":125000000000,"state":"active","ping":92},{"user_id":582,"name":"flameboy50","steam_id":76561198258638052,"connected_time":523000000000,"state":"active","ping":152}]},{"server_id":400,"name":"Uncletopia | Atlanta | 3 | Community","name_short":"atl-3","host":"atl-1.us.uncletopia.com","port":27035,"enabled":true,"region":"us-east","cc":"us","latitude":33.753746,"longitude":-84.38633,"reserved":0,"last_update":"0001-01-01T00:00:00Z","name_a2s":"Uncletopia | Atlanta | 3 | Community","protocol":17,"map":"workshop/pl_divulgence_b4b.ugc2884808746","folder":"tf","game":"Team Fortress","app_id":440,"player_count":0,"max_players":24,"Bots":0,"server_type":"Dedicated","server_os":"Linux","password":true,"vac":true,"version":"7932396","steam_id":85568392924515187,"keywords":["nocrits","nodmgspread","payload","uncletopia"],"game_id":440,"stv_port":27036,"stv_name":"Uncletopia | Atlanta | 3 | Community | STV","players":null},{"server_id":401,"name":"Uncletopia | Atlanta | 4 | No Payload","name_short":"atl-4","host":"atl-1.us.uncletopia.com","port":27045,"enabled":true,"region":"us-east","cc":"us","latitude":33.753746,"longitude":-84.38633,"reserved":0,"last_update":"0001-01-01T00:00:00Z","name_a2s":"","protocol":0,"map":"","folder":"","game":"","app_id":0,"player_count":0,"max_players":0,"Bots":0,"server_type":"","server_os":"","password":false,"vac":false,"version":"","steam_id":0,"keywords":null,"game_id":0,"stv_port":0,"stv_name":"","players":null},{"server_id":2,"name":"Uncletopia | Chicago | 1 | All Maps","name_short":"chi-1","host":"chi-1.us.uncletopia.com","port":27015,"enabled":true,"region":"us-central","cc":"us","latitude":41.881832,"longitude":-87.62318,"reserved":0,"last_update":"0001-01-01T00:00:00Z","name_a2s":"Uncletopia | Chicago | 1 | All Maps","protocol":17,"map":"pl_hoodoo_final","folder":"tf","game":"Team Fortress","app_id":440,"player_count":24,"max_players":24,"Bots":0,"server_type":"Dedicated","server_os":"Linux","password":true,"vac":true,"version":"7932396","steam_id":85568392924469984,"keywords":["nocrits","nodmgspread","payload","uncletopia"],"game_id":440,"stv_port":27016,"stv_name":"Uncletopia | Chicago | 1 | All Maps | STV","players":[{"user_id":305,"name":"Im High","steam_id":76561198049954886,"connected_time":1733000000000,"state":"active","ping":68},{"user_id":203,"name":"Adam (Cursed Confetti Creature)","steam_id":76561198317690197,"connected_time":11521000000000,"state":"active","ping":41},{"user_id":317,"name":"Deetchy","steam_id":76561198072091523,"connected_time":1268000000000,"state":"active","ping":116},{"user_id":323,"name":"TeeTree","steam_id":76561198862307874,"connected_time":997000000000,"state":"active","ping":60},{"user_id":264,"name":"Soul Garg Plushy","steam_id":76561198044480181,"connected_time":4501000000000,"state":"active","ping":50},{"user_id":307,"name":"Chiki","steam_id":76561198063590320,"connected_time":1705000000000,"state":"active","ping":66},{"user_id":320,"name":"Heat My Justice","steam_id":76561197995252750,"connected_time":1090000000000,"state":"active","ping":89},{"user_id":319,"name":"raspy","steam_id":76561198027298961,"connected_time":1163000000000,"state":"active","ping":51},{"user_id":292,"name":"Zoot","steam_id":76561198121944243,"connected_time":3457000000000,"state":"active","ping":84},{"user_id":321,"name":"hart","steam_id":76561198094780633,"connected_time":1039000000000,"state":"active","ping":54},{"user_id":329,"name":"[]{}#^*+=","steam_id":76561198127039453,"connected_time":375000000000,"state":"active","ping":95},{"user_id":331,"name":"Captain","steam_id":76561198003428369,"connected_time":18000000000,"state":"spawning","ping":45},{"user_id":304,"name":"Method Mon Mothma","steam_id":76561197976110189,"connected_time":1751000000000,"state":"active","ping":69},{"user_id":278,"name":"Voodo133","steam_id":76561198042670351,"connected_time":3902000000000,"state":"active","ping":94},{"user_id":290,"name":"the silly","steam_id":76561198850632709,"connected_time":3702000000000,"state":"active","ping":84},{"user_id":308,"name":"A/funny/dream","steam_id":76561198354481597,"connected_time":1691000000000,"state":"active","ping":86},{"user_id":324,"name":"Kelly Goosecock","steam_id":76561198060731432,"connected_time":703000000000,"state":"active","ping":73},{"user_id":309,"name":"too funky ᗜˬᗜ","steam_id":76561199120399776,"connected_time":1685000000000,"state":"active","ping":78},{"user_id":325,"name":"Cdesmondd","steam_id":76561198072774462,"connected_time":690000000000,"state":"active","ping":64},{"user_id":220,"name":"AYAYA!!!","steam_id":76561198992102180,"connected_time":9767000000000,"state":"active","ping":49},{"user_id":330,"name":"Punkin","steam_id":76561198334301755,"connected_time":39000000000,"state":"active","ping":71},{"user_id":316,"name":"Swash","steam_id":76561197969421355,"connected_time":1271000000000,"state":"active","ping":74},{"user_id":208,"name":"Lia_Rein","steam_id":76561198151569597,"connected_time":11221000000000,"state":"active","ping":149},{"user_id":303,"name":"Mank","steam_id":76561198189421005,"connected_time":2145000000000,"state":"active","ping":54}]},{"server_id":106,"name":"Uncletopia | Chicago | 2 | All Maps","name_short":"chi-2","host":"chi-1.us.uncletopia.com","port":27025,"enabled":true,"region":"us-central","cc":"us","latitude":41.881832,"longitude":-87.62318,"reserved":0,"last_update":"0001-01-01T00:00:00Z","name_a2s":"Uncletopia | Chicago | 2 | All Maps","protocol":17,"map":"pl_pier","folder":"tf","game":"Team Fortress","app_id":440,"player_count":24,"max_players":24,"Bots":0,"server_type":"Dedicated","server_os":"Linux","password":true,"vac":true,"version":"7932396","steam_id":85568392924469985,"keywords":["nocrits","nodmgspread","payload","uncletopia"],"game_id":440,"stv_port":27026,"stv_name":"Uncletopia | Chicago | 2 | All Maps | STV","players":[{"user_id":287,"name":"c00kie","steam_id":76561198418178297,"connected_time":2381000000000,"state":"active","ping":37},{"user_id":324,"name":"mechiimi ★","steam_id":76561198321627268,"connected_time":95000000000,"state":"active","ping":124},{"user_id":319,"name":"SKOOKS","steam_id":76561198080567237,"connected_time":647000000000,"state":"active","ping":76},{"user_id":323,"name":"like a what?","steam_id":76561198079416036,"connected_time":251000000000,"state":"active","ping":38},{"user_id":301,"name":"Saul Goodman","steam_id":76561198839945136,"connected_time":1473000000000,"state":"active","ping":73},{"user_id":306,"name":"kite","steam_id":76561198346516392,"connected_time":1198000000000,"state":"active","ping":67},{"user_id":315,"name":"Joe Biden","steam_id":76561198238699798,"connected_time":680000000000,"state":"active","ping":80},{"user_id":317,"name":"aint that just the way","steam_id":76561198301423746,"connected_time":666000000000,"state":"active","ping":52},{"user_id":296,"name":"coffee","steam_id":76561198239286750,"connected_time":1693000000000,"state":"active","ping":61},{"user_id":115,"name":"beefmachine","steam_id":76561198001196512,"connected_time":15944000000000,"state":"active","ping":49},{"user_id":310,"name":"Milkmur","steam_id":76561198210043821,"connected_time":749000000000,"state":"active","ping":61},{"user_id":311,"name":"KBoneski ♡","steam_id":76561198307409065,"connected_time":726000000000,"state":"active","ping":104},{"user_id":320,"name":"Treader","steam_id":76561198096555885,"connected_time":592000000000,"state":"active","ping":68},{"user_id":316,"name":"Niko Jims","steam_id":76561198010282168,"connected_time":677000000000,"state":"active","ping":72},{"user_id":312,"name":"John Misconduct","steam_id":76561198119483989,"connected_time":726000000000,"state":"active","ping":78},{"user_id":321,"name":"round and puntable","steam_id":76561198392539722,"connected_time":437000000000,"state":"active","ping":79},{"user_id":325,"name":"sumireko kinnie","steam_id":76561198061868020,"connected_time":6000000000,"state":"spawning","ping":171},{"user_id":326,"name":"jerma but crying and lesbian","steam_id":76561198110661425,"connected_time":6000000000,"state":"spawning","ping":50},{"user_id":224,"name":"Lucide","steam_id":76561197998530400,"connected_time":7078000000000,"state":"active","ping":107},{"user_id":286,"name":"BALL FART BARON","steam_id":76561198410061750,"connected_time":2576000000000,"state":"active","ping":57},{"user_id":318,"name":"Kidzbopsicle","steam_id":76561198047660691,"connected_time":664000000000,"state":"active","ping":45},{"user_id":322,"name":"Mehman","steam_id":76561199020244051,"connected_time":343000000000,"state":"active","ping":100},{"user_id":278,"name":"freyja","steam_id":76561198249206656,"connected_time":3069000000000,"state":"active","ping":71},{"user_id":327,"name":"Raptortastic","steam_id":76561198105613110,"connected_time":3000000000,"state":"spawning","ping":44}]},{"server_id":402,"name":"Uncletopia | Chicago | 3 | All Maps","name_short":"chi-3","host":"chi-1.us.uncletopia.com","port":27035,"enabled":true,"region":"us-central","cc":"us","latitude":41.881832,"longitude":-87.62318,"reserved":0,"last_update":"0001-01-01T00:00:00Z","name_a2s":"Uncletopia | Chicago | 3 | All Maps","protocol":17,"map":"pl_upward","folder":"tf","game":"Team Fortress","app_id":440,"player_count":24,"max_players":24,"Bots":0,"server_type":"Dedicated","server_os":"Linux","password":true,"vac":true,"version":"7932396","steam_id":85568392924515191,"keywords":["nocrits","nodmgspread","payload","uncletopia"],"game_id":440,"stv_port":27036,"stv_name":"Uncletopia | Chicago | 3 | All Maps | STV","players":[{"user_id":722,"name":"Jamie Hyneman","steam_id":76561199196036481,"connected_time":2264000000000,"state":"active","ping":88},{"user_id":796,"name":"SecondCarpet","steam_id":76561199008323078,"connected_time":318000000000,"state":"active","ping":81},{"user_id":739,"name":"Heathcliff","steam_id":76561198044288534,"connected_time":1490000000000,"state":"active","ping":89},{"user_id":724,"name":"Ka Xin Yu","steam_id":76561198057116531,"connected_time":2230000000000,"state":"active","ping":59},{"user_id":721,"name":"Waddlehi","steam_id":76561198072553840,"connected_time":2423000000000,"state":"active","ping":58},{"user_id":674,"name":"Nodspine","steam_id":76561198253579994,"connected_time":5243000000000,"state":"active","ping":119},{"user_id":725,"name":"EvilMrPotoo ｡◕‿◕｡","steam_id":76561198012566870,"connected_time":2230000000000,"state":"active","ping":60},{"user_id":793,"name":"the spider is real","steam_id":76561198076693017,"connected_time":342000000000,"state":"active","ping":107},{"user_id":797,"name":"paetho YT (new vid!)","steam_id":76561198152690003,"connected_time":241000000000,"state":"active","ping":56},{"user_id":727,"name":"DoomsdaySnail","steam_id":76561198131444200,"connected_time":2210000000000,"state":"active","ping":67},{"user_id":798,"name":"bobby  peanstalk","steam_id":76561198040495463,"connected_time":156000000000,"state":"active","ping":53},{"user_id":700,"name":"Makina","steam_id":76561198057475567,"connected_time":3257000000000,"state":"active","ping":69},{"user_id":786,"name":"ƐՌѴƳ","steam_id":76561198099470277,"connected_time":455000000000,"state":"active","ping":88},{"user_id":794,"name":"EXTREME FEVER","steam_id":76561198282764599,"connected_time":337000000000,"state":"active","ping":47},{"user_id":737,"name":"Jabawakai","steam_id":76561198088881254,"connected_time":1644000000000,"state":"active","ping":59},{"user_id":789,"name":"Person","steam_id":76561198093244204,"connected_time":374000000000,"state":"active","ping":74},{"user_id":740,"name":"Zephyr","steam_id":76561198129785553,"connected_time":1487000000000,"state":"active","ping":69},{"user_id":788,"name":"|WS| Don't_Taze_Me_Bro","steam_id":76561198043289495,"connected_time":417000000000,"state":"active","ping":72},{"user_id":703,"name":"Pizza","steam_id":76561198118748364,"connected_time":3214000000000,"state":"active","ping":81},{"user_id":790,"name":"Fredrick","steam_id":76561197981419964,"connected_time":361000000000,"state":"active","ping":74},{"user_id":730,"name":"Arctic Flesh","steam_id":76561198099678868,"connected_time":2169000000000,"state":"active","ping":56},{"user_id":781,"name":"Provocator","steam_id":76561197961830410,"connected_time":537000000000,"state":"active","ping":82},{"user_id":712,"name":"Cliff Uppercut","steam_id":76561197999439391,"connected_time":3038000000000,"state":"active","ping":82},{"user_id":734,"name":"Warpy","steam_id":76561198055852599,"connected_time":2142000000000,"state":"active","ping":94}]},{"server_id":403,"name":"Uncletopia | Chicago | 4 | All Maps","name_short":"chi-4","host":"chi-1.us.uncletopia.com","port":27045,"enabled":true,"region":"us-central","cc":"us","latitude":41.881832,"longitude":-87.62318,"reserved":0,"last_update":"0001-01-01T00:00:00Z","name_a2s":"Uncletopia | Chicago | 4 | All Maps","protocol":17,"map":"pl_swiftwater_final1","folder":"tf","game":"Team Fortress","app_id":440,"player_count":24,"max_players":24,"Bots":0,"server_type":"Dedicated","server_os":"Linux","password":true,"vac":true,"version":"7932396","steam_id":85568392924515193,"keywords":["nocrits","nodmgspread","payload","uncletopia"],"game_id":440,"stv_port":27046,"stv_name":"Uncletopia | Chicago | 4 | All Maps | STV","players":[{"user_id":411,"name":"Marc Antony","steam_id":76561198011366517,"connected_time":641000000000,"state":"active","ping":57},{"user_id":383,"name":"AeroFortune","steam_id":76561198204736219,"connected_time":3629000000000,"state":"active","ping":111},{"user_id":384,"name":"Just MERA MERA","steam_id":76561199182570028,"connected_time":3621000000000,"state":"active","ping":129},{"user_id":393,"name":"Silly Shark","steam_id":76561198130714378,"connected_time":2906000000000,"state":"active","ping":114},{"user_id":417,"name":"xFactr","steam_id":76561198129007422,"connected_time":412000000000,"state":"active","ping":57},{"user_id":394,"name":"RedSock","steam_id":76561198161243404,"connected_time":2904000000000,"state":"active","ping":45},{"user_id":419,"name":"Moonman327","steam_id":76561197992616059,"connected_time":193000000000,"state":"active","ping":69},{"user_id":410,"name":"taylor swift","steam_id":76561198151135298,"connected_time":1018000000000,"state":"active","ping":93},{"user_id":407,"name":"Clover","steam_id":76561198038905361,"connected_time":1409000000000,"state":"active","ping":58},{"user_id":409,"name":"Kelkith","steam_id":76561197985450422,"connected_time":1341000000000,"state":"active","ping":117},{"user_id":364,"name":"WitheringLeo","steam_id":76561198046722918,"connected_time":5281000000000,"state":"active","ping":99},{"user_id":401,"name":"John16Mark","steam_id":76561198119445407,"connected_time":2239000000000,"state":"active","ping":86},{"user_id":404,"name":"beyond","steam_id":76561198051009126,"connected_time":1789000000000,"state":"active","ping":77},{"user_id":408,"name":"threwout-","steam_id":76561199049865601,"connected_time":1369000000000,"state":"active","ping":60},{"user_id":347,"name":"LittleFieryOne","steam_id":76561198107463724,"connected_time":6305000000000,"state":"active","ping":64},{"user_id":414,"name":"The_Hot_Dog","steam_id":76561198430778361,"connected_time":571000000000,"state":"active","ping":131},{"user_id":412,"name":"DuckyDave","steam_id":76561199080644355,"connected_time":627000000000,"state":"active","ping":87},{"user_id":381,"name":"cup","steam_id":76561198121245586,"connected_time":3799000000000,"state":"active","ping":95},{"user_id":397,"name":"peakmeta","steam_id":76561199053600691,"connected_time":2669000000000,"state":"active","ping":55},{"user_id":318,"name":"Kickbakk","steam_id":76561198042335947,"connected_time":8700000000000,"state":"active","ping":82},{"user_id":416,"name":"soupy","steam_id":76561197974283797,"connected_time":521000000000,"state":"active","ping":44},{"user_id":406,"name":"Loashes","steam_id":76561198119608299,"connected_time":1469000000000,"state":"active","ping":87},{"user_id":415,"name":"Tom","steam_id":76561198139202942,"connected_time":556000000000,"state":"active","ping":86},{"user_id":418,"name":"sonikro","steam_id":76561197989428692,"connected_time":343000000000,"state":"active","ping":60}]},{"server_id":36,"name":"Uncletopia | Chicago | 5 | All Maps","name_short":"chi-5","host":"chi-2.us.uncletopia.com","port":27015,"enabled":true,"region":"us-central","cc":"us","latitude":41.881832,"longitude":-87.62318,"reserved":0,"last_update":"0001-01-01T00:00:00Z","name_a2s":"Uncletopia | Chicago | 5 | All Maps","protocol":17,"map":"pl_thundermountain","folder":"tf","game":"Team Fortress","app_id":440,"player_count":24,"max_players":24,"Bots":0,"server_type":"Dedicated","server_os":"Linux","password":true,"vac":true,"version":"7932396","steam_id":85568392924866362,"keywords":["nocrits","nodmgspread","payload","uncletopia"],"game_id":440,"stv_port":27016,"stv_name":"Uncletopia | Chicago | 5 | All Maps | STV","players":[{"user_id":370,"name":"Huntpk","steam_id":76561198340591674,"connected_time":670000000000,"state":"active","ping":41},{"user_id":371,"name":"Salt Shaman","steam_id":76561198015374828,"connected_time":659000000000,"state":"active","ping":74},{"user_id":339,"name":"stupid bastard","steam_id":76561199195104977,"connected_time":3636000000000,"state":"active","ping":79},{"user_id":344,"name":"Bullwinkle J. Moose","steam_id":76561198075977196,"connected_time":3276000000000,"state":"active","ping":77},{"user_id":379,"name":"ProfessorCagan","steam_id":76561198141372356,"connected_time":401000000000,"state":"active","ping":52},{"user_id":328,"name":"s71nk3y / Stinky / Apestoso","steam_id":76561198060954715,"connected_time":4637000000000,"state":"active","ping":87},{"user_id":356,"name":"James","steam_id":76561198081313916,"connected_time":2567000000000,"state":"active","ping":75},{"user_id":345,"name":"FiddyFoMike","steam_id":76561198057072581,"connected_time":3253000000000,"state":"active","ping":100},{"user_id":365,"name":"surrender to the void","steam_id":76561198055494039,"connected_time":1149000000000,"state":"active","ping":85},{"user_id":358,"name":"Young-OG","steam_id":76561198058800479,"connected_time":1996000000000,"state":"active","ping":77},{"user_id":364,"name":"Fermenting Kiwi","steam_id":76561198253303497,"connected_time":1288000000000,"state":"active","ping":75},{"user_id":363,"name":"Rogurts","steam_id":76561198087665145,"connected_time":1775000000000,"state":"active","ping":64},{"user_id":380,"name":"fractaldunes","steam_id":76561198118102935,"connected_time":55000000000,"state":"spawning","ping":46},{"user_id":362,"name":"Professional Clicker","steam_id":76561199210799428,"connected_time":1898000000000,"state":"active","ping":70},{"user_id":297,"name":"Sonic Mania 2 [100 Real Leaked","steam_id":76561198062764039,"connected_time":6621000000000,"state":"active","ping":54},{"user_id":366,"name":"「Mage」","steam_id":76561198150620467,"connected_time":1132000000000,"state":"active","ping":57},{"user_id":293,"name":"I have no idea what I am doing?","steam_id":76561198093152207,"connected_time":7286000000000,"state":"active","ping":82},{"user_id":378,"name":"The Noob Sire","steam_id":76561198119219754,"connected_time":417000000000,"state":"active","ping":99},{"user_id":360,"name":"Monolith Soldier","steam_id":76561198171898155,"connected_time":1959000000000,"state":"active","ping":58},{"user_id":333,"name":"Donkski","steam_id":76561198406895347,"connected_time":3704000000000,"state":"active","ping":72},{"user_id":368,"name":"com lag","steam_id":76561198019019392,"connected_time":946000000000,"state":"active","ping":54},{"user_id":355,"name":"Naffty","steam_id":76561198119734981,"connected_time":2621000000000,"state":"active","ping":106},{"user_id":376,"name":"Margo_Rae","steam_id":76561198035046430,"connected_time":615000000000,"state":"active","ping":88},{"user_id":377,"name":"jeff_fan","steam_id":76561198086420687,"connected_time":614000000000,"state":"active","ping":99}]},{"server_id":37,"name":"Uncletopia | Chicago | 6 | All Maps","name_short":"chi-6","host":"chi-2.us.uncletopia.com","port":27025,"enabled":true,"region":"us-central","cc":"us","latitude":41.881832,"longitude":-87.62318,"reserved":0,"last_update":"0001-01-01T00:00:00Z","name_a2s":"Uncletopia | Chicago | 6 | All Maps","protocol":17,"map":"cp_dustbowl","folder":"tf","game":"Team Fortress","app_id":440,"player_count":24,"max_players":24,"Bots":0,"server_type":"Dedicated","server_os":"Linux","password":true,"vac":true,"version":"7932396","steam_id":85568392924866363,"keywords":["cp","nocrits","nodmgspread","uncletopia"],"game_id":440,"stv_port":27026,"stv_name":"Uncletopia | Chicago | 6 | All Maps | STV","players":[{"user_id":16,"name":"CrunchCisco","steam_id":76561199162724832,"connected_time":5435000000000,"state":"active","ping":83},{"user_id":18,"name":"DJ Chalice","steam_id":76561197974872458,"connected_time":5223000000000,"state":"active","ping":73},{"user_id":19,"name":"GRONT","steam_id":76561198040464533,"connected_time":5221000000000,"state":"active","ping":77},{"user_id":20,"name":"2cats_2curious","steam_id":76561198027143149,"connected_time":5199000000000,"state":"active","ping":38},{"user_id":98,"name":"Andallfor","steam_id":76561198350143349,"connected_time":440000000000,"state":"active","ping":80},{"user_id":70,"name":"Crutch","steam_id":76561198079048965,"connected_time":2399000000000,"state":"active","ping":65},{"user_id":83,"name":"Hank the Tank","steam_id":76561198424853684,"connected_time":1394000000000,"state":"active","ping":84},{"user_id":24,"name":"dohnuts","steam_id":76561198025965230,"connected_time":4962000000000,"state":"active","ping":80},{"user_id":89,"name":"Pork Tenderloin","steam_id":76561198138663842,"connected_time":1327000000000,"state":"active","ping":57},{"user_id":99,"name":"Prez Pineapple","steam_id":76561198253755258,"connected_time":389000000000,"state":"active","ping":106},{"user_id":80,"name":"An Erect Penis :)","steam_id":76561198086477485,"connected_time":1974000000000,"state":"active","ping":42},{"user_id":50,"name":"Freewave","steam_id":76561198156282541,"connected_time":3730000000000,"state":"active","ping":53},{"user_id":58,"name":"Metro","steam_id":76561198079394776,"connected_time":3451000000000,"state":"active","ping":75},{"user_id":84,"name":"Walrusto","steam_id":76561198829644616,"connected_time":1385000000000,"state":"active","ping":72},{"user_id":73,"name":"Pixeled","steam_id":76561198088917077,"connected_time":2363000000000,"state":"active","ping":91},{"user_id":96,"name":"Toblerone","steam_id":76561198057374871,"connected_time":689000000000,"state":"active","ping":63},{"user_id":91,"name":"Hope","steam_id":76561199201900779,"connected_time":1277000000000,"state":"active","ping":78},{"user_id":97,"name":"Apetometrist","steam_id":76561198045391635,"connected_time":529000000000,"state":"active","ping":69},{"user_id":100,"name":"YouR dad","steam_id":76561198044013623,"connected_time":192000000000,"state":"active","ping":70},{"user_id":40,"name":"Porsche 911 Turbo S","steam_id":76561198108379136,"connected_time":4684000000000,"state":"active","ping":59},{"user_id":61,"name":"Galactamarx","steam_id":76561198028065755,"connected_time":3401000000000,"state":"active","ping":105},{"user_id":92,"name":"Peepster","steam_id":76561198297854733,"connected_time":1259000000000,"state":"active","ping":70},{"user_id":82,"name":"feed lips","steam_id":76561197971152439,"connected_time":1613000000000,"state":"active","ping":84},{"user_id":44,"name":"Borf","steam_id":76561198359207056,"connected_time":4655000000000,"state":"active","ping":71}]},{"server_id":38,"name":"Uncletopia | Chicago | 7 | Stopwatch Beta","name_short":"chi-7","host":"chi-2.us.uncletopia.com","port":27035,"enabled":true,"region":"us-central","cc":"us","latitude":41.881832,"longitude":-87.62318,"reserved":0,"last_update":"0001-01-01T00:00:00Z","name_a2s":"Uncletopia | Chicago | 7 | Stopwatch Beta","protocol":17,"map":"workshop/koth_ashville_final.ugc2130459942","folder":"tf","game":"Team Fortress","app_id":440,"player_count":7,"max_players":24,"Bots":0,"server_type":"Dedicated","server_os":"Linux","password":true,"vac":true,"version":"7932396","steam_id":85568392924866364,"keywords":["cp","nocrits","nodmgspread","uncletopia"],"game_id":440,"stv_port":27036,"stv_name":"Uncletopia | Chicago | 7 | Stopwatch Beta | STV","players":[{"user_id":15,"name":"My OC Grunkle Stan Lee","steam_id":76561198171658598,"connected_time":251000000000,"state":"active","ping":45},{"user_id":16,"name":"Sir Daniel Sexbang","steam_id":76561198192615758,"connected_time":245000000000,"state":"active","ping":66},{"user_id":17,"name":"My OC, Jean Snow","steam_id":76561198028362871,"connected_time":238000000000,"state":"active","ping":31},{"user_id":18,"name":"ire","steam_id":76561198228984836,"connected_time":192000000000,"state":"active","ping":73},{"user_id":19,"name":"the pest","steam_id":76561198826298849,"connected_time":181000000000,"state":"active","ping":88},{"user_id":20,"name":"GaleForce","steam_id":76561198196531122,"connected_time":130000000000,"state":"active","ping":68},{"user_id":21,"name":"Bern","steam_id":76561198294032289,"connected_time":95000000000,"state":"active","ping":50}]},{"server_id":39,"name":"Uncletopia | Chicago | 8 | Community","name_short":"chi-8","host":"chi-2.us.uncletopia.com","port":27045,"enabled":true,"region":"us-central","cc":"us","latitude":41.881832,"longitude":-87.62318,"reserved":0,"last_update":"0001-01-01T00:00:00Z","name_a2s":"Uncletopia | Chicago | 8 | Community","protocol":17,"map":"workshop/koth_trenchfoot_b1a.ugc731436616","folder":"tf","game":"Team Fortress","app_id":440,"player_count":0,"max_players":24,"Bots":0,"server_type":"Dedicated","server_os":"Linux","password":true,"vac":true,"version":"7932396","steam_id":85568392924866365,"keywords":["cp","nocrits","nodmgspread","uncletopia"],"game_id":440,"stv_port":27046,"stv_name":"Uncletopia | Chicago | 8 | Community | STV","players":null},{"server_id":8,"name":"Uncletopia | Dallas | 1 | All Maps","name_short":"dal-1","host":"dal-1.us.uncletopia.com","port":27015,"enabled":true,"region":"us-central","cc":"us","latitude":32.779167,"longitude":-96.80889,"reserved":0,"last_update":"0001-01-01T00:00:00Z","name_a2s":"Uncletopia | Dallas | 1 | All Maps","protocol":17,"map":"pl_swiftwater_final1","folder":"tf","game":"Team Fortress","app_id":440,"player_count":24,"max_players":24,"Bots":0,"server_type":"Dedicated","server_os":"Linux","password":true,"vac":true,"version":"7932396","steam_id":85568392924469986,"keywords":["nocrits","nodmgspread","payload","uncletopia"],"game_id":440,"stv_port":27016,"stv_name":"Uncletopia | Dallas | 1 | All Maps | STV","players":[{"user_id":659,"name":"a bucket of chicken","steam_id":76561198023710042,"connected_time":2785000000000,"state":"active","ping":46},{"user_id":687,"name":"Satan-2","steam_id":76561199231742764,"connected_time":238000000000,"state":"active","ping":95},{"user_id":648,"name":"cypherzero","steam_id":76561199182960322,"connected_time":4711000000000,"state":"active","ping":49},{"user_id":673,"name":"Ballista","steam_id":76561197983182562,"connected_time":1975000000000,"state":"active","ping":53},{"user_id":689,"name":"Evangelion","steam_id":76561198059690074,"connected_time":1000000000,"state":"spawning","ping":66},{"user_id":667,"name":"comet sooicidy","steam_id":76561198025173479,"connected_time":2483000000000,"state":"active","ping":102},{"user_id":683,"name":"derdds","steam_id":76561198034339940,"connected_time":539000000000,"state":"active","ping":76},{"user_id":660,"name":"Binu","steam_id":76561198981587911,"connected_time":2520000000000,"state":"active","ping":63},{"user_id":654,"name":"Tommy Provolone","steam_id":76561198170062377,"connected_time":4274000000000,"state":"active","ping":67},{"user_id":663,"name":"riSygneD","steam_id":76561198331618687,"connected_time":2498000000000,"state":"active","ping":63},{"user_id":675,"name":"Seakeal","steam_id":76561198069388472,"connected_time":1223000000000,"state":"active","ping":77},{"user_id":662,"name":"Rudy","steam_id":76561198013456828,"connected_time":2511000000000,"state":"active","ping":88},{"user_id":664,"name":"Spyfall","steam_id":76561198081729993,"connected_time":2497000000000,"state":"active","ping":91},{"user_id":671,"name":"TechnoBear2099","steam_id":76561198238863596,"connected_time":2134000000000,"state":"active","ping":46},{"user_id":674,"name":"errant","steam_id":76561197961758410,"connected_time":1623000000000,"state":"active","ping":43},{"user_id":657,"name":"Chauncey","steam_id":76561198012885060,"connected_time":3331000000000,"state":"active","ping":72},{"user_id":680,"name":"DiabetesMan","steam_id":76561198075668940,"connected_time":588000000000,"state":"active","ping":92},{"user_id":629,"name":"Imrgrim","steam_id":76561198135866481,"connected_time":6456000000000,"state":"active","ping":67},{"user_id":679,"name":"Valiance","steam_id":76561198089697703,"connected_time":978000000000,"state":"active","ping":136},{"user_id":688,"name":"Onyx","steam_id":76561198275349640,"connected_time":122000000000,"state":"active","ping":62},{"user_id":681,"name":"lüh me da granky.hog","steam_id":76561198056186750,"connected_time":571000000000,"state":"active","ping":77},{"user_id":669,"name":"Gavilán","steam_id":76561198285212453,"connected_time":2461000000000,"state":"active","ping":77},{"user_id":684,"name":"CC","steam_id":76561198071226149,"connected_time":514000000000,"state":"active","ping":85},{"user_id":685,"name":"Shattered Glass","steam_id":76561198116835391,"connected_time":509000000000,"state":"active","ping":92}]},{"server_id":108,"name":"Uncletopia | Dallas | 2 | All Maps","name_short":"dal-2","host":"dal-1.us.uncletopia.com","port":27025,"enabled":true,"region":"us-central","cc":"us","latitude":32.779167,"longitude":-96.80889,"reserved":0,"last_update":"0001-01-01T00:00:00Z","name_a2s":"Uncletopia | Dallas | 2 | All Maps","protocol":17,"map":"pl_badwater","folder":"tf","game":"Team Fortress","app_id":440,"player_count":24,"max_players":24,"Bots":0,"server_type":"Dedicated","server_os":"Linux","password":true,"vac":true,"version":"7932396","steam_id":85568392924469988,"keywords":["nocrits","nodmgspread","payload","uncletopia"],"game_id":440,"stv_port":27026,"stv_name":"Uncletopia | Dallas | 2 | All Maps | STV","players":[{"user_id":548,"name":"Orc_estrion","steam_id":76561198210943347,"connected_time":1360000000000,"state":"active","ping":70},{"user_id":546,"name":"Insizhen","steam_id":76561198051352605,"connected_time":1547000000000,"state":"active","ping":59},{"user_id":549,"name":"JayCXIX","steam_id":76561198100942212,"connected_time":1316000000000,"state":"active","ping":77},{"user_id":555,"name":"Legit_Jaxer","steam_id":76561198172234053,"connected_time":50000000000,"state":"active","ping":88},{"user_id":513,"name":"Cheeki","steam_id":76561198024375176,"connected_time":3857000000000,"state":"active","ping":80},{"user_id":514,"name":"Grentac","steam_id":76561198140435841,"connected_time":3851000000000,"state":"active","ping":90},{"user_id":523,"name":"boppetson","steam_id":76561198073529045,"connected_time":3454000000000,"state":"active","ping":72},{"user_id":538,"name":"webaline","steam_id":76561199052450127,"connected_time":1864000000000,"state":"active","ping":71},{"user_id":457,"name":"Horse","steam_id":76561198004583631,"connected_time":8148000000000,"state":"active","ping":100},{"user_id":490,"name":"TheGFG","steam_id":76561198166150556,"connected_time":5833000000000,"state":"active","ping":65},{"user_id":556,"name":"Bottle","steam_id":76561199057108384,"connected_time":0,"state":"spawning","ping":0},{"user_id":533,"name":"Jesse","steam_id":76561198157305426,"connected_time":2463000000000,"state":"active","ping":60},{"user_id":508,"name":"[DATS➡] Sugar Meowth","steam_id":76561197995251793,"connected_time":4462000000000,"state":"active","ping":91},{"user_id":542,"name":"Walt","steam_id":76561198964107245,"connected_time":1630000000000,"state":"active","ping":115},{"user_id":487,"name":"ElZeto","steam_id":76561198252322622,"connected_time":6098000000000,"state":"active","ping":86},{"user_id":544,"name":"AVASheep","steam_id":76561198205572825,"connected_time":1604000000000,"state":"active","ping":55},{"user_id":524,"name":"papi Chulo","steam_id":76561198126274984,"connected_time":3410000000000,"state":"active","ping":96},{"user_id":553,"name":"younggflylyfe","steam_id":76561199477357832,"connected_time":417000000000,"state":"active","ping":42},{"user_id":551,"name":"Bean Marrow","steam_id":76561198116650223,"connected_time":725000000000,"state":"active","ping":73},{"user_id":554,"name":"dweamy","steam_id":76561198119181880,"connected_time":117000000000,"state":"active","ping":60},{"user_id":460,"name":"hforce11","steam_id":76561198087647130,"connected_time":7591000000000,"state":"active","ping":69},{"user_id":532,"name":"ATL","steam_id":76561198431196926,"connected_time":2533000000000,"state":"active","ping":98},{"user_id":455,"name":"Banjo","steam_id":76561198004652853,"connected_time":8790000000000,"state":"active","ping":92},{"user_id":496,"name":"AlcoholicDad454","steam_id":76561198157414556,"connected_time":5687000000000,"state":"active","ping":101}]},{"server_id":5,"name":"Uncletopia | Frankfurt | 1 | All Maps","name_short":"frk-1","host":"frk-1.de.uncletopia.com","port":27015,"enabled":true,"region":"eu","cc":"de","latitude":50.110924,"longitude":8.682127,"reserved":0,"last_update":"0001-01-01T00:00:00Z","name_a2s":"Uncletopia | Frankfurt | 1 | All Maps","protocol":17,"map":"pl_pier","folder":"tf","game":"Team Fortress","app_id":440,"player_count":0,"max_players":24,"Bots":0,"server_type":"Dedicated","server_os":"Linux","password":true,"vac":true,"version":"7932396","steam_id":85568392924469989,"keywords":["nocrits","nodmgspread","payload","uncletopia"],"game_id":440,"stv_port":27016,"stv_name":"Uncletopia | Frankfurt | 1 | All Maps | STV","players":null},{"server_id":110,"name":"Uncletopia | Frankfurt | 2 | All Maps","name_short":"frk-2","host":"frk-1.de.uncletopia.com","port":27025,"enabled":true,"region":"eu","cc":"de","latitude":50.110924,"longitude":8.682127,"reserved":0,"last_update":"0001-01-01T00:00:00Z","name_a2s":"Uncletopia | Frankfurt | 2 | All Maps","protocol":17,"map":"pl_upward","folder":"tf","game":"Team Fortress","app_id":440,"player_count":0,"max_players":24,"Bots":0,"server_type":"Dedicated","server_os":"Linux","password":true,"vac":true,"version":"7932396","steam_id":85568392924469990,"keywords":["nocrits","nodmgspread","payload","uncletopia"],"game_id":440,"stv_port":27026,"stv_name":"Uncletopia | Frankfurt | 2 | All Maps | STV","players":null},{"server_id":308,"name":"Uncletopia | Frankfurt | 3 | All Maps","name_short":"frk-3","host":"frk-1.de.uncletopia.com","port":27035,"enabled":true,"region":"eu","cc":"de","latitude":50.110924,"longitude":8.682127,"reserved":0,"last_update":"0001-01-01T00:00:00Z","name_a2s":"Uncletopia | Frankfurt | 3 | All Maps","protocol":17,"map":"koth_highpass","folder":"tf","game":"Team Fortress","app_id":440,"player_count":0,"max_players":24,"Bots":0,"server_type":"Dedicated","server_os":"Linux","password":true,"vac":true,"version":"7932396","steam_id":85568392924504274,"keywords":["cp","nocrits","nodmgspread","uncletopia"],"game_id":440,"stv_port":27036,"stv_name":"Uncletopia | Frankfurt | 3 | All Maps | STV","players":null},{"server_id":309,"name":"Uncletopia | Frankfurt | 4 | All Maps","name_short":"frk-4","host":"frk-1.de.uncletopia.com","port":27045,"enabled":true,"region":"eu","cc":"de","latitude":50.110924,"longitude":8.682127,"reserved":0,"last_update":"0001-01-01T00:00:00Z","name_a2s":"Uncletopia | Frankfurt | 4 | All Maps","protocol":17,"map":"pl_barnblitz","folder":"tf","game":"Team Fortress","app_id":440,"player_count":24,"max_players":24,"Bots":0,"server_type":"Dedicated","server_os":"Linux","password":true,"vac":true,"version":"7932396","steam_id":85568392924504275,"keywords":["nocrits","nodmgspread","payload","uncletopia"],"game_id":440,"stv_port":27046,"stv_name":"Uncletopia | Frankfurt | 4 | All Maps | STV","players":[{"user_id":490,"name":"[BC™]♥DIVOSONG♥","steam_id":76561198051065807,"connected_time":1505000000000,"state":"active","ping":80},{"user_id":468,"name":"Othmix","steam_id":76561198144291048,"connected_time":3565000000000,"state":"active","ping":81},{"user_id":445,"name":"ivyivyivy","steam_id":76561198049903526,"connected_time":5405000000000,"state":"active","ping":166},{"user_id":470,"name":"MORE espresso LESS depresso","steam_id":76561198055365234,"connected_time":3499000000000,"state":"active","ping":80},{"user_id":472,"name":"BRACK OBAMO","steam_id":76561198035605631,"connected_time":3021000000000,"state":"active","ping":137},{"user_id":489,"name":"42","steam_id":76561198257836694,"connected_time":1647000000000,"state":"active","ping":52},{"user_id":417,"name":"i n n o","steam_id":76561199230689289,"connected_time":6904000000000,"state":"active","ping":75},{"user_id":491,"name":"Pingu","steam_id":76561198074477219,"connected_time":1478000000000,"state":"active","ping":49},{"user_id":446,"name":"Ytdjt","steam_id":76561198135750644,"connected_time":5268000000000,"state":"active","ping":159},{"user_id":438,"name":"paradigmatic shift","steam_id":76561197988802856,"connected_time":5985000000000,"state":"active","ping":74},{"user_id":492,"name":"Star in a pond","steam_id":76561198205501279,"connected_time":1262000000000,"state":"active","ping":87},{"user_id":467,"name":"DJPNK","steam_id":76561197989948420,"connected_time":3825000000000,"state":"active","ping":61},{"user_id":495,"name":"Bobirulez","steam_id":76561198009125458,"connected_time":1132000000000,"state":"active","ping":60},{"user_id":480,"name":"ColoradoAvalancheHater268","steam_id":76561198324775476,"connected_time":2876000000000,"state":"active","ping":72},{"user_id":450,"name":"bozo","steam_id":76561198116779194,"connected_time":4672000000000,"state":"active","ping":46},{"user_id":477,"name":"Ai_Spankzie","steam_id":76561198040964036,"connected_time":2958000000000,"state":"active","ping":65},{"user_id":478,"name":"Lennox","steam_id":76561198069063554,"connected_time":2953000000000,"state":"active","ping":45},{"user_id":493,"name":"[T]aKer","steam_id":76561198001778013,"connected_time":1241000000000,"state":"active","ping":55},{"user_id":484,"name":"xulera","steam_id":76561198080736030,"connected_time":2516000000000,"state":"active","ping":64},{"user_id":497,"name":"Economic crisis","steam_id":76561198063562843,"connected_time":503000000000,"state":"active","ping":82},{"user_id":444,"name":"Cosmetic brain","steam_id":76561198055936410,"connected_time":5535000000000,"state":"active","ping":82},{"user_id":494,"name":"Kiioto","steam_id":76561198990962542,"connected_time":1204000000000,"state":"active","ping":74},{"user_id":483,"name":"Kosmodisk","steam_id":76561198026137014,"connected_time":2665000000000,"state":"active","ping":62},{"user_id":465,"name":"TheNinjaSpy","steam_id":76561198069268528,"connected_time":3915000000000,"state":"active","ping":82}]},{"server_id":310,"name":"Uncletopia | Frankfurt | 5 | All Maps","name_short":"frk-5","host":"frk-1.de.uncletopia.com","port":27055,"enabled":true,"region":"eu","cc":"de","latitude":50.110924,"longitude":8.682127,"reserved":0,"last_update":"0001-01-01T00:00:00Z","name_a2s":"Uncletopia | Frankfurt | 5 | All Maps","protocol":17,"map":"koth_highpass","folder":"tf","game":"Team Fortress","app_id":440,"player_count":0,"max_players":24,"Bots":0,"server_type":"Dedicated","server_os":"Linux","password":true,"vac":true,"version":"7932396","steam_id":85568392924504277,"keywords":["cp","nocrits","nodmgspread","uncletopia"],"game_id":440,"stv_port":27056,"stv_name":"Uncletopia | Frankfurt | 5 | All Maps | STV","players":null},{"server_id":311,"name":"Uncletopia | Frankfurt | 6 | All Maps","name_short":"frk-6","host":"frk-1.de.uncletopia.com","port":27065,"enabled":true,"region":"eu","cc":"de","latitude":50.110924,"longitude":8.682127,"reserved":0,"last_update":"0001-01-01T00:00:00Z","name_a2s":"Uncletopia | Frankfurt | 6 | All Maps","protocol":17,"map":"pl_badwater","folder":"tf","game":"Team Fortress","app_id":440,"player_count":0,"max_players":24,"Bots":0,"server_type":"Dedicated","server_os":"Linux","password":true,"vac":true,"version":"7932396","steam_id":85568392924504278,"keywords":["nocrits","nodmgspread","payload","uncletopia"],"game_id":440,"stv_port":27066,"stv_name":"Uncletopia | Frankfurt | 6 | All Maps | STV","players":null},{"server_id":23,"name":"Uncletopia | Frankfurt | 7 | Stopwatch Beta","name_short":"frk-7","host":"frk-1.de.uncletopia.com","port":27075,"enabled":true,"region":"eu","cc":"de","latitude":50.110924,"longitude":8.682127,"reserved":0,"last_update":"0001-01-01T00:00:00Z","name_a2s":"Uncletopia | Frankfurt | 7 | Stopwatch Beta","protocol":17,"map":"pl_snowycoast","folder":"tf","game":"Team Fortress","app_id":440,"player_count":0,"max_players":24,"Bots":0,"server_type":"Dedicated","server_os":"Linux","password":true,"vac":true,"version":"7932396","steam_id":85568392924742827,"keywords":["nocrits","nodmgspread","payload","uncletopia"],"game_id":440,"stv_port":27076,"stv_name":"Uncletopia | Frankfurt | 7 | Stopwatch Beta | STV","players":null},{"server_id":24,"name":"Uncletopia | Frankfurt | 8 | Community","name_short":"frk-8","host":"frk-1.de.uncletopia.com","port":27085,"enabled":true,"region":"eu","cc":"de","latitude":50.110924,"longitude":8.682127,"reserved":0,"last_update":"0001-01-01T00:00:00Z","name_a2s":"Uncletopia | Frankfurt | 8 | Community","protocol":17,"map":"workshop/cp_bruhstbowl_b6.ugc2878604990","folder":"tf","game":"Team Fortress","app_id":440,"player_count":0,"max_players":24,"Bots":0,"server_type":"Dedicated","server_os":"Linux","password":true,"vac":true,"version":"7932396","steam_id":85568392924742828,"keywords":["cp","nocrits","nodmgspread","uncletopia"],"game_id":440,"stv_port":27086,"stv_name":"Uncletopia | Frankfurt | 8 | Community | STV","players":null},{"server_id":202,"name":"Uncletopia | Hong Kong | 1 | All Maps","name_short":"hgk-1","host":"hgk-1.hk.uncletopia.com","port":27015,"enabled":true,"region":"asia","cc":"hk","latitude":22.302711,"longitude":114.177216,"reserved":0,"last_update":"0001-01-01T00:00:00Z","name_a2s":"Uncletopia | Hong Kong | 1 | All Maps","protocol":17,"map":"cp_sunshine","folder":"tf","game":"Team Fortress","app_id":440,"player_count":0,"max_players":24,"Bots":0,"server_type":"Dedicated","server_os":"Linux","password":true,"vac":true,"version":"7932396","steam_id":85568392924494504,"keywords":["cp","nocrits","nodmgspread","uncletopia"],"game_id":440,"stv_port":27016,"stv_name":"Uncletopia | Hong Kong | 1 | All Maps | STV","players":null},{"server_id":1,"name":"Uncletopia | Los Angeles | 1 | All Maps","name_short":"lax-1","host":"lax-1.us.uncletopia.com","port":27015,"enabled":true,"region":"us-west","cc":"us","latitude":33.94279,"longitude":-118.41004,"reserved":0,"last_update":"0001-01-01T00:00:00Z","name_a2s":"Uncletopia | Los Angeles | 1 | All Maps","protocol":17,"map":"cp_dustbowl","folder":"tf","game":"Team Fortress","app_id":440,"player_count":24,"max_players":24,"Bots":0,"server_type":"Dedicated","server_os":"Linux","password":true,"vac":true,"version":"7932396","steam_id":85568392924469991,"keywords":["cp","nocrits","nodmgspread","uncletopia"],"game_id":440,"stv_port":27016,"stv_name":"Uncletopia | Los Angeles | 1 | All Maps | STV","players":[{"user_id":167,"name":"joeysora","steam_id":76561198343714490,"connected_time":419000000000,"state":"active","ping":54},{"user_id":175,"name":"Taco+Taco=Burrito","steam_id":76561198063128663,"connected_time":186000000000,"state":"active","ping":73},{"user_id":156,"name":"Ralph Kramden (Slim Charles)","steam_id":76561197981687895,"connected_time":1093000000000,"state":"active","ping":58},{"user_id":171,"name":"HeavyB1rd","steam_id":76561198966550815,"connected_time":278000000000,"state":"active","ping":85},{"user_id":144,"name":"zinnk","steam_id":76561198092081825,"connected_time":2408000000000,"state":"active","ping":55},{"user_id":176,"name":"CEOlifestyle","steam_id":76561198025747866,"connected_time":165000000000,"state":"active","ping":77},{"user_id":86,"name":"BrightOrangeMango","steam_id":76561198023144607,"connected_time":6786000000000,"state":"active","ping":63},{"user_id":155,"name":"spherewithahat","steam_id":76561199122192660,"connected_time":1199000000000,"state":"active","ping":116},{"user_id":148,"name":"sugar addict","steam_id":76561198395020543,"connected_time":2311000000000,"state":"active","ping":46},{"user_id":103,"name":"Stiffy Magnum","steam_id":76561198000036722,"connected_time":6397000000000,"state":"active","ping":110},{"user_id":172,"name":"Mr.Nostalgic","steam_id":76561198083240822,"connected_time":276000000000,"state":"active","ping":73},{"user_id":178,"name":"Sturdy Primate","steam_id":76561198057954897,"connected_time":61000000000,"state":"active","ping":114},{"user_id":163,"name":"Fehr","steam_id":76561198037749723,"connected_time":495000000000,"state":"active","ping":93},{"user_id":173,"name":"Spaghetti","steam_id":76561199231170712,"connected_time":247000000000,"state":"active","ping":99},{"user_id":165,"name":"dead elf wagon","steam_id":76561198122303574,"connected_time":459000000000,"state":"active","ping":57},{"user_id":177,"name":"Bing Soy","steam_id":76561198893397590,"connected_time":98000000000,"state":"active","ping":76},{"user_id":154,"name":"Nykane Mundoe","steam_id":76561198088054570,"connected_time":1405000000000,"state":"active","ping":111},{"user_id":174,"name":"doughboy","steam_id":76561198219012928,"connected_time":246000000000,"state":"active","ping":45},{"user_id":168,"name":"Squids023","steam_id":76561199013031576,"connected_time":414000000000,"state":"active","ping":73},{"user_id":169,"name":"SgtHotLead","steam_id":76561197995477998,"connected_time":342000000000,"state":"active","ping":91},{"user_id":153,"name":"Kipo","steam_id":76561198254200924,"connected_time":1708000000000,"state":"active","ping":115},{"user_id":150,"name":"mr. nine","steam_id":76561198097599414,"connected_time":1823000000000,"state":"active","ping":57},{"user_id":179,"name":"Tmiracle","steam_id":76561198052375275,"connected_time":40000000000,"state":"active","ping":46},{"user_id":140,"name":"PileofPolygons","steam_id":76561199321343460,"connected_time":2959000000000,"state":"active","ping":100}]},{"server_id":112,"name":"Uncletopia | Los Angeles | 2 | All Maps","name_short":"lax-2","host":"lax-1.us.uncletopia.com","port":27025,"enabled":true,"region":"us-west","cc":"us","latitude":33.94279,"longitude":-118.41004,"reserved":0,"last_update":"0001-01-01T00:00:00Z","name_a2s":"Uncletopia | Los Angeles | 2 | All Maps","protocol":17,"map":"ctf_sawmill","folder":"tf","game":"Team Fortress","app_id":440,"player_count":23,"max_players":24,"Bots":0,"server_type":"Dedicated","server_os":"Linux","password":true,"vac":true,"version":"7932396","steam_id":85568392924469992,"keywords":["ctf","nocrits","nodmgspread","uncletopia"],"game_id":440,"stv_port":27026,"stv_name":"Uncletopia | Los Angeles | 2 | All Maps | STV","players":[{"user_id":76,"name":"SCUD missile up your ass","steam_id":76561198066452726,"connected_time":828000000000,"state":"active","ping":51},{"user_id":75,"name":"Useless","steam_id":76561198117206414,"connected_time":1013000000000,"state":"active","ping":87},{"user_id":66,"name":"sqxndal","steam_id":76561199076160453,"connected_time":2232000000000,"state":"active","ping":62},{"user_id":53,"name":"Marin","steam_id":76561198011091491,"connected_time":2725000000000,"state":"active","ping":106},{"user_id":73,"name":"Ok then","steam_id":76561198891914787,"connected_time":1230000000000,"state":"active","ping":99},{"user_id":64,"name":"Bodhisattva","steam_id":76561198085228896,"connected_time":2330000000000,"state":"active","ping":46},{"user_id":22,"name":"Cinnifox","steam_id":76561198068773971,"connected_time":4344000000000,"state":"active","ping":85},{"user_id":83,"name":"PheebsyDeebsy","steam_id":76561198101509436,"connected_time":237000000000,"state":"active","ping":54},{"user_id":71,"name":"...","steam_id":76561198121508845,"connected_time":1635000000000,"state":"active","ping":60},{"user_id":25,"name":"VX Ghost","steam_id":76561198072541436,"connected_time":3970000000000,"state":"active","ping":99},{"user_id":26,"name":"Sweetyfluff","steam_id":76561198045397871,"connected_time":3952000000000,"state":"active","ping":107},{"user_id":78,"name":"DarkForce8","steam_id":76561198853892261,"connected_time":571000000000,"state":"active","ping":62},{"user_id":86,"name":"pirate pete","steam_id":76561198151048590,"connected_time":30000000000,"state":"active","ping":121},{"user_id":60,"name":"1 Great Wooden Dad","steam_id":76561198377126974,"connected_time":2471000000000,"state":"active","ping":122},{"user_id":68,"name":"yahweh","steam_id":76561198347225801,"connected_time":2217000000000,"state":"active","ping":75},{"user_id":82,"name":"Bheem","steam_id":76561198170453459,"connected_time":371000000000,"state":"active","ping":73},{"user_id":81,"name":"Anarchy","steam_id":76561199062545363,"connected_time":418000000000,"state":"active","ping":137},{"user_id":37,"name":"peebs","steam_id":76561198261319753,"connected_time":3613000000000,"state":"active","ping":83},{"user_id":39,"name":"Pegway","steam_id":76561198044303814,"connected_time":3496000000000,"state":"active","ping":105},{"user_id":84,"name":"Rum Pirate","steam_id":76561198195844129,"connected_time":163000000000,"state":"active","ping":55},{"user_id":74,"name":"HuntBunt","steam_id":76561199055381357,"connected_time":1199000000000,"state":"active","ping":99},{"user_id":85,"name":"FlashofAsh","steam_id":76561198400422981,"connected_time":145000000000,"state":"active","ping":77},{"user_id":44,"name":"绵羊游戏","steam_id":76561198048013802,"connected_time":3403000000000,"state":"active","ping":63}]},{"server_id":324,"name":"Uncletopia | Los Angeles | 3 | All Maps","name_short":"lax-3","host":"lax-1.us.uncletopia.com","port":27035,"enabled":true,"region":"us-west","cc":"us","latitude":33.94279,"longitude":-118.41004,"reserved":0,"last_update":"0001-01-01T00:00:00Z","name_a2s":"Uncletopia | Los Angeles | 3 | All Maps","protocol":17,"map":"pl_badwater","folder":"tf","game":"Team Fortress","app_id":440,"player_count":21,"max_players":24,"Bots":0,"server_type":"Dedicated","server_os":"Linux","password":true,"vac":true,"version":"7932396","steam_id":85568392924510198,"keywords":["nocrits","nodmgspread","payload","uncletopia"],"game_id":440,"stv_port":27036,"stv_name":"Uncletopia | Los Angeles | 3 | All Maps | STV","players":[{"user_id":416,"name":"Rad0Dragon","steam_id":76561199351578880,"connected_time":2146000000000,"state":"active","ping":66},{"user_id":438,"name":"UnReLinked","steam_id":76561199366044663,"connected_time":981000000000,"state":"active","ping":91},{"user_id":417,"name":"Actually Reb","steam_id":76561198087307468,"connected_time":2123000000000,"state":"active","ping":64},{"user_id":434,"name":"Bob \"Hell Rider\" White","steam_id":76561198979277948,"connected_time":1694000000000,"state":"active","ping":90},{"user_id":420,"name":"wugmup","steam_id":76561199096287734,"connected_time":1932000000000,"state":"active","ping":61},{"user_id":422,"name":"Acro","steam_id":76561198092451804,"connected_time":1834000000000,"state":"active","ping":99},{"user_id":423,"name":"cool beans","steam_id":76561198321591685,"connected_time":1815000000000,"state":"active","ping":117},{"user_id":452,"name":"Dude, error.","steam_id":76561198046705420,"connected_time":444000000000,"state":"active","ping":123},{"user_id":425,"name":"magunyamu","steam_id":76561198823083676,"connected_time":1802000000000,"state":"active","ping":45},{"user_id":426,"name":"lolzfrdawin21","steam_id":76561199006665979,"connected_time":1800000000000,"state":"active","ping":112},{"user_id":451,"name":"Willem Dafoe","steam_id":76561198037453253,"connected_time":464000000000,"state":"active","ping":108},{"user_id":443,"name":"Sugary","steam_id":76561198088267265,"connected_time":768000000000,"state":"active","ping":61},{"user_id":444,"name":"♫Sgt. Pepper♫","steam_id":76561198352895489,"connected_time":753000000000,"state":"active","ping":45},{"user_id":445,"name":"^vrz","steam_id":76561198168816505,"connected_time":750000000000,"state":"active","ping":45},{"user_id":455,"name":"ORANGE","steam_id":76561198000401769,"connected_time":130000000000,"state":"active","ping":72},{"user_id":430,"name":"presto.369","steam_id":76561198853852443,"connected_time":1744000000000,"state":"active","ping":94},{"user_id":429,"name":"trobin120","steam_id":76561199122420273,"connected_time":1775000000000,"state":"active","ping":108},{"user_id":447,"name":"UUUURT","steam_id":76561198047468140,"connected_time":720000000000,"state":"active","ping":99},{"user_id":431,"name":"LOL (dies)","steam_id":76561198045964573,"connected_time":1731000000000,"state":"active","ping":54},{"user_id":432,"name":"Yeerk","steam_id":76561198057999536,"connected_time":1729000000000,"state":"active","ping":60},{"user_id":435,"name":"mellowhype","steam_id":76561198040675606,"connected_time":1538000000000,"state":"active","ping":78}]},{"server_id":25,"name":"Uncletopia | Los Angeles | 4 | Stopwatch Beta","name_short":"lax-4","host":"lax-1.us.uncletopia.com","port":27045,"enabled":true,"region":"us-west","cc":"us","latitude":33.94279,"longitude":-118.41004,"reserved":0,"last_update":"0001-01-01T00:00:00Z","name_a2s":"Uncletopia | Los Angeles | 4 | Stopwatch Beta","protocol":17,"map":"pl_borneo","folder":"tf","game":"Team Fortress","app_id":440,"player_count":0,"max_players":24,"Bots":0,"server_type":"Dedicated","server_os":"Linux","password":true,"vac":true,"version":"7932396","steam_id":85568392924510199,"keywords":["nocrits","nodmgspread","payload","uncletopia"],"game_id":440,"stv_port":27046,"stv_name":"Uncletopia | Los Angeles | 4 | Stopwatch Beta | STV","players":null},{"server_id":11,"name":"Uncletopia | London | 1 | All Maps","name_short":"lon-1","host":"lon-1.uk.uncletopia.com","port":27015,"enabled":true,"region":"eu","cc":"gb","latitude":51.509865,"longitude":-0.118092,"reserved":0,"last_update":"0001-01-01T00:00:00Z","name_a2s":"Uncletopia | London | 1 | All Maps","protocol":17,"map":"pl_badwater","folder":"tf","game":"Team Fortress","app_id":440,"player_count":24,"max_players":24,"Bots":0,"server_type":"Dedicated","server_os":"Linux","password":true,"vac":true,"version":"7932396","steam_id":85568392924367362,"keywords":["nocrits","nodmgspread","payload","uncletopia"],"game_id":440,"stv_port":27016,"stv_name":"Uncletopia | London | 1 | All Maps | STV","players":[{"user_id":1022,"name":"IronHawk✨","steam_id":76561198008959448,"connected_time":2874000000000,"state":"active","ping":74},{"user_id":1031,"name":"cinny","steam_id":76561198832112629,"connected_time":1798000000000,"state":"active","ping":85},{"user_id":961,"name":"vi","steam_id":76561198303147966,"connected_time":7326000000000,"state":"active","ping":45},{"user_id":1001,"name":"meow (they/them)","steam_id":76561198416657815,"connected_time":4183000000000,"state":"active","ping":82},{"user_id":976,"name":"Sakari","steam_id":76561197997811299,"connected_time":5625000000000,"state":"active","ping":61},{"user_id":964,"name":"Edling","steam_id":76561199111565357,"connected_time":7237000000000,"state":"active","ping":94},{"user_id":1023,"name":"sheepy dab's hand","steam_id":76561198040284781,"connected_time":2455000000000,"state":"active","ping":46},{"user_id":1025,"name":"simplistic","steam_id":76561198231690748,"connected_time":2107000000000,"state":"active","ping":67},{"user_id":1012,"name":"margaret thatcher's girl power","steam_id":76561199401283123,"connected_time":3454000000000,"state":"active","ping":50},{"user_id":1027,"name":"labcatluke","steam_id":76561198299504470,"connected_time":2054000000000,"state":"active","ping":59},{"user_id":1037,"name":"DSSD","steam_id":76561197975128756,"connected_time":1073000000000,"state":"active","ping":77},{"user_id":984,"name":"Lubrsi","steam_id":76561198040208195,"connected_time":5185000000000,"state":"active","ping":46},{"user_id":979,"name":"free back real estate","steam_id":76561197999437155,"connected_time":5557000000000,"state":"active","ping":54},{"user_id":1038,"name":"AVOID EVERYONE","steam_id":76561198051852765,"connected_time":1067000000000,"state":"active","ping":82},{"user_id":1029,"name":"lil baby freestyle","steam_id":76561198014688238,"connected_time":1929000000000,"state":"active","ping":45},{"user_id":1030,"name":"rev up the bugatti wahey","steam_id":76561198079589665,"connected_time":1886000000000,"state":"active","ping":66},{"user_id":1040,"name":"THE RIZZLER","steam_id":76561198083505031,"connected_time":562000000000,"state":"active","ping":42},{"user_id":968,"name":"Lyncurion","steam_id":76561199260022725,"connected_time":6703000000000,"state":"active","ping":84},{"user_id":969,"name":"OhNoPhoton","steam_id":76561198119399146,"connected_time":6643000000000,"state":"active","ping":70},{"user_id":1039,"name":"noided","steam_id":76561199480942903,"connected_time":673000000000,"state":"active","ping":75},{"user_id":1016,"name":"MIG","steam_id":76561198099245500,"connected_time":3320000000000,"state":"active","ping":54},{"user_id":1017,"name":"vani","steam_id":76561197991778291,"connected_time":3319000000000,"state":"active","ping":75},{"user_id":1013,"name":"Jospeh","steam_id":76561198120930790,"connected_time":3424000000000,"state":"active","ping":44},{"user_id":1035,"name":"Pestdoktor","steam_id":76561198058159271,"connected_time":1155000000000,"state":"active","ping":70}]},{"server_id":114,"name":"Uncletopia | London | 2 | All Maps","name_short":"lon-2","host":"lon-1.uk.uncletopia.com","port":27025,"enabled":true,"region":"eu","cc":"gb","latitude":51.509865,"longitude":-0.118092,"reserved":0,"last_update":"0001-01-01T00:00:00Z","name_a2s":"Uncletopia | London | 2 | All Maps","protocol":17,"map":"pl_borneo","folder":"tf","game":"Team Fortress","app_id":440,"player_count":24,"max_players":24,"Bots":0,"server_type":"Dedicated","server_os":"Linux","password":true,"vac":true,"version":"7932396","steam_id":85568392924470941,"keywords":["nocrits","nodmgspread","payload","uncletopia"],"game_id":440,"stv_port":27026,"stv_name":"Uncletopia | London | 2 | All Maps | STV","players":[{"user_id":589,"name":"LET ME CS2","steam_id":76561198382281653,"connected_time":1101000000000,"state":"active","ping":83},{"user_id":591,"name":"Cronomax","steam_id":76561198285308399,"connected_time":852000000000,"state":"active","ping":148},{"user_id":582,"name":"chef","steam_id":76561198168641792,"connected_time":1995000000000,"state":"active","ping":45},{"user_id":592,"name":"Movie Moth","steam_id":76561198408059170,"connected_time":845000000000,"state":"active","ping":64},{"user_id":605,"name":"seigfried","steam_id":76561198047260133,"connected_time":284000000000,"state":"active","ping":83},{"user_id":594,"name":"Lorelei","steam_id":76561198056341754,"connected_time":706000000000,"state":"active","ping":45},{"user_id":600,"name":"Hooty","steam_id":76561198365932023,"connected_time":464000000000,"state":"active","ping":55},{"user_id":595,"name":"[FP] Shiken","steam_id":76561198257905663,"connected_time":620000000000,"state":"active","ping":62},{"user_id":596,"name":"SteelTuff","steam_id":76561198279969439,"connected_time":597000000000,"state":"active","ping":51},{"user_id":599,"name":"Sputnik","steam_id":76561198138660241,"connected_time":556000000000,"state":"active","ping":59},{"user_id":598,"name":"Doctor Marijuana","steam_id":76561198288289879,"connected_time":576000000000,"state":"active","ping":46},{"user_id":585,"name":"Teathling","steam_id":76561198061580505,"connected_time":1821000000000,"state":"active","ping":53},{"user_id":601,"name":"barnkalassoldat","steam_id":76561198025513190,"connected_time":413000000000,"state":"active","ping":63},{"user_id":541,"name":"You can never unsuck a dick","steam_id":76561197977122134,"connected_time":4404000000000,"state":"active","ping":57},{"user_id":564,"name":"Oddmew123","steam_id":76561199068492212,"connected_time":3265000000000,"state":"active","ping":67},{"user_id":607,"name":"Peep","steam_id":76561198132508552,"connected_time":247000000000,"state":"active","ping":44},{"user_id":603,"name":"Falcon","steam_id":76561198211463916,"connected_time":337000000000,"state":"active","ping":82},{"user_id":604,"name":"Salesman Doren","steam_id":76561198076098142,"connected_time":317000000000,"state":"active","ping":38},{"user_id":606,"name":"stun","steam_id":76561198276681691,"connected_time":273000000000,"state":"active","ping":46},{"user_id":608,"name":"Cyberpsycho","steam_id":76561198013528365,"connected_time":169000000000,"state":"active","ping":62},{"user_id":609,"name":"Femboi OwO {He/They}","steam_id":76561199184000174,"connected_time":128000000000,"state":"active","ping":46},{"user_id":610,"name":"Fat Screw","steam_id":76561198065378166,"connected_time":121000000000,"state":"active","ping":51},{"user_id":611,"name":"70x","steam_id":76561198046485365,"connected_time":57000000000,"state":"active","ping":46},{"user_id":612,"name":"Phyxkes","steam_id":76561197982474972,"connected_time":43000000000,"state":"active","ping":60}]},{"server_id":320,"name":"Uncletopia | London | 3 | All Maps","name_short":"lon-3","host":"lon-1.uk.uncletopia.com","port":27035,"enabled":true,"region":"eu","cc":"gb","latitude":51.509865,"longitude":-0.118092,"reserved":0,"last_update":"0001-01-01T00:00:00Z","name_a2s":"Uncletopia | London | 3 | All Maps","protocol":17,"map":"koth_highpass","folder":"tf","game":"Team Fortress","app_id":440,"player_count":0,"max_players":24,"Bots":0,"server_type":"Dedicated","server_os":"Linux","password":true,"vac":true,"version":"7932396","steam_id":85568392924510192,"keywords":["cp","nocrits","nodmgspread","uncletopia"],"game_id":440,"stv_port":27036,"stv_name":"Uncletopia | London | 3 | All Maps | STV","players":null},{"server_id":321,"name":"Uncletopia | London | 4 | All Maps","name_short":"lon-4","host":"lon-1.uk.uncletopia.com","port":27045,"enabled":true,"region":"eu","cc":"gb","latitude":51.509865,"longitude":-0.118092,"reserved":0,"last_update":"0001-01-01T00:00:00Z","name_a2s":"Uncletopia | London | 4 | All Maps","protocol":17,"map":"pl_frontier_final","folder":"tf","game":"Team Fortress","app_id":440,"player_count":0,"max_players":24,"Bots":0,"server_type":"Dedicated","server_os":"Linux","password":true,"vac":true,"version":"7932396","steam_id":85568392924510193,"keywords":["nocrits","nodmgspread","payload","uncletopia"],"game_id":440,"stv_port":27046,"stv_name":"Uncletopia | London | 4 | All Maps | STV","players":null},{"server_id":21,"name":"Uncletopia | London | 5 | All Maps","name_short":"lon-5","host":"lon-1.uk.uncletopia.com","port":27055,"enabled":true,"region":"eu","cc":"gb","latitude":51.509865,"longitude":-0.118092,"reserved":0,"last_update":"0001-01-01T00:00:00Z","name_a2s":"Uncletopia | London | 5 | All Maps","protocol":17,"map":"koth_lakeside_final","folder":"tf","game":"Team Fortress","app_id":440,"player_count":0,"max_players":24,"Bots":0,"server_type":"Dedicated","server_os":"Linux","password":true,"vac":true,"version":"7932396","steam_id":85568392924742829,"keywords":["cp","nocrits","nodmgspread","uncletopia"],"game_id":440,"stv_port":27056,"stv_name":"Uncletopia | London | 5 | All Maps | STV","players":null},{"server_id":22,"name":"Uncletopia | London | 6 | All Maps","name_short":"lon-6","host":"lon-1.uk.uncletopia.com","port":27065,"enabled":true,"region":"eu","cc":"gb","latitude":51.509865,"longitude":-0.118092,"reserved":0,"last_update":"0001-01-01T00:00:00Z","name_a2s":"Uncletopia | London | 6 | All Maps","protocol":17,"map":"koth_lakeside_final","folder":"tf","game":"Team Fortress","app_id":440,"player_count":0,"max_players":24,"Bots":0,"server_type":"Dedicated","server_os":"Linux","password":true,"vac":true,"version":"7932396","steam_id":85568392924742830,"keywords":["cp","nocrits","nodmgspread","uncletopia"],"game_id":440,"stv_port":27066,"stv_name":"Uncletopia | London | 6 | All Maps | STV","players":null},{"server_id":40,"name":"Uncletopia | London | 7 | No Payload","name_short":"lon-7","host":"lon-1.uk.uncletopia.com","port":27075,"enabled":true,"region":"eu","cc":"gb","latitude":51.509865,"longitude":-0.118092,"reserved":0,"last_update":"0001-01-01T00:00:00Z","name_a2s":"Uncletopia | London | 7 | No Payload","protocol":17,"map":"koth_brazil","folder":"tf","game":"Team Fortress","app_id":440,"player_count":0,"max_players":24,"Bots":0,"server_type":"Dedicated","server_os":"Linux","password":true,"vac":true,"version":"7932396","steam_id":85568392924964314,"keywords":["cp","nocrits","nodmgspread","uncletopia"],"game_id":440,"stv_port":27076,"stv_name":"Uncletopia | London | 7 | No Payload | STV","players":null},{"server_id":41,"name":"Uncletopia | London | 8 | Community","name_short":"lon-8","host":"lon-1.uk.uncletopia.com","port":27085,"enabled":true,"region":"eu","cc":"gb","latitude":51.509865,"longitude":-0.118092,"reserved":0,"last_update":"0001-01-01T00:00:00Z","name_a2s":"Uncletopia | London | 8 | Community","protocol":17,"map":"workshop/cp_snowbase_b18.ugc2081770490","folder":"tf","game":"Team Fortress","app_id":440,"player_count":0,"max_players":24,"Bots":0,"server_type":"Dedicated","server_os":"Linux","password":true,"vac":true,"version":"7932396","steam_id":85568392924964315,"keywords":["cp","nocrits","nodmgspread","uncletopia"],"game_id":440,"stv_port":27086,"stv_name":"Uncletopia | London | 8 | Community | STV","players":null},{"server_id":300,"name":"Uncletopia | Montréal | 1 | All Maps","name_short":"mtl-1","host":"mtl-1.ca.uncletopia.com","port":27015,"enabled":true,"region":"us-east","cc":"ca","latitude":45.50889,"longitude":-73.56167,"reserved":0,"last_update":"0001-01-01T00:00:00Z","name_a2s":"Uncletopia | Montréal | 1 | All Maps","protocol":17,"map":"cp_dustbowl","folder":"tf","game":"Team Fortress","app_id":440,"player_count":0,"max_players":24,"Bots":0,"server_type":"Dedicated","server_os":"Linux","password":true,"vac":true,"version":"7932396","steam_id":85568392924500087,"keywords":["cp","nocrits","nodmgspread","uncletopia"],"game_id":440,"stv_port":27016,"stv_name":"Uncletopia | Montréal | 1 | All Maps | STV","players":null},{"server_id":301,"name":"Uncletopia | Montréal | 2 | All Maps","name_short":"mtl-2","host":"mtl-1.ca.uncletopia.com","port":27025,"enabled":true,"region":"us-east","cc":"ca","latitude":45.50889,"longitude":-73.56167,"reserved":0,"last_update":"0001-01-01T00:00:00Z","name_a2s":"Uncletopia | Montréal | 2 | All Maps","protocol":17,"map":"cp_snakewater_final1","folder":"tf","game":"Team Fortress","app_id":440,"player_count":1,"max_players":24,"Bots":0,"server_type":"Dedicated","server_os":"Linux","password":true,"vac":true,"version":"7932396","steam_id":85568392924500088,"keywords":["cp","nocrits","nodmgspread","uncletopia"],"game_id":440,"stv_port":27026,"stv_name":"Uncletopia | Montréal | 2 | All Maps | STV","players":[{"user_id":20,"name":"dj magdogrozen","steam_id":76561198984131011,"connected_time":2818000000000,"state":"active","ping":51}]},{"server_id":302,"name":"Uncletopia | Montréal | 3 | All Maps","name_short":"mtl-3","host":"mtl-1.ca.uncletopia.com","port":27035,"enabled":true,"region":"us-east","cc":"ca","latitude":45.50889,"longitude":-73.56167,"reserved":0,"last_update":"0001-01-01T00:00:00Z","name_a2s":"Uncletopia | Montréal | 3 | All Maps","protocol":17,"map":"pl_barnblitz","folder":"tf","game":"Team Fortress","app_id":440,"player_count":0,"max_players":24,"Bots":0,"server_type":"Dedicated","server_os":"Linux","password":true,"vac":true,"version":"7932396","steam_id":85568392924500089,"keywords":["nocrits","nodmgspread","payload","uncletopia"],"game_id":440,"stv_port":27036,"stv_name":"Uncletopia | Montréal | 3 | All Maps | STV","players":null},{"server_id":303,"name":"Uncletopia | Montréal | 4 | No Payload","name_short":"mtl-4","host":"mtl-1.ca.uncletopia.com","port":27045,"enabled":true,"region":"us-east","cc":"ca","latitude":45.50889,"longitude":-73.56167,"reserved":0,"last_update":"0001-01-01T00:00:00Z","name_a2s":"Uncletopia | Montréal | 4 | No Payload","protocol":17,"map":"cp_snakewater_final1","folder":"tf","game":"Team Fortress","app_id":440,"player_count":0,"max_players":24,"Bots":0,"server_type":"Dedicated","server_os":"Linux","password":true,"vac":true,"version":"7932396","steam_id":85568392924500090,"keywords":["cp","nocrits","nodmgspread","uncletopia"],"game_id":440,"stv_port":27046,"stv_name":"Uncletopia | Montréal | 4 | No Payload | STV","players":null},{"server_id":13,"name":"Uncletopia | New York City | 1 | All Maps","name_short":"nyc-1","host":"nyc-1.us.uncletopia.com","port":27015,"enabled":true,"region":"us-east","cc":"us","latitude":40.73061,"longitude":-73.93524,"reserved":0,"last_update":"0001-01-01T00:00:00Z","name_a2s":"Uncletopia | New York City | 1 | All Maps","protocol":17,"map":"koth_suijin","folder":"tf","game":"Team Fortress","app_id":440,"player_count":24,"max_players":24,"Bots":0,"server_type":"Dedicated","server_os":"Linux","password":true,"vac":true,"version":"7932396","steam_id":85568392924469993,"keywords":["cp","nocrits","nodmgspread","uncletopia"],"game_id":440,"stv_port":27016,"stv_name":"Uncletopia | New York City | 1 | All Maps | STV","players":[{"user_id":237,"name":"Cocksneed Fartin","steam_id":76561198126675787,"connected_time":1664000000000,"state":"active","ping":90},{"user_id":222,"name":"SpongedSocks","steam_id":76561198374009086,"connected_time":2470000000000,"state":"active","ping":49},{"user_id":253,"name":"Criss⭕⃤","steam_id":76561198873539085,"connected_time":281000000000,"state":"active","ping":53},{"user_id":240,"name":"log","steam_id":76561198386992717,"connected_time":1588000000000,"state":"active","ping":60},{"user_id":252,"name":"lost in spaaaaace","steam_id":76561199085974120,"connected_time":312000000000,"state":"active","ping":62},{"user_id":212,"name":"tydogzilla","steam_id":76561198054254518,"connected_time":3202000000000,"state":"active","ping":38},{"user_id":235,"name":"Porcupine's Revenge!","steam_id":76561199121615234,"connected_time":1778000000000,"state":"active","ping":46},{"user_id":211,"name":"BeerPowder","steam_id":76561198058129400,"connected_time":3313000000000,"state":"active","ping":53},{"user_id":213,"name":"Turk Turkleton","steam_id":76561198073265101,"connected_time":3161000000000,"state":"active","ping":80},{"user_id":234,"name":"WibbyOne","steam_id":76561198052843846,"connected_time":1782000000000,"state":"active","ping":37},{"user_id":206,"name":"gIBBY","steam_id":76561198080099598,"connected_time":3563000000000,"state":"active","ping":44},{"user_id":251,"name":"Urbanzpinapple","steam_id":76561198115426938,"connected_time":496000000000,"state":"active","ping":98},{"user_id":216,"name":"Horrizan","steam_id":76561197965028480,"connected_time":2589000000000,"state":"active","ping":90},{"user_id":241,"name":"space creep","steam_id":76561198025668545,"connected_time":1260000000000,"state":"active","ping":45},{"user_id":221,"name":"Cajun Nationalist","steam_id":76561198278940630,"connected_time":2520000000000,"state":"active","ping":77},{"user_id":178,"name":"Homosexual Warmachine","steam_id":76561198040425096,"connected_time":6235000000000,"state":"active","ping":76},{"user_id":236,"name":"Pozyomka","steam_id":76561198086331015,"connected_time":1716000000000,"state":"active","ping":35},{"user_id":244,"name":"Dazzleberry","steam_id":76561198030369150,"connected_time":1211000000000,"state":"active","ping":74},{"user_id":247,"name":"dude","steam_id":76561198323384949,"connected_time":1030000000000,"state":"active","ping":113},{"user_id":174,"name":"Yummy Kabobz","steam_id":76561198067661705,"connected_time":7050000000000,"state":"active","ping":50},{"user_id":250,"name":"Frajer","steam_id":76561198059129680,"connected_time":728000000000,"state":"active","ping":64},{"user_id":248,"name":"T9 Raincool","steam_id":76561198042953645,"connected_time":1009000000000,"state":"active","ping":50},{"user_id":254,"name":"Broadway Rose","steam_id":76561198046083342,"connected_time":273000000000,"state":"active","ping":43},{"user_id":233,"name":"Braamklauw","steam_id":76561198283287697,"connected_time":1940000000000,"state":"active","ping":143}]},{"server_id":14,"name":"Uncletopia | New York City | 2 | All Maps","name_short":"nyc-2","host":"nyc-1.us.uncletopia.com","port":27025,"enabled":true,"region":"us-east","cc":"us","latitude":40.73061,"longitude":-73.93524,"reserved":0,"last_update":"0001-01-01T00:00:00Z","name_a2s":"Uncletopia | New York City | 2 | All Maps","protocol":17,"map":"pl_badwater","folder":"tf","game":"Team Fortress","app_id":440,"player_count":24,"max_players":24,"Bots":0,"server_type":"Dedicated","server_os":"Linux","password":true,"vac":true,"version":"7932396","steam_id":85568392924469994,"keywords":["nocrits","nodmgspread","payload","uncletopia"],"game_id":440,"stv_port":27026,"stv_name":"Uncletopia | New York City | 2 | All Maps | STV","players":[{"user_id":247,"name":"Mcfighter2","steam_id":76561198168073956,"connected_time":292000000000,"state":"active","ping":71},{"user_id":172,"name":"Xx_gam3rberg_xX","steam_id":76561199035781025,"connected_time":6310000000000,"state":"active","ping":80},{"user_id":238,"name":"Caterpillar Friend","steam_id":76561198044298346,"connected_time":1311000000000,"state":"active","ping":103},{"user_id":240,"name":"Party_Garden","steam_id":76561198136313469,"connected_time":883000000000,"state":"active","ping":129},{"user_id":205,"name":"TheLuzinator","steam_id":76561198377144604,"connected_time":3902000000000,"state":"active","ping":73},{"user_id":227,"name":"scapegoat","steam_id":76561198188722751,"connected_time":1651000000000,"state":"active","ping":119},{"user_id":175,"name":"Butters495","steam_id":76561197998689042,"connected_time":6074000000000,"state":"active","ping":70},{"user_id":226,"name":"Corpse01","steam_id":76561198153671643,"connected_time":1663000000000,"state":"active","ping":71},{"user_id":224,"name":"marcie","steam_id":76561198170642407,"connected_time":1682000000000,"state":"active","ping":71},{"user_id":101,"name":"CRAZY engineer","steam_id":76561198887937902,"connected_time":11534000000000,"state":"active","ping":45},{"user_id":239,"name":"aversa","steam_id":76561198840460101,"connected_time":995000000000,"state":"active","ping":66},{"user_id":199,"name":"Mr. Durian","steam_id":76561198093813212,"connected_time":4241000000000,"state":"active","ping":66},{"user_id":244,"name":"indigo kid","steam_id":76561198203885895,"connected_time":357000000000,"state":"active","ping":62},{"user_id":234,"name":"King's Disease","steam_id":76561198076639682,"connected_time":1428000000000,"state":"active","ping":48},{"user_id":237,"name":"i drink dr pepper","steam_id":76561198370925029,"connected_time":1354000000000,"state":"active","ping":59},{"user_id":245,"name":"hayes","steam_id":76561198057101042,"connected_time":347000000000,"state":"active","ping":94},{"user_id":243,"name":"Ninty","steam_id":76561199364725776,"connected_time":385000000000,"state":"active","ping":80},{"user_id":241,"name":"Cataswyrden","steam_id":76561198202714504,"connected_time":876000000000,"state":"active","ping":56},{"user_id":215,"name":"Chernov","steam_id":76561198014463424,"connected_time":3236000000000,"state":"active","ping":38},{"user_id":246,"name":"Slashes","steam_id":76561197968573499,"connected_time":325000000000,"state":"active","ping":41},{"user_id":219,"name":"ATL1 | cola","steam_id":76561198374390458,"connected_time":2244000000000,"state":"active","ping":71},{"user_id":217,"name":"Forossa","steam_id":76561198108085345,"connected_time":2498000000000,"state":"active","ping":77},{"user_id":232,"name":"AudioMedic","steam_id":76561198333939032,"connected_time":1625000000000,"state":"active","ping":56},{"user_id":171,"name":"Squiliam","steam_id":76561198025278006,"connected_time":6482000000000,"state":"active","ping":82}]},{"server_id":15,"name":"Uncletopia | New York City | 3 | Stopwatch Beta","name_short":"nyc-3","host":"nyc-1.us.uncletopia.com","port":27035,"enabled":true,"region":"us-east","cc":"us","latitude":40.73061,"longitude":-73.93524,"reserved":0,"last_update":"0001-01-01T00:00:00Z","name_a2s":"Uncletopia | New York City | 3 | Stopwatch Beta","protocol":17,"map":"workshop/koth_ramjam_rc1.ugc459778887","folder":"tf","game":"Team Fortress","app_id":440,"player_count":0,"max_players":24,"Bots":0,"server_type":"Dedicated","server_os":"Linux","password":true,"vac":true,"version":"7932396","steam_id":85568392924742820,"keywords":["cp","nocrits","nodmgspread","uncletopia"],"game_id":440,"stv_port":27036,"stv_name":"Uncletopia | New York City | 3 | Stopwatch Beta | STV","players":null},{"server_id":16,"name":"Uncletopia | New York City | 4 | Community","name_short":"nyc-4","host":"nyc-1.us.uncletopia.com","port":27045,"enabled":true,"region":"us-east","cc":"us","latitude":40.73061,"longitude":-73.93524,"reserved":0,"last_update":"0001-01-01T00:00:00Z","name_a2s":"Uncletopia | New York City | 4 | Community","protocol":17,"map":"workshop/pl_cactuscanyon_redux_final2.ugc2579644293","folder":"tf","game":"Team Fortress","app_id":440,"player_count":15,"max_players":24,"Bots":0,"server_type":"Dedicated","server_os":"Linux","password":true,"vac":true,"version":"7932396","steam_id":85568392924742821,"keywords":["nocrits","nodmgspread","payload","uncletopia"],"game_id":440,"stv_port":27046,"stv_name":"Uncletopia | New York City | 4 | Community | STV","players":[{"user_id":334,"name":"TEXAN DREAM","steam_id":76561198119067958,"connected_time":304000000000,"state":"active","ping":99},{"user_id":306,"name":"Not Ghostie","steam_id":76561198068686762,"connected_time":2094000000000,"state":"active","ping":45},{"user_id":335,"name":"Ping","steam_id":76561199206514106,"connected_time":204000000000,"state":"active","ping":61},{"user_id":288,"name":"Hyp3r #Savetf2","steam_id":76561198965043686,"connected_time":2857000000000,"state":"active","ping":144},{"user_id":289,"name":"LordOfTheNoobs","steam_id":76561197962697523,"connected_time":2840000000000,"state":"active","ping":68},{"user_id":339,"name":"DistantJragon","steam_id":76561198117563641,"connected_time":54000000000,"state":"spawning","ping":107},{"user_id":316,"name":"SovietPotato","steam_id":76561199102357374,"connected_time":1335000000000,"state":"active","ping":156},{"user_id":311,"name":"Rave Blitz","steam_id":76561198019158476,"connected_time":1543000000000,"state":"active","ping":117},{"user_id":293,"name":"Mr_Frosty","steam_id":76561199380389079,"connected_time":2759000000000,"state":"active","ping":76},{"user_id":312,"name":"ECCO","steam_id":76561198002821513,"connected_time":1537000000000,"state":"active","ping":69},{"user_id":313,"name":"oxy","steam_id":76561198089770351,"connected_time":1511000000000,"state":"active","ping":87},{"user_id":319,"name":"Ciaphas Cain","steam_id":76561198185598330,"connected_time":1091000000000,"state":"active","ping":100},{"user_id":314,"name":"KazeKizuta","steam_id":76561198135281743,"connected_time":1498000000000,"state":"active","ping":124},{"user_id":330,"name":"Spring Beans","steam_id":76561197978546259,"connected_time":632000000000,"state":"active","ping":73},{"user_id":245,"name":"scratch n sniff balls","steam_id":76561198074560331,"connected_time":6105000000000,"state":"active","ping":82}]},{"server_id":142,"name":"Uncletopia | São Paulo | 1 | All Maps","name_short":"sao-1","host":"sao-1.br.uncletopia.com","port":27015,"enabled":true,"region":"sa","cc":"br","latitude":-23.533773,"longitude":-46.62529,"reserved":0,"last_update":"0001-01-01T00:00:00Z","name_a2s":"Uncletopia | São Paulo | 1 | All Maps","protocol":17,"map":"pl_borneo","folder":"tf","game":"Team Fortress","app_id":440,"player_count":0,"max_players":24,"Bots":0,"server_type":"Dedicated","server_os":"Linux","password":true,"vac":true,"version":"7932396","steam_id":85568392924469996,"keywords":["nocrits","nodmgspread","payload","uncletopia"],"game_id":440,"stv_port":27016,"stv_name":"Uncletopia | São Paulo | 1 | All Maps | STV","players":null},{"server_id":143,"name":"Uncletopia | São Paulo | 2 | All Maps","name_short":"sao-2","host":"sao-2.br.uncletopia.com","port":27015,"enabled":true,"region":"sa","cc":"br","latitude":-23.533773,"longitude":-46.62529,"reserved":0,"last_update":"0001-01-01T00:00:00Z","name_a2s":"Uncletopia | São Paulo | 2 | All Maps","protocol":17,"map":"koth_harvest_final","folder":"tf","game":"Team Fortress","app_id":440,"player_count":1,"max_players":24,"Bots":0,"server_type":"Dedicated","server_os":"Linux","password":true,"vac":true,"version":"7932396","steam_id":85568392924485349,"keywords":["cp","nocrits","nodmgspread","uncletopia"],"game_id":440,"stv_port":27016,"stv_name":"Uncletopia | São Paulo | 2 | All Maps | STV","players":[{"user_id":141,"name":"rayman","steam_id":76561198259690529,"connected_time":221000000000,"state":"active","ping":111}]},{"server_id":7,"name":"Uncletopia | Seattle | 1 | All Maps","name_short":"sea-1","host":"sea-1.us.uncletopia.com","port":27015,"enabled":true,"region":"us-west","cc":"us","latitude":47.608013,"longitude":-122.33517,"reserved":0,"last_update":"0001-01-01T00:00:00Z","name_a2s":"Uncletopia | Seattle | 1 | All Maps","protocol":17,"map":"pl_pier","folder":"tf","game":"Team Fortress","app_id":440,"player_count":24,"max_players":24,"Bots":0,"server_type":"Dedicated","server_os":"Linux","password":true,"vac":true,"version":"7932396","steam_id":85568392924469997,"keywords":["nocrits","nodmgspread","payload","uncletopia"],"game_id":440,"stv_port":27016,"stv_name":"Uncletopia | Seattle | 1 | All Maps | STV","players":[{"user_id":377,"name":"lil boogie","steam_id":76561198064059721,"connected_time":640000000000,"state":"active","ping":40},{"user_id":376,"name":"Owl Of Delos","steam_id":76561198437116566,"connected_time":719000000000,"state":"active","ping":62},{"user_id":375,"name":"BlazedBunny","steam_id":76561198243610560,"connected_time":837000000000,"state":"active","ping":76},{"user_id":348,"name":"SnailYT","steam_id":76561198332040385,"connected_time":3724000000000,"state":"active","ping":67},{"user_id":368,"name":"bishiro","steam_id":76561198129564488,"connected_time":1993000000000,"state":"active","ping":61},{"user_id":372,"name":"goldhed","steam_id":76561198051751133,"connected_time":1848000000000,"state":"active","ping":60},{"user_id":352,"name":"Ayayayayayahuasca","steam_id":76561199002906056,"connected_time":3187000000000,"state":"active","ping":50},{"user_id":297,"name":"rat gets the cheese","steam_id":76561198031234032,"connected_time":6100000000000,"state":"active","ping":95},{"user_id":347,"name":"lker","steam_id":76561197976975075,"connected_time":3894000000000,"state":"active","ping":107},{"user_id":370,"name":"CashGordon","steam_id":76561197975594096,"connected_time":1929000000000,"state":"active","ping":40},{"user_id":371,"name":"a cat plushie","steam_id":76561198080046542,"connected_time":1862000000000,"state":"active","ping":47},{"user_id":342,"name":"cubibluer","steam_id":76561198197405295,"connected_time":4048000000000,"state":"active","ping":57},{"user_id":367,"name":"Daz","steam_id":76561198041431938,"connected_time":2181000000000,"state":"active","ping":52},{"user_id":378,"name":"jacix3 [gay wolfgirl]{she/it}","steam_id":76561198205004165,"connected_time":611000000000,"state":"active","ping":67},{"user_id":374,"name":"MonteJT","steam_id":76561198055409360,"connected_time":1214000000000,"state":"active","ping":40},{"user_id":350,"name":"Officer Earl","steam_id":76561199019675078,"connected_time":3292000000000,"state":"active","ping":99},{"user_id":379,"name":"cro","steam_id":76561198406023539,"connected_time":606000000000,"state":"active","ping":60},{"user_id":349,"name":"amantes dominatio","steam_id":76561198042913843,"connected_time":3333000000000,"state":"active","ping":65},{"user_id":380,"name":"Mignyanne :3","steam_id":76561198048754056,"connected_time":251000000000,"state":"active","ping":73},{"user_id":381,"name":"E4Estrogen","steam_id":76561198085813708,"connected_time":141000000000,"state":"active","ping":124},{"user_id":336,"name":"shelf","steam_id":76561198260021696,"connected_time":4303000000000,"state":"active","ping":46},{"user_id":359,"name":"Dr. Evil","steam_id":76561198149369302,"connected_time":2936000000000,"state":"active","ping":115},{"user_id":361,"name":"jordanddean2016","steam_id":76561198323772677,"connected_time":2922000000000,"state":"active","ping":60},{"user_id":364,"name":"SEABISCUIT","steam_id":76561198122994652,"connected_time":2276000000000,"state":"active","ping":48}]},{"server_id":119,"name":"Uncletopia | Seattle | 2 | All Maps","name_short":"sea-2","host":"sea-1.us.uncletopia.com","port":27025,"enabled":true,"region":"us-west","cc":"us","latitude":47.608013,"longitude":-122.33517,"reserved":0,"last_update":"0001-01-01T00:00:00Z","name_a2s":"Uncletopia | Seattle | 2 | All Maps","protocol":17,"map":"pl_upward","folder":"tf","game":"Team Fortress","app_id":440,"player_count":24,"max_players":24,"Bots":0,"server_type":"Dedicated","server_os":"Linux","password":true,"vac":true,"version":"7932396","steam_id":85568392924469998,"keywords":["nocrits","nodmgspread","payload","uncletopia"],"game_id":440,"stv_port":27026,"stv_name":"Uncletopia | Seattle | 2 | All Maps | STV","players":[{"user_id":122,"name":"volta","steam_id":76561199214283884,"connected_time":5301000000000,"state":"active","ping":149},{"user_id":206,"name":"Zoddiee","steam_id":76561198042399764,"connected_time":813000000000,"state":"active","ping":127},{"user_id":168,"name":"syl","steam_id":76561199465988748,"connected_time":2126000000000,"state":"active","ping":84},{"user_id":196,"name":"The Janitor","steam_id":76561198370152780,"connected_time":1039000000000,"state":"active","ping":113},{"user_id":208,"name":"LLaigend","steam_id":76561199099862138,"connected_time":519000000000,"state":"active","ping":104},{"user_id":191,"name":"R33se","steam_id":76561198296531992,"connected_time":1167000000000,"state":"active","ping":105},{"user_id":184,"name":"aunt pat","steam_id":76561198001488041,"connected_time":1259000000000,"state":"active","ping":120},{"user_id":192,"name":"NitoT97","steam_id":76561199074443643,"connected_time":1117000000000,"state":"active","ping":49},{"user_id":211,"name":"Bhutch","steam_id":76561198145654275,"connected_time":53000000000,"state":"active","ping":89},{"user_id":188,"name":"Chairdog","steam_id":76561197980385816,"connected_time":1225000000000,"state":"active","ping":53},{"user_id":183,"name":"Norriss","steam_id":76561198920296293,"connected_time":1270000000000,"state":"active","ping":43},{"user_id":193,"name":"tiredfisherman69","steam_id":76561199228963816,"connected_time":1113000000000,"state":"active","ping":96},{"user_id":202,"name":"Branta","steam_id":76561199103842843,"connected_time":916000000000,"state":"active","ping":54},{"user_id":207,"name":"Weakly","steam_id":76561197992690915,"connected_time":753000000000,"state":"active","ping":75},{"user_id":197,"name":"AlIen","steam_id":76561198093605031,"connected_time":1038000000000,"state":"active","ping":80},{"user_id":169,"name":"Coowil","steam_id":76561198070985437,"connected_time":2106000000000,"state":"active","ping":42},{"user_id":198,"name":"Dimple #TF2Center","steam_id":76561198980324190,"connected_time":1030000000000,"state":"active","ping":52},{"user_id":152,"name":"Keyboardbreaker","steam_id":76561198372836132,"connected_time":3909000000000,"state":"active","ping":82},{"user_id":129,"name":"blossom","steam_id":76561198042735130,"connected_time":5088000000000,"state":"active","ping":59},{"user_id":199,"name":"Canned TNT","steam_id":76561199075358962,"connected_time":1026000000000,"state":"active","ping":78},{"user_id":175,"name":"Bottle","steam_id":76561199208835578,"connected_time":1822000000000,"state":"active","ping":62},{"user_id":200,"name":"KingCorypheus","steam_id":76561198322778741,"connected_time":1018000000000,"state":"active","ping":137},{"user_id":209,"name":"selvhat","steam_id":76561198114225509,"connected_time":518000000000,"state":"active","ping":71},{"user_id":205,"name":"aisu","steam_id":76561198043768507,"connected_time":851000000000,"state":"active","ping":93}]},{"server_id":406,"name":"Uncletopia | Seattle | 3 | Stopwatch Beta","name_short":"sea-3","host":"sea-1.us.uncletopia.com","port":27035,"enabled":true,"region":"us-west","cc":"us","latitude":47.608013,"longitude":-122.33517,"reserved":0,"last_update":"0001-01-01T00:00:00Z","name_a2s":"Uncletopia | Seattle | 3 | Stopwatch Beta","protocol":17,"map":"workshop/koth_bagel_rc6.ugc2514036946","folder":"tf","game":"Team Fortress","app_id":440,"player_count":2,"max_players":24,"Bots":0,"server_type":"Dedicated","server_os":"Linux","password":true,"vac":true,"version":"7932396","steam_id":85568392924515217,"keywords":["cp","nocrits","nodmgspread","uncletopia"],"game_id":440,"stv_port":27036,"stv_name":"Uncletopia | Seattle | 3 | Stopwatch Beta | STV","players":[{"user_id":20,"name":"YahYeeterson","steam_id":76561198120480906,"connected_time":620000000000,"state":"active","ping":61},{"user_id":21,"name":"cozmo","steam_id":76561198043167542,"connected_time":523000000000,"state":"active","ping":43}]},{"server_id":17,"name":"Uncletopia | San Francisco | 1 | All Maps","name_short":"sfo-1","host":"sfo-1.us.uncletopia.com","port":27015,"enabled":true,"region":"us-west","cc":"us","latitude":37.77397,"longitude":-122.4313,"reserved":0,"last_update":"0001-01-01T00:00:00Z","name_a2s":"Uncletopia | San Francisco | 1 | All Maps","protocol":17,"map":"pl_upward","folder":"tf","game":"Team Fortress","app_id":440,"player_count":24,"max_players":24,"Bots":0,"server_type":"Dedicated","server_os":"Linux","password":true,"vac":true,"version":"7932396","steam_id":85568392924469999,"keywords":["nocrits","nodmgspread","payload","uncletopia"],"game_id":440,"stv_port":27016,"stv_name":"Uncletopia | San Francisco | 1 | All Maps | STV","players":[{"user_id":182,"name":"RUF","steam_id":76561198062315805,"connected_time":3675000000000,"state":"active","ping":58},{"user_id":223,"name":"Fly me to the Moon","steam_id":76561198314543216,"connected_time":968000000000,"state":"active","ping":125},{"user_id":195,"name":"Silvermace","steam_id":76561198090696843,"connected_time":3342000000000,"state":"active","ping":57},{"user_id":214,"name":"Metal Mouse","steam_id":76561198271975696,"connected_time":2055000000000,"state":"active","ping":59},{"user_id":131,"name":"assassincrazy18","steam_id":76561199465661561,"connected_time":7525000000000,"state":"active","ping":76},{"user_id":184,"name":"danishanish","steam_id":76561198058546745,"connected_time":3654000000000,"state":"active","ping":54},{"user_id":203,"name":"lol","steam_id":76561198026491738,"connected_time":2702000000000,"state":"active","ping":61},{"user_id":233,"name":"Bluedemon","steam_id":76561199212058684,"connected_time":380000000000,"state":"active","ping":62},{"user_id":217,"name":"Matte \u003e:)","steam_id":76561198070631073,"connected_time":1613000000000,"state":"active","ping":45},{"user_id":228,"name":"NerdyEnforcement","steam_id":76561198437710820,"connected_time":837000000000,"state":"active","ping":114},{"user_id":150,"name":"ExplosiveGamer21","steam_id":76561198132370955,"connected_time":6141000000000,"state":"active","ping":88},{"user_id":222,"name":"Hugh Mann","steam_id":76561198212049401,"connected_time":1025000000000,"state":"active","ping":82},{"user_id":205,"name":"BongBlaster69","steam_id":76561198316811893,"connected_time":2658000000000,"state":"active","ping":94},{"user_id":197,"name":"Paper Clipp","steam_id":76561199065796296,"connected_time":2872000000000,"state":"active","ping":52},{"user_id":232,"name":"June","steam_id":76561198141803658,"connected_time":527000000000,"state":"active","ping":59},{"user_id":218,"name":"The Spanked Monkey","steam_id":76561198128293111,"connected_time":1591000000000,"state":"active","ping":116},{"user_id":234,"name":"AspenIsPoplar","steam_id":76561198346382060,"connected_time":378000000000,"state":"active","ping":85},{"user_id":171,"name":"swaggdood","steam_id":76561198076173018,"connected_time":4635000000000,"state":"active","ping":46},{"user_id":213,"name":"Monty","steam_id":76561197993567253,"connected_time":2133000000000,"state":"active","ping":61},{"user_id":226,"name":"(retro)","steam_id":76561199039424313,"connected_time":945000000000,"state":"active","ping":78},{"user_id":220,"name":"Heavy","steam_id":76561198437794740,"connected_time":1340000000000,"state":"active","ping":48},{"user_id":235,"name":"TheXDoctor","steam_id":76561198196014379,"connected_time":311000000000,"state":"active","ping":58},{"user_id":155,"name":"smith","steam_id":76561199391478575,"connected_time":6091000000000,"state":"active","ping":83},{"user_id":237,"name":"Capybara Enjoyer","steam_id":76561199147114434,"connected_time":241000000000,"state":"active","ping":128}]},{"server_id":18,"name":"Uncletopia | San Francisco | 2 | All Maps","name_short":"sfo-2","host":"sfo-1.us.uncletopia.com","port":27025,"enabled":true,"region":"us-west","cc":"us","latitude":37.77397,"longitude":-122.4313,"reserved":0,"last_update":"0001-01-01T00:00:00Z","name_a2s":"Uncletopia | San Francisco | 2 | All Maps","protocol":17,"map":"pl_swiftwater_final1","folder":"tf","game":"Team Fortress","app_id":440,"player_count":23,"max_players":24,"Bots":0,"server_type":"Dedicated","server_os":"Linux","password":true,"vac":true,"version":"7932396","steam_id":85568392924470000,"keywords":["nocrits","nodmgspread","payload","uncletopia"],"game_id":440,"stv_port":27026,"stv_name":"Uncletopia | San Francisco | 2 | All Maps | STV","players":[{"user_id":68,"name":"lament","steam_id":76561198408747483,"connected_time":2622000000000,"state":"active","ping":75},{"user_id":96,"name":"luis","steam_id":76561198081341347,"connected_time":1255000000000,"state":"active","ping":60},{"user_id":91,"name":"D","steam_id":76561198292908619,"connected_time":1423000000000,"state":"active","ping":132},{"user_id":51,"name":"AtomikNadia","steam_id":76561198429047658,"connected_time":3527000000000,"state":"active","ping":83},{"user_id":87,"name":"Hindmost","steam_id":76561199081837220,"connected_time":1709000000000,"state":"active","ping":116},{"user_id":76,"name":"Lowvast","steam_id":76561198068455981,"connected_time":2545000000000,"state":"active","ping":75},{"user_id":66,"name":"skooma_consuma","steam_id":76561197974009843,"connected_time":2858000000000,"state":"active","ping":89},{"user_id":94,"name":"Mico (Mico)","steam_id":76561198125462953,"connected_time":1373000000000,"state":"active","ping":62},{"user_id":95,"name":"emusaurus rex","steam_id":76561198991938829,"connected_time":1358000000000,"state":"active","ping":59},{"user_id":103,"name":"✿ Flores","steam_id":76561198106938500,"connected_time":915000000000,"state":"active","ping":75},{"user_id":104,"name":"Spectre","steam_id":76561198025652246,"connected_time":810000000000,"state":"active","ping":97},{"user_id":107,"name":"moe","steam_id":76561198929586245,"connected_time":647000000000,"state":"active","ping":59},{"user_id":84,"name":"Scott Joey","steam_id":76561199123165719,"connected_time":1826000000000,"state":"active","ping":74},{"user_id":75,"name":"Captain Underbelly","steam_id":76561198811270935,"connected_time":2574000000000,"state":"active","ping":95},{"user_id":105,"name":"ooooooooooneTV","steam_id":76561198286627157,"connected_time":802000000000,"state":"active","ping":58},{"user_id":86,"name":"PigPig","steam_id":76561198068190834,"connected_time":1747000000000,"state":"active","ping":75},{"user_id":99,"name":"The Super Mario Bros. Movie","steam_id":76561198871692156,"connected_time":1167000000000,"state":"active","ping":71},{"user_id":106,"name":"Escapist Robot","steam_id":76561198121501913,"connected_time":777000000000,"state":"active","ping":59},{"user_id":88,"name":"transbian disaster","steam_id":76561198407600762,"connected_time":1661000000000,"state":"active","ping":70},{"user_id":89,"name":"Bonk Co.","steam_id":76561198009355408,"connected_time":1508000000000,"state":"active","ping":54},{"user_id":101,"name":"GamerMan","steam_id":76561199058616824,"connected_time":1047000000000,"state":"active","ping":72},{"user_id":64,"name":"dankalopacus","steam_id":76561198099254868,"connected_time":3009000000000,"state":"active","ping":57},{"user_id":65,"name":"MCman","steam_id":76561198412110305,"connected_time":2965000000000,"state":"active","ping":75}]},{"server_id":19,"name":"Uncletopia | San Francisco | 3 | Stopwatch Beta","name_short":"sfo-3","host":"sfo-1.us.uncletopia.com","port":27035,"enabled":true,"region":"us-west","cc":"us","latitude":37.77397,"longitude":-122.4313,"reserved":0,"last_update":"0001-01-01T00:00:00Z","name_a2s":"Uncletopia | San Francisco | 3 | Stopwatch Beta","protocol":17,"map":"workshop/pl_badwater_pro_v12.ugc2142942074","folder":"tf","game":"Team Fortress","app_id":440,"player_count":0,"max_players":24,"Bots":0,"server_type":"Dedicated","server_os":"Linux","password":true,"vac":true,"version":"7932396","steam_id":85568392924742824,"keywords":["nocrits","nodmgspread","payload","uncletopia"],"game_id":440,"stv_port":27036,"stv_name":"Uncletopia | San Francisco | 3 | Stopwatch Beta | STV","players":null},{"server_id":20,"name":"Uncletopia | San Francisco | 4 | Community","name_short":"sfo-4","host":"sfo-1.us.uncletopia.com","port":27045,"enabled":true,"region":"us-west","cc":"us","latitude":37.77397,"longitude":-122.4313,"reserved":0,"last_update":"0001-01-01T00:00:00Z","name_a2s":"Uncletopia | San Francisco | 4 | Community","protocol":17,"map":"workshop/pl_vigil_rc9.ugc1266210012","folder":"tf","game":"Team Fortress","app_id":440,"player_count":1,"max_players":24,"Bots":0,"server_type":"Dedicated","server_os":"Linux","password":true,"vac":true,"version":"7932396","steam_id":85568392924742826,"keywords":["nocrits","nodmgspread","payload","uncletopia"],"game_id":440,"stv_port":27046,"stv_name":"Uncletopia | San Francisco | 4 | Community | STV","players":[{"user_id":8,"name":"Furrtren","steam_id":76561198375864986,"connected_time":8000000000,"state":"spawning","ping":300}]},{"server_id":141,"name":"Uncletopia | Sydney | 1 | All Maps","name_short":"syd-1","host":"syd-1.au.uncletopia.com","port":27015,"enabled":true,"region":"au","cc":"au","latitude":-33.865143,"longitude":151.2099,"reserved":0,"last_update":"0001-01-01T00:00:00Z","name_a2s":"Uncletopia | Sydney | 1 | All Maps","protocol":17,"map":"pl_borneo","folder":"tf","game":"Team Fortress","app_id":440,"player_count":4,"max_players":24,"Bots":0,"server_type":"Dedicated","server_os":"Linux","password":true,"vac":true,"version":"7932396","steam_id":85568392924470001,"keywords":["nocrits","nodmgspread","payload","uncletopia"],"game_id":440,"stv_port":27016,"stv_name":"Uncletopia | Sydney | 1 | All Maps | STV","players":[{"user_id":124,"name":"Office","steam_id":76561198059380714,"connected_time":1079000000000,"state":"active","ping":70},{"user_id":130,"name":"alexowey1","steam_id":76561199379055485,"connected_time":21000000000,"state":"active","ping":320},{"user_id":111,"name":"Turbo_dip","steam_id":76561198446508846,"connected_time":2104000000000,"state":"active","ping":70},{"user_id":129,"name":"Flomnp","steam_id":76561199206749843,"connected_time":114000000000,"state":"active","ping":269}]},{"server_id":123,"name":"Uncletopia | Sydney | 2 | All Maps","name_short":"syd-2","host":"syd-1.au.uncletopia.com","port":27025,"enabled":true,"region":"au","cc":"au","latitude":-33.865143,"longitude":151.2099,"reserved":0,"last_update":"0001-01-01T00:00:00Z","name_a2s":"Uncletopia | Sydney | 2 | All Maps","protocol":17,"map":"koth_lakeside_final","folder":"tf","game":"Team Fortress","app_id":440,"player_count":0,"max_players":24,"Bots":0,"server_type":"Dedicated","server_os":"Linux","password":true,"vac":true,"version":"7932396","steam_id":85568392924470002,"keywords":["cp","nocrits","nodmgspread","uncletopia"],"game_id":440,"stv_port":27026,"stv_name":"Uncletopia | Sydney | 2 | All Maps | STV","players":null},{"server_id":395,"name":"Uncletopia | Sydney | 3 | All Maps","name_short":"syd-3","host":"syd-1.au.uncletopia.com","port":27035,"enabled":true,"region":"au","cc":"au","latitude":-33.865143,"longitude":151.2099,"reserved":0,"last_update":"0001-01-01T00:00:00Z","name_a2s":"Uncletopia | Sydney | 3 | All Maps","protocol":17,"map":"cp_dustbowl","folder":"tf","game":"Team Fortress","app_id":440,"player_count":0,"max_players":24,"Bots":0,"server_type":"Dedicated","server_os":"Linux","password":true,"vac":true,"version":"7932396","steam_id":85568392925194467,"keywords":["cp","nocrits","nodmgspread","uncletopia"],"game_id":440,"stv_port":27036,"stv_name":"Uncletopia | Sydney | 3 | All Maps | STV","players":null},{"server_id":396,"name":"Uncletopia | Sydney | 4 | All Maps","name_short":"syd-4","host":"syd-1.au.uncletopia.com","port":27045,"enabled":true,"region":"au","cc":"au","latitude":-33.865143,"longitude":151.2099,"reserved":0,"last_update":"0001-01-01T00:00:00Z","name_a2s":"Uncletopia | Sydney | 4 | All Maps","protocol":17,"map":"pl_pier","folder":"tf","game":"Team Fortress","app_id":440,"player_count":0,"max_players":24,"Bots":0,"server_type":"Dedicated","server_os":"Linux","password":true,"vac":true,"version":"7932396","steam_id":85568392925397958,"keywords":["nocrits","nodmgspread","payload","uncletopia"],"game_id":440,"stv_port":27046,"stv_name":"Uncletopia | Sydney | 4 | All Maps | STV","players":null},{"server_id":58,"name":"Uncletopia | Sydney | 5 | Stopwatch Beta","name_short":"syd-5","host":"syd-1.au.uncletopia.com","port":27055,"enabled":true,"region":"au","cc":"au","latitude":-33.865143,"longitude":151.2099,"reserved":0,"last_update":"0001-01-01T00:00:00Z","name_a2s":"Uncletopia | Sydney | 5 | Stopwatch Beta","protocol":17,"map":"pl_borneo","folder":"tf","game":"Team Fortress","app_id":440,"player_count":0,"max_players":24,"Bots":0,"server_type":"Dedicated","server_os":"Linux","password":true,"vac":true,"version":"7932396","steam_id":85568392925397959,"keywords":["nocrits","nodmgspread","payload","uncletopia"],"game_id":440,"stv_port":27056,"stv_name":"Uncletopia | Sydney | 5 | Stopwatch Beta | STV","players":null},{"server_id":59,"name":"Uncletopia | Sydney | 6 | Community","name_short":"syd-6","host":"syd-1.au.uncletopia.com","port":27065,"enabled":true,"region":"au","cc":"au","latitude":-33.865143,"longitude":151.2099,"reserved":0,"last_update":"0001-01-01T00:00:00Z","name_a2s":"Uncletopia | Sydney | 6 | Community","protocol":17,"map":"workshop/pl_vigil_rc9.ugc1266210012","folder":"tf","game":"Team Fortress","app_id":440,"player_count":0,"max_players":24,"Bots":0,"server_type":"Dedicated","server_os":"Linux","password":true,"vac":true,"version":"7932396","steam_id":85568392925397960,"keywords":["nocrits","nodmgspread","payload","uncletopia"],"game_id":440,"stv_port":27066,"stv_name":"Uncletopia | Sydney | 6 | Community | STV","players":null},{"server_id":49,"name":"Uncletopia | Warsaw | 1 | All Maps","name_short":"waw-1","host":"waw-1.pl.uncletopia.com","port":27015,"enabled":true,"region":"eu","cc":"pl","latitude":52.2297,"longitude":21.017532,"reserved":0,"last_update":"0001-01-01T00:00:00Z","name_a2s":"","protocol":0,"map":"","folder":"","game":"","app_id":0,"player_count":0,"max_players":0,"Bots":0,"server_type":"","server_os":"","password":false,"vac":false,"version":"","steam_id":0,"keywords":null,"game_id":0,"stv_port":0,"stv_name":"","players":null},{"server_id":50,"name":"Uncletopia | Warsaw | 2 | All Maps","name_short":"waw-2","host":"waw-1.pl.uncletopia.com","port":27025,"enabled":true,"region":"eu","cc":"pl","latitude":52.2297,"longitude":21.017532,"reserved":0,"last_update":"0001-01-01T00:00:00Z","name_a2s":"Uncletopia | Warsaw | 2 | All Maps","protocol":17,"map":"koth_highpass","folder":"tf","game":"Team Fortress","app_id":440,"player_count":0,"max_players":24,"Bots":0,"server_type":"Dedicated","server_os":"Linux","password":true,"vac":true,"version":"7932396","steam_id":85568392925397851,"keywords":["cp","nocrits","nodmgspread","uncletopia"],"game_id":440,"stv_port":27026,"stv_name":"Uncletopia | Warsaw | 2 | All Maps | STV","players":null},{"server_id":51,"name":"Uncletopia | Warsaw | 3 | All Maps","name_short":"waw-3","host":"waw-1.pl.uncletopia.com","port":27035,"enabled":true,"region":"eu","cc":"pl","latitude":52.2297,"longitude":21.017532,"reserved":0,"last_update":"0001-01-01T00:00:00Z","name_a2s":"Uncletopia | Warsaw | 3 | All Maps","protocol":17,"map":"koth_viaduct","folder":"tf","game":"Team Fortress","app_id":440,"player_count":0,"max_players":24,"Bots":0,"server_type":"Dedicated","server_os":"Linux","password":true,"vac":true,"version":"7932396","steam_id":85568392925397852,"keywords":["cp","nocrits","nodmgspread","uncletopia"],"game_id":440,"stv_port":27036,"stv_name":"Uncletopia | Warsaw | 3 | All Maps | STV","players":null},{"server_id":52,"name":"Uncletopia | Warsaw | 4 | All Maps","name_short":"waw-4","host":"waw-1.pl.uncletopia.com","port":27045,"enabled":true,"region":"eu","cc":"pl","latitude":52.2297,"longitude":21.017532,"reserved":0,"last_update":"0001-01-01T00:00:00Z","name_a2s":"Uncletopia | Warsaw | 4 | All Maps","protocol":17,"map":"cp_dustbowl","folder":"tf","game":"Team Fortress","app_id":440,"player_count":0,"max_players":24,"Bots":0,"server_type":"Dedicated","server_os":"Linux","password":true,"vac":true,"version":"7932396","steam_id":85568392925397853,"keywords":["cp","nocrits","nodmgspread","uncletopia"],"game_id":440,"stv_port":27046,"stv_name":"Uncletopia | Warsaw | 4 | All Maps | STV","players":null},{"server_id":53,"name":"Uncletopia | Warsaw | 5 | Stopwatch Beta","name_short":"waw-5","host":"waw-1.pl.uncletopia.com","port":27055,"enabled":true,"region":"eu","cc":"pl","latitude":52.2297,"longitude":21.017532,"reserved":0,"last_update":"0001-01-01T00:00:00Z","name_a2s":"Uncletopia | Warsaw | 5 | Stopwatch Beta","protocol":17,"map":"koth_lakeside_final","folder":"tf","game":"Team Fortress","app_id":440,"player_count":0,"max_players":24,"Bots":0,"server_type":"Dedicated","server_os":"Linux","password":true,"vac":true,"version":"7932396","steam_id":85568392925397854,"keywords":["cp","nocrits","nodmgspread","uncletopia"],"game_id":440,"stv_port":27056,"stv_name":"Uncletopia | Warsaw | 5 | Stopwatch Beta | STV","players":null},{"server_id":54,"name":"Uncletopia | Warsaw | 6 | Community","name_short":"waw-6","host":"waw-1.pl.uncletopia.com","port":27065,"enabled":true,"region":"eu","cc":"pl","latitude":52.2297,"longitude":21.017532,"reserved":0,"last_update":"0001-01-01T00:00:00Z","name_a2s":"Uncletopia | Warsaw | 6 | Community","protocol":17,"map":"pl_upward","folder":"tf","game":"Team Fortress","app_id":440,"player_count":0,"max_players":24,"Bots":0,"server_type":"Dedicated","server_os":"Linux","password":true,"vac":true,"version":"7932396","steam_id":85568392925397856,"keywords":["nocrits","nodmgspread","payload","uncletopia"],"game_id":440,"stv_port":27066,"stv_name":"Uncletopia | Warsaw | 6 | Community | STV","players":null}]}