{"status":true,"message":"","result":[{"server_id":9,"name":"Uncletopia | Atlanta | 1 | All Maps","name_short":"atl-1","host":"atl-1.us.uncletopia.com","port":27015,"enabled":true,"region":"us-east","cc":"us","latitude":33.753746,"longitude":-84.38633,"reserved":0,"last_update":"0001-01-01T00:00:00Z","name_a2s":"Uncletopia | Atlanta | 1 | All Maps","protocol":17,"map":"pl_badwater","folder":"tf","game":"Team Fortress","app_id":440,"player_count":24,"max_players":24,"Bots":0,"server_type":"Dedicated","server_os":"Linux","password":true,"vac":true,"version":"7961495","steam_id":85568392924469982,"keywords":["nocrits","nodmgspread","payload","uncletopia"],"game_id":440,"stv_port":27016,"stv_name":"Uncletopia | Atlanta | 1 | All Maps | STV","players":[{"user_id":494,"name":"wildCricket","steam_id":76561198000697459,"connected_time":27000000000,"state":"active","ping":296},{"user_id":471,"name":"The overlord of power","steam_id":76561199085508074,"connected_time":2469000000000,"state":"active","ping":55},{"user_id":493,"name":"joe","steam_id":76561198045781320,"connected_time":68000000000,"state":"active","ping":59},{"user_id":453,"name":"Saint Pepsi","steam_id":76561198956680869,"connected_time":3968000000000,"state":"active","ping":71},{"user_id":490,"name":"펨보이","steam_id":76561199468748840,"connected_time":278000000000,"state":"active","ping":73},{"user_id":470,"name":"DiamondEpsilon","steam_id":76561198203883311,"connected_time":2475000000000,"state":"active","ping":102},{"user_id":491,"name":"JustAnotherHuman","steam_id":76561199018122924,"connected_time":253000000000,"state":"active","ping":127},{"user_id":487,"name":"Sweater-Fan","steam_id":76561199389567214,"connected_time":705000000000,"state":"active","ping":64},{"user_id":476,"name":"row","steam_id":76561198040946044,"connected_time":2018000000000,"state":"active","ping":78},{"user_id":458,"name":"Marrow \u003c3","steam_id":76561198930350337,"connected_time":3840000000000,"state":"active","ping":54},{"user_id":447,"name":"Action Bastard","steam_id":76561198059552170,"connected_time":4400000000000,"state":"active","ping":75},{"user_id":436,"name":"lalman","steam_id":76561198196605887,"connected_time":4972000000000,"state":"active","ping":63},{"user_id":486,"name":"QLan","steam_id":76561198147530243,"connected_time":816000000000,"state":"active","ping":85},{"user_id":477,"name":"the pest","steam_id":76561198826298849,"connected_time":1636000000000,"state":"active","ping":93},{"user_id":460,"name":"Taskrabbits","steam_id":76561198366682546,"connected_time":3730000000000,"state":"active","ping":121},{"user_id":472,"name":"KASHI","steam_id":76561198045285049,"connected_time":2399000000000,"state":"active","ping":100},{"user_id":462,"name":"Monkey Mode","steam_id":76561197961267543,"connected_time":3573000000000,"state":"active","ping":53},{"user_id":478,"name":"Uganda Knuckles lll","steam_id":76561199121276474,"connected_time":1292000000000,"state":"active","ping":84},{"user_id":488,"name":"DeezNoodlez","steam_id":76561198246700372,"connected_time":455000000000,"state":"active","ping":58},{"user_id":451,"name":"big steve","steam_id":76561199037050183,"connected_time":4004000000000,"state":"active","ping":83},{"user_id":489,"name":"lu","steam_id":76561198080731872,"connected_time":393000000000,"state":"active","ping":75},{"user_id":361,"name":"Heathcliff","steam_id":76561198044288534,"connected_time":12565000000000,"state":"active","ping":81},{"user_id":492,"name":"KBoneski ♡","steam_id":76561198307409065,"connected_time":252000000000,"state":"active","ping":90},{"user_id":467,"name":"YeeboBeebo","steam_id":76561198812879907,"connected_time":2963000000000,"state":"active","ping":75}]},{"server_id":104,"name":"Uncletopia | Atlanta | 2 | All Maps","name_short":"atl-2","host":"atl-1.us.uncletopia.com","port":27025,"enabled":true,"region":"us-east","cc":"us","latitude":33.753746,"longitude":-84.38633,"reserved":0,"last_update":"0001-01-01T00:00:00Z","name_a2s":"Uncletopia | Atlanta | 2 | All Maps","protocol":17,"map":"pl_snowycoast","folder":"tf","game":"Team Fortress","app_id":440,"player_count":24,"max_players":24,"Bots":0,"server_type":"Dedicated","server_os":"Linux","password":true,"vac":true,"version":"7961495","steam_id":85568392924469983,"keywords":["nocrits","nodmgspread","payload","uncletopia"],"game_id":440,"stv_port":27026,"stv_name":"Uncletopia | Atlanta | 2 | All Maps | STV","players":[{"user_id":279,"name":"TheGrassMan (He/Him)","steam_id":76561198118984048,"connected_time":423000000000,"state":"active","ping":85},{"user_id":264,"name":"Your Local NPR Station","steam_id":76561198143830279,"connected_time":947000000000,"state":"active","ping":42},{"user_id":261,"name":"lil hog","steam_id":76561199230929836,"connected_time":992000000000,"state":"active","ping":89},{"user_id":263,"name":"Azazellotl","steam_id":76561198824814392,"connected_time":956000000000,"state":"active","ping":78},{"user_id":274,"name":"HRT","steam_id":76561198013781132,"connected_time":793000000000,"state":"active","ping":132},{"user_id":266,"name":"Junipyre","steam_id":76561198044819364,"connected_time":913000000000,"state":"active","ping":97},{"user_id":249,"name":"Decolour","steam_id":76561199045608372,"connected_time":2076000000000,"state":"active","ping":72},{"user_id":243,"name":"Technomancer","steam_id":76561198137758683,"connected_time":2965000000000,"state":"active","ping":87},{"user_id":260,"name":"Chuckles","steam_id":76561198340110176,"connected_time":1051000000000,"state":"active","ping":88},{"user_id":184,"name":"tgirl swag","steam_id":76561198128164970,"connected_time":4478000000000,"state":"active","ping":105},{"user_id":208,"name":"Pango","steam_id":76561198069811545,"connected_time":4029000000000,"state":"active","ping":48},{"user_id":262,"name":"R{FITH}™Gym bro","steam_id":76561198094891050,"connected_time":987000000000,"state":"active","ping":90},{"user_id":246,"name":"Crystron","steam_id":76561198880437428,"connected_time":2582000000000,"state":"active","ping":79},{"user_id":267,"name":"bobbymcbobington","steam_id":76561199089411172,"connected_time":909000000000,"state":"active","ping":93},{"user_id":278,"name":"RectalExam","steam_id":76561197970502312,"connected_time":466000000000,"state":"active","ping":96},{"user_id":125,"name":"Vee (very cool)","steam_id":76561198330432889,"connected_time":6654000000000,"state":"active","ping":63},{"user_id":112,"name":"Twa","steam_id":76561198295529541,"connected_time":7309000000000,"state":"active","ping":68},{"user_id":255,"name":"Snivy64","steam_id":76561198423445376,"connected_time":1948000000000,"state":"active","ping":102},{"user_id":168,"name":"King Cotton","steam_id":76561198292444376,"connected_time":4694000000000,"state":"active","ping":85},{"user_id":226,"name":"MrEdman4","steam_id":76561198062233923,"connected_time":3758000000000,"state":"active","ping":71},{"user_id":272,"name":"Quillz","steam_id":76561197996567754,"connected_time":817000000000,"state":"active","ping":74},{"user_id":256,"name":"The Great British Breaking Bad","steam_id":76561198028882338,"connected_time":1927000000000,"state":"active","ping":55},{"user_id":248,"name":"Albino Jellyfish","steam_id":76561198208561097,"connected_time":2138000000000,"state":"active","ping":58},{"user_id":273,"name":"dookiemonster33","steam_id":76561198979494052,"connected_time":816000000000,"state":"active","ping":60}]},{"server_id":400,"name":"Uncletopia | Atlanta | 3 | Stopwatch","name_short":"atl-3","host":"atl-1.us.uncletopia.com","port":27035,"enabled":true,"region":"us-east","cc":"us","latitude":33.753746,"longitude":-84.38633,"reserved":0,"last_update":"0001-01-01T00:00:00Z","name_a2s":"Uncletopia | Atlanta | 3 | Stopwatch","protocol":17,"map":"workshop/koth_product_final.ugc454272353","folder":"tf","game":"Team Fortress","app_id":440,"player_count":24,"max_players":24,"Bots":0,"server_type":"Dedicated","server_os":"Linux","password":true,"vac":true,"version":"7961495","steam_id":85568392924515187,"keywords":["cp","nocrits","nodmgspread","uncletopia"],"game_id":440,"stv_port":27036,"stv_name":"Uncletopia | Atlanta | 3 | Stopwatch | STV","players":[{"user_id":115,"name":"Bonk Nickeltoon","steam_id":76561198027738883,"connected_time":4094000000000,"state":"active","ping":64},{"user_id":166,"name":"Spiderfight1","steam_id":76561199189991528,"connected_time":704000000000,"state":"active","ping":84},{"user_id":138,"name":"Kantamoe","steam_id":76561198046661611,"connected_time":2297000000000,"state":"active","ping":68},{"user_id":87,"name":"12 yottabytes of women's feet","steam_id":76561198057034390,"connected_time":5410000000000,"state":"active","ping":128},{"user_id":149,"name":"Finn the Dafter","steam_id":76561198004267413,"connected_time":1535000000000,"state":"active","ping":82},{"user_id":40,"name":"Mathatguy","steam_id":76561198225432188,"connected_time":7741000000000,"state":"active","ping":85},{"user_id":161,"name":"㋛ countblanc","steam_id":76561197993171771,"connected_time":805000000000,"state":"active","ping":62},{"user_id":107,"name":"kjr :)","steam_id":76561198799443149,"connected_time":4254000000000,"state":"active","ping":52},{"user_id":122,"name":"dax","steam_id":76561198045335319,"connected_time":3140000000000,"state":"active","ping":64},{"user_id":164,"name":"AMistake","steam_id":76561199379196708,"connected_time":730000000000,"state":"active","ping":59},{"user_id":145,"name":"i am a chicken nugget, with no ","steam_id":76561198053832401,"connected_time":1928000000000,"state":"active","ping":132},{"user_id":157,"name":"Hero8171","steam_id":76561199239824271,"connected_time":1055000000000,"state":"active","ping":81},{"user_id":126,"name":"Chilithium","steam_id":76561198073081345,"connected_time":2888000000000,"state":"active","ping":61},{"user_id":174,"name":"Cassini","steam_id":76561198318526294,"connected_time":532000000000,"state":"active","ping":61},{"user_id":158,"name":"Delta","steam_id":76561198158985472,"connected_time":1051000000000,"state":"active","ping":118},{"user_id":181,"name":"otwtomarsoffdabars(spacecore)","steam_id":76561199085974120,"connected_time":5000000000,"state":"spawning","ping":64},{"user_id":168,"name":"The Milk Man","steam_id":76561198092635758,"connected_time":664000000000,"state":"active","ping":88},{"user_id":169,"name":"sewerduck","steam_id":76561198160184747,"connected_time":661000000000,"state":"active","ping":88},{"user_id":176,"name":"Hawkborne","steam_id":76561198107249245,"connected_time":324000000000,"state":"active","ping":71},{"user_id":178,"name":"Nue Houjuu","steam_id":76561199013167718,"connected_time":245000000000,"state":"active","ping":77},{"user_id":179,"name":"stubowden","steam_id":76561198421175184,"connected_time":225000000000,"state":"active","ping":126},{"user_id":180,"name":"SURRENDER FREEMEN","steam_id":76561198072277956,"connected_time":170000000000,"state":"active","ping":90},{"user_id":173,"name":"One Eyed Willy","steam_id":76561198138075913,"connected_time":594000000000,"state":"active","ping":70},{"user_id":136,"name":"BananaMangoFestival2013","steam_id":76561198218558897,"connected_time":2421000000000,"state":"active","ping":166}]},{"server_id":401,"name":"Uncletopia | Atlanta | 4 | Community","name_short":"atl-4","host":"atl-1.us.uncletopia.com","port":27045,"enabled":true,"region":"us-east","cc":"us","latitude":33.753746,"longitude":-84.38633,"reserved":0,"last_update":"0001-01-01T00:00:00Z","name_a2s":"Uncletopia | Atlanta | 4 | Community","protocol":17,"map":"workshop/koth_product_final.ugc454272353","folder":"tf","game":"Team Fortress","app_id":440,"player_count":0,"max_players":24,"Bots":0,"server_type":"Dedicated","server_os":"Linux","password":true,"vac":true,"version":"7961495","steam_id":85568392924515188,"keywords":["cp","nocrits","nodmgspread","uncletopia"],"game_id":440,"stv_port":27046,"stv_name":"Uncletopia | Atlanta | 4 | Community | STV","players":null},{"server_id":2,"name":"Uncletopia | Chicago | 1 | All Maps","name_short":"chi-1","host":"chi-1.us.uncletopia.com","port":27015,"enabled":true,"region":"us-central","cc":"us","latitude":41.881832,"longitude":-87.62318,"reserved":0,"last_update":"0001-01-01T00:00:00Z","name_a2s":"Uncletopia | Chicago | 1 | All Maps","protocol":17,"map":"pl_pier","folder":"tf","game":"Team Fortress","app_id":440,"player_count":24,"max_players":24,"Bots":0,"server_type":"Dedicated","server_os":"Linux","password":true,"vac":true,"version":"7961495","steam_id":85568392924469984,"keywords":["nocrits","nodmgspread","payload","uncletopia"],"game_id":440,"stv_port":27016,"stv_name":"Uncletopia | Chicago | 1 | All Maps | STV","players":[{"user_id":407,"name":"onionaid","steam_id":76561198065266282,"connected_time":2998000000000,"state":"active","ping":83},{"user_id":444,"name":"Punks","steam_id":76561199140940650,"connected_time":311000000000,"state":"active","ping":58},{"user_id":438,"name":"Endzilla88","steam_id":76561198257926514,"connected_time":524000000000,"state":"active","ping":69},{"user_id":406,"name":"Fred Jones","steam_id":76561198000342235,"connected_time":3009000000000,"state":"active","ping":62},{"user_id":408,"name":"GreatTimBones","steam_id":76561198409145748,"connected_time":2986000000000,"state":"active","ping":84},{"user_id":433,"name":"Kretim","steam_id":76561199204273483,"connected_time":1436000000000,"state":"active","ping":71},{"user_id":409,"name":"Bottom Trans Cowgirl","steam_id":76561198304239680,"connected_time":2936000000000,"state":"active","ping":75},{"user_id":439,"name":"womthedom","steam_id":76561198088768287,"connected_time":517000000000,"state":"active","ping":48},{"user_id":431,"name":"Thilo","steam_id":76561197987278784,"connected_time":1541000000000,"state":"active","ping":64},{"user_id":436,"name":"Rocko","steam_id":76561198088283800,"connected_time":564000000000,"state":"active","ping":55},{"user_id":419,"name":"Waffle","steam_id":76561199000034608,"connected_time":2523000000000,"state":"active","ping":60},{"user_id":435,"name":"Masonicle","steam_id":76561198192327657,"connected_time":792000000000,"state":"active","ping":72},{"user_id":440,"name":"Rudy","steam_id":76561198013456828,"connected_time":516000000000,"state":"active","ping":93},{"user_id":372,"name":"Strange Festive Femboy","steam_id":76561198050385093,"connected_time":6805000000000,"state":"active","ping":85},{"user_id":421,"name":"._.","steam_id":76561198300316801,"connected_time":2456000000000,"state":"active","ping":60},{"user_id":412,"name":"Wolfking450","steam_id":76561198399975373,"connected_time":2860000000000,"state":"active","ping":86},{"user_id":370,"name":"NovaSc6ut","steam_id":76561198277163301,"connected_time":6985000000000,"state":"active","ping":67},{"user_id":441,"name":"Flashtasm","steam_id":76561198026635660,"connected_time":502000000000,"state":"active","ping":65},{"user_id":442,"name":"Minmit__","steam_id":76561198218417512,"connected_time":438000000000,"state":"active","ping":103},{"user_id":434,"name":"Toottoot","steam_id":76561197992404836,"connected_time":1308000000000,"state":"active","ping":46},{"user_id":414,"name":"waaaaaa","steam_id":76561198966942136,"connected_time":2826000000000,"state":"active","ping":95},{"user_id":443,"name":"Psycho Crusher","steam_id":76561198987125856,"connected_time":416000000000,"state":"active","ping":87},{"user_id":437,"name":"30Hz Gaming","steam_id":76561198095550617,"connected_time":564000000000,"state":"active","ping":97}]},{"server_id":106,"name":"Uncletopia | Chicago | 2 | All Maps","name_short":"chi-2","host":"chi-1.us.uncletopia.com","port":27025,"enabled":true,"region":"us-central","cc":"us","latitude":41.881832,"longitude":-87.62318,"reserved":0,"last_update":"0001-01-01T00:00:00Z","name_a2s":"Uncletopia | Chicago | 2 | All Maps","protocol":17,"map":"pl_snowycoast","folder":"tf","game":"Team Fortress","app_id":440,"player_count":24,"max_players":24,"Bots":0,"server_type":"Dedicated","server_os":"Linux","password":true,"vac":true,"version":"7961495","steam_id":85568392924469985,"keywords":["nocrits","nodmgspread","payload","uncletopia"],"game_id":440,"stv_port":27026,"stv_name":"Uncletopia | Chicago | 2 | All Maps | STV","players":[{"user_id":468,"name":"freyja 2","steam_id":76561198249206656,"connected_time":3409000000000,"state":"active","ping":206},{"user_id":469,"name":"barfuncle's son","steam_id":76561198092135570,"connected_time":3145000000000,"state":"active","ping":60},{"user_id":497,"name":"Lia_Rein","steam_id":76561198151569597,"connected_time":241000000000,"state":"active","ping":136},{"user_id":443,"name":"VisibleForce","steam_id":76561198104178938,"connected_time":4502000000000,"state":"active","ping":77},{"user_id":483,"name":"Buckler","steam_id":76561197969421355,"connected_time":1381000000000,"state":"active","ping":47},{"user_id":501,"name":"Onerish","steam_id":76561198042057889,"connected_time":23000000000,"state":"active","ping":111},{"user_id":480,"name":"Howard Hamlin","steam_id":76561198881039861,"connected_time":1527000000000,"state":"active","ping":47},{"user_id":458,"name":"가짜 한국인","steam_id":76561198079416036,"connected_time":3586000000000,"state":"active","ping":45},{"user_id":453,"name":"Maximum Flame","steam_id":76561198073682529,"connected_time":3903000000000,"state":"active","ping":45},{"user_id":498,"name":"$limek✔ngEM0.an1me.B0Y_33309","steam_id":76561198283687382,"connected_time":204000000000,"state":"active","ping":157},{"user_id":496,"name":"Word To Your Mothership","steam_id":76561198034329138,"connected_time":269000000000,"state":"active","ping":99},{"user_id":457,"name":"Brains . . .","steam_id":76561198100249037,"connected_time":3597000000000,"state":"active","ping":46},{"user_id":499,"name":"ElectricBurger36","steam_id":76561198847607639,"connected_time":175000000000,"state":"active","ping":63},{"user_id":488,"name":"Tobo","steam_id":76561198085846393,"connected_time":944000000000,"state":"active","ping":90},{"user_id":474,"name":"linus","steam_id":76561198106196691,"connected_time":2124000000000,"state":"active","ping":75},{"user_id":493,"name":"JellyParrot","steam_id":76561199190990163,"connected_time":584000000000,"state":"active","ping":68},{"user_id":455,"name":"MedRed™ #IATAH","steam_id":76561198002962970,"connected_time":3875000000000,"state":"active","ping":97},{"user_id":476,"name":"Megatron G","steam_id":76561198168864083,"connected_time":1626000000000,"state":"active","ping":91},{"user_id":445,"name":"hej","steam_id":76561197996366940,"connected_time":4209000000000,"state":"active","ping":63},{"user_id":450,"name":"Hazeyboi","steam_id":76561198130687838,"connected_time":4086000000000,"state":"active","ping":45},{"user_id":485,"name":"a festive sooley","steam_id":76561198134500189,"connected_time":1354000000000,"state":"active","ping":71},{"user_id":500,"name":"Funky Kong Jr.","steam_id":76561199351137762,"connected_time":175000000000,"state":"active","ping":99},{"user_id":494,"name":"Schloper","steam_id":76561198153400447,"connected_time":414000000000,"state":"active","ping":60},{"user_id":471,"name":"Tom Pearl Harbor","steam_id":76561198328209206,"connected_time":2970000000000,"state":"active","ping":87}]},{"server_id":402,"name":"Uncletopia | Chicago | 3 | All Maps","name_short":"chi-3","host":"chi-1.us.uncletopia.com","port":27035,"enabled":true,"region":"us-central","cc":"us","latitude":41.881832,"longitude":-87.62318,"reserved":0,"last_update":"0001-01-01T00:00:00Z","name_a2s":"Uncletopia | Chicago | 3 | All Maps","protocol":17,"map":"pl_snowycoast","folder":"tf","game":"Team Fortress","app_id":440,"player_count":24,"max_players":24,"Bots":0,"server_type":"Dedicated","server_os":"Linux","password":true,"vac":true,"version":"7961495","steam_id":85568392924515191,"keywords":["nocrits","nodmgspread","payload","uncletopia"],"game_id":440,"stv_port":27036,"stv_name":"Uncletopia | Chicago | 3 | All Maps | STV","players":[{"user_id":619,"name":"winning","steam_id":76561198003206947,"connected_time":4096000000000,"state":"active","ping":51},{"user_id":674,"name":"Windup Monkey in a Human Suit","steam_id":76561198119501444,"connected_time":450000000000,"state":"active","ping":106},{"user_id":666,"name":"Kickpuncher","steam_id":76561198121528357,"connected_time":677000000000,"state":"active","ping":73},{"user_id":566,"name":"Headshotsnake","steam_id":76561198067130248,"connected_time":6857000000000,"state":"active","ping":62},{"user_id":593,"name":"Weebmcgee","steam_id":76561198081231557,"connected_time":4716000000000,"state":"active","ping":63},{"user_id":669,"name":"Maryam","steam_id":76561198128969186,"connected_time":581000000000,"state":"active","ping":64},{"user_id":672,"name":"BooceMaster","steam_id":76561198148520318,"connected_time":530000000000,"state":"active","ping":72},{"user_id":642,"name":"paypur -rng","steam_id":76561198214370515,"connected_time":1887000000000,"state":"active","ping":71},{"user_id":680,"name":"Aramis_Aanda","steam_id":76561198256121694,"connected_time":356000000000,"state":"active","ping":89},{"user_id":665,"name":"Hovg9000","steam_id":76561199191556710,"connected_time":771000000000,"state":"active","ping":87},{"user_id":673,"name":"werecat","steam_id":76561198005091213,"connected_time":482000000000,"state":"active","ping":59},{"user_id":675,"name":"Jean Deere","steam_id":76561198105101309,"connected_time":426000000000,"state":"active","ping":76},{"user_id":681,"name":"Nibelsnarf (She/They)","steam_id":76561198137642054,"connected_time":92000000000,"state":"active","ping":55},{"user_id":662,"name":"Crab","steam_id":76561198067628664,"connected_time":857000000000,"state":"active","ping":105},{"user_id":677,"name":"HalfDead","steam_id":76561198049700226,"connected_time":408000000000,"state":"active","ping":88},{"user_id":656,"name":"my name jeff","steam_id":76561198179816898,"connected_time":1435000000000,"state":"active","ping":75},{"user_id":678,"name":"Joculatrix","steam_id":76561198012795457,"connected_time":406000000000,"state":"active","ping":59},{"user_id":664,"name":"[NAME-REDACTED]","steam_id":76561198035682975,"connected_time":803000000000,"state":"active","ping":70},{"user_id":652,"name":"hamster *BITE WARNING* EXTREME","steam_id":76561198083175190,"connected_time":1666000000000,"state":"active","ping":61},{"user_id":679,"name":"Lv3 Kobold Shadow Sorcerer","steam_id":76561198042068995,"connected_time":403000000000,"state":"active","ping":99},{"user_id":648,"name":"local man","steam_id":76561198074946673,"connected_time":1851000000000,"state":"active","ping":60},{"user_id":671,"name":"Shoeshocker","steam_id":76561198174302467,"connected_time":558000000000,"state":"active","ping":70},{"user_id":657,"name":"smugleafthesmug","steam_id":76561198844190634,"connected_time":1404000000000,"state":"active","ping":42},{"user_id":618,"name":"Nazrin","steam_id":76561198246701796,"connected_time":4173000000000,"state":"active","ping":71}]},{"server_id":403,"name":"Uncletopia | Chicago | 4 | All Maps","name_short":"chi-4","host":"chi-1.us.uncletopia.com","port":27045,"enabled":true,"region":"us-central","cc":"us","latitude":41.881832,"longitude":-87.62318,"reserved":0,"last_update":"0001-01-01T00:00:00Z","name_a2s":"Uncletopia | Chicago | 4 | All Maps","protocol":17,"map":"pl_upward","folder":"tf","game":"Team Fortress","app_id":440,"player_count":16,"max_players":24,"Bots":0,"server_type":"Dedicated","server_os":"Linux","password":true,"vac":true,"version":"7961495","steam_id":85568392924515193,"keywords":["nocrits","nodmgspread","payload","uncletopia"],"game_id":440,"stv_port":27046,"stv_name":"Uncletopia | Chicago | 4 | All Maps | STV","players":[{"user_id":452,"name":"ravN :)","steam_id":76561198272366231,"connected_time":36000000000,"state":"active","ping":57},{"user_id":453,"name":"bouncyhousin","steam_id":76561198852902827,"connected_time":23000000000,"state":"active","ping":78},{"user_id":424,"name":"Classic","steam_id":76561198215293509,"connected_time":1727000000000,"state":"active","ping":65},{"user_id":436,"name":"Lord_Manship","steam_id":76561198045168765,"connected_time":1588000000000,"state":"active","ping":82},{"user_id":419,"name":"Laventhey","steam_id":76561198977523626,"connected_time":1982000000000,"state":"active","ping":65},{"user_id":448,"name":"joey","steam_id":76561198087010050,"connected_time":744000000000,"state":"active","ping":45},{"user_id":440,"name":"LittleLegoGamer","steam_id":76561198283802935,"connected_time":1241000000000,"state":"active","ping":62},{"user_id":417,"name":"MegaPenguin","steam_id":76561198038796875,"connected_time":2071000000000,"state":"active","ping":84},{"user_id":443,"name":"Toxic Ron","steam_id":76561198089302972,"connected_time":1173000000000,"state":"active","ping":73},{"user_id":447,"name":"Lord Cutler Beckett","steam_id":76561198091356047,"connected_time":890000000000,"state":"active","ping":45},{"user_id":435,"name":"King Of The Chill","steam_id":76561197971394640,"connected_time":1593000000000,"state":"active","ping":96},{"user_id":450,"name":"Jerry Bondle","steam_id":76561198337512213,"connected_time":571000000000,"state":"active","ping":55},{"user_id":449,"name":"GMFD! Juustin","steam_id":76561198121922413,"connected_time":614000000000,"state":"active","ping":96},{"user_id":434,"name":"`o2","steam_id":76561197992030936,"connected_time":1617000000000,"state":"active","ping":60},{"user_id":445,"name":"I'm bad I know thx \u003c3","steam_id":76561198058840477,"connected_time":1166000000000,"state":"active","ping":100},{"user_id":319,"name":"Digitic","steam_id":76561198080295536,"connected_time":9680000000000,"state":"active","ping":72}]},{"server_id":36,"name":"Uncletopia | Chicago | 5 | All Maps","name_short":"chi-5","host":"chi-2.us.uncletopia.com","port":27015,"enabled":true,"region":"us-central","cc":"us","latitude":41.881832,"longitude":-87.62318,"reserved":0,"last_update":"0001-01-01T00:00:00Z","name_a2s":"Uncletopia | Chicago | 5 | All Maps","protocol":17,"map":"pl_upward","folder":"tf","game":"Team Fortress","app_id":440,"player_count":22,"max_players":24,"Bots":0,"server_type":"Dedicated","server_os":"Linux","password":true,"vac":true,"version":"7961495","steam_id":85568392924866362,"keywords":["nocrits","nodmgspread","payload","uncletopia"],"game_id":440,"stv_port":27016,"stv_name":"Uncletopia | Chicago | 5 | All Maps | STV","players":[{"user_id":465,"name":"loser","steam_id":76561198259380127,"connected_time":5535000000000,"state":"active","ping":49},{"user_id":529,"name":"spider","steam_id":76561198130032444,"connected_time":2068000000000,"state":"active","ping":90},{"user_id":520,"name":"caption cool","steam_id":76561197990612056,"connected_time":2500000000000,"state":"active","ping":47},{"user_id":558,"name":"Dieu-Sama","steam_id":76561198002075862,"connected_time":164000000000,"state":"active","ping":77},{"user_id":537,"name":"m4xzo","steam_id":76561198073176682,"connected_time":1644000000000,"state":"active","ping":58},{"user_id":555,"name":"Super3D","steam_id":76561199297779078,"connected_time":359000000000,"state":"active","ping":62},{"user_id":502,"name":"God","steam_id":76561198131089513,"connected_time":3281000000000,"state":"active","ping":49},{"user_id":535,"name":"king sir glorious","steam_id":76561198115676070,"connected_time":1796000000000,"state":"active","ping":135},{"user_id":464,"name":"The Jar","steam_id":76561198146013385,"connected_time":5561000000000,"state":"active","ping":71},{"user_id":561,"name":"BTS Fan #89321","steam_id":76561198088561849,"connected_time":38000000000,"state":"active","ping":55},{"user_id":543,"name":"Gaiduk","steam_id":76561198112323877,"connected_time":764000000000,"state":"active","ping":72},{"user_id":544,"name":"Owls = Government Drones","steam_id":76561198439793697,"connected_time":753000000000,"state":"active","ping":77},{"user_id":487,"name":"Captain","steam_id":76561198155723294,"connected_time":3979000000000,"state":"active","ping":53},{"user_id":527,"name":"Modest","steam_id":76561198065643694,"connected_time":2226000000000,"state":"active","ping":70},{"user_id":499,"name":"funkeymonkey15","steam_id":76561198930961042,"connected_time":3345000000000,"state":"active","ping":77},{"user_id":525,"name":"damn dude","steam_id":76561198065528284,"connected_time":2424000000000,"state":"active","ping":70},{"user_id":546,"name":"Lord Aben","steam_id":76561198135266770,"connected_time":740000000000,"state":"active","ping":44},{"user_id":524,"name":"Nobody","steam_id":76561198286486517,"connected_time":2446000000000,"state":"active","ping":59},{"user_id":483,"name":"FazeCumShot69™","steam_id":76561199248475270,"connected_time":4477000000000,"state":"active","ping":106},{"user_id":554,"name":"Streetwise","steam_id":76561197971684268,"connected_time":467000000000,"state":"active","ping":97},{"user_id":547,"name":"Boolet","steam_id":76561198088666151,"connected_time":735000000000,"state":"active","ping":89},{"user_id":549,"name":"-W3E- grim10465","steam_id":76561198045698581,"connected_time":722000000000,"state":"active","ping":44}]},{"server_id":37,"name":"Uncletopia | Chicago | 6 | All Maps","name_short":"chi-6","host":"chi-2.us.uncletopia.com","port":27025,"enabled":true,"region":"us-central","cc":"us","latitude":41.881832,"longitude":-87.62318,"reserved":0,"last_update":"0001-01-01T00:00:00Z","name_a2s":"Uncletopia | Chicago | 6 | All Maps","protocol":17,"map":"cp_dustbowl","folder":"tf","game":"Team Fortress","app_id":440,"player_count":23,"max_players":24,"Bots":0,"server_type":"Dedicated","server_os":"Linux","password":true,"vac":true,"version":"7961495","steam_id":85568392924866363,"keywords":["cp","nocrits","nodmgspread","uncletopia"],"game_id":440,"stv_port":27026,"stv_name":"Uncletopia | Chicago | 6 | All Maps | STV","players":[{"user_id":265,"name":"thecal","steam_id":76561198307893384,"connected_time":4811000000000,"state":"active","ping":52},{"user_id":316,"name":"menonamed","steam_id":76561198199564382,"connected_time":1426000000000,"state":"active","ping":76},{"user_id":326,"name":"dnaak","steam_id":76561197960489193,"connected_time":1057000000000,"state":"active","ping":45},{"user_id":328,"name":"arinet","steam_id":76561198052572890,"connected_time":238000000000,"state":"active","ping":66},{"user_id":324,"name":"yes","steam_id":76561199094011002,"connected_time":1171000000000,"state":"active","ping":55},{"user_id":274,"name":"JACOB","steam_id":76561198211874895,"connected_time":4365000000000,"state":"active","ping":77},{"user_id":314,"name":"Mexican Immigrant","steam_id":76561198387341089,"connected_time":1481000000000,"state":"active","ping":58},{"user_id":300,"name":"TheChoclateDogThatCould","steam_id":76561198142126470,"connected_time":2316000000000,"state":"active","ping":44},{"user_id":325,"name":"[CC]Thrizz","steam_id":76561198078195337,"connected_time":1132000000000,"state":"active","ping":152},{"user_id":224,"name":"gaming elliptical","steam_id":76561198013456569,"connected_time":7139000000000,"state":"active","ping":46},{"user_id":205,"name":"A/funny/dream","steam_id":76561198354481597,"connected_time":8321000000000,"state":"active","ping":83},{"user_id":318,"name":"Big Kev","steam_id":76561198058262994,"connected_time":1396000000000,"state":"active","ping":50},{"user_id":290,"name":"snive","steam_id":76561198086748674,"connected_time":2800000000000,"state":"active","ping":92},{"user_id":329,"name":"Cresty","steam_id":76561199118643461,"connected_time":76000000000,"state":"active","ping":102},{"user_id":320,"name":"ginosaurusx","steam_id":76561198410640142,"connected_time":1377000000000,"state":"active","ping":75},{"user_id":292,"name":"Tick","steam_id":76561198184161214,"connected_time":2700000000000,"state":"active","ping":47},{"user_id":293,"name":"CapnKris22","steam_id":76561198049010994,"connected_time":2689000000000,"state":"active","ping":51},{"user_id":207,"name":"TheGuyWhoPlays","steam_id":76561198277363002,"connected_time":8249000000000,"state":"active","ping":61},{"user_id":310,"name":"Mr Happy","steam_id":76561198067689328,"connected_time":1845000000000,"state":"active","ping":65},{"user_id":273,"name":"bumrusherz","steam_id":76561198440658195,"connected_time":4482000000000,"state":"active","ping":86},{"user_id":323,"name":"warcos","steam_id":76561198403167494,"connected_time":1309000000000,"state":"active","ping":95},{"user_id":285,"name":"og biden pack cart","steam_id":76561198253731826,"connected_time":3408000000000,"state":"active","ping":59},{"user_id":311,"name":"Porky Minch","steam_id":76561198116168773,"connected_time":1765000000000,"state":"active","ping":54}]},{"server_id":38,"name":"Uncletopia | Chicago | 7 | Stopwatch","name_short":"chi-7","host":"chi-2.us.uncletopia.com","port":27035,"enabled":true,"region":"us-central","cc":"us","latitude":41.881832,"longitude":-87.62318,"reserved":0,"last_update":"0001-01-01T00:00:00Z","name_a2s":"Uncletopia | Chicago | 7 | Stopwatch","protocol":17,"map":"pl_borneo","folder":"tf","game":"Team Fortress","app_id":440,"player_count":20,"max_players":24,"Bots":0,"server_type":"Dedicated","server_os":"Linux","password":true,"vac":true,"version":"7961495","steam_id":85568392924866364,"keywords":["nocrits","nodmgspread","payload","uncletopia"],"game_id":440,"stv_port":27036,"stv_name":"Uncletopia | Chicago | 7 | Stopwatch | STV","players":[{"user_id":301,"name":"wincel hampton","steam_id":76561198083095146,"connected_time":154000000000,"state":"active","ping":75},{"user_id":289,"name":"Dawnstar","steam_id":76561198051002139,"connected_time":485000000000,"state":"active","ping":85},{"user_id":306,"name":"SimpKing","steam_id":76561198061431512,"connected_time":24000000000,"state":"active","ping":59},{"user_id":169,"name":"fakeness","steam_id":76561198018811206,"connected_time":8353000000000,"state":"active","ping":76},{"user_id":304,"name":"Sergeant Joker LFT","steam_id":76561198854616604,"connected_time":56000000000,"state":"active","ping":63},{"user_id":263,"name":"Tohru","steam_id":76561198139393876,"connected_time":2258000000000,"state":"active","ping":90},{"user_id":305,"name":"American Steel","steam_id":76561198101116197,"connected_time":44000000000,"state":"active","ping":98},{"user_id":235,"name":"Zoawsome","steam_id":76561198018758753,"connected_time":3955000000000,"state":"active","ping":46},{"user_id":296,"name":"\"Soldier\"","steam_id":76561199446367874,"connected_time":299000000000,"state":"active","ping":50},{"user_id":293,"name":"young peter","steam_id":76561198150382695,"connected_time":347000000000,"state":"active","ping":75},{"user_id":294,"name":"jimmz","steam_id":76561199076776118,"connected_time":328000000000,"state":"active","ping":70},{"user_id":308,"name":"Tachlend","steam_id":76561198069708166,"connected_time":13000000000,"state":"spawning","ping":44},{"user_id":298,"name":"Asanez3","steam_id":76561198037381436,"connected_time":248000000000,"state":"active","ping":72},{"user_id":258,"name":"Jolly #Murdererrights","steam_id":76561198064214000,"connected_time":2358000000000,"state":"active","ping":69},{"user_id":284,"name":"Jamie Hyneman","steam_id":76561199196036481,"connected_time":1037000000000,"state":"active","ping":87},{"user_id":288,"name":"Jombi","steam_id":76561198427813097,"connected_time":503000000000,"state":"active","ping":80},{"user_id":299,"name":"St4r_K1ll3r","steam_id":76561198853157301,"connected_time":241000000000,"state":"active","ping":75},{"user_id":204,"name":"rude boi","steam_id":76561198006783260,"connected_time":6777000000000,"state":"active","ping":60},{"user_id":281,"name":"SilentFootba11","steam_id":76561199006570947,"connected_time":1311000000000,"state":"active","ping":70},{"user_id":260,"name":"fujoshi","steam_id":76561198305796131,"connected_time":2355000000000,"state":"active","ping":47}]},{"server_id":39,"name":"Uncletopia | Chicago | 8 | Community","name_short":"chi-8","host":"chi-2.us.uncletopia.com","port":27045,"enabled":true,"region":"us-central","cc":"us","latitude":41.881832,"longitude":-87.62318,"reserved":0,"last_update":"0001-01-01T00:00:00Z","name_a2s":"Uncletopia | Chicago | 8 | Community","protocol":17,"map":"pl_pier","folder":"tf","game":"Team Fortress","app_id":440,"player_count":0,"max_players":24,"Bots":0,"server_type":"Dedicated","server_os":"Linux","password":true,"vac":true,"version":"7961495","steam_id":85568392924866365,"keywords":["nocrits","nodmgspread","payload","uncletopia"],"game_id":440,"stv_port":27046,"stv_name":"Uncletopia | Chicago | 8 | Community | STV","players":null},{"server_id":8,"name":"Uncletopia | Dallas | 1 | All Maps","name_short":"dal-1","host":"dal-1.us.uncletopia.com","port":27015,"enabled":true,"region":"us-central","cc":"us","latitude":32.779167,"longitude":-96.80889,"reserved":0,"last_update":"0001-01-01T00:00:00Z","name_a2s":"Uncletopia | Dallas | 1 | All Maps","protocol":17,"map":"pl_frontier_final","folder":"tf","game":"Team Fortress","app_id":440,"player_count":24,"max_players":24,"Bots":0,"server_type":"Dedicated","server_os":"Linux","password":true,"vac":true,"version":"7961495","steam_id":85568392924469986,"keywords":["nocrits","nodmgspread","payload","uncletopia"],"game_id":440,"stv_port":27016,"stv_name":"Uncletopia | Dallas | 1 | All Maps | STV","players":[{"user_id":647,"name":"Klepto","steam_id":76561199501643797,"connected_time":235000000000,"state":"active","ping":88},{"user_id":631,"name":"pizza cuck","steam_id":76561198040455711,"connected_time":1023000000000,"state":"active","ping":70},{"user_id":649,"name":"RPGnoob","steam_id":76561198384913758,"connected_time":67000000000,"state":"active","ping":55},{"user_id":641,"name":"TheGreythreat","steam_id":76561198021995538,"connected_time":430000000000,"state":"active","ping":86},{"user_id":571,"name":"henryissoreal","steam_id":76561198128074539,"connected_time":4780000000000,"state":"active","ping":102},{"user_id":636,"name":"supcupman","steam_id":76561198051513866,"connected_time":868000000000,"state":"active","ping":101},{"user_id":626,"name":"jerry the abacus","steam_id":76561198041863231,"connected_time":1770000000000,"state":"active","ping":103},{"user_id":613,"name":"self sufficient kitten","steam_id":76561197960592612,"connected_time":2473000000000,"state":"active","ping":91},{"user_id":648,"name":"VicLoL","steam_id":76561198045580784,"connected_time":169000000000,"state":"active","ping":93},{"user_id":590,"name":"❤ Ashley ❤","steam_id":76561198056428303,"connected_time":4136000000000,"state":"active","ping":73},{"user_id":640,"name":"SaaxoM","steam_id":76561198208256603,"connected_time":457000000000,"state":"active","ping":80},{"user_id":594,"name":"Foolie","steam_id":76561198291741747,"connected_time":3932000000000,"state":"active","ping":83},{"user_id":628,"name":"jodi","steam_id":76561198131833567,"connected_time":1622000000000,"state":"active","ping":102},{"user_id":650,"name":"A Straw","steam_id":76561199367935846,"connected_time":37000000000,"state":"active","ping":68},{"user_id":554,"name":"awawa oyoyo awawa oyoyo","steam_id":76561198062263639,"connected_time":5779000000000,"state":"active","ping":47},{"user_id":651,"name":"K.O.","steam_id":76561198114985074,"connected_time":13000000000,"state":"active","ping":84},{"user_id":634,"name":"pizza whore","steam_id":76561199471269566,"connected_time":968000000000,"state":"active","ping":47},{"user_id":625,"name":"laboriouslobster36","steam_id":76561198871003321,"connected_time":1891000000000,"state":"active","ping":41},{"user_id":609,"name":"Siev","steam_id":76561198000518937,"connected_time":2552000000000,"state":"active","ping":65},{"user_id":646,"name":"Estrogenizing Burger King Burge","steam_id":76561198083882597,"connected_time":269000000000,"state":"active","ping":44},{"user_id":638,"name":"Aglovail","steam_id":76561198276988844,"connected_time":546000000000,"state":"active","ping":85},{"user_id":428,"name":"Not pawky","steam_id":76561198148738849,"connected_time":8474000000000,"state":"active","ping":93},{"user_id":644,"name":"Zorlovo","steam_id":76561198006443283,"connected_time":340000000000,"state":"active","ping":81},{"user_id":645,"name":"marisa kirisame","steam_id":76561198070327681,"connected_time":327000000000,"state":"active","ping":74}]},{"server_id":108,"name":"Uncletopia | Dallas | 2 | All Maps","name_short":"dal-2","host":"dal-1.us.uncletopia.com","port":27025,"enabled":true,"region":"us-central","cc":"us","latitude":32.779167,"longitude":-96.80889,"reserved":0,"last_update":"0001-01-01T00:00:00Z","name_a2s":"Uncletopia | Dallas | 2 | All Maps","protocol":17,"map":"cp_powerhouse","folder":"tf","game":"Team Fortress","app_id":440,"player_count":24,"max_players":24,"Bots":0,"server_type":"Dedicated","server_os":"Linux","password":true,"vac":true,"version":"7961495","steam_id":85568392924469988,"keywords":["cp","nocrits","nodmgspread","uncletopia"],"game_id":440,"stv_port":27026,"stv_name":"Uncletopia | Dallas | 2 | All Maps | STV","players":[{"user_id":172,"name":"leesh","steam_id":76561198079603938,"connected_time":5218000000000,"state":"active","ping":63},{"user_id":241,"name":"Stick","steam_id":76561198987222560,"connected_time":215000000000,"state":"active","ping":66},{"user_id":237,"name":"Alyso","steam_id":76561198151598894,"connected_time":1236000000000,"state":"active","ping":91},{"user_id":212,"name":"Eblizard","steam_id":76561198111481965,"connected_time":2989000000000,"state":"active","ping":93},{"user_id":195,"name":"lament","steam_id":76561198408747483,"connected_time":3884000000000,"state":"active","ping":56},{"user_id":177,"name":"JoJoJo","steam_id":76561198067153390,"connected_time":5152000000000,"state":"active","ping":73},{"user_id":239,"name":"Quick-Fix","steam_id":76561198295501978,"connected_time":737000000000,"state":"active","ping":60},{"user_id":196,"name":"Ryzema","steam_id":76561198165594229,"connected_time":3814000000000,"state":"active","ping":90},{"user_id":240,"name":"SoCal Kaizer","steam_id":76561198334361081,"connected_time":314000000000,"state":"active","ping":110},{"user_id":187,"name":"jumpingjacks","steam_id":76561197964839440,"connected_time":4479000000000,"state":"active","ping":75},{"user_id":223,"name":"Rob","steam_id":76561199187786660,"connected_time":1894000000000,"state":"active","ping":53},{"user_id":226,"name":"krill your shelf","steam_id":76561198233984300,"connected_time":1735000000000,"state":"active","ping":76},{"user_id":242,"name":"Pluto*","steam_id":76561198338593690,"connected_time":185000000000,"state":"active","ping":76},{"user_id":227,"name":"firefly","steam_id":76561198151308698,"connected_time":1701000000000,"state":"active","ping":47},{"user_id":121,"name":"THRONGLER","steam_id":76561198198563466,"connected_time":8014000000000,"state":"active","ping":44},{"user_id":229,"name":"Abu Shoosh","steam_id":76561198094990358,"connected_time":1621000000000,"state":"active","ping":76},{"user_id":234,"name":"RAWRWAIFU","steam_id":76561198032118386,"connected_time":1414000000000,"state":"active","ping":73},{"user_id":185,"name":"Can of Apple Soup","steam_id":76561198108926111,"connected_time":4649000000000,"state":"active","ping":107},{"user_id":235,"name":"gooch_masta","steam_id":76561198151578423,"connected_time":1407000000000,"state":"active","ping":85},{"user_id":166,"name":"Bullwinkle J. Moose","steam_id":76561198075977196,"connected_time":5638000000000,"state":"active","ping":60},{"user_id":236,"name":"Drilly22","steam_id":76561198068838338,"connected_time":1340000000000,"state":"active","ping":61},{"user_id":170,"name":"Ahkmid the Emoji Turban Guy","steam_id":76561198142599650,"connected_time":5422000000000,"state":"active","ping":71},{"user_id":213,"name":"Sobertoday","steam_id":76561198010606163,"connected_time":2985000000000,"state":"active","ping":99},{"user_id":191,"name":"Juno","steam_id":76561198042417277,"connected_time":4127000000000,"state":"active","ping":84}]},{"server_id":404,"name":"Uncletopia | Dallas | 3 | All Maps","name_short":"dal-3","host":"dal-1.us.uncletopia.com","port":27035,"enabled":true,"region":"us-central","cc":"us","latitude":32.779167,"longitude":-96.80889,"reserved":0,"last_update":"0001-01-01T00:00:00Z","name_a2s":"Uncletopia | Dallas | 3 | All Maps","protocol":17,"map":"pl_upward","folder":"tf","game":"Team Fortress","app_id":440,"player_count":23,"max_players":24,"Bots":0,"server_type":"Dedicated","server_os":"Linux","password":true,"vac":true,"version":"7961495","steam_id":85568392924515219,"keywords":["nocrits","nodmgspread","payload","uncletopia"],"game_id":440,"stv_port":27036,"stv_name":"Uncletopia | Dallas | 3 | All Maps | STV","players":[{"user_id":218,"name":"HUESO","steam_id":76561198276383681,"connected_time":3359000000000,"state":"active","ping":87},{"user_id":193,"name":"Bad Medic Buddy","steam_id":76561198093222632,"connected_time":5604000000000,"state":"active","ping":83},{"user_id":246,"name":"blademiss","steam_id":76561198062083019,"connected_time":208000000000,"state":"active","ping":85},{"user_id":247,"name":"STANLEY","steam_id":76561198812086921,"connected_time":150000000000,"state":"active","ping":90},{"user_id":248,"name":"Dinosaur","steam_id":76561199079626189,"connected_time":129000000000,"state":"active","ping":82},{"user_id":249,"name":"calamari rings","steam_id":76561199248960166,"connected_time":124000000000,"state":"active","ping":90},{"user_id":243,"name":"jeff_fan","steam_id":76561198086420687,"connected_time":592000000000,"state":"active","ping":87},{"user_id":227,"name":"DiscoTraveler","steam_id":76561199240168088,"connected_time":2371000000000,"state":"active","ping":80},{"user_id":245,"name":"He rolls his own","steam_id":76561198058162684,"connected_time":239000000000,"state":"active","ping":94},{"user_id":244,"name":"TJ","steam_id":76561198045177514,"connected_time":402000000000,"state":"active","ping":63},{"user_id":234,"name":"captengreen789","steam_id":76561199210416968,"connected_time":1475000000000,"state":"active","ping":67},{"user_id":107,"name":"Lyricalnoot","steam_id":76561199164905065,"connected_time":10793000000000,"state":"active","ping":56},{"user_id":250,"name":"Baxtabbr","steam_id":76561199205187488,"connected_time":61000000000,"state":"active","ping":67},{"user_id":163,"name":"Blade Racer","steam_id":76561198155896703,"connected_time":7257000000000,"state":"active","ping":78},{"user_id":230,"name":"Dr. Ludwig","steam_id":76561198110246392,"connected_time":2233000000000,"state":"active","ping":63},{"user_id":241,"name":"big ol' buford","steam_id":76561198290675957,"connected_time":819000000000,"state":"active","ping":45},{"user_id":215,"name":"cupsovietxeno","steam_id":76561198997539399,"connected_time":3868000000000,"state":"active","ping":91},{"user_id":251,"name":"gwegwee333","steam_id":76561198046948758,"connected_time":59000000000,"state":"active","ping":66},{"user_id":204,"name":"Alchemist","steam_id":76561198094238189,"connected_time":4597000000000,"state":"active","ping":74},{"user_id":252,"name":"hideyochest","steam_id":76561198090366059,"connected_time":57000000000,"state":"active","ping":45},{"user_id":216,"name":"Lee?","steam_id":76561199060892634,"connected_time":3775000000000,"state":"active","ping":68},{"user_id":238,"name":"MilkToast","steam_id":76561198167959226,"connected_time":1438000000000,"state":"active","ping":139}]},{"server_id":405,"name":"Uncletopia | Dallas | 4 | Community","name_short":"dal-4","host":"dal-1.us.uncletopia.com","port":27045,"enabled":true,"region":"us-central","cc":"us","latitude":32.779167,"longitude":-96.80889,"reserved":0,"last_update":"0001-01-01T00:00:00Z","name_a2s":"Uncletopia | Dallas | 4 | Community","protocol":17,"map":"workshop/cp_fulgur_rc2a.ugc2068252300","folder":"tf","game":"Team Fortress","app_id":440,"player_count":1,"max_players":24,"Bots":0,"server_type":"Dedicated","server_os":"Linux","password":true,"vac":true,"version":"7961495","steam_id":85568392924515220,"keywords":["cp","nocrits","nodmgspread","uncletopia"],"game_id":440,"stv_port":27046,"stv_name":"Uncletopia | Dallas | 4 | Community | STV","players":[{"user_id":491,"name":"Echo","steam_id":76561199165491231,"connected_time":112000000000,"state":"connecting","ping":0}]},{"server_id":5,"name":"Uncletopia | Frankfurt | 1 | All Maps","name_short":"frk-1","host":"frk-1.de.uncletopia.com","port":27015,"enabled":true,"region":"eu","cc":"de","latitude":50.110924,"longitude":8.682127,"reserved":0,"last_update":"0001-01-01T00:00:00Z","name_a2s":"Uncletopia | Frankfurt | 1 | All Maps","protocol":17,"map":"koth_highpass","folder":"tf","game":"Team Fortress","app_id":440,"player_count":0,"max_players":24,"Bots":0,"server_type":"Dedicated","server_os":"Linux","password":true,"vac":true,"version":"7961495","steam_id":85568392924469989,"keywords":["cp","nocrits","nodmgspread","uncletopia"],"game_id":440,"stv_port":27016,"stv_name":"Uncletopia | Frankfurt | 1 | All Maps | STV","players":null},{"server_id":110,"name":"Uncletopia | Frankfurt | 2 | All Maps","name_short":"frk-2","host":"frk-1.de.uncletopia.com","port":27025,"enabled":true,"region":"eu","cc":"de","latitude":50.110924,"longitude":8.682127,"reserved":0,"last_update":"0001-01-01T00:00:00Z","name_a2s":"Uncletopia | Frankfurt | 2 | All Maps","protocol":17,"map":"cp_mountainlab","folder":"tf","game":"Team Fortress","app_id":440,"player_count":0,"max_players":24,"Bots":0,"server_type":"Dedicated","server_os":"Linux","password":true,"vac":true,"version":"7961495","steam_id":85568392924469990,"keywords":["cp","nocrits","nodmgspread","uncletopia"],"game_id":440,"stv_port":27026,"stv_name":"Uncletopia | Frankfurt | 2 | All Maps | STV","players":null},{"server_id":308,"name":"Uncletopia | Frankfurt | 3 | All Maps","name_short":"frk-3","host":"frk-1.de.uncletopia.com","port":27035,"enabled":true,"region":"eu","cc":"de","latitude":50.110924,"longitude":8.682127,"reserved":0,"last_update":"0001-01-01T00:00:00Z","name_a2s":"Uncletopia | Frankfurt | 3 | All Maps","protocol":17,"map":"cp_mountainlab","folder":"tf","game":"Team Fortress","app_id":440,"player_count":0,"max_players":24,"Bots":0,"server_type":"Dedicated","server_os":"Linux","password":true,"vac":true,"version":"7961495","steam_id":85568392924504274,"keywords":["cp","nocrits","nodmgspread","uncletopia"],"game_id":440,"stv_port":27036,"stv_name":"Uncletopia | Frankfurt | 3 | All Maps | STV","players":null},{"server_id":309,"name":"Uncletopia | Frankfurt | 4 | All Maps","name_short":"frk-4","host":"frk-1.de.uncletopia.com","port":27045,"enabled":true,"region":"eu","cc":"de","latitude":50.110924,"longitude":8.682127,"reserved":0,"last_update":"0001-01-01T00:00:00Z","name_a2s":"Uncletopia | Frankfurt | 4 | All Maps","protocol":17,"map":"koth_highpass","folder":"tf","game":"Team Fortress","app_id":440,"player_count":0,"max_players":24,"Bots":0,"server_type":"Dedicated","server_os":"Linux","password":true,"vac":true,"version":"7961495","steam_id":85568392924504275,"keywords":["cp","nocrits","nodmgspread","uncletopia"],"game_id":440,"stv_port":27046,"stv_name":"Uncletopia | Frankfurt | 4 | All Maps | STV","players":null},{"server_id":310,"name":"Uncletopia | Frankfurt | 5 | All Maps","name_short":"frk-5","host":"frk-1.de.uncletopia.com","port":27055,"enabled":true,"region":"eu","cc":"de","latitude":50.110924,"longitude":8.682127,"reserved":0,"last_update":"0001-01-01T00:00:00Z","name_a2s":"Uncletopia | Frankfurt | 5 | All Maps","protocol":17,"map":"koth_highpass","folder":"tf","game":"Team Fortress","app_id":440,"player_count":0,"max_players":24,"Bots":0,"server_type":"Dedicated","server_os":"Linux","password":true,"vac":true,"version":"7961495","steam_id":85568392924504277,"keywords":["cp","nocrits","nodmgspread","uncletopia"],"game_id":440,"stv_port":27056,"stv_name":"Uncletopia | Frankfurt | 5 | All Maps | STV","players":null},{"server_id":311,"name":"Uncletopia | Frankfurt | 6 | All Maps","name_short":"frk-6","host":"frk-1.de.uncletopia.com","port":27065,"enabled":true,"region":"eu","cc":"de","latitude":50.110924,"longitude":8.682127,"reserved":0,"last_update":"0001-01-01T00:00:00Z","name_a2s":"Uncletopia | Frankfurt | 6 | All Maps","protocol":17,"map":"pl_badwater","folder":"tf","game":"Team Fortress","app_id":440,"player_count":0,"max_players":24,"Bots":0,"server_type":"Dedicated","server_os":"Linux","password":true,"vac":true,"version":"7961495","steam_id":85568392924504278,"keywords":["nocrits","nodmgspread","payload","uncletopia"],"game_id":440,"stv_port":27066,"stv_name":"Uncletopia | Frankfurt | 6 | All Maps | STV","players":null},{"server_id":23,"name":"Uncletopia | Frankfurt | 7 | Stopwatch","name_short":"frk-7","host":"frk-1.de.uncletopia.com","port":27075,"enabled":true,"region":"eu","cc":"de","latitude":50.110924,"longitude":8.682127,"reserved":0,"last_update":"0001-01-01T00:00:00Z","name_a2s":"Uncletopia | Frankfurt | 7 | Stopwatch","protocol":17,"map":"koth_lakeside_final","folder":"tf","game":"Team Fortress","app_id":440,"player_count":0,"max_players":24,"Bots":0,"server_type":"Dedicated","server_os":"Linux","password":true,"vac":true,"version":"7961495","steam_id":85568392924742827,"keywords":["cp","nocrits","nodmgspread","uncletopia"],"game_id":440,"stv_port":27076,"stv_name":"Uncletopia | Frankfurt | 7 | Stopwatch | STV","players":null},{"server_id":24,"name":"Uncletopia | Frankfurt | 8 | Community","name_short":"frk-8","host":"frk-1.de.uncletopia.com","port":27085,"enabled":true,"region":"eu","cc":"de","latitude":50.110924,"longitude":8.682127,"reserved":0,"last_update":"0001-01-01T00:00:00Z","name_a2s":"Uncletopia | Frankfurt | 8 | Community","protocol":17,"map":"workshop/cp_coilblaze_rc7.ugc1272700588","folder":"tf","game":"Team Fortress","app_id":440,"player_count":0,"max_players":24,"Bots":0,"server_type":"Dedicated","server_os":"Linux","password":true,"vac":true,"version":"7961495","steam_id":85568392924742828,"keywords":["cp","nocrits","nodmgspread","uncletopia"],"game_id":440,"stv_port":27086,"stv_name":"Uncletopia | Frankfurt | 8 | Community | STV","players":null},{"server_id":202,"name":"Uncletopia | Hong Kong | 1 | All Maps","name_short":"hgk-1","host":"hgk-1.hk.uncletopia.com","port":27015,"enabled":true,"region":"asia","cc":"hk","latitude":22.302711,"longitude":114.177216,"reserved":0,"last_update":"0001-01-01T00:00:00Z","name_a2s":"Uncletopia | Hong Kong | 1 | All Maps","protocol":17,"map":"pl_frontier_final","folder":"tf","game":"Team Fortress","app_id":440,"player_count":10,"max_players":24,"Bots":0,"server_type":"Dedicated","server_os":"Linux","password":true,"vac":true,"version":"7961495","steam_id":85568392924494504,"keywords":["nocrits","nodmgspread","payload","uncletopia"],"game_id":440,"stv_port":27016,"stv_name":"Uncletopia | Hong Kong | 1 | All Maps | STV","players":[{"user_id":7,"name":"mistake of nature","steam_id":76561198827090178,"connected_time":1170000000000,"state":"active","ping":61},{"user_id":8,"name":"K","steam_id":76561199111480909,"connected_time":1020000000000,"state":"active","ping":115},{"user_id":9,"name":"MS PowerPoint","steam_id":76561198369523192,"connected_time":966000000000,"state":"active","ping":60},{"user_id":11,"name":"TomProPlayer","steam_id":76561199223292521,"connected_time":609000000000,"state":"active","ping":71},{"user_id":14,"name":"Leafy Mac","steam_id":76561199045209953,"connected_time":189000000000,"state":"active","ping":72},{"user_id":15,"name":"the dog","steam_id":76561198348544822,"connected_time":151000000000,"state":"active","ping":94},{"user_id":16,"name":"Byaa Bhom","steam_id":76561198831043368,"connected_time":100000000000,"state":"active","ping":75},{"user_id":17,"name":"Aerotronics","steam_id":76561198821190704,"connected_time":82000000000,"state":"active","ping":129},{"user_id":18,"name":"F412EL","steam_id":76561198118486658,"connected_time":82000000000,"state":"active","ping":102},{"user_id":19,"name":"DeesDeedsF2p|trade.tf|HM|","steam_id":76561199244400513,"connected_time":78000000000,"state":"spawning","ping":55}]},{"server_id":1,"name":"Uncletopia | Los Angeles | 1 | All Maps","name_short":"lax-1","host":"lax-1.us.uncletopia.com","port":27015,"enabled":true,"region":"us-west","cc":"us","latitude":33.94279,"longitude":-118.41004,"reserved":0,"last_update":"0001-01-01T00:00:00Z","name_a2s":"Uncletopia | Los Angeles | 1 | All Maps","protocol":17,"map":"pl_thundermountain","folder":"tf","game":"Team Fortress","app_id":440,"player_count":18,"max_players":24,"Bots":0,"server_type":"Dedicated","server_os":"Linux","password":true,"vac":true,"version":"7961495","steam_id":85568392924469991,"keywords":["nocrits","nodmgspread","payload","uncletopia"],"game_id":440,"stv_port":27016,"stv_name":"Uncletopia | Los Angeles | 1 | All Maps | STV","players":[{"user_id":153,"name":"look in the sky!","steam_id":76561198334044006,"connected_time":753000000000,"state":"active","ping":44},{"user_id":154,"name":"TastyWheat","steam_id":76561198855061918,"connected_time":741000000000,"state":"active","ping":84},{"user_id":146,"name":"thisisSteve","steam_id":76561198420882318,"connected_time":1666000000000,"state":"active","ping":57},{"user_id":157,"name":"Aligote","steam_id":76561199188849493,"connected_time":542000000000,"state":"active","ping":123},{"user_id":156,"name":"bit05","steam_id":76561198841456067,"connected_time":683000000000,"state":"active","ping":68},{"user_id":158,"name":"Paper","steam_id":76561199132857509,"connected_time":461000000000,"state":"active","ping":59},{"user_id":159,"name":"Bolbi","steam_id":76561198051811597,"connected_time":408000000000,"state":"active","ping":60},{"user_id":162,"name":"morbidly a beast","steam_id":76561198061653298,"connected_time":253000000000,"state":"active","ping":123},{"user_id":164,"name":"Switz","steam_id":76561198278994676,"connected_time":172000000000,"state":"active","ping":61},{"user_id":161,"name":"HooHay","steam_id":76561199350870177,"connected_time":287000000000,"state":"active","ping":119},{"user_id":165,"name":"MAX TRO (SA)","steam_id":76561198855952675,"connected_time":159000000000,"state":"active","ping":233},{"user_id":166,"name":"Cobalt","steam_id":76561198199072809,"connected_time":119000000000,"state":"active","ping":54},{"user_id":167,"name":"ForAPessimistImPrettyOptimistic","steam_id":76561198170128009,"connected_time":76000000000,"state":"active","ping":374},{"user_id":131,"name":"Seshreb","steam_id":76561198846614634,"connected_time":3001000000000,"state":"active","ping":63},{"user_id":168,"name":"Angelmaster","steam_id":76561198815474379,"connected_time":75000000000,"state":"active","ping":57},{"user_id":169,"name":"[S]Mr. X [No Monitor]","steam_id":76561197963746035,"connected_time":59000000000,"state":"active","ping":98},{"user_id":170,"name":"JtsRes","steam_id":76561197994809241,"connected_time":59000000000,"state":"active","ping":75},{"user_id":126,"name":"MegaBitmap","steam_id":76561198086027059,"connected_time":3621000000000,"state":"active","ping":71}]},{"server_id":112,"name":"Uncletopia | Los Angeles | 2 | All Maps","name_short":"lax-2","host":"lax-1.us.uncletopia.com","port":27025,"enabled":true,"region":"us-west","cc":"us","latitude":33.94279,"longitude":-118.41004,"reserved":0,"last_update":"0001-01-01T00:00:00Z","name_a2s":"Uncletopia | Los Angeles | 2 | All Maps","protocol":17,"map":"pl_upward","folder":"tf","game":"Team Fortress","app_id":440,"player_count":2,"max_players":24,"Bots":0,"server_type":"Dedicated","server_os":"Linux","password":true,"vac":true,"version":"7961495","steam_id":85568392924469992,"keywords":["nocrits","nodmgspread","payload","uncletopia"],"game_id":440,"stv_port":27026,"stv_name":"Uncletopia | Los Angeles | 2 | All Maps | STV","players":[{"user_id":25,"name":"Reem0h","steam_id":76561198169848690,"connected_time":286000000000,"state":"active","ping":135},{"user_id":26,"name":"Bobletoob","steam_id":76561199184464900,"connected_time":56000000000,"state":"active","ping":56}]},{"server_id":324,"name":"Uncletopia | Los Angeles | 3 | All Maps","name_short":"lax-3","host":"lax-1.us.uncletopia.com","port":27035,"enabled":true,"region":"us-west","cc":"us","latitude":33.94279,"longitude":-118.41004,"reserved":0,"last_update":"0001-01-01T00:00:00Z","name_a2s":"Uncletopia | Los Angeles | 3 | All Maps","protocol":17,"map":"pl_upward","folder":"tf","game":"Team Fortress","app_id":440,"player_count":24,"max_players":24,"Bots":0,"server_type":"Dedicated","server_os":"Linux","password":true,"vac":true,"version":"7961495","steam_id":85568392924510198,"keywords":["nocrits","nodmgspread","payload","uncletopia"],"game_id":440,"stv_port":27036,"stv_name":"Uncletopia | Los Angeles | 3 | All Maps | STV","players":[{"user_id":12,"name":"XenPie","steam_id":76561198814382153,"connected_time":4482000000000,"state":"active","ping":59},{"user_id":70,"name":"silvanae324","steam_id":76561199150642573,"connected_time":1032000000000,"state":"active","ping":83},{"user_id":14,"name":"MoJangles","steam_id":76561198147110347,"connected_time":3721000000000,"state":"active","ping":59},{"user_id":15,"name":"Beck Prime","steam_id":76561198874277391,"connected_time":3678000000000,"state":"active","ping":62},{"user_id":57,"name":"vvitch","steam_id":76561198279661941,"connected_time":1484000000000,"state":"active","ping":47},{"user_id":85,"name":"rew!","steam_id":76561198040212208,"connected_time":590000000000,"state":"active","ping":63},{"user_id":104,"name":"Kdash","steam_id":76561198043829155,"connected_time":54000000000,"state":"spawning","ping":88},{"user_id":60,"name":"valmir_19","steam_id":76561198370237891,"connected_time":1370000000000,"state":"active","ping":118},{"user_id":20,"name":"Pyrite","steam_id":76561198148248671,"connected_time":2333000000000,"state":"active","ping":113},{"user_id":62,"name":"PandaWithHat2313","steam_id":76561199116285411,"connected_time":1271000000000,"state":"active","ping":58},{"user_id":22,"name":"WillieMakit","steam_id":76561197985391684,"connected_time":2224000000000,"state":"active","ping":81},{"user_id":65,"name":"Catdog32","steam_id":76561198113364714,"connected_time":1079000000000,"state":"active","ping":94},{"user_id":88,"name":"Sasuri","steam_id":76561198404769732,"connected_time":562000000000,"state":"active","ping":53},{"user_id":25,"name":"Kamin","steam_id":76561198255299559,"connected_time":2131000000000,"state":"active","ping":97},{"user_id":39,"name":"darren","steam_id":76561199050155136,"connected_time":1716000000000,"state":"active","ping":46},{"user_id":105,"name":"kirill","steam_id":76561198337705174,"connected_time":10000000000,"state":"spawning","ping":139},{"user_id":28,"name":"Mysterious","steam_id":76561198186202854,"connected_time":2040000000000,"state":"active","ping":115},{"user_id":71,"name":"Ebby","steam_id":76561198124284351,"connected_time":1008000000000,"state":"active","ping":104},{"user_id":67,"name":"Shrim","steam_id":76561198068455981,"connected_time":1063000000000,"state":"active","ping":73},{"user_id":87,"name":"dodecadron","steam_id":76561198027397222,"connected_time":589000000000,"state":"active","ping":90},{"user_id":102,"name":"john.","steam_id":76561198982939658,"connected_time":186000000000,"state":"active","ping":60},{"user_id":68,"name":"duckyLoPan","steam_id":76561198000385832,"connected_time":1055000000000,"state":"active","ping":126},{"user_id":75,"name":"30-50 feral hogs","steam_id":76561198073587145,"connected_time":920000000000,"state":"active","ping":85},{"user_id":69,"name":"Titan Exodos","steam_id":76561198063852935,"connected_time":1050000000000,"state":"active","ping":86}]},{"server_id":25,"name":"Uncletopia | Los Angeles | 4 | Stopwatch","name_short":"lax-4","host":"lax-1.us.uncletopia.com","port":27045,"enabled":true,"region":"us-west","cc":"us","latitude":33.94279,"longitude":-118.41004,"reserved":0,"last_update":"0001-01-01T00:00:00Z","name_a2s":"Uncletopia | Los Angeles | 4 | Stopwatch","protocol":17,"map":"workshop/koth_bagel_rc6.ugc2514036946","folder":"tf","game":"Team Fortress","app_id":440,"player_count":2,"max_players":24,"Bots":0,"server_type":"Dedicated","server_os":"Linux","password":true,"vac":true,"version":"7961495","steam_id":85568392924510199,"keywords":["cp","nocrits","nodmgspread","uncletopia"],"game_id":440,"stv_port":27046,"stv_name":"Uncletopia | Los Angeles | 4 | Stopwatch | STV","players":[{"user_id":17,"name":"east","steam_id":76561198867427025,"connected_time":987000000000,"state":"active","ping":105},{"user_id":19,"name":"mintsmatchamocha","steam_id":76561198420094402,"connected_time":381000000000,"state":"active","ping":35}]},{"server_id":11,"name":"Uncletopia | London | 1 | All Maps","name_short":"lon-1","host":"lon-1.uk.uncletopia.com","port":27015,"enabled":true,"region":"eu","cc":"gb","latitude":51.509865,"longitude":-0.118092,"reserved":0,"last_update":"0001-01-01T00:00:00Z","name_a2s":"Uncletopia | London | 1 | All Maps","protocol":17,"map":"koth_lakeside_final","folder":"tf","game":"Team Fortress","app_id":440,"player_count":0,"max_players":24,"Bots":0,"server_type":"Dedicated","server_os":"Linux","password":true,"vac":true,"version":"7961495","steam_id":85568392924367362,"keywords":["cp","nocrits","nodmgspread","uncletopia"],"game_id":440,"stv_port":27016,"stv_name":"Uncletopia | London | 1 | All Maps | STV","players":null},{"server_id":114,"name":"Uncletopia | London | 2 | All Maps","name_short":"lon-2","host":"lon-1.uk.uncletopia.com","port":27025,"enabled":true,"region":"eu","cc":"gb","latitude":51.509865,"longitude":-0.118092,"reserved":0,"last_update":"0001-01-01T00:00:00Z","name_a2s":"Uncletopia | London | 2 | All Maps","protocol":17,"map":"pl_snowycoast","folder":"tf","game":"Team Fortress","app_id":440,"player_count":0,"max_players":24,"Bots":0,"server_type":"Dedicated","server_os":"Linux","password":true,"vac":true,"version":"7961495","steam_id":85568392924470941,"keywords":["nocrits","nodmgspread","payload","uncletopia"],"game_id":440,"stv_port":27026,"stv_name":"Uncletopia | London | 2 | All Maps | STV","players":null},{"server_id":320,"name":"Uncletopia | London | 3 | All Maps","name_short":"lon-3","host":"lon-1.uk.uncletopia.com","port":27035,"enabled":true,"region":"eu","cc":"gb","latitude":51.509865,"longitude":-0.118092,"reserved":0,"last_update":"0001-01-01T00:00:00Z","name_a2s":"Uncletopia | London | 3 | All Maps","protocol":17,"map":"pl_swiftwater_final1","folder":"tf","game":"Team Fortress","app_id":440,"player_count":0,"max_players":24,"Bots":0,"server_type":"Dedicated","server_os":"Linux","password":true,"vac":true,"version":"7961495","steam_id":85568392924510192,"keywords":["nocrits","nodmgspread","payload","uncletopia"],"game_id":440,"stv_port":27036,"stv_name":"Uncletopia | London | 3 | All Maps | STV","players":null},{"server_id":321,"name":"Uncletopia | London | 4 | All Maps","name_short":"lon-4","host":"lon-1.uk.uncletopia.com","port":27045,"enabled":true,"region":"eu","cc":"gb","latitude":51.509865,"longitude":-0.118092,"reserved":0,"last_update":"0001-01-01T00:00:00Z","name_a2s":"Uncletopia | London | 4 | All Maps","protocol":17,"map":"koth_viaduct","folder":"tf","game":"Team Fortress","app_id":440,"player_count":0,"max_players":24,"Bots":0,"server_type":"Dedicated","server_os":"Linux","password":true,"vac":true,"version":"7961495","steam_id":85568392924510193,"keywords":["cp","nocrits","nodmgspread","uncletopia"],"game_id":440,"stv_port":27046,"stv_name":"Uncletopia | London | 4 | All Maps | STV","players":null},{"server_id":21,"name":"Uncletopia | London | 5 | All Maps","name_short":"lon-5","host":"lon-1.uk.uncletopia.com","port":27055,"enabled":true,"region":"eu","cc":"gb","latitude":51.509865,"longitude":-0.118092,"reserved":0,"last_update":"0001-01-01T00:00:00Z","name_a2s":"Uncletopia | London | 5 | All Maps","protocol":17,"map":"plr_nightfall_final","folder":"tf","game":"Team Fortress","app_id":440,"player_count":1,"max_players":24,"Bots":0,"server_type":"Dedicated","server_os":"Linux","password":true,"vac":true,"version":"7961495","steam_id":85568392924742829,"keywords":["nocrits","nodmgspread","payload","uncletopia"],"game_id":440,"stv_port":27056,"stv_name":"Uncletopia | London | 5 | All Maps | STV","players":[{"user_id":379,"name":"inteli-keeper","steam_id":76561199011763306,"connected_time":2099000000000,"state":"active","ping":91}]},{"server_id":22,"name":"Uncletopia | London | 6 | All Maps","name_short":"lon-6","host":"lon-1.uk.uncletopia.com","port":27065,"enabled":true,"region":"eu","cc":"gb","latitude":51.509865,"longitude":-0.118092,"reserved":0,"last_update":"0001-01-01T00:00:00Z","name_a2s":"Uncletopia | London | 6 | All Maps","protocol":17,"map":"pl_pier","folder":"tf","game":"Team Fortress","app_id":440,"player_count":24,"max_players":24,"Bots":0,"server_type":"Dedicated","server_os":"Linux","password":true,"vac":true,"version":"7961495","steam_id":85568392924742830,"keywords":["nocrits","nodmgspread","payload","uncletopia"],"game_id":440,"stv_port":27066,"stv_name":"Uncletopia | London | 6 | All Maps | STV","players":[{"user_id":443,"name":"Soft And Fluffy Void","steam_id":76561198071355986,"connected_time":777000000000,"state":"active","ping":58},{"user_id":436,"name":"Shallaska","steam_id":76561198019030896,"connected_time":1508000000000,"state":"active","ping":52},{"user_id":414,"name":"MoeruKurowassan","steam_id":76561198319349647,"connected_time":3763000000000,"state":"active","ping":82},{"user_id":410,"name":"noseb","steam_id":76561199480942903,"connected_time":4115000000000,"state":"active","ping":75},{"user_id":422,"name":"Akuma","steam_id":76561198355141374,"connected_time":3027000000000,"state":"active","ping":74},{"user_id":423,"name":"Miss Squigglykitty","steam_id":76561198079253973,"connected_time":2971000000000,"state":"active","ping":58},{"user_id":437,"name":"K","steam_id":76561198144604444,"connected_time":1493000000000,"state":"active","ping":47},{"user_id":394,"name":"Bobirulez","steam_id":76561198009125458,"connected_time":5643000000000,"state":"active","ping":66},{"user_id":445,"name":"sticks","steam_id":76561198127099299,"connected_time":721000000000,"state":"active","ping":32},{"user_id":447,"name":"dunight 🌙","steam_id":76561198094819725,"connected_time":694000000000,"state":"active","ping":71},{"user_id":430,"name":"SuntanPikachu","steam_id":76561198121242476,"connected_time":2391000000000,"state":"active","ping":62},{"user_id":442,"name":"AttyFox","steam_id":76561198063160037,"connected_time":925000000000,"state":"active","ping":49},{"user_id":440,"name":"t0ast","steam_id":76561198141722573,"connected_time":1124000000000,"state":"active","ping":30},{"user_id":432,"name":"sleepyskull","steam_id":76561198269491159,"connected_time":2334000000000,"state":"active","ping":51},{"user_id":449,"name":"Arkainiel Silver","steam_id":76561198188302519,"connected_time":509000000000,"state":"active","ping":60},{"user_id":444,"name":"hunter","steam_id":76561198127407123,"connected_time":762000000000,"state":"active","ping":129},{"user_id":434,"name":"nug","steam_id":76561198055396568,"connected_time":2034000000000,"state":"active","ping":47},{"user_id":420,"name":"FurbyZone","steam_id":76561198268344503,"connected_time":3160000000000,"state":"active","ping":40},{"user_id":426,"name":"Brian","steam_id":76561198077756206,"connected_time":2832000000000,"state":"active","ping":37},{"user_id":367,"name":"jjkun786","steam_id":76561199438517484,"connected_time":8459000000000,"state":"active","ping":74},{"user_id":407,"name":"lawn","steam_id":76561198001243486,"connected_time":4639000000000,"state":"active","ping":41},{"user_id":429,"name":"three","steam_id":76561199024512720,"connected_time":2446000000000,"state":"active","ping":51},{"user_id":439,"name":"Arthur","steam_id":76561198066109166,"connected_time":1321000000000,"state":"active","ping":89},{"user_id":404,"name":"Testy","steam_id":76561198169996602,"connected_time":5039000000000,"state":"active","ping":52}]},{"server_id":40,"name":"Uncletopia | London | 7 | Stopwatch","name_short":"lon-7","host":"lon-1.uk.uncletopia.com","port":27075,"enabled":true,"region":"eu","cc":"gb","latitude":51.509865,"longitude":-0.118092,"reserved":0,"last_update":"0001-01-01T00:00:00Z","name_a2s":"Uncletopia | London | 7 | Stopwatch","protocol":17,"map":"pl_swiftwater_final1","folder":"tf","game":"Team Fortress","app_id":440,"player_count":0,"max_players":24,"Bots":0,"server_type":"Dedicated","server_os":"Linux","password":true,"vac":true,"version":"7961495","steam_id":85568392924964314,"keywords":["nocrits","nodmgspread","payload","uncletopia"],"game_id":440,"stv_port":27076,"stv_name":"Uncletopia | London | 7 | Stopwatch | STV","players":null},{"server_id":41,"name":"Uncletopia | London | 8 | Community","name_short":"lon-8","host":"lon-1.uk.uncletopia.com","port":27085,"enabled":true,"region":"eu","cc":"gb","latitude":51.509865,"longitude":-0.118092,"reserved":0,"last_update":"0001-01-01T00:00:00Z","name_a2s":"Uncletopia | London | 8 | Community","protocol":17,"map":"workshop/koth_ashville_final.ugc2130459942","folder":"tf","game":"Team Fortress","app_id":440,"player_count":0,"max_players":24,"Bots":0,"server_type":"Dedicated","server_os":"Linux","password":true,"vac":true,"version":"7961495","steam_id":85568392924964315,"keywords":["cp","nocrits","nodmgspread","uncletopia"],"game_id":440,"stv_port":27086,"stv_name":"Uncletopia | London | 8 | Community | STV","players":null},{"server_id":300,"name":"Uncletopia | Montréal | 1 | One Thousand Uncles","name_short":"mtl-1","host":"mtl-1.ca.uncletopia.com","port":27015,"enabled":true,"region":"us-east","cc":"ca","latitude":45.50889,"longitude":-73.56167,"reserved":0,"last_update":"0001-01-01T00:00:00Z","name_a2s":"","protocol":0,"map":"","folder":"","game":"","app_id":0,"player_count":0,"max_players":0,"Bots":0,"server_type":"","server_os":"","password":false,"vac":false,"version":"","steam_id":0,"keywords":null,"game_id":0,"stv_port":0,"stv_name":"","players":null},{"server_id":301,"name":"Uncletopia | Montréal | 2 | One Thousand Uncles","name_short":"mtl-2","host":"mtl-1.ca.uncletopia.com","port":27025,"enabled":true,"region":"us-east","cc":"ca","latitude":45.50889,"longitude":-73.56167,"reserved":0,"last_update":"0001-01-01T00:00:00Z","name_a2s":"","protocol":0,"map":"","folder":"","game":"","app_id":0,"player_count":0,"max_players":0,"Bots":0,"server_type":"","server_os":"","password":false,"vac":false,"version":"","steam_id":0,"keywords":null,"game_id":0,"stv_port":0,"stv_name":"","players":null},{"server_id":302,"name":"Uncletopia | Montréal | 3 | One Thousand Uncles","name_short":"mtl-3","host":"mtl-1.ca.uncletopia.com","port":27035,"enabled":true,"region":"us-east","cc":"ca","latitude":45.50889,"longitude":-73.56167,"reserved":0,"last_update":"0001-01-01T00:00:00Z","name_a2s":"","protocol":0,"map":"","folder":"","game":"","app_id":0,"player_count":0,"max_players":0,"Bots":0,"server_type":"","server_os":"","password":false,"vac":false,"version":"","steam_id":0,"keywords":null,"game_id":0,"stv_port":0,"stv_name":"","players":null},{"server_id":13,"name":"Uncletopia | New York City | 1 | All Maps","name_short":"nyc-1","host":"nyc-1.us.uncletopia.com","port":27015,"enabled":true,"region":"us-east","cc":"us","latitude":40.73061,"longitude":-73.93524,"reserved":0,"last_update":"0001-01-01T00:00:00Z","name_a2s":"Uncletopia | New York City | 1 | All Maps","protocol":17,"map":"cp_gullywash_final1","folder":"tf","game":"Team Fortress","app_id":440,"player_count":24,"max_players":24,"Bots":0,"server_type":"Dedicated","server_os":"Linux","password":true,"vac":true,"version":"7961495","steam_id":85568392924469993,"keywords":["cp","nocrits","nodmgspread","uncletopia"],"game_id":440,"stv_port":27016,"stv_name":"Uncletopia | New York City | 1 | All Maps | STV","players":[{"user_id":603,"name":"googa","steam_id":76561198133130452,"connected_time":9698000000000,"state":"active","ping":45},{"user_id":685,"name":"i hate my bitchmade son","steam_id":76561198044034546,"connected_time":2596000000000,"state":"active","ping":67},{"user_id":615,"name":"Killbasa","steam_id":76561198064868400,"connected_time":9347000000000,"state":"active","ping":56},{"user_id":720,"name":"I Use Basher for Medic","steam_id":76561198165834369,"connected_time":204000000000,"state":"active","ping":117},{"user_id":655,"name":"ndvr","steam_id":76561199379200102,"connected_time":5541000000000,"state":"active","ping":52},{"user_id":697,"name":"Yuzu","steam_id":76561198417913035,"connected_time":1951000000000,"state":"active","ping":72},{"user_id":721,"name":"fini","steam_id":76561198352139173,"connected_time":203000000000,"state":"active","ping":46},{"user_id":698,"name":"Niλiwiλi, ▼iscount of ▼io","steam_id":76561198009193777,"connected_time":1859000000000,"state":"active","ping":64},{"user_id":722,"name":"taigaxx","steam_id":76561198202669250,"connected_time":154000000000,"state":"active","ping":75},{"user_id":701,"name":"Tokyo_Timeshift_","steam_id":76561198048677523,"connected_time":1382000000000,"state":"active","ping":60},{"user_id":717,"name":"Riandox","steam_id":76561198130577326,"connected_time":505000000000,"state":"active","ping":66},{"user_id":723,"name":"kikikikoboy","steam_id":76561198073380271,"connected_time":129000000000,"state":"active","ping":67},{"user_id":726,"name":"GoldSpork","steam_id":76561198336784770,"connected_time":61000000000,"state":"active","ping":101},{"user_id":683,"name":"rough man","steam_id":76561198007494744,"connected_time":3098000000000,"state":"active","ping":120},{"user_id":705,"name":"Spiral Mountain","steam_id":76561198058683715,"connected_time":1336000000000,"state":"active","ping":75},{"user_id":660,"name":"High School Nudical","steam_id":76561198172120615,"connected_time":5046000000000,"state":"active","ping":38},{"user_id":649,"name":"oppenheimer style","steam_id":76561198026664629,"connected_time":6268000000000,"state":"active","ping":49},{"user_id":719,"name":"Bewen","steam_id":76561198325334261,"connected_time":281000000000,"state":"active","ping":41},{"user_id":695,"name":"Oddjob","steam_id":76561198976160793,"connected_time":1992000000000,"state":"active","ping":75},{"user_id":692,"name":"vv","steam_id":76561198134813102,"connected_time":2270000000000,"state":"active","ping":60},{"user_id":725,"name":"HundchenTanque","steam_id":76561198122692754,"connected_time":68000000000,"state":"active","ping":45},{"user_id":715,"name":"Samrizo el Chorizo","steam_id":76561198009838162,"connected_time":569000000000,"state":"active","ping":56},{"user_id":707,"name":"Punkin","steam_id":76561198334301755,"connected_time":1238000000000,"state":"active","ping":56},{"user_id":713,"name":"hashmap","steam_id":76561198043794014,"connected_time":776000000000,"state":"active","ping":62}]},{"server_id":14,"name":"Uncletopia | New York City | 2 | All Maps","name_short":"nyc-2","host":"nyc-1.us.uncletopia.com","port":27025,"enabled":true,"region":"us-east","cc":"us","latitude":40.73061,"longitude":-73.93524,"reserved":0,"last_update":"0001-01-01T00:00:00Z","name_a2s":"Uncletopia | New York City | 2 | All Maps","protocol":17,"map":"pl_borneo","folder":"tf","game":"Team Fortress","app_id":440,"player_count":23,"max_players":24,"Bots":0,"server_type":"Dedicated","server_os":"Linux","password":true,"vac":true,"version":"7961495","steam_id":85568392924469994,"keywords":["nocrits","nodmgspread","payload","uncletopia"],"game_id":440,"stv_port":27026,"stv_name":"Uncletopia | New York City | 2 | All Maps | STV","players":[{"user_id":346,"name":"rattlin' bog","steam_id":76561198224551028,"connected_time":3643000000000,"state":"active","ping":55},{"user_id":385,"name":"Yongle","steam_id":76561198068591156,"connected_time":477000000000,"state":"active","ping":70},{"user_id":373,"name":"Mr. CubeX","steam_id":76561198805603832,"connected_time":1738000000000,"state":"active","ping":76},{"user_id":357,"name":"Shuu","steam_id":76561199199180558,"connected_time":2959000000000,"state":"active","ping":38},{"user_id":338,"name":"YummerBummer","steam_id":76561198094773987,"connected_time":4208000000000,"state":"active","ping":51},{"user_id":365,"name":"Jasper™","steam_id":76561198260018463,"connected_time":2423000000000,"state":"active","ping":76},{"user_id":375,"name":"Mike","steam_id":76561198449656454,"connected_time":1607000000000,"state":"active","ping":47},{"user_id":387,"name":"Fredrick","steam_id":76561197981419964,"connected_time":471000000000,"state":"active","ping":46},{"user_id":376,"name":"Bunnyboy","steam_id":76561198298416058,"connected_time":1548000000000,"state":"active","ping":65},{"user_id":378,"name":"[Pickle] Shaving_Razors","steam_id":76561198139512065,"connected_time":1491000000000,"state":"active","ping":62},{"user_id":386,"name":"Jeiyo","steam_id":76561199070161957,"connected_time":475000000000,"state":"active","ping":87},{"user_id":388,"name":"Plinko","steam_id":76561198884912425,"connected_time":444000000000,"state":"active","ping":55},{"user_id":372,"name":"Lesbian Magnet","steam_id":76561198073495849,"connected_time":1877000000000,"state":"active","ping":74},{"user_id":367,"name":"Sir_Dounut_III","steam_id":76561198447537093,"connected_time":2409000000000,"state":"active","ping":64},{"user_id":390,"name":"aversa","steam_id":76561198840460101,"connected_time":136000000000,"state":"active","ping":48},{"user_id":374,"name":"G4Vi","steam_id":76561197998117895,"connected_time":1627000000000,"state":"active","ping":54},{"user_id":332,"name":"AlmondMilk","steam_id":76561198151229725,"connected_time":4687000000000,"state":"active","ping":91},{"user_id":343,"name":"IGOR","steam_id":76561199128786637,"connected_time":4001000000000,"state":"active","ping":98},{"user_id":384,"name":"Wique","steam_id":76561198071217597,"connected_time":540000000000,"state":"active","ping":75},{"user_id":380,"name":"P.C. Baby","steam_id":76561198067011379,"connected_time":1406000000000,"state":"active","ping":132},{"user_id":359,"name":"𝑑𝑜𝑙𝑝ℎ𝑖𝑛.","steam_id":76561198294013916,"connected_time":2911000000000,"state":"active","ping":45},{"user_id":382,"name":"[Pickle] Edie The Sweetie","steam_id":76561198056736857,"connected_time":1002000000000,"state":"active","ping":65},{"user_id":353,"name":"♦♣Quadric♥♠","steam_id":76561198061003853,"connected_time":3436000000000,"state":"active","ping":55}]},{"server_id":15,"name":"Uncletopia | New York City | 3 | Stopwatch","name_short":"nyc-3","host":"nyc-1.us.uncletopia.com","port":27035,"enabled":true,"region":"us-east","cc":"us","latitude":40.73061,"longitude":-73.93524,"reserved":0,"last_update":"0001-01-01T00:00:00Z","name_a2s":"Uncletopia | New York City | 3 | Stopwatch","protocol":17,"map":"workshop/pl_badwater_pro_v12.ugc2142942074","folder":"tf","game":"Team Fortress","app_id":440,"player_count":0,"max_players":24,"Bots":0,"server_type":"Dedicated","server_os":"Linux","password":true,"vac":true,"version":"7961495","steam_id":85568392924742820,"keywords":["nocrits","nodmgspread","payload","uncletopia"],"game_id":440,"stv_port":27036,"stv_name":"Uncletopia | New York City | 3 | Stopwatch | STV","players":null},{"server_id":16,"name":"Uncletopia | New York City | 4 | Community","name_short":"nyc-4","host":"nyc-1.us.uncletopia.com","port":27045,"enabled":true,"region":"us-east","cc":"us","latitude":40.73061,"longitude":-73.93524,"reserved":0,"last_update":"0001-01-01T00:00:00Z","name_a2s":"Uncletopia | New York City | 4 | Community","protocol":17,"map":"workshop/cp_snowbase_b21.ugc2081770490","folder":"tf","game":"Team Fortress","app_id":440,"player_count":0,"max_players":24,"Bots":0,"server_type":"Dedicated","server_os":"Linux","password":true,"vac":true,"version":"7961495","steam_id":85568392924742821,"keywords":["cp","nocrits","nodmgspread","uncletopia"],"game_id":440,"stv_port":27046,"stv_name":"Uncletopia | New York City | 4 | Community | STV","players":null},{"server_id":142,"name":"Uncletopia | São Paulo | 1 | All Maps","name_short":"sao-1","host":"sao-1.br.uncletopia.com","port":27015,"enabled":true,"region":"sa","cc":"br","latitude":-23.533773,"longitude":-46.62529,"reserved":0,"last_update":"0001-01-01T00:00:00Z","name_a2s":"Uncletopia | São Paulo | 1 | All Maps","protocol":17,"map":"koth_lakeside_final","folder":"tf","game":"Team Fortress","app_id":440,"player_count":0,"max_players":24,"Bots":0,"server_type":"Dedicated","server_os":"Linux","password":true,"vac":true,"version":"7961495","steam_id":85568392924469996,"keywords":["cp","nocrits","nodmgspread","uncletopia"],"game_id":440,"stv_port":27016,"stv_name":"Uncletopia | São Paulo | 1 | All Maps | STV","players":null},{"server_id":143,"name":"Uncletopia | São Paulo | 2 | Community","name_short":"sao-2","host":"sao-2.br.uncletopia.com","port":27015,"enabled":true,"region":"sa","cc":"br","latitude":-23.533773,"longitude":-46.62529,"reserved":0,"last_update":"0001-01-01T00:00:00Z","name_a2s":"Uncletopia | São Paulo | 2 | Community","protocol":17,"map":"workshop/rd_asteroid_redux_b1.ugc2154902912","folder":"tf","game":"Team Fortress","app_id":440,"player_count":0,"max_players":24,"Bots":0,"server_type":"Dedicated","server_os":"Linux","password":true,"vac":true,"version":"7961495","steam_id":85568392924485349,"keywords":["beta","nocrits","nodmgspread","rd","uncletopia"],"game_id":440,"stv_port":27016,"stv_name":"Uncletopia | São Paulo | 2 | Community | STV","players":null},{"server_id":7,"name":"Uncletopia | Seattle | 1 | All Maps","name_short":"sea-1","host":"sea-1.us.uncletopia.com","port":27015,"enabled":true,"region":"us-west","cc":"us","latitude":47.608013,"longitude":-122.33517,"reserved":0,"last_update":"0001-01-01T00:00:00Z","name_a2s":"Uncletopia | Seattle | 1 | All Maps","protocol":17,"map":"cp_powerhouse","folder":"tf","game":"Team Fortress","app_id":440,"player_count":24,"max_players":24,"Bots":0,"server_type":"Dedicated","server_os":"Linux","password":true,"vac":true,"version":"7961495","steam_id":85568392924469997,"keywords":["cp","nocrits","nodmgspread","uncletopia"],"game_id":440,"stv_port":27016,"stv_name":"Uncletopia | Seattle | 1 | All Maps | STV","players":[{"user_id":640,"name":"NEBULA","steam_id":76561198086878595,"connected_time":1049000000000,"state":"active","ping":69},{"user_id":574,"name":"Spectre","steam_id":76561198037535169,"connected_time":5692000000000,"state":"active","ping":74},{"user_id":636,"name":"bobtheninjaman","steam_id":76561198066424544,"connected_time":1551000000000,"state":"active","ping":67},{"user_id":620,"name":"ORANGE","steam_id":76561198000401769,"connected_time":2167000000000,"state":"active","ping":52},{"user_id":638,"name":"cutie","steam_id":76561198153438537,"connected_time":1361000000000,"state":"active","ping":75},{"user_id":591,"name":"Strangest","steam_id":76561198076592068,"connected_time":4683000000000,"state":"active","ping":47},{"user_id":650,"name":"mu","steam_id":76561197997530228,"connected_time":448000000000,"state":"active","ping":60},{"user_id":649,"name":"fly","steam_id":76561199003715735,"connected_time":482000000000,"state":"active","ping":90},{"user_id":617,"name":"wrench","steam_id":76561198137242573,"connected_time":2872000000000,"state":"active","ping":51},{"user_id":632,"name":"can of Heinz Beans","steam_id":76561198806423231,"connected_time":1752000000000,"state":"active","ping":50},{"user_id":639,"name":"CashGordon","steam_id":76561197975594096,"connected_time":1329000000000,"state":"active","ping":44},{"user_id":635,"name":"chill frog","steam_id":76561199471943472,"connected_time":1606000000000,"state":"active","ping":96},{"user_id":652,"name":"Spaceman","steam_id":76561198349305249,"connected_time":427000000000,"state":"active","ping":50},{"user_id":651,"name":"uufyfuu","steam_id":76561198142787212,"connected_time":438000000000,"state":"active","ping":62},{"user_id":619,"name":"Ayayayayayahuasca","steam_id":76561199002906056,"connected_time":2350000000000,"state":"active","ping":50},{"user_id":623,"name":"Ping","steam_id":76561199206514106,"connected_time":1913000000000,"state":"active","ping":120},{"user_id":633,"name":"BLU3","steam_id":76561198059652670,"connected_time":1701000000000,"state":"active","ping":46},{"user_id":654,"name":"Day Man","steam_id":76561198067154807,"connected_time":93000000000,"state":"active","ping":48},{"user_id":647,"name":"Sniff","steam_id":76561198010270922,"connected_time":682000000000,"state":"active","ping":64},{"user_id":629,"name":"CraftOfDoom","steam_id":76561198856919544,"connected_time":1804000000000,"state":"active","ping":58},{"user_id":637,"name":"William P. Ennis","steam_id":76561198073464877,"connected_time":1425000000000,"state":"active","ping":91},{"user_id":594,"name":"rat gets the cheese","steam_id":76561198031234032,"connected_time":4191000000000,"state":"active","ping":99},{"user_id":641,"name":"master_minion","steam_id":76561198170693990,"connected_time":1039000000000,"state":"active","ping":85},{"user_id":646,"name":"JayDuh","steam_id":76561198396293109,"connected_time":698000000000,"state":"active","ping":103}]},{"server_id":119,"name":"Uncletopia | Seattle | 2 | All Maps","name_short":"sea-2","host":"sea-1.us.uncletopia.com","port":27025,"enabled":true,"region":"us-west","cc":"us","latitude":47.608013,"longitude":-122.33517,"reserved":0,"last_update":"0001-01-01T00:00:00Z","name_a2s":"Uncletopia | Seattle | 2 | All Maps","protocol":17,"map":"pl_upward","folder":"tf","game":"Team Fortress","app_id":440,"player_count":24,"max_players":24,"Bots":0,"server_type":"Dedicated","server_os":"Linux","password":true,"vac":true,"version":"7961495","steam_id":85568392924469998,"keywords":["nocrits","nodmgspread","payload","uncletopia"],"game_id":440,"stv_port":27026,"stv_name":"Uncletopia | Seattle | 2 | All Maps | STV","players":[{"user_id":251,"name":"Jcc989","steam_id":76561198443682389,"connected_time":1473000000000,"state":"active","ping":73},{"user_id":264,"name":"The Horny","steam_id":76561198863639459,"connected_time":851000000000,"state":"active","ping":105},{"user_id":262,"name":"vacachimuela","steam_id":76561198297332421,"connected_time":978000000000,"state":"active","ping":51},{"user_id":152,"name":"sirFrost","steam_id":76561198072267177,"connected_time":7584000000000,"state":"active","ping":50},{"user_id":87,"name":"Phrog","steam_id":76561198072975322,"connected_time":11105000000000,"state":"active","ping":51},{"user_id":254,"name":"Dextersbrain","steam_id":76561198011831579,"connected_time":1353000000000,"state":"active","ping":61},{"user_id":194,"name":"woodpigeon","steam_id":76561199488457138,"connected_time":5070000000000,"state":"active","ping":59},{"user_id":257,"name":"Jimbles","steam_id":76561198115532375,"connected_time":1246000000000,"state":"active","ping":82},{"user_id":260,"name":"V_","steam_id":76561198147577835,"connected_time":1038000000000,"state":"active","ping":63},{"user_id":235,"name":"A Shiny Meat Bicycle","steam_id":76561198358757709,"connected_time":2799000000000,"state":"active","ping":134},{"user_id":258,"name":"Spare(8)Ball","steam_id":76561197982432995,"connected_time":1147000000000,"state":"active","ping":75},{"user_id":267,"name":"WonkyCow","steam_id":76561198307611953,"connected_time":603000000000,"state":"active","ping":48},{"user_id":265,"name":"ChangingThingy","steam_id":76561198402451290,"connected_time":840000000000,"state":"active","ping":39},{"user_id":248,"name":"Kakavian","steam_id":76561198030549172,"connected_time":1782000000000,"state":"active","ping":77},{"user_id":234,"name":"ilun","steam_id":76561198042913843,"connected_time":2981000000000,"state":"active","ping":61},{"user_id":230,"name":"Feds taught me how to","steam_id":76561198011675372,"connected_time":3339000000000,"state":"active","ping":45},{"user_id":81,"name":"Vrita","steam_id":76561198059483641,"connected_time":11451000000000,"state":"active","ping":67},{"user_id":268,"name":"diredeafeningdigestivedisaster","steam_id":76561197972601902,"connected_time":587000000000,"state":"active","ping":87},{"user_id":253,"name":"Paint Huffing Yoshi Player","steam_id":76561198028969023,"connected_time":1391000000000,"state":"active","ping":53},{"user_id":245,"name":"Dimple","steam_id":76561198980324190,"connected_time":2030000000000,"state":"active","ping":55},{"user_id":269,"name":"Pyrotek⁴","steam_id":76561198072747672,"connected_time":579000000000,"state":"active","ping":77},{"user_id":261,"name":"femboy spy","steam_id":76561199338554815,"connected_time":1023000000000,"state":"active","ping":83},{"user_id":206,"name":"Skaði","steam_id":76561198063949642,"connected_time":4911000000000,"state":"active","ping":37},{"user_id":249,"name":"a familiar cat","steam_id":76561198080046542,"connected_time":1645000000000,"state":"active","ping":46}]},{"server_id":406,"name":"Uncletopia | Seattle | 3 | Stopwatch","name_short":"sea-3","host":"sea-1.us.uncletopia.com","port":27035,"enabled":true,"region":"us-west","cc":"us","latitude":47.608013,"longitude":-122.33517,"reserved":0,"last_update":"0001-01-01T00:00:00Z","name_a2s":"Uncletopia | Seattle | 3 | Stopwatch","protocol":17,"map":"workshop/cp_process_f12.ugc2302948105","folder":"tf","game":"Team Fortress","app_id":440,"player_count":0,"max_players":24,"Bots":0,"server_type":"Dedicated","server_os":"Linux","password":true,"vac":true,"version":"7961495","steam_id":85568392924515217,"keywords":["cp","nocrits","nodmgspread","uncletopia"],"game_id":440,"stv_port":27036,"stv_name":"Uncletopia | Seattle | 3 | Stopwatch | STV","players":null},{"server_id":17,"name":"Uncletopia | San Francisco | 1 | All Maps","name_short":"sfo-1","host":"sfo-1.us.uncletopia.com","port":27015,"enabled":true,"region":"us-west","cc":"us","latitude":37.77397,"longitude":-122.4313,"reserved":0,"last_update":"0001-01-01T00:00:00Z","name_a2s":"Uncletopia | San Francisco | 1 | All Maps","protocol":17,"map":"cp_dustbowl","folder":"tf","game":"Team Fortress","app_id":440,"player_count":24,"max_players":24,"Bots":0,"server_type":"Dedicated","server_os":"Linux","password":true,"vac":true,"version":"7961495","steam_id":85568392924469999,"keywords":["cp","nocrits","nodmgspread","uncletopia"],"game_id":440,"stv_port":27016,"stv_name":"Uncletopia | San Francisco | 1 | All Maps | STV","players":[{"user_id":525,"name":"Whimsy!","steam_id":76561197989578836,"connected_time":3176000000000,"state":"active","ping":56},{"user_id":566,"name":"sim0n","steam_id":76561198198137847,"connected_time":1888000000000,"state":"active","ping":76},{"user_id":583,"name":"BiggestHistoryNerd","steam_id":76561198027677672,"connected_time":1165000000000,"state":"active","ping":62},{"user_id":587,"name":"NightGhost1400","steam_id":76561198810730471,"connected_time":791000000000,"state":"active","ping":61},{"user_id":592,"name":"tek lintowe fan","steam_id":76561198206177593,"connected_time":536000000000,"state":"active","ping":58},{"user_id":552,"name":"shreklover69","steam_id":76561198054070811,"connected_time":2334000000000,"state":"active","ping":60},{"user_id":484,"name":"phoonwax","steam_id":76561198433114405,"connected_time":6586000000000,"state":"active","ping":62},{"user_id":536,"name":"organic kale","steam_id":76561198101506575,"connected_time":2537000000000,"state":"active","ping":72},{"user_id":585,"name":"BumpingSquid","steam_id":76561199093840958,"connected_time":1103000000000,"state":"active","ping":67},{"user_id":593,"name":"mellgibs","steam_id":76561198119657503,"connected_time":530000000000,"state":"active","ping":71},{"user_id":571,"name":"sadlaxx","steam_id":76561198061354919,"connected_time":1741000000000,"state":"active","ping":82},{"user_id":589,"name":"Red 40","steam_id":76561198068113347,"connected_time":642000000000,"state":"active","ping":59},{"user_id":597,"name":"Stroop","steam_id":76561198138687730,"connected_time":215000000000,"state":"active","ping":62},{"user_id":562,"name":"the keebler","steam_id":76561199486326945,"connected_time":1998000000000,"state":"active","ping":107},{"user_id":539,"name":"Jack \"Hee Ho\" Frost","steam_id":76561198353395198,"connected_time":2496000000000,"state":"active","ping":106},{"user_id":594,"name":"AirCanada #1","steam_id":76561198150212442,"connected_time":473000000000,"state":"active","ping":104},{"user_id":541,"name":"canakblasteran","steam_id":76561199472518822,"connected_time":2405000000000,"state":"active","ping":83},{"user_id":588,"name":"Johni3FireFly","steam_id":76561198089760607,"connected_time":784000000000,"state":"active","ping":61},{"user_id":598,"name":"❤[S'more]❤","steam_id":76561198817361963,"connected_time":215000000000,"state":"active","ping":76},{"user_id":590,"name":"Dingelsmurf the Orange","steam_id":76561198212489267,"connected_time":639000000000,"state":"active","ping":109},{"user_id":581,"name":"HAT-WEARING™ Maggot Gamer Cat","steam_id":76561197973992705,"connected_time":1354000000000,"state":"active","ping":60},{"user_id":591,"name":"a","steam_id":76561198069380992,"connected_time":627000000000,"state":"active","ping":93},{"user_id":582,"name":"Bizsnitch","steam_id":76561198017936794,"connected_time":1340000000000,"state":"active","ping":73},{"user_id":596,"name":"Pluto","steam_id":76561198012630802,"connected_time":442000000000,"state":"active","ping":58}]},{"server_id":18,"name":"Uncletopia | San Francisco | 2 | All Maps","name_short":"sfo-2","host":"sfo-1.us.uncletopia.com","port":27025,"enabled":true,"region":"us-west","cc":"us","latitude":37.77397,"longitude":-122.4313,"reserved":0,"last_update":"0001-01-01T00:00:00Z","name_a2s":"Uncletopia | San Francisco | 2 | All Maps","protocol":17,"map":"pl_borneo","folder":"tf","game":"Team Fortress","app_id":440,"player_count":24,"max_players":24,"Bots":0,"server_type":"Dedicated","server_os":"Linux","password":true,"vac":true,"version":"7961495","steam_id":85568392924470000,"keywords":["nocrits","nodmgspread","payload","uncletopia"],"game_id":440,"stv_port":27026,"stv_name":"Uncletopia | San Francisco | 2 | All Maps | STV","players":[{"user_id":55,"name":"Delivery Guy","steam_id":76561198327008356,"connected_time":131000000000,"state":"active","ping":86},{"user_id":51,"name":"NoireThings","steam_id":76561199041728231,"connected_time":864000000000,"state":"active","ping":110},{"user_id":48,"name":"Scrampled Aigs","steam_id":76561198014526583,"connected_time":919000000000,"state":"active","ping":99},{"user_id":21,"name":"upgrade9000","steam_id":76561198443060751,"connected_time":3057000000000,"state":"active","ping":474},{"user_id":22,"name":"Spoi","steam_id":76561198203134675,"connected_time":3032000000000,"state":"active","ping":74},{"user_id":23,"name":"Windows Vista Home Premium","steam_id":76561198043764863,"connected_time":2863000000000,"state":"active","ping":67},{"user_id":24,"name":"Perfume Department","steam_id":76561198128299594,"connected_time":2426000000000,"state":"active","ping":63},{"user_id":25,"name":"ConnorWRM","steam_id":76561199350333302,"connected_time":2366000000000,"state":"active","ping":135},{"user_id":26,"name":"pipebombrater","steam_id":76561199029030831,"connected_time":2054000000000,"state":"active","ping":113},{"user_id":49,"name":"Red-Raven","steam_id":76561197971130794,"connected_time":884000000000,"state":"active","ping":70},{"user_id":57,"name":"ronald","steam_id":76561197960691622,"connected_time":27000000000,"state":"active","ping":72},{"user_id":30,"name":"ThatDudeOverThere","steam_id":76561198108763826,"connected_time":1624000000000,"state":"active","ping":53},{"user_id":32,"name":"Overmeme","steam_id":76561199455124144,"connected_time":1558000000000,"state":"active","ping":81},{"user_id":52,"name":"incredirocks","steam_id":76561198061079993,"connected_time":619000000000,"state":"active","ping":92},{"user_id":42,"name":"Toastered","steam_id":76561198178459042,"connected_time":1165000000000,"state":"active","ping":63},{"user_id":36,"name":"cass","steam_id":76561198074502046,"connected_time":1312000000000,"state":"active","ping":137},{"user_id":45,"name":"blast a hoe","steam_id":76561198294281809,"connected_time":1075000000000,"state":"active","ping":61},{"user_id":54,"name":"GreenApples","steam_id":76561198120559543,"connected_time":211000000000,"state":"active","ping":54},{"user_id":39,"name":"robloxscream","steam_id":76561199048027781,"connected_time":1239000000000,"state":"active","ping":51},{"user_id":56,"name":"menta fresca","steam_id":76561198086666486,"connected_time":107000000000,"state":"active","ping":88},{"user_id":41,"name":"Error","steam_id":76561199050994293,"connected_time":1185000000000,"state":"active","ping":64},{"user_id":43,"name":"josie","steam_id":76561198170848553,"connected_time":1159000000000,"state":"active","ping":69},{"user_id":50,"name":"BasedGod","steam_id":76561198061177973,"connected_time":875000000000,"state":"active","ping":47},{"user_id":53,"name":"Linkletter","steam_id":76561197970292524,"connected_time":256000000000,"state":"active","ping":56}]},{"server_id":19,"name":"Uncletopia | San Francisco | 3 | Stopwatch","name_short":"sfo-3","host":"sfo-1.us.uncletopia.com","port":27035,"enabled":true,"region":"us-west","cc":"us","latitude":37.77397,"longitude":-122.4313,"reserved":0,"last_update":"0001-01-01T00:00:00Z","name_a2s":"Uncletopia | San Francisco | 3 | Stopwatch","protocol":17,"map":"pl_pier","folder":"tf","game":"Team Fortress","app_id":440,"player_count":0,"max_players":24,"Bots":0,"server_type":"Dedicated","server_os":"Linux","password":true,"vac":true,"version":"7961495","steam_id":85568392924742824,"keywords":["nocrits","nodmgspread","payload","uncletopia"],"game_id":440,"stv_port":27036,"stv_name":"Uncletopia | San Francisco | 3 | Stopwatch | STV","players":null},{"server_id":20,"name":"Uncletopia | San Francisco | 4 | Community","name_short":"sfo-4","host":"sfo-1.us.uncletopia.com","port":27045,"enabled":true,"region":"us-west","cc":"us","latitude":37.77397,"longitude":-122.4313,"reserved":0,"last_update":"0001-01-01T00:00:00Z","name_a2s":"Uncletopia | San Francisco | 4 | Community","protocol":17,"map":"workshop/koth_trenchfoot_ab1.ugc731436616","folder":"tf","game":"Team Fortress","app_id":440,"player_count":0,"max_players":24,"Bots":0,"server_type":"Dedicated","server_os":"Linux","password":true,"vac":true,"version":"7961495","steam_id":85568392924742826,"keywords":["cp","nocrits","nodmgspread","uncletopia"],"game_id":440,"stv_port":27046,"stv_name":"Uncletopia | San Francisco | 4 | Community | STV","players":null},{"server_id":141,"name":"Uncletopia | Sydney | 1 | All Maps","name_short":"syd-1","host":"syd-1.au.uncletopia.com","port":27015,"enabled":true,"region":"au","cc":"au","latitude":-33.865143,"longitude":151.2099,"reserved":0,"last_update":"0001-01-01T00:00:00Z","name_a2s":"Uncletopia | Sydney | 1 | All Maps","protocol":17,"map":"koth_viaduct","folder":"tf","game":"Team Fortress","app_id":440,"player_count":0,"max_players":24,"Bots":0,"server_type":"Dedicated","server_os":"Linux","password":true,"vac":true,"version":"7961495","steam_id":85568392924470001,"keywords":["cp","nocrits","nodmgspread","uncletopia"],"game_id":440,"stv_port":27016,"stv_name":"Uncletopia | Sydney | 1 | All Maps | STV","players":null},{"server_id":123,"name":"Uncletopia | Sydney | 2 | All Maps","name_short":"syd-2","host":"syd-1.au.uncletopia.com","port":27025,"enabled":true,"region":"au","cc":"au","latitude":-33.865143,"longitude":151.2099,"reserved":0,"last_update":"0001-01-01T00:00:00Z","name_a2s":"Uncletopia | Sydney | 2 | All Maps","protocol":17,"map":"koth_lakeside_final","folder":"tf","game":"Team Fortress","app_id":440,"player_count":0,"max_players":24,"Bots":0,"server_type":"Dedicated","server_os":"Linux","password":true,"vac":true,"version":"7961495","steam_id":85568392924470002,"keywords":["cp","nocrits","nodmgspread","uncletopia"],"game_id":440,"stv_port":27026,"stv_name":"Uncletopia | Sydney | 2 | All Maps | STV","players":null},{"server_id":395,"name":"Uncletopia | Sydney | 3 | All Maps","name_short":"syd-3","host":"syd-1.au.uncletopia.com","port":27035,"enabled":true,"region":"au","cc":"au","latitude":-33.865143,"longitude":151.2099,"reserved":0,"last_update":"0001-01-01T00:00:00Z","name_a2s":"Uncletopia | Sydney | 3 | All Maps","protocol":17,"map":"pl_frontier_final","folder":"tf","game":"Team Fortress","app_id":440,"player_count":0,"max_players":24,"Bots":0,"server_type":"Dedicated","server_os":"Linux","password":true,"vac":true,"version":"7961495","steam_id":85568392925194467,"keywords":["nocrits","nodmgspread","payload","uncletopia"],"game_id":440,"stv_port":27036,"stv_name":"Uncletopia | Sydney | 3 | All Maps | STV","players":null},{"server_id":396,"name":"Uncletopia | Sydney | 4 | All Maps","name_short":"syd-4","host":"syd-1.au.uncletopia.com","port":27045,"enabled":true,"region":"au","cc":"au","latitude":-33.865143,"longitude":151.2099,"reserved":0,"last_update":"0001-01-01T00:00:00Z","name_a2s":"Uncletopia | Sydney | 4 | All Maps","protocol":17,"map":"cp_process_final","folder":"tf","game":"Team Fortress","app_id":440,"player_count":0,"max_players":24,"Bots":0,"server_type":"Dedicated","server_os":"Linux","password":true,"vac":true,"version":"7961495","steam_id":85568392925397958,"keywords":["cp","nocrits","nodmgspread","uncletopia"],"game_id":440,"stv_port":27046,"stv_name":"Uncletopia | Sydney | 4 | All Maps | STV","players":null},{"server_id":58,"name":"Uncletopia | Sydney | 5 | Stopwatch","name_short":"syd-5","host":"syd-1.au.uncletopia.com","port":27055,"enabled":true,"region":"au","cc":"au","latitude":-33.865143,"longitude":151.2099,"reserved":0,"last_update":"0001-01-01T00:00:00Z","name_a2s":"Uncletopia | Sydney | 5 | Stopwatch","protocol":17,"map":"pl_frontier_final","folder":"tf","game":"Team Fortress","app_id":440,"player_count":0,"max_players":24,"Bots":0,"server_type":"Dedicated","server_os":"Linux","password":true,"vac":true,"version":"7961495","steam_id":85568392925397959,"keywords":["nocrits","nodmgspread","payload","uncletopia"],"game_id":440,"stv_port":27056,"stv_name":"Uncletopia | Sydney | 5 | Stopwatch | STV","players":null},{"server_id":59,"name":"Uncletopia | Sydney | 6 | Community","name_short":"syd-6","host":"syd-1.au.uncletopia.com","port":27065,"enabled":true,"region":"au","cc":"au","latitude":-33.865143,"longitude":151.2099,"reserved":0,"last_update":"0001-01-01T00:00:00Z","name_a2s":"Uncletopia | Sydney | 6 | Community","protocol":17,"map":"cp_sunshine","folder":"tf","game":"Team Fortress","app_id":440,"player_count":0,"max_players":24,"Bots":0,"server_type":"Dedicated","server_os":"Linux","password":true,"vac":true,"version":"7961495","steam_id":85568392925397960,"keywords":["cp","nocrits","nodmgspread","uncletopia"],"game_id":440,"stv_port":27066,"stv_name":"Uncletopia | Sydney | 6 | Community | STV","players":null},{"server_id":49,"name":"Uncletopia | Warsaw | 1 | One Thousand Uncles","name_short":"waw-1","host":"waw-1.pl.uncletopia.com","port":27015,"enabled":true,"region":"eu","cc":"pl","latitude":52.2297,"longitude":21.017532,"reserved":0,"last_update":"0001-01-01T00:00:00Z","name_a2s":"Uncletopia | Warsaw | 1 | One Thousand Uncles","protocol":17,"map":"pl_thundermountain","folder":"tf","game":"Team Fortress","app_id":440,"player_count":18,"max_players":32,"Bots":16,"server_type":"Dedicated","server_os":"Linux","password":true,"vac":true,"version":"7961495","steam_id":85568392925397850,"keywords":["alltalk","bots","danepve","increased_maxplayers","nocrits","norespawntime","payload","uncletopia"],"game_id":440,"stv_port":0,"stv_name":"","players":[{"user_id":613,"name":"Dimo","steam_id":76561199145809112,"connected_time":383000000000,"state":"active","ping":165},{"user_id":630,"name":"Play","steam_id":76561198260332420,"connected_time":263000000000,"state":"active","ping":180}]},{"server_id":50,"name":"Uncletopia | Warsaw | 2 | One Thousand Uncles","name_short":"waw-2","host":"waw-1.pl.uncletopia.com","port":27025,"enabled":true,"region":"eu","cc":"pl","latitude":52.2297,"longitude":21.017532,"reserved":0,"last_update":"0001-01-01T00:00:00Z","name_a2s":"Uncletopia | Warsaw | 2 | One Thousand Uncles","protocol":17,"map":"pl_upward","folder":"tf","game":"Team Fortress","app_id":440,"player_count":0,"max_players":32,"Bots":0,"server_type":"Dedicated","server_os":"Linux","password":true,"vac":true,"version":"7961495","steam_id":85568392925397851,"keywords":["alltalk","danepve","increased_maxplayers","nocrits","norespawntime","payload","uncletopia"],"game_id":440,"stv_port":0,"stv_name":"","players":null},{"server_id":51,"name":"Uncletopia | Warsaw | 3 | All Maps","name_short":"waw-3","host":"waw-1.pl.uncletopia.com","port":27035,"enabled":true,"region":"eu","cc":"pl","latitude":52.2297,"longitude":21.017532,"reserved":0,"last_update":"0001-01-01T00:00:00Z","name_a2s":"Uncletopia | Warsaw | 3 | All Maps","protocol":17,"map":"pl_snowycoast","folder":"tf","game":"Team Fortress","app_id":440,"player_count":0,"max_players":24,"Bots":0,"server_type":"Dedicated","server_os":"Linux","password":true,"vac":true,"version":"7961495","steam_id":85568392925397852,"keywords":["nocrits","nodmgspread","payload","uncletopia"],"game_id":440,"stv_port":27036,"stv_name":"Uncletopia | Warsaw | 3 | All Maps | STV","players":null},{"server_id":52,"name":"Uncletopia | Warsaw | 4 | All Maps","name_short":"waw-4","host":"waw-1.pl.uncletopia.com","port":27045,"enabled":true,"region":"eu","cc":"pl","latitude":52.2297,"longitude":21.017532,"reserved":0,"last_update":"0001-01-01T00:00:00Z","name_a2s":"Uncletopia | Warsaw | 4 | All Maps","protocol":17,"map":"cp_mountainlab","folder":"tf","game":"Team Fortress","app_id":440,"player_count":0,"max_players":24,"Bots":0,"server_type":"Dedicated","server_os":"Linux","password":true,"vac":true,"version":"7961495","steam_id":85568392925397853,"keywords":["cp","nocrits","nodmgspread","uncletopia"],"game_id":440,"stv_port":27046,"stv_name":"Uncletopia | Warsaw | 4 | All Maps | STV","players":null},{"server_id":53,"name":"Uncletopia | Warsaw | 5 | Stopwatch","name_short":"waw-5","host":"waw-1.pl.uncletopia.com","port":27055,"enabled":true,"region":"eu","cc":"pl","latitude":52.2297,"longitude":21.017532,"reserved":0,"last_update":"0001-01-01T00:00:00Z","name_a2s":"Uncletopia | Warsaw | 5 | Stopwatch","protocol":17,"map":"koth_lakeside_final","folder":"tf","game":"Team Fortress","app_id":440,"player_count":0,"max_players":24,"Bots":0,"server_type":"Dedicated","server_os":"Linux","password":true,"vac":true,"version":"7961495","steam_id":85568392925397854,"keywords":["cp","nocrits","nodmgspread","uncletopia"],"game_id":440,"stv_port":27056,"stv_name":"Uncletopia | Warsaw | 5 | Stopwatch | STV","players":null},{"server_id":54,"name":"Uncletopia | Warsaw | 6 | Community","name_short":"waw-6","host":"waw-1.pl.uncletopia.com","port":27065,"enabled":true,"region":"eu","cc":"pl","latitude":52.2297,"longitude":21.017532,"reserved":0,"last_update":"0001-01-01T00:00:00Z","name_a2s":"Uncletopia | Warsaw | 6 | Community","protocol":17,"map":"workshop/cp_caldera_rc3.ugc2834196889","folder":"tf","game":"Team Fortress","app_id":440,"player_count":0,"max_players":24,"Bots":0,"server_type":"Dedicated","server_os":"Linux","password":true,"vac":true,"version":"7961495","steam_id":85568392925397856,"keywords":["cp","nocrits","nodmgspread","uncletopia"],"game_id":440,"stv_port":27066,"stv_name":"Uncletopia | Warsaw | 6 | Community | STV","players":null}]}