{"status":true,"message":"","result":[{"server_id":9,"name":"Uncletopia | Atlanta | 1 | All Maps","name_short":"atl-1","host":"atl-1.us.uncletopia.com","port":27015,"enabled":true,"region":"us-east","cc":"us","latitude":33.753746,"longitude":-84.38633,"reserved":0,"last_update":"0001-01-01T00:00:00Z","name_a2s":"Uncletopia | Atlanta | 1 | All Maps","protocol":17,"map":"pl_badwater","folder":"tf","game":"Team Fortress","app_id":440,"player_count":0,"max_players":24,"Bots":0,"server_type":"Dedicated","server_os":"Linux","password":true,"vac":true,"version":"7932396","steam_id":85568392924469982,"keywords":["nocrits","nodmgspread","payload","uncletopia"],"game_id":440,"stv_port":27016,"stv_name":"Uncletopia | Atlanta | 1 | All Maps | STV","players":null},{"server_id":104,"name":"Uncletopia | Atlanta | 2 | All Maps","name_short":"atl-2","host":"atl-1.us.uncletopia.com","port":27025,"enabled":true,"region":"us-east","cc":"us","latitude":33.753746,"longitude":-84.38633,"reserved":0,"last_update":"0001-01-01T00:00:00Z","name_a2s":"Uncletopia | Atlanta | 2 | All Maps","protocol":17,"map":"koth_viaduct","folder":"tf","game":"Team Fortress","app_id":440,"player_count":0,"max_players":24,"Bots":0,"server_type":"Dedicated","server_os":"Linux","password":true,"vac":true,"version":"7932396","steam_id":85568392924469983,"keywords":["cp","nocrits","nodmgspread","uncletopia"],"game_id":440,"stv_port":27026,"stv_name":"Uncletopia | Atlanta | 2 | All Maps | STV","players":null},{"server_id":400,"name":"Uncletopia | Atlanta | 3 | Community","name_short":"atl-3","host":"atl-1.us.uncletopia.com","port":27035,"enabled":true,"region":"us-east","cc":"us","latitude":33.753746,"longitude":-84.38633,"reserved":0,"last_update":"0001-01-01T00:00:00Z","name_a2s":"Uncletopia | Atlanta | 3 | Community","protocol":17,"map":"workshop/cp_hazyfort_rc6.ugc1365963729","folder":"tf","game":"Team Fortress","app_id":440,"player_count":0,"max_players":24,"Bots":0,"server_type":"Dedicated","server_os":"Linux","password":true,"vac":true,"version":"7932396","steam_id":85568392924515187,"keywords":["cp","nocrits","nodmgspread","uncletopia"],"game_id":440,"stv_port":27036,"stv_name":"Uncletopia | Atlanta | 3 | Community | STV","players":null},{"server_id":401,"name":"Uncletopia | Atlanta | 4 | No Payload","name_short":"atl-4","host":"atl-1.us.uncletopia.com","port":27045,"enabled":true,"region":"us-east","cc":"us","latitude":33.753746,"longitude":-84.38633,"reserved":0,"last_update":"0001-01-01T00:00:00Z","name_a2s":"","protocol":0,"map":"","folder":"","game":"","app_id":0,"player_count":0,"max_players":0,"Bots":0,"server_type":"","server_os":"","password":false,"vac":false,"version":"","steam_id":0,"keywords":null,"game_id":0,"stv_port":0,"stv_name":"","players":null},{"server_id":2,"name":"Uncletopia | Chicago | 1 | All Maps","name_short":"chi-1","host":"chi-1.us.uncletopia.com","port":27015,"enabled":true,"region":"us-central","cc":"us","latitude":41.881832,"longitude":-87.62318,"reserved":0,"last_update":"0001-01-01T00:00:00Z","name_a2s":"Uncletopia | Chicago | 1 | All Maps","protocol":17,"map":"cp_gorge","folder":"tf","game":"Team Fortress","app_id":440,"player_count":19,"max_players":24,"Bots":0,"server_type":"Dedicated","server_os":"Linux","password":true,"vac":true,"version":"7932396","steam_id":85568392924469984,"keywords":["cp","nocrits","nodmgspread","uncletopia"],"game_id":440,"stv_port":27016,"stv_name":"Uncletopia | Chicago | 1 | All Maps | STV","players":[{"user_id":152,"name":"Lost","steam_id":76561198093713427,"connected_time":3551000000000,"state":"active","ping":73},{"user_id":200,"name":"Zoot","steam_id":76561198121944243,"connected_time":273000000000,"state":"active","ping":68},{"user_id":202,"name":"Echo","steam_id":76561199165491231,"connected_time":10000000000,"state":"spawning","ping":78},{"user_id":203,"name":"uniwu - BUFF THE SPEED","steam_id":76561198864421290,"connected_time":9000000000,"state":"active","ping":120},{"user_id":189,"name":"Blazing Hyena","steam_id":76561199121852680,"connected_time":762000000000,"state":"active","ping":110},{"user_id":120,"name":"dirty tuna","steam_id":76561198021535785,"connected_time":6894000000000,"state":"active","ping":71},{"user_id":194,"name":"Waddlehi","steam_id":76561198072553840,"connected_time":467000000000,"state":"active","ping":55},{"user_id":168,"name":"Menachem","steam_id":76561198041226420,"connected_time":2486000000000,"state":"active","ping":45},{"user_id":160,"name":"krueger","steam_id":76561198268654031,"connected_time":2935000000000,"state":"active","ping":45},{"user_id":182,"name":"Angel","steam_id":76561198175654911,"connected_time":1032000000000,"state":"active","ping":75},{"user_id":164,"name":"Classysaurus","steam_id":76561198065992731,"connected_time":2667000000000,"state":"active","ping":54},{"user_id":187,"name":"you keep smelling the syrup","steam_id":76561198142756572,"connected_time":823000000000,"state":"active","ping":53},{"user_id":176,"name":"Riandox","steam_id":76561198130577326,"connected_time":1786000000000,"state":"active","ping":44},{"user_id":162,"name":"Ark","steam_id":76561198053000340,"connected_time":2730000000000,"state":"active","ping":55},{"user_id":196,"name":"goose","steam_id":76561198367551668,"connected_time":366000000000,"state":"active","ping":53},{"user_id":172,"name":"CollDragon","steam_id":76561198067534450,"connected_time":2113000000000,"state":"active","ping":60},{"user_id":193,"name":"MR.CRAB","steam_id":76561198329833659,"connected_time":530000000000,"state":"active","ping":141},{"user_id":198,"name":"toastman","steam_id":76561198207073088,"connected_time":348000000000,"state":"active","ping":74},{"user_id":188,"name":"primordialheath","steam_id":76561199386942638,"connected_time":814000000000,"state":"active","ping":51}]},{"server_id":106,"name":"Uncletopia | Chicago | 2 | All Maps","name_short":"chi-2","host":"chi-1.us.uncletopia.com","port":27025,"enabled":true,"region":"us-central","cc":"us","latitude":41.881832,"longitude":-87.62318,"reserved":0,"last_update":"0001-01-01T00:00:00Z","name_a2s":"Uncletopia | Chicago | 2 | All Maps","protocol":17,"map":"cp_dustbowl","folder":"tf","game":"Team Fortress","app_id":440,"player_count":23,"max_players":24,"Bots":0,"server_type":"Dedicated","server_os":"Linux","password":true,"vac":true,"version":"7932396","steam_id":85568392924469985,"keywords":["cp","nocrits","nodmgspread","uncletopia"],"game_id":440,"stv_port":27026,"stv_name":"Uncletopia | Chicago | 2 | All Maps | STV","players":[{"user_id":365,"name":"Sockman","steam_id":76561198140940947,"connected_time":296000000000,"state":"active","ping":54},{"user_id":312,"name":"i have amazing aim","steam_id":76561199222920753,"connected_time":5555000000000,"state":"active","ping":53},{"user_id":366,"name":"Would You Make Me A Sandwich?","steam_id":76561198152332211,"connected_time":246000000000,"state":"active","ping":55},{"user_id":367,"name":"Kronk","steam_id":76561198063092125,"connected_time":246000000000,"state":"active","ping":63},{"user_id":342,"name":"Valem","steam_id":76561198808224331,"connected_time":2453000000000,"state":"active","ping":102},{"user_id":360,"name":"CinnamonBoy","steam_id":76561198882330338,"connected_time":468000000000,"state":"active","ping":70},{"user_id":368,"name":"HexT","steam_id":76561199085359931,"connected_time":231000000000,"state":"active","ping":60},{"user_id":375,"name":"Zeroast","steam_id":76561198314750115,"connected_time":107000000000,"state":"active","ping":60},{"user_id":370,"name":"OgreEatApple22","steam_id":76561198070923665,"connected_time":187000000000,"state":"active","ping":75},{"user_id":381,"name":"Max_Attack","steam_id":76561198944028607,"connected_time":20000000000,"state":"active","ping":168},{"user_id":371,"name":"freelatinacams-1.biz","steam_id":76561198141099060,"connected_time":171000000000,"state":"active","ping":73},{"user_id":372,"name":"ᓀ‸ᓂ","steam_id":76561198046055673,"connected_time":135000000000,"state":"active","ping":73},{"user_id":332,"name":"Snoopy","steam_id":76561198273735974,"connected_time":3596000000000,"state":"active","ping":95},{"user_id":358,"name":"kite","steam_id":76561198346516392,"connected_time":752000000000,"state":"active","ping":69},{"user_id":347,"name":"The Dreamer","steam_id":76561198047638312,"connected_time":1906000000000,"state":"active","ping":55},{"user_id":382,"name":"Big Milk","steam_id":76561198066904836,"connected_time":17000000000,"state":"active","ping":86},{"user_id":373,"name":"jackhillard83","steam_id":76561199057098390,"connected_time":124000000000,"state":"active","ping":85},{"user_id":348,"name":"thepokeyen","steam_id":76561198236847572,"connected_time":1881000000000,"state":"active","ping":70},{"user_id":374,"name":"Famous Nat1Publishing Author","steam_id":76561198294638028,"connected_time":122000000000,"state":"active","ping":248},{"user_id":336,"name":"GamingGeneral","steam_id":76561198872339275,"connected_time":3418000000000,"state":"active","ping":66},{"user_id":378,"name":"PaD_Ding","steam_id":76561198831202965,"connected_time":84000000000,"state":"active","ping":187},{"user_id":354,"name":"bonk","steam_id":76561199132598729,"connected_time":1460000000000,"state":"active","ping":176},{"user_id":316,"name":"andyiscolorless","steam_id":76561199239870921,"connected_time":5499000000000,"state":"active","ping":147}]},{"server_id":402,"name":"Uncletopia | Chicago | 3 | All Maps","name_short":"chi-3","host":"chi-1.us.uncletopia.com","port":27035,"enabled":true,"region":"us-central","cc":"us","latitude":41.881832,"longitude":-87.62318,"reserved":0,"last_update":"0001-01-01T00:00:00Z","name_a2s":"Uncletopia | Chicago | 3 | All Maps","protocol":17,"map":"pl_borneo","folder":"tf","game":"Team Fortress","app_id":440,"player_count":24,"max_players":24,"Bots":0,"server_type":"Dedicated","server_os":"Linux","password":true,"vac":true,"version":"7932396","steam_id":85568392924515191,"keywords":["nocrits","nodmgspread","payload","uncletopia"],"game_id":440,"stv_port":27036,"stv_name":"Uncletopia | Chicago | 3 | All Maps | STV","players":[{"user_id":133,"name":"Nefy","steam_id":76561198030017316,"connected_time":6393000000000,"state":"active","ping":87},{"user_id":195,"name":"Florist","steam_id":76561198009121060,"connected_time":47000000000,"state":"active","ping":90},{"user_id":193,"name":"Drew P. Sack","steam_id":76561198036201738,"connected_time":295000000000,"state":"active","ping":51},{"user_id":196,"name":"|WS| Don't_Taze_Me_Bro","steam_id":76561198043289495,"connected_time":39000000000,"state":"active","ping":77},{"user_id":172,"name":"Team Fortress 2","steam_id":76561198180638958,"connected_time":2236000000000,"state":"active","ping":71},{"user_id":197,"name":"Kontrast","steam_id":76561198822353564,"connected_time":39000000000,"state":"active","ping":82},{"user_id":198,"name":"carrot cake","steam_id":76561198055174915,"connected_time":33000000000,"state":"active","ping":67},{"user_id":194,"name":"GreekGoat_Coffee","steam_id":76561198129331088,"connected_time":66000000000,"state":"active","ping":43},{"user_id":190,"name":"MacchuPeachu","steam_id":76561199093242587,"connected_time":538000000000,"state":"active","ping":73},{"user_id":168,"name":"ShellBug","steam_id":76561198144187527,"connected_time":2355000000000,"state":"active","ping":69},{"user_id":173,"name":"Punished Kong","steam_id":76561198973620882,"connected_time":2213000000000,"state":"active","ping":81},{"user_id":137,"name":"Allahgator","steam_id":76561198280659041,"connected_time":5485000000000,"state":"active","ping":75},{"user_id":187,"name":"CHAIRMAN MAO GAMING","steam_id":76561198066018972,"connected_time":565000000000,"state":"active","ping":75},{"user_id":176,"name":"dansci","steam_id":76561198269530717,"connected_time":1771000000000,"state":"active","ping":61},{"user_id":127,"name":"meo ♥","steam_id":76561197992719272,"connected_time":6646000000000,"state":"active","ping":47},{"user_id":158,"name":"Commodore","steam_id":76561198042112852,"connected_time":3046000000000,"state":"active","ping":71},{"user_id":199,"name":"Corbe","steam_id":76561198353893927,"connected_time":15000000000,"state":"spawning","ping":30},{"user_id":146,"name":"Deki","steam_id":76561198031914490,"connected_time":4467000000000,"state":"active","ping":150},{"user_id":188,"name":"it's peanut time","steam_id":76561198236028020,"connected_time":559000000000,"state":"active","ping":91},{"user_id":185,"name":"msay","steam_id":76561198170888029,"connected_time":750000000000,"state":"active","ping":203},{"user_id":189,"name":"so clear to me now","steam_id":76561198072179483,"connected_time":557000000000,"state":"active","ping":88},{"user_id":177,"name":"bird doctor","steam_id":76561199144340440,"connected_time":1765000000000,"state":"active","ping":65},{"user_id":171,"name":"An Erect Penis :)","steam_id":76561198086477485,"connected_time":2318000000000,"state":"active","ping":38},{"user_id":178,"name":"Killroy NQP ❤","steam_id":76561198006983771,"connected_time":1751000000000,"state":"active","ping":73}]},{"server_id":403,"name":"Uncletopia | Chicago | 4 | All Maps","name_short":"chi-4","host":"chi-1.us.uncletopia.com","port":27045,"enabled":true,"region":"us-central","cc":"us","latitude":41.881832,"longitude":-87.62318,"reserved":0,"last_update":"0001-01-01T00:00:00Z","name_a2s":"Uncletopia | Chicago | 4 | All Maps","protocol":17,"map":"pl_upward","folder":"tf","game":"Team Fortress","app_id":440,"player_count":24,"max_players":24,"Bots":0,"server_type":"Dedicated","server_os":"Linux","password":true,"vac":true,"version":"7932396","steam_id":85568392924515193,"keywords":["nocrits","nodmgspread","payload","uncletopia"],"game_id":440,"stv_port":27046,"stv_name":"Uncletopia | Chicago | 4 | All Maps | STV","players":[{"user_id":367,"name":"CRISPR","steam_id":76561198326220798,"connected_time":654000000000,"state":"active","ping":67},{"user_id":376,"name":"sankara","steam_id":76561198013806060,"connected_time":204000000000,"state":"active","ping":52},{"user_id":372,"name":"Luca!","steam_id":76561198137880777,"connected_time":387000000000,"state":"active","ping":87},{"user_id":373,"name":"gay sex (enjoyer of)","steam_id":76561198250068972,"connected_time":304000000000,"state":"active","ping":89},{"user_id":364,"name":"Zero","steam_id":76561198033384990,"connected_time":844000000000,"state":"active","ping":62},{"user_id":374,"name":"saturn","steam_id":76561198348918232,"connected_time":301000000000,"state":"active","ping":45},{"user_id":361,"name":"Idk","steam_id":76561198971629959,"connected_time":914000000000,"state":"active","ping":137},{"user_id":362,"name":"hoovy spy","steam_id":76561198999843667,"connected_time":912000000000,"state":"active","ping":75},{"user_id":357,"name":"The Noob Sire","steam_id":76561198119219754,"connected_time":1177000000000,"state":"active","ping":97},{"user_id":330,"name":"TheConchinator","steam_id":76561199388149092,"connected_time":2639000000000,"state":"active","ping":64},{"user_id":377,"name":"Neophyte","steam_id":76561198027183394,"connected_time":143000000000,"state":"active","ping":90},{"user_id":346,"name":"genaro salazar","steam_id":76561198085451776,"connected_time":1528000000000,"state":"active","ping":76},{"user_id":375,"name":"Detective Banjo","steam_id":76561198069444167,"connected_time":285000000000,"state":"active","ping":102},{"user_id":365,"name":"yeetus meatus","steam_id":76561199204369282,"connected_time":796000000000,"state":"active","ping":88},{"user_id":318,"name":"Bee_Pirate","steam_id":76561199000599111,"connected_time":3233000000000,"state":"active","ping":58},{"user_id":349,"name":"Sqilluy","steam_id":76561198130993466,"connected_time":1437000000000,"state":"active","ping":83},{"user_id":355,"name":"Fobby #Savetf2","steam_id":76561198047681469,"connected_time":1242000000000,"state":"active","ping":66},{"user_id":338,"name":"lexi","steam_id":76561198176299759,"connected_time":1938000000000,"state":"active","ping":80},{"user_id":351,"name":"feathered_turtle","steam_id":76561199079858371,"connected_time":1404000000000,"state":"active","ping":86},{"user_id":294,"name":"Elias","steam_id":76561198106431732,"connected_time":5799000000000,"state":"active","ping":57},{"user_id":369,"name":"M","steam_id":76561198286792807,"connected_time":637000000000,"state":"active","ping":83},{"user_id":360,"name":"PileofPolygons","steam_id":76561199321343460,"connected_time":1160000000000,"state":"active","ping":70},{"user_id":293,"name":"Cloud","steam_id":76561198954987128,"connected_time":5925000000000,"state":"active","ping":73},{"user_id":209,"name":"GhettoSmash@freenudecelebs.com","steam_id":76561198168864083,"connected_time":10851000000000,"state":"active","ping":107}]},{"server_id":36,"name":"Uncletopia | Chicago | 5 | All Maps","name_short":"chi-5","host":"chi-2.us.uncletopia.com","port":27015,"enabled":true,"region":"us-central","cc":"us","latitude":41.881832,"longitude":-87.62318,"reserved":0,"last_update":"0001-01-01T00:00:00Z","name_a2s":"Uncletopia | Chicago | 5 | All Maps","protocol":17,"map":"pl_borneo","folder":"tf","game":"Team Fortress","app_id":440,"player_count":24,"max_players":24,"Bots":0,"server_type":"Dedicated","server_os":"Linux","password":true,"vac":true,"version":"7932396","steam_id":85568392924866362,"keywords":["nocrits","nodmgspread","payload","uncletopia"],"game_id":440,"stv_port":27016,"stv_name":"Uncletopia | Chicago | 5 | All Maps | STV","players":[{"user_id":54,"name":"i have a small weiner","steam_id":76561198213435803,"connected_time":265000000000,"state":"active","ping":50},{"user_id":47,"name":"ClammyToes","steam_id":76561198034549358,"connected_time":1051000000000,"state":"active","ping":49},{"user_id":24,"name":"Ballfondler","steam_id":76561198796712940,"connected_time":2042000000000,"state":"active","ping":56},{"user_id":52,"name":"RedSock","steam_id":76561198161243404,"connected_time":797000000000,"state":"active","ping":40},{"user_id":56,"name":"Owl Pacino","steam_id":76561197979970666,"connected_time":113000000000,"state":"active","ping":53},{"user_id":57,"name":"Ginger","steam_id":76561198074381106,"connected_time":75000000000,"state":"active","ping":82},{"user_id":59,"name":"giant_dork","steam_id":76561199105606956,"connected_time":23000000000,"state":"active","ping":93},{"user_id":58,"name":"Sugahu17S","steam_id":76561198799403828,"connected_time":44000000000,"state":"active","ping":54},{"user_id":31,"name":"mythics","steam_id":76561199179957944,"connected_time":1655000000000,"state":"active","ping":108},{"user_id":32,"name":"Shaby_Frost","steam_id":76561198401334563,"connected_time":1643000000000,"state":"active","ping":45},{"user_id":33,"name":"Van","steam_id":76561198073518712,"connected_time":1604000000000,"state":"active","ping":58},{"user_id":34,"name":"glankinator","steam_id":76561198354077256,"connected_time":1572000000000,"state":"active","ping":45},{"user_id":48,"name":"Goomby","steam_id":76561198079416561,"connected_time":997000000000,"state":"active","ping":107},{"user_id":36,"name":"daemon","steam_id":76561198001541433,"connected_time":1530000000000,"state":"active","ping":55},{"user_id":49,"name":"Midnight Flame","steam_id":76561198279692754,"connected_time":990000000000,"state":"active","ping":78},{"user_id":38,"name":"shadowking","steam_id":76561199284698401,"connected_time":1505000000000,"state":"active","ping":98},{"user_id":39,"name":"BreakfastTacos","steam_id":76561198847620442,"connected_time":1359000000000,"state":"active","ping":108},{"user_id":40,"name":"Faraday","steam_id":76561198089928357,"connected_time":1352000000000,"state":"active","ping":75},{"user_id":41,"name":"twizted","steam_id":76561197960407274,"connected_time":1351000000000,"state":"active","ping":70},{"user_id":42,"name":"touhou2010@gmail.com","steam_id":76561198045844070,"connected_time":1345000000000,"state":"active","ping":75},{"user_id":55,"name":"richarven","steam_id":76561198189429665,"connected_time":127000000000,"state":"active","ping":67},{"user_id":44,"name":"zod","steam_id":76561198071374501,"connected_time":1307000000000,"state":"active","ping":64},{"user_id":45,"name":"Chris P. Bacon","steam_id":76561198000851038,"connected_time":1274000000000,"state":"active","ping":70},{"user_id":46,"name":"Mikael_01","steam_id":76561199080253129,"connected_time":1274000000000,"state":"active","ping":185}]},{"server_id":37,"name":"Uncletopia | Chicago | 6 | All Maps","name_short":"chi-6","host":"chi-2.us.uncletopia.com","port":27025,"enabled":true,"region":"us-central","cc":"us","latitude":41.881832,"longitude":-87.62318,"reserved":0,"last_update":"0001-01-01T00:00:00Z","name_a2s":"Uncletopia | Chicago | 6 | All Maps","protocol":17,"map":"koth_highpass","folder":"tf","game":"Team Fortress","app_id":440,"player_count":3,"max_players":24,"Bots":0,"server_type":"Dedicated","server_os":"Linux","password":true,"vac":true,"version":"7932396","steam_id":85568392924866363,"keywords":["cp","nocrits","nodmgspread","uncletopia"],"game_id":440,"stv_port":27026,"stv_name":"Uncletopia | Chicago | 6 | All Maps | STV","players":[{"user_id":18,"name":"LucasIsNeverHere","steam_id":76561198995748555,"connected_time":636000000000,"state":"active","ping":27},{"user_id":19,"name":"lightcatnap","steam_id":76561199385584854,"connected_time":525000000000,"state":"active","ping":54},{"user_id":21,"name":"Joseph Ballin","steam_id":76561198799292014,"connected_time":223000000000,"state":"active","ping":31}]},{"server_id":38,"name":"Uncletopia | Chicago | 7 | Stopwatch Beta","name_short":"chi-7","host":"chi-2.us.uncletopia.com","port":27035,"enabled":true,"region":"us-central","cc":"us","latitude":41.881832,"longitude":-87.62318,"reserved":0,"last_update":"0001-01-01T00:00:00Z","name_a2s":"Uncletopia | Chicago | 7 | Stopwatch Beta","protocol":17,"map":"pl_borneo","folder":"tf","game":"Team Fortress","app_id":440,"player_count":0,"max_players":24,"Bots":0,"server_type":"Dedicated","server_os":"Linux","password":true,"vac":true,"version":"7932396","steam_id":85568392924866364,"keywords":["nocrits","nodmgspread","payload","uncletopia"],"game_id":440,"stv_port":27036,"stv_name":"Uncletopia | Chicago | 7 | Stopwatch Beta | STV","players":null},{"server_id":39,"name":"Uncletopia | Chicago | 8 | Community","name_short":"chi-8","host":"chi-2.us.uncletopia.com","port":27045,"enabled":true,"region":"us-central","cc":"us","latitude":41.881832,"longitude":-87.62318,"reserved":0,"last_update":"0001-01-01T00:00:00Z","name_a2s":"Uncletopia | Chicago | 8 | Community","protocol":17,"map":"koth_viaduct","folder":"tf","game":"Team Fortress","app_id":440,"player_count":0,"max_players":24,"Bots":0,"server_type":"Dedicated","server_os":"Linux","password":true,"vac":true,"version":"7932396","steam_id":85568392924866365,"keywords":["cp","nocrits","nodmgspread","uncletopia"],"game_id":440,"stv_port":27046,"stv_name":"Uncletopia | Chicago | 8 | Community | STV","players":null},{"server_id":8,"name":"Uncletopia | Dallas | 1 | All Maps","name_short":"dal-1","host":"dal-1.us.uncletopia.com","port":27015,"enabled":true,"region":"us-central","cc":"us","latitude":32.779167,"longitude":-96.80889,"reserved":0,"last_update":"0001-01-01T00:00:00Z","name_a2s":"Uncletopia | Dallas | 1 | All Maps","protocol":17,"map":"koth_harvest_final","folder":"tf","game":"Team Fortress","app_id":440,"player_count":23,"max_players":24,"Bots":0,"server_type":"Dedicated","server_os":"Linux","password":true,"vac":true,"version":"7932396","steam_id":85568392924469986,"keywords":["cp","nocrits","nodmgspread","uncletopia"],"game_id":440,"stv_port":27016,"stv_name":"Uncletopia | Dallas | 1 | All Maps | STV","players":[{"user_id":240,"name":"pl_deepthroatgulch_finalrc2","steam_id":76561198046802071,"connected_time":139000000000,"state":"active","ping":50},{"user_id":223,"name":"Huey","steam_id":76561198972816386,"connected_time":931000000000,"state":"active","ping":78},{"user_id":169,"name":"Doomagedden","steam_id":76561198272589475,"connected_time":3178000000000,"state":"active","ping":50},{"user_id":238,"name":"FanaticSalt","steam_id":76561199380123059,"connected_time":226000000000,"state":"active","ping":58},{"user_id":203,"name":"Eins","steam_id":76561199030343810,"connected_time":1756000000000,"state":"active","ping":62},{"user_id":191,"name":"Fred Fuchs","steam_id":76561198099998578,"connected_time":2260000000000,"state":"active","ping":47},{"user_id":211,"name":"gay gay homo gay","steam_id":76561198084362787,"connected_time":1204000000000,"state":"active","ping":79},{"user_id":239,"name":"Quietsharp","steam_id":76561198277968438,"connected_time":165000000000,"state":"active","ping":86},{"user_id":16,"name":"Jerk Tryhard (roleplay)","steam_id":76561199470538309,"connected_time":17025000000000,"state":"active","ping":75},{"user_id":230,"name":"Olga Gurlukovich ♡","steam_id":76561198165615964,"connected_time":462000000000,"state":"active","ping":98},{"user_id":217,"name":"slimjim557","steam_id":76561199094710853,"connected_time":1144000000000,"state":"active","ping":88},{"user_id":232,"name":"iUseDvorak","steam_id":76561198064439037,"connected_time":367000000000,"state":"active","ping":72},{"user_id":212,"name":"Some Guy","steam_id":76561197968945822,"connected_time":1201000000000,"state":"active","ping":60},{"user_id":227,"name":"I Like Cheese","steam_id":76561198006265659,"connected_time":733000000000,"state":"active","ping":95},{"user_id":226,"name":"HarryjusttHarry","steam_id":76561198982810452,"connected_time":789000000000,"state":"active","ping":80},{"user_id":224,"name":"Kirby.exe","steam_id":76561198242714582,"connected_time":866000000000,"state":"active","ping":46},{"user_id":184,"name":"aintnowaiyboi","steam_id":76561198301372369,"connected_time":2677000000000,"state":"active","ping":35},{"user_id":229,"name":"blossom","steam_id":76561198042735130,"connected_time":572000000000,"state":"active","ping":104},{"user_id":233,"name":"doughboy","steam_id":76561198219012928,"connected_time":350000000000,"state":"active","ping":77},{"user_id":172,"name":"chiarraz","steam_id":76561198277439571,"connected_time":3120000000000,"state":"active","ping":74},{"user_id":234,"name":"Del","steam_id":76561198878578791,"connected_time":343000000000,"state":"active","ping":89},{"user_id":175,"name":"the one true chubster","steam_id":76561198038358134,"connected_time":3072000000000,"state":"active","ping":86},{"user_id":237,"name":"CJammy","steam_id":76561199074691047,"connected_time":240000000000,"state":"active","ping":114}]},{"server_id":108,"name":"Uncletopia | Dallas | 2 | All Maps","name_short":"dal-2","host":"dal-1.us.uncletopia.com","port":27025,"enabled":true,"region":"us-central","cc":"us","latitude":32.779167,"longitude":-96.80889,"reserved":0,"last_update":"0001-01-01T00:00:00Z","name_a2s":"Uncletopia | Dallas | 2 | All Maps","protocol":17,"map":"pl_upward","folder":"tf","game":"Team Fortress","app_id":440,"player_count":23,"max_players":24,"Bots":0,"server_type":"Dedicated","server_os":"Linux","password":true,"vac":true,"version":"7932396","steam_id":85568392924469988,"keywords":["nocrits","nodmgspread","payload","uncletopia"],"game_id":440,"stv_port":27026,"stv_name":"Uncletopia | Dallas | 2 | All Maps | STV","players":[{"user_id":225,"name":"Sideways Whoopi Goldberg","steam_id":76561198003736560,"connected_time":962000000000,"state":"active","ping":41},{"user_id":230,"name":"no brain","steam_id":76561198451032322,"connected_time":599000000000,"state":"active","ping":104},{"user_id":173,"name":"scapegoat","steam_id":76561198188722751,"connected_time":5003000000000,"state":"active","ping":83},{"user_id":185,"name":"sebastiencsdennis","steam_id":76561199010837825,"connected_time":4021000000000,"state":"active","ping":98},{"user_id":186,"name":"No_Dictators","steam_id":76561199065777321,"connected_time":3962000000000,"state":"active","ping":54},{"user_id":233,"name":"ceres","steam_id":76561198291976960,"connected_time":251000000000,"state":"active","ping":104},{"user_id":181,"name":"Paragon","steam_id":76561198274263793,"connected_time":4159000000000,"state":"active","ping":90},{"user_id":197,"name":"Horse","steam_id":76561198004583631,"connected_time":3427000000000,"state":"active","ping":108},{"user_id":235,"name":"Chi -fr","steam_id":76561198121085178,"connected_time":153000000000,"state":"active","ping":104},{"user_id":100,"name":"cypherzero","steam_id":76561199182960322,"connected_time":9539000000000,"state":"active","ping":56},{"user_id":187,"name":"Mal","steam_id":76561198066074151,"connected_time":3949000000000,"state":"active","ping":82},{"user_id":167,"name":"Raptortastic","steam_id":76561198105613110,"connected_time":5233000000000,"state":"active","ping":74},{"user_id":221,"name":"veldt","steam_id":76561198056135308,"connected_time":1409000000000,"state":"active","ping":55},{"user_id":218,"name":"Trouble L. Panic","steam_id":76561197994768376,"connected_time":1596000000000,"state":"active","ping":58},{"user_id":172,"name":"CapoCannoli","steam_id":76561199092143255,"connected_time":5084000000000,"state":"active","ping":78},{"user_id":199,"name":"lil Klonex ❤","steam_id":76561198061550694,"connected_time":3293000000000,"state":"active","ping":67},{"user_id":229,"name":"in tempus withdrawal","steam_id":76561199001307670,"connected_time":622000000000,"state":"active","ping":105},{"user_id":210,"name":"Birch","steam_id":76561198316231704,"connected_time":2200000000000,"state":"active","ping":72},{"user_id":236,"name":"MantisToboggan","steam_id":76561197969447887,"connected_time":142000000000,"state":"active","ping":150},{"user_id":222,"name":"shadow6","steam_id":76561197979807910,"connected_time":1390000000000,"state":"active","ping":104},{"user_id":217,"name":"allopatry","steam_id":76561198046416864,"connected_time":1608000000000,"state":"active","ping":56},{"user_id":194,"name":"pogo","steam_id":76561198148913461,"connected_time":3769000000000,"state":"active","ping":89},{"user_id":198,"name":"BigPimpin","steam_id":76561198119549348,"connected_time":3352000000000,"state":"active","ping":53}]},{"server_id":5,"name":"Uncletopia | Frankfurt | 1 | All Maps","name_short":"frk-1","host":"frk-1.de.uncletopia.com","port":27015,"enabled":true,"region":"eu","cc":"de","latitude":50.110924,"longitude":8.682127,"reserved":0,"last_update":"0001-01-01T00:00:00Z","name_a2s":"Uncletopia | Frankfurt | 1 | All Maps","protocol":17,"map":"cp_gorge","folder":"tf","game":"Team Fortress","app_id":440,"player_count":21,"max_players":24,"Bots":0,"server_type":"Dedicated","server_os":"Linux","password":true,"vac":true,"version":"7932396","steam_id":85568392924469989,"keywords":["cp","nocrits","nodmgspread","uncletopia"],"game_id":440,"stv_port":27016,"stv_name":"Uncletopia | Frankfurt | 1 | All Maps | STV","players":[{"user_id":358,"name":"Deacon Dracul","steam_id":76561198046880663,"connected_time":1178000000000,"state":"spawning","ping":101},{"user_id":339,"name":"Nekoshironi","steam_id":76561198191124837,"connected_time":1653000000000,"state":"active","ping":73},{"user_id":285,"name":"Cdkatpifuzrmeu-uhfffaoysa-","steam_id":76561198185348855,"connected_time":2471000000000,"state":"active","ping":53},{"user_id":357,"name":"no idea","steam_id":76561198242482338,"connected_time":1317000000000,"state":"active","ping":53},{"user_id":348,"name":"Avaros","steam_id":76561198241631054,"connected_time":1546000000000,"state":"active","ping":83},{"user_id":365,"name":"Poltron","steam_id":76561198059972377,"connected_time":883000000000,"state":"active","ping":66},{"user_id":282,"name":"nvs","steam_id":76561198120668070,"connected_time":3010000000000,"state":"active","ping":58},{"user_id":359,"name":"Paintbrush","steam_id":76561198119987705,"connected_time":1162000000000,"state":"active","ping":59},{"user_id":350,"name":"Keira","steam_id":76561198330870400,"connected_time":1498000000000,"state":"active","ping":89},{"user_id":268,"name":"Furno","steam_id":76561197999723047,"connected_time":3521000000000,"state":"active","ping":43},{"user_id":262,"name":"fifrok","steam_id":76561198799267621,"connected_time":3800000000000,"state":"active","ping":69},{"user_id":143,"name":"AleXandriX","steam_id":76561198035203950,"connected_time":11442000000000,"state":"active","ping":61},{"user_id":366,"name":"hot guy","steam_id":76561198083063005,"connected_time":409000000000,"state":"active","ping":50},{"user_id":299,"name":"Homosapien","steam_id":76561197972035953,"connected_time":2317000000000,"state":"active","ping":45},{"user_id":243,"name":"Roland Deschain","steam_id":76561198023296355,"connected_time":5597000000000,"state":"active","ping":103},{"user_id":361,"name":"Habimbi","steam_id":76561198047271252,"connected_time":1084000000000,"state":"active","ping":77},{"user_id":364,"name":"Vitun vittu","steam_id":76561198110679463,"connected_time":968000000000,"state":"active","ping":69},{"user_id":244,"name":"Zireael","steam_id":76561198188258338,"connected_time":5597000000000,"state":"active","ping":115},{"user_id":368,"name":"snsmac","steam_id":76561198082821185,"connected_time":308000000000,"state":"active","ping":42},{"user_id":288,"name":"finbar","steam_id":76561198056812396,"connected_time":2426000000000,"state":"active","ping":92},{"user_id":353,"name":"drifter","steam_id":76561197998271149,"connected_time":1463000000000,"state":"active","ping":68}]},{"server_id":110,"name":"Uncletopia | Frankfurt | 2 | All Maps","name_short":"frk-2","host":"frk-1.de.uncletopia.com","port":27025,"enabled":true,"region":"eu","cc":"de","latitude":50.110924,"longitude":8.682127,"reserved":0,"last_update":"0001-01-01T00:00:00Z","name_a2s":"Uncletopia | Frankfurt | 2 | All Maps","protocol":17,"map":"pl_borneo","folder":"tf","game":"Team Fortress","app_id":440,"player_count":24,"max_players":24,"Bots":0,"server_type":"Dedicated","server_os":"Linux","password":true,"vac":true,"version":"7932396","steam_id":85568392924469990,"keywords":["nocrits","nodmgspread","payload","uncletopia"],"game_id":440,"stv_port":27026,"stv_name":"Uncletopia | Frankfurt | 2 | All Maps | STV","players":[{"user_id":515,"name":"Gravy","steam_id":76561198029548074,"connected_time":4444000000000,"state":"active","ping":61},{"user_id":499,"name":"Lyncurion","steam_id":76561199260022725,"connected_time":6026000000000,"state":"active","ping":75},{"user_id":564,"name":"Pootis penser","steam_id":76561198944032480,"connected_time":385000000000,"state":"active","ping":90},{"user_id":536,"name":"jeff the chiller","steam_id":76561198064115286,"connected_time":2540000000000,"state":"active","ping":62},{"user_id":562,"name":"KaasKrans","steam_id":76561198240451972,"connected_time":540000000000,"state":"active","ping":58},{"user_id":570,"name":"panakid","steam_id":76561198364121077,"connected_time":319000000000,"state":"active","ping":87},{"user_id":554,"name":"DrExplosive","steam_id":76561198063678579,"connected_time":776000000000,"state":"active","ping":51},{"user_id":573,"name":"Wardruna96","steam_id":76561199057083828,"connected_time":233000000000,"state":"active","ping":71},{"user_id":531,"name":"Bright","steam_id":76561198847850273,"connected_time":2961000000000,"state":"active","ping":85},{"user_id":565,"name":"Goga11","steam_id":76561198451145010,"connected_time":378000000000,"state":"active","ping":108},{"user_id":552,"name":"Dyfed","steam_id":76561198055389492,"connected_time":987000000000,"state":"active","ping":57},{"user_id":566,"name":"makokrul","steam_id":76561199234995735,"connected_time":365000000000,"state":"active","ping":73},{"user_id":574,"name":"ArtaKir","steam_id":76561198291746440,"connected_time":208000000000,"state":"active","ping":77},{"user_id":576,"name":"Irgend so n Trottel","steam_id":76561197997126444,"connected_time":78000000000,"state":"active","ping":65},{"user_id":572,"name":"justajem101","steam_id":76561199228510573,"connected_time":263000000000,"state":"active","ping":79},{"user_id":532,"name":"Dogeglas","steam_id":76561198086291796,"connected_time":2955000000000,"state":"active","ping":98},{"user_id":557,"name":"Saul Goodman","steam_id":76561199164987448,"connected_time":749000000000,"state":"active","ping":104},{"user_id":558,"name":"Purpurea","steam_id":76561198075376419,"connected_time":749000000000,"state":"active","ping":72},{"user_id":334,"name":"Tegnerud","steam_id":76561198214185612,"connected_time":14372000000000,"state":"active","ping":75},{"user_id":575,"name":"KODE","steam_id":76561198053212394,"connected_time":173000000000,"state":"active","ping":78},{"user_id":501,"name":"Fairy Of Nature","steam_id":76561198274159048,"connected_time":5680000000000,"state":"active","ping":69},{"user_id":521,"name":"Will","steam_id":76561198173329977,"connected_time":4168000000000,"state":"active","ping":67},{"user_id":579,"name":"lore","steam_id":76561198120984188,"connected_time":28000000000,"state":"active","ping":70},{"user_id":540,"name":"Joe","steam_id":76561198061717026,"connected_time":2307000000000,"state":"active","ping":60}]},{"server_id":308,"name":"Uncletopia | Frankfurt | 3 | All Maps","name_short":"frk-3","host":"frk-1.de.uncletopia.com","port":27035,"enabled":true,"region":"eu","cc":"de","latitude":50.110924,"longitude":8.682127,"reserved":0,"last_update":"0001-01-01T00:00:00Z","name_a2s":"Uncletopia | Frankfurt | 3 | All Maps","protocol":17,"map":"pl_frontier_final","folder":"tf","game":"Team Fortress","app_id":440,"player_count":24,"max_players":24,"Bots":0,"server_type":"Dedicated","server_os":"Linux","password":true,"vac":true,"version":"7932396","steam_id":85568392924504274,"keywords":["nocrits","nodmgspread","payload","uncletopia"],"game_id":440,"stv_port":27036,"stv_name":"Uncletopia | Frankfurt | 3 | All Maps | STV","players":[{"user_id":428,"name":"Killer Bean","steam_id":76561198072567787,"connected_time":1455000000000,"state":"active","ping":71},{"user_id":433,"name":"Jeff","steam_id":76561198426044127,"connected_time":1292000000000,"state":"active","ping":48},{"user_id":411,"name":"Piox","steam_id":76561198125689157,"connected_time":2110000000000,"state":"active","ping":63},{"user_id":452,"name":"Jᵃᶜᵏᶤᵉ Cʰᵃᶰ","steam_id":76561198250935222,"connected_time":123000000000,"state":"active","ping":173},{"user_id":446,"name":"7-Zip","steam_id":76561198099726966,"connected_time":321000000000,"state":"active","ping":99},{"user_id":453,"name":"leeloo","steam_id":76561199256962353,"connected_time":62000000000,"state":"active","ping":59},{"user_id":432,"name":"Noob_with_source","steam_id":76561198870362103,"connected_time":1355000000000,"state":"active","ping":60},{"user_id":445,"name":"Oriuke","steam_id":76561197992166123,"connected_time":331000000000,"state":"active","ping":58},{"user_id":419,"name":"collin","steam_id":76561198067030681,"connected_time":2060000000000,"state":"active","ping":58},{"user_id":441,"name":"YuraGreek","steam_id":76561198050182252,"connected_time":1085000000000,"state":"active","ping":75},{"user_id":438,"name":"jhonny el sins","steam_id":76561198982787752,"connected_time":1184000000000,"state":"active","ping":65},{"user_id":431,"name":"margaret thatcher's girl power","steam_id":76561199401283123,"connected_time":1403000000000,"state":"active","ping":65},{"user_id":442,"name":"Hussain_144","steam_id":76561198346029208,"connected_time":787000000000,"state":"active","ping":193},{"user_id":364,"name":"Ixsus\u003c3","steam_id":76561198094756869,"connected_time":5052000000000,"state":"active","ping":59},{"user_id":377,"name":"Koblenz 1972","steam_id":76561198077563222,"connected_time":4210000000000,"state":"active","ping":67},{"user_id":448,"name":"kluri","steam_id":76561198084518962,"connected_time":257000000000,"state":"active","ping":72},{"user_id":367,"name":"sunshine (she/her)","steam_id":76561198084597975,"connected_time":4856000000000,"state":"active","ping":68},{"user_id":449,"name":"LivEssense","steam_id":76561198052476979,"connected_time":240000000000,"state":"active","ping":84},{"user_id":371,"name":"Poggito","steam_id":76561198838001276,"connected_time":4620000000000,"state":"active","ping":61},{"user_id":425,"name":"KNARRER","steam_id":76561199130777953,"connected_time":1840000000000,"state":"active","ping":56},{"user_id":450,"name":"Glenn Quagmire","steam_id":76561199348527880,"connected_time":180000000000,"state":"active","ping":104},{"user_id":439,"name":"Karahieb","steam_id":76561197972670214,"connected_time":1183000000000,"state":"active","ping":55},{"user_id":454,"name":"Professor K","steam_id":76561198255775561,"connected_time":33000000000,"state":"active","ping":219},{"user_id":451,"name":"ScarredPixel123","steam_id":76561199165112703,"connected_time":173000000000,"state":"active","ping":84}]},{"server_id":309,"name":"Uncletopia | Frankfurt | 4 | All Maps","name_short":"frk-4","host":"frk-1.de.uncletopia.com","port":27045,"enabled":true,"region":"eu","cc":"de","latitude":50.110924,"longitude":8.682127,"reserved":0,"last_update":"0001-01-01T00:00:00Z","name_a2s":"Uncletopia | Frankfurt | 4 | All Maps","protocol":17,"map":"koth_highpass","folder":"tf","game":"Team Fortress","app_id":440,"player_count":13,"max_players":24,"Bots":0,"server_type":"Dedicated","server_os":"Linux","password":true,"vac":true,"version":"7932396","steam_id":85568392924504275,"keywords":["cp","nocrits","nodmgspread","uncletopia"],"game_id":440,"stv_port":27046,"stv_name":"Uncletopia | Frankfurt | 4 | All Maps | STV","players":[{"user_id":343,"name":"stefanbejenari","steam_id":76561199466718294,"connected_time":1575000000000,"state":"active","ping":70},{"user_id":327,"name":"Diesel","steam_id":76561198156415361,"connected_time":3679000000000,"state":"active","ping":89},{"user_id":328,"name":"TOP P","steam_id":76561198390824709,"connected_time":3402000000000,"state":"active","ping":83},{"user_id":345,"name":"Aleknat","steam_id":76561198055379857,"connected_time":462000000000,"state":"active","ping":65},{"user_id":348,"name":"THE CLUELESS CLOWN","steam_id":76561198246990590,"connected_time":53000000000,"state":"active","ping":45},{"user_id":347,"name":"Zeyo","steam_id":76561198110198881,"connected_time":152000000000,"state":"active","ping":63},{"user_id":334,"name":"KoopaKnight","steam_id":76561198906996407,"connected_time":2355000000000,"state":"active","ping":54},{"user_id":335,"name":"Lord69Shaxx","steam_id":76561199131134436,"connected_time":2351000000000,"state":"active","ping":64},{"user_id":346,"name":"Magiccomplex","steam_id":76561199203555188,"connected_time":457000000000,"state":"active","ping":46},{"user_id":337,"name":"Vayzaix","steam_id":76561199096078350,"connected_time":2323000000000,"state":"active","ping":60},{"user_id":349,"name":"L1RG0","steam_id":76561198329274068,"connected_time":32000000000,"state":"active","ping":57},{"user_id":350,"name":"alice","steam_id":76561198269200388,"connected_time":29000000000,"state":"active","ping":71},{"user_id":351,"name":"gEyfrogsE","steam_id":76561199385772902,"connected_time":6000000000,"state":"spawning","ping":87}]},{"server_id":310,"name":"Uncletopia | Frankfurt | 5 | All Maps","name_short":"frk-5","host":"frk-1.de.uncletopia.com","port":27055,"enabled":true,"region":"eu","cc":"de","latitude":50.110924,"longitude":8.682127,"reserved":0,"last_update":"0001-01-01T00:00:00Z","name_a2s":"Uncletopia | Frankfurt | 5 | All Maps","protocol":17,"map":"pl_upward","folder":"tf","game":"Team Fortress","app_id":440,"player_count":24,"max_players":24,"Bots":0,"server_type":"Dedicated","server_os":"Linux","password":true,"vac":true,"version":"7932396","steam_id":85568392924504277,"keywords":["nocrits","nodmgspread","payload","uncletopia"],"game_id":440,"stv_port":27056,"stv_name":"Uncletopia | Frankfurt | 5 | All Maps | STV","players":[{"user_id":521,"name":"fredu","steam_id":76561198107605938,"connected_time":1150000000000,"state":"active","ping":88},{"user_id":481,"name":"mark of the outsider","steam_id":76561198309246388,"connected_time":4016000000000,"state":"active","ping":44},{"user_id":542,"name":"Kili","steam_id":76561198138456346,"connected_time":107000000000,"state":"active","ping":61},{"user_id":527,"name":"Sophvis","steam_id":76561198143786834,"connected_time":491000000000,"state":"active","ping":46},{"user_id":526,"name":"Chambersite","steam_id":76561198197022399,"connected_time":606000000000,"state":"active","ping":66},{"user_id":529,"name":"Udinese Dion","steam_id":76561198067931573,"connected_time":292000000000,"state":"active","ping":47},{"user_id":496,"name":"Fat Pigeon","steam_id":76561198817940142,"connected_time":3573000000000,"state":"active","ping":54},{"user_id":535,"name":"Popop","steam_id":76561198004793795,"connected_time":168000000000,"state":"active","ping":58},{"user_id":533,"name":"Wattseyy","steam_id":76561198248567360,"connected_time":197000000000,"state":"active","ping":59},{"user_id":524,"name":"Anri Okita's Massive Milkers","steam_id":76561199186352720,"connected_time":769000000000,"state":"active","ping":60},{"user_id":534,"name":"Daan77","steam_id":76561198129940468,"connected_time":176000000000,"state":"active","ping":74},{"user_id":522,"name":"Goose of Wisdom","steam_id":76561198233465044,"connected_time":1107000000000,"state":"active","ping":175},{"user_id":536,"name":"executive producer larry david","steam_id":76561198057868438,"connected_time":161000000000,"state":"active","ping":58},{"user_id":510,"name":"Gesundheit","steam_id":76561198854802626,"connected_time":2617000000000,"state":"active","ping":99},{"user_id":537,"name":"Sakari","steam_id":76561197997811299,"connected_time":158000000000,"state":"active","ping":58},{"user_id":538,"name":"Salih","steam_id":76561198287934839,"connected_time":153000000000,"state":"active","ping":59},{"user_id":525,"name":"JamesPepega","steam_id":76561198019156154,"connected_time":643000000000,"state":"active","ping":77},{"user_id":539,"name":"Rex Z'Beq","steam_id":76561199300590000,"connected_time":147000000000,"state":"active","ping":85},{"user_id":475,"name":"bf Zocker","steam_id":76561198373721988,"connected_time":4353000000000,"state":"active","ping":55},{"user_id":514,"name":"Gryoss","steam_id":76561197999837111,"connected_time":2363000000000,"state":"active","ping":92},{"user_id":530,"name":"Udo Jürgens","steam_id":76561198044064433,"connected_time":257000000000,"state":"active","ping":50},{"user_id":540,"name":"♥Medical student♥","steam_id":76561199119401415,"connected_time":124000000000,"state":"active","ping":135},{"user_id":497,"name":"Schmidt","steam_id":76561198001058733,"connected_time":3526000000000,"state":"active","ping":108},{"user_id":541,"name":"Basinox","steam_id":76561198019628384,"connected_time":114000000000,"state":"active","ping":76}]},{"server_id":311,"name":"Uncletopia | Frankfurt | 6 | All Maps","name_short":"frk-6","host":"frk-1.de.uncletopia.com","port":27065,"enabled":true,"region":"eu","cc":"de","latitude":50.110924,"longitude":8.682127,"reserved":0,"last_update":"0001-01-01T00:00:00Z","name_a2s":"Uncletopia | Frankfurt | 6 | All Maps","protocol":17,"map":"pl_snowycoast","folder":"tf","game":"Team Fortress","app_id":440,"player_count":0,"max_players":24,"Bots":0,"server_type":"Dedicated","server_os":"Linux","password":true,"vac":true,"version":"7932396","steam_id":85568392924504278,"keywords":["nocrits","nodmgspread","payload","uncletopia"],"game_id":440,"stv_port":27066,"stv_name":"Uncletopia | Frankfurt | 6 | All Maps | STV","players":null},{"server_id":23,"name":"Uncletopia | Frankfurt | 7 | Stopwatch Beta","name_short":"frk-7","host":"frk-1.de.uncletopia.com","port":27075,"enabled":true,"region":"eu","cc":"de","latitude":50.110924,"longitude":8.682127,"reserved":0,"last_update":"0001-01-01T00:00:00Z","name_a2s":"Uncletopia | Frankfurt | 7 | Stopwatch Beta","protocol":17,"map":"pl_snowycoast","folder":"tf","game":"Team Fortress","app_id":440,"player_count":0,"max_players":24,"Bots":0,"server_type":"Dedicated","server_os":"Linux","password":true,"vac":true,"version":"7932396","steam_id":85568392924742827,"keywords":["nocrits","nodmgspread","payload","uncletopia"],"game_id":440,"stv_port":27076,"stv_name":"Uncletopia | Frankfurt | 7 | Stopwatch Beta | STV","players":null},{"server_id":24,"name":"Uncletopia | Frankfurt | 8 | Community","name_short":"frk-8","host":"frk-1.de.uncletopia.com","port":27085,"enabled":true,"region":"eu","cc":"de","latitude":50.110924,"longitude":8.682127,"reserved":0,"last_update":"0001-01-01T00:00:00Z","name_a2s":"Uncletopia | Frankfurt | 8 | Community","protocol":17,"map":"workshop/cp_fulgur_rc2a.ugc2068252300","folder":"tf","game":"Team Fortress","app_id":440,"player_count":2,"max_players":24,"Bots":0,"server_type":"Dedicated","server_os":"Linux","password":true,"vac":true,"version":"7932396","steam_id":85568392924742828,"keywords":["cp","nocrits","nodmgspread","uncletopia"],"game_id":440,"stv_port":27086,"stv_name":"Uncletopia | Frankfurt | 8 | Community | STV","players":[{"user_id":20,"name":"❤Cute Femboy❤","steam_id":76561199258890641,"connected_time":1506000000000,"state":"active","ping":70},{"user_id":19,"name":"Hampter","steam_id":76561198966522530,"connected_time":1518000000000,"state":"active","ping":86}]},{"server_id":202,"name":"Uncletopia | Hong Kong | 1 | All Maps","name_short":"hgk-1","host":"hgk-1.hk.uncletopia.com","port":27015,"enabled":true,"region":"asia","cc":"hk","latitude":22.302711,"longitude":114.177216,"reserved":0,"last_update":"0001-01-01T00:00:00Z","name_a2s":"Uncletopia | Hong Kong | 1 | All Maps","protocol":17,"map":"cp_snakewater_final1","folder":"tf","game":"Team Fortress","app_id":440,"player_count":0,"max_players":24,"Bots":0,"server_type":"Dedicated","server_os":"Linux","password":true,"vac":true,"version":"7932396","steam_id":85568392924494504,"keywords":["cp","nocrits","nodmgspread","uncletopia"],"game_id":440,"stv_port":27016,"stv_name":"Uncletopia | Hong Kong | 1 | All Maps | STV","players":null},{"server_id":1,"name":"Uncletopia | Los Angeles | 1 | All Maps","name_short":"lax-1","host":"lax-1.us.uncletopia.com","port":27015,"enabled":true,"region":"us-west","cc":"us","latitude":33.94279,"longitude":-118.41004,"reserved":0,"last_update":"0001-01-01T00:00:00Z","name_a2s":"Uncletopia | Los Angeles | 1 | All Maps","protocol":17,"map":"pl_frontier_final","folder":"tf","game":"Team Fortress","app_id":440,"player_count":24,"max_players":24,"Bots":0,"server_type":"Dedicated","server_os":"Linux","password":true,"vac":true,"version":"7932396","steam_id":85568392924469991,"keywords":["nocrits","nodmgspread","payload","uncletopia"],"game_id":440,"stv_port":27016,"stv_name":"Uncletopia | Los Angeles | 1 | All Maps | STV","players":[{"user_id":183,"name":"Johnson, Navin R.","steam_id":76561197961107982,"connected_time":97000000000,"state":"active","ping":104},{"user_id":182,"name":"Freeza","steam_id":76561198050341005,"connected_time":163000000000,"state":"active","ping":45},{"user_id":175,"name":"Nibotshooter","steam_id":76561199284825579,"connected_time":772000000000,"state":"active","ping":53},{"user_id":130,"name":"selvhat","steam_id":76561198114225509,"connected_time":4020000000000,"state":"active","ping":60},{"user_id":167,"name":"imng","steam_id":76561198014988031,"connected_time":923000000000,"state":"active","ping":99},{"user_id":179,"name":"SoldMyKidneyForCollege","steam_id":76561198096329559,"connected_time":605000000000,"state":"active","ping":53},{"user_id":168,"name":"chilis baby back ribs","steam_id":76561198813516435,"connected_time":916000000000,"state":"active","ping":45},{"user_id":126,"name":"shelf","steam_id":76561198260021696,"connected_time":4212000000000,"state":"active","ping":73},{"user_id":169,"name":"Macro","steam_id":76561199442846226,"connected_time":910000000000,"state":"active","ping":110},{"user_id":147,"name":"elephant thumb","steam_id":76561198118859752,"connected_time":2894000000000,"state":"active","ping":44},{"user_id":171,"name":"wib","steam_id":76561197993341557,"connected_time":895000000000,"state":"active","ping":45},{"user_id":155,"name":"The Entire Population of Canada","steam_id":76561198090187112,"connected_time":2564000000000,"state":"active","ping":112},{"user_id":177,"name":"chunguspilled","steam_id":76561198263122601,"connected_time":759000000000,"state":"active","ping":108},{"user_id":162,"name":"usedhalfcart","steam_id":76561198072621852,"connected_time":981000000000,"state":"active","ping":72},{"user_id":173,"name":"JadEDU","steam_id":76561198170648674,"connected_time":849000000000,"state":"active","ping":75},{"user_id":152,"name":"Stapler","steam_id":76561198099295077,"connected_time":2808000000000,"state":"active","ping":55},{"user_id":139,"name":"Pez","steam_id":76561199197778137,"connected_time":3155000000000,"state":"active","ping":64},{"user_id":181,"name":"Kylar","steam_id":76561198196979431,"connected_time":432000000000,"state":"active","ping":59},{"user_id":174,"name":"Gremlin.","steam_id":76561199035402139,"connected_time":840000000000,"state":"active","ping":80},{"user_id":180,"name":"craxyt","steam_id":76561198050192689,"connected_time":566000000000,"state":"active","ping":55},{"user_id":136,"name":"Unwanted Hero","steam_id":76561198070211478,"connected_time":3607000000000,"state":"active","ping":151},{"user_id":163,"name":"Piunr","steam_id":76561198045703891,"connected_time":969000000000,"state":"active","ping":53},{"user_id":156,"name":"challen","steam_id":76561197961277967,"connected_time":2359000000000,"state":"active","ping":71},{"user_id":164,"name":"HAT-WEARING™ Maggot Gamer Cat","steam_id":76561197973992705,"connected_time":969000000000,"state":"active","ping":70}]},{"server_id":112,"name":"Uncletopia | Los Angeles | 2 | All Maps","name_short":"lax-2","host":"lax-1.us.uncletopia.com","port":27025,"enabled":true,"region":"us-west","cc":"us","latitude":33.94279,"longitude":-118.41004,"reserved":0,"last_update":"0001-01-01T00:00:00Z","name_a2s":"Uncletopia | Los Angeles | 2 | All Maps","protocol":17,"map":"koth_lakeside_final","folder":"tf","game":"Team Fortress","app_id":440,"player_count":0,"max_players":24,"Bots":0,"server_type":"Dedicated","server_os":"Linux","password":true,"vac":true,"version":"7932396","steam_id":85568392924469992,"keywords":["cp","nocrits","nodmgspread","uncletopia"],"game_id":440,"stv_port":27026,"stv_name":"Uncletopia | Los Angeles | 2 | All Maps | STV","players":null},{"server_id":324,"name":"Uncletopia | Los Angeles | 3 | All Maps","name_short":"lax-3","host":"lax-1.us.uncletopia.com","port":27035,"enabled":true,"region":"us-west","cc":"us","latitude":33.94279,"longitude":-118.41004,"reserved":0,"last_update":"0001-01-01T00:00:00Z","name_a2s":"Uncletopia | Los Angeles | 3 | All Maps","protocol":17,"map":"cp_altitude","folder":"tf","game":"Team Fortress","app_id":440,"player_count":0,"max_players":24,"Bots":0,"server_type":"Dedicated","server_os":"Linux","password":true,"vac":true,"version":"7932396","steam_id":85568392924510198,"keywords":["cp","nocrits","nodmgspread","uncletopia"],"game_id":440,"stv_port":27036,"stv_name":"Uncletopia | Los Angeles | 3 | All Maps | STV","players":null},{"server_id":25,"name":"Uncletopia | Los Angeles | 4 | Stopwatch Beta","name_short":"lax-4","host":"lax-1.us.uncletopia.com","port":27045,"enabled":true,"region":"us-west","cc":"us","latitude":33.94279,"longitude":-118.41004,"reserved":0,"last_update":"0001-01-01T00:00:00Z","name_a2s":"Uncletopia | Los Angeles | 4 | Stopwatch Beta","protocol":17,"map":"pl_swiftwater_final1","folder":"tf","game":"Team Fortress","app_id":440,"player_count":0,"max_players":24,"Bots":0,"server_type":"Dedicated","server_os":"Linux","password":true,"vac":true,"version":"7932396","steam_id":85568392924510199,"keywords":["nocrits","nodmgspread","payload","uncletopia"],"game_id":440,"stv_port":27046,"stv_name":"Uncletopia | Los Angeles | 4 | Stopwatch Beta | STV","players":null},{"server_id":11,"name":"Uncletopia | London | 1 | All Maps","name_short":"lon-1","host":"lon-1.uk.uncletopia.com","port":27015,"enabled":true,"region":"eu","cc":"gb","latitude":51.509865,"longitude":-0.118092,"reserved":0,"last_update":"0001-01-01T00:00:00Z","name_a2s":"Uncletopia | London | 1 | All Maps","protocol":17,"map":"cp_dustbowl","folder":"tf","game":"Team Fortress","app_id":440,"player_count":6,"max_players":24,"Bots":0,"server_type":"Dedicated","server_os":"Linux","password":true,"vac":true,"version":"7932396","steam_id":85568392924367362,"keywords":["cp","nocrits","nodmgspread","uncletopia"],"game_id":440,"stv_port":27016,"stv_name":"Uncletopia | London | 1 | All Maps | STV","players":[{"user_id":638,"name":"Sandshee","steam_id":76561198088574666,"connected_time":291000000000,"state":"active","ping":30},{"user_id":630,"name":"4:3 warrior","steam_id":76561198097588802,"connected_time":405000000000,"state":"active","ping":135},{"user_id":631,"name":"JonTurn","steam_id":76561198128323383,"connected_time":402000000000,"state":"active","ping":39},{"user_id":633,"name":"habibirubik","steam_id":76561199101752634,"connected_time":373000000000,"state":"active","ping":81},{"user_id":634,"name":"Bucket","steam_id":76561199165494885,"connected_time":370000000000,"state":"active","ping":129},{"user_id":563,"name":"Suspicious Cabin","steam_id":76561198083261198,"connected_time":4577000000000,"state":"active","ping":48}]},{"server_id":114,"name":"Uncletopia | London | 2 | All Maps","name_short":"lon-2","host":"lon-1.uk.uncletopia.com","port":27025,"enabled":true,"region":"eu","cc":"gb","latitude":51.509865,"longitude":-0.118092,"reserved":0,"last_update":"0001-01-01T00:00:00Z","name_a2s":"Uncletopia | London | 2 | All Maps","protocol":17,"map":"pl_badwater","folder":"tf","game":"Team Fortress","app_id":440,"player_count":24,"max_players":24,"Bots":0,"server_type":"Dedicated","server_os":"Linux","password":true,"vac":true,"version":"7932396","steam_id":85568392924470941,"keywords":["nocrits","nodmgspread","payload","uncletopia"],"game_id":440,"stv_port":27026,"stv_name":"Uncletopia | London | 2 | All Maps | STV","players":[{"user_id":455,"name":"Dapper Pro","steam_id":76561199177629574,"connected_time":468000000000,"state":"active","ping":280},{"user_id":425,"name":"Zerfesh","steam_id":76561198117534358,"connected_time":2601000000000,"state":"active","ping":105},{"user_id":463,"name":"Alexandre","steam_id":76561198121784446,"connected_time":191000000000,"state":"active","ping":39},{"user_id":462,"name":"Demoknight tf2","steam_id":76561198133041874,"connected_time":221000000000,"state":"active","ping":82},{"user_id":418,"name":"tired","steam_id":76561198046838168,"connected_time":3639000000000,"state":"active","ping":59},{"user_id":437,"name":"robbie","steam_id":76561198798195287,"connected_time":1671000000000,"state":"active","ping":43},{"user_id":449,"name":"Penis Contortionist","steam_id":76561198073663784,"connected_time":728000000000,"state":"active","ping":39},{"user_id":460,"name":"lord-carlos","steam_id":76561198025150761,"connected_time":406000000000,"state":"active","ping":62},{"user_id":428,"name":"are you dreaming ?","steam_id":76561198272166623,"connected_time":2228000000000,"state":"active","ping":51},{"user_id":434,"name":"Fish 'n' Chips","steam_id":76561198033476886,"connected_time":1805000000000,"state":"active","ping":49},{"user_id":444,"name":"ldshwt","steam_id":76561198090364357,"connected_time":891000000000,"state":"active","ping":61},{"user_id":465,"name":"NeonPixel","steam_id":76561198165901066,"connected_time":52000000000,"state":"active","ping":74},{"user_id":440,"name":"sv_MrGibbs","steam_id":76561198114071972,"connected_time":1284000000000,"state":"active","ping":57},{"user_id":439,"name":"perry the platypus","steam_id":76561199379159771,"connected_time":1318000000000,"state":"active","ping":151},{"user_id":443,"name":"Dolcelatte","steam_id":76561198038501770,"connected_time":969000000000,"state":"active","ping":60},{"user_id":447,"name":"Heavy Box","steam_id":76561198053624882,"connected_time":794000000000,"state":"active","ping":75},{"user_id":360,"name":"john fortress","steam_id":76561198013237629,"connected_time":7148000000000,"state":"active","ping":89},{"user_id":408,"name":"Kabachok Aeronavt","steam_id":76561198123659806,"connected_time":4198000000000,"state":"active","ping":97},{"user_id":448,"name":"Castellan","steam_id":76561197994861142,"connected_time":764000000000,"state":"active","ping":61},{"user_id":255,"name":"JUST","steam_id":76561198069064885,"connected_time":15012000000000,"state":"active","ping":60},{"user_id":456,"name":"Dr.Sees [F2P]","steam_id":76561199219233587,"connected_time":464000000000,"state":"active","ping":74},{"user_id":400,"name":"Pierdu","steam_id":76561198028705770,"connected_time":4691000000000,"state":"active","ping":54},{"user_id":436,"name":"ROX","steam_id":76561198272289320,"connected_time":1789000000000,"state":"active","ping":60},{"user_id":452,"name":"Bajas","steam_id":76561198179339326,"connected_time":586000000000,"state":"active","ping":88}]},{"server_id":320,"name":"Uncletopia | London | 3 | All Maps","name_short":"lon-3","host":"lon-1.uk.uncletopia.com","port":27035,"enabled":true,"region":"eu","cc":"gb","latitude":51.509865,"longitude":-0.118092,"reserved":0,"last_update":"0001-01-01T00:00:00Z","name_a2s":"Uncletopia | London | 3 | All Maps","protocol":17,"map":"cp_dustbowl","folder":"tf","game":"Team Fortress","app_id":440,"player_count":24,"max_players":24,"Bots":0,"server_type":"Dedicated","server_os":"Linux","password":true,"vac":true,"version":"7932396","steam_id":85568392924510192,"keywords":["cp","nocrits","nodmgspread","uncletopia"],"game_id":440,"stv_port":27036,"stv_name":"Uncletopia | London | 3 | All Maps | STV","players":[{"user_id":315,"name":"maakgis","steam_id":76561198851703804,"connected_time":2815000000000,"state":"active","ping":130},{"user_id":333,"name":"aww yeah","steam_id":76561197992978878,"connected_time":1428000000000,"state":"active","ping":63},{"user_id":357,"name":"Son Goku","steam_id":76561199383437138,"connected_time":732000000000,"state":"active","ping":130},{"user_id":334,"name":"hipster_doofus","steam_id":76561197970902697,"connected_time":1411000000000,"state":"active","ping":55},{"user_id":319,"name":"dotdotdot","steam_id":76561198057628751,"connected_time":2349000000000,"state":"active","ping":60},{"user_id":361,"name":"Clitorina","steam_id":76561198077570815,"connected_time":612000000000,"state":"active","ping":42},{"user_id":365,"name":"No | S | uS","steam_id":76561199195727551,"connected_time":192000000000,"state":"active","ping":52},{"user_id":336,"name":"presidentialAIDS","steam_id":76561199257284077,"connected_time":1398000000000,"state":"active","ping":143},{"user_id":349,"name":"vi hava en usel regering","steam_id":76561198037978654,"connected_time":803000000000,"state":"active","ping":65},{"user_id":346,"name":"kallerannar","steam_id":76561199095701143,"connected_time":927000000000,"state":"active","ping":84},{"user_id":366,"name":"Everness","steam_id":76561197994803883,"connected_time":154000000000,"state":"active","ping":99},{"user_id":344,"name":"c4ctus","steam_id":76561198925655488,"connected_time":1198000000000,"state":"active","ping":82},{"user_id":367,"name":"TeaAndPancakes","steam_id":76561199039103507,"connected_time":136000000000,"state":"active","ping":84},{"user_id":317,"name":"femboy enjoyer","steam_id":76561199041737814,"connected_time":2379000000000,"state":"active","ping":43},{"user_id":339,"name":"L0g1c","steam_id":76561198134085329,"connected_time":1343000000000,"state":"active","ping":96},{"user_id":351,"name":"stephenshields2020","steam_id":76561199063375137,"connected_time":801000000000,"state":"active","ping":57},{"user_id":356,"name":"◢◤ Joker ◢◤","steam_id":76561198038325384,"connected_time":758000000000,"state":"active","ping":51},{"user_id":354,"name":"Pantroglodytestherapy","steam_id":76561198236015392,"connected_time":791000000000,"state":"active","ping":126},{"user_id":329,"name":"tradcath texan latinx","steam_id":76561198168180501,"connected_time":1638000000000,"state":"active","ping":91},{"user_id":340,"name":"laser","steam_id":76561198036030697,"connected_time":1329000000000,"state":"active","ping":71},{"user_id":341,"name":"Kiha","steam_id":76561198031408608,"connected_time":1320000000000,"state":"active","ping":71},{"user_id":342,"name":"Ruby","steam_id":76561198120994559,"connected_time":1306000000000,"state":"active","ping":69},{"user_id":355,"name":"exRage","steam_id":76561198449953655,"connected_time":790000000000,"state":"active","ping":75},{"user_id":364,"name":"Archsam","steam_id":76561198137828616,"connected_time":487000000000,"state":"active","ping":74}]},{"server_id":321,"name":"Uncletopia | London | 4 | All Maps","name_short":"lon-4","host":"lon-1.uk.uncletopia.com","port":27045,"enabled":true,"region":"eu","cc":"gb","latitude":51.509865,"longitude":-0.118092,"reserved":0,"last_update":"0001-01-01T00:00:00Z","name_a2s":"Uncletopia | London | 4 | All Maps","protocol":17,"map":"pl_upward","folder":"tf","game":"Team Fortress","app_id":440,"player_count":24,"max_players":24,"Bots":0,"server_type":"Dedicated","server_os":"Linux","password":true,"vac":true,"version":"7932396","steam_id":85568392924510193,"keywords":["nocrits","nodmgspread","payload","uncletopia"],"game_id":440,"stv_port":27046,"stv_name":"Uncletopia | London | 4 | All Maps | STV","players":[{"user_id":63,"name":"Moonkey","steam_id":76561199013741389,"connected_time":3350000000000,"state":"active","ping":109},{"user_id":102,"name":"KLAMA  ❤","steam_id":76561198351549661,"connected_time":1306000000000,"state":"active","ping":75},{"user_id":88,"name":"LainBizkit","steam_id":76561199200708626,"connected_time":1856000000000,"state":"active","ping":99},{"user_id":113,"name":"WolfmanCZ","steam_id":76561199157141414,"connected_time":474000000000,"state":"active","ping":74},{"user_id":109,"name":"hennerz","steam_id":76561199062586342,"connected_time":965000000000,"state":"active","ping":55},{"user_id":116,"name":"coldfront","steam_id":76561199085984801,"connected_time":232000000000,"state":"active","ping":183},{"user_id":112,"name":"Acbh","steam_id":76561198158271672,"connected_time":880000000000,"state":"active","ping":73},{"user_id":100,"name":"penis gnome","steam_id":76561198097612561,"connected_time":1371000000000,"state":"active","ping":62},{"user_id":69,"name":"WaDIP","steam_id":76561198010270494,"connected_time":3023000000000,"state":"active","ping":84},{"user_id":115,"name":"flr","steam_id":76561198249327786,"connected_time":258000000000,"state":"active","ping":61},{"user_id":70,"name":"xpitipitx","steam_id":76561198343333412,"connected_time":2987000000000,"state":"active","ping":97},{"user_id":84,"name":"Mr.kva","steam_id":76561199046540810,"connected_time":2096000000000,"state":"active","ping":70},{"user_id":114,"name":"Heed","steam_id":76561198033605800,"connected_time":298000000000,"state":"active","ping":87},{"user_id":101,"name":"bean","steam_id":76561198161013815,"connected_time":1340000000000,"state":"active","ping":54},{"user_id":35,"name":"Bottle O' Scrumpy","steam_id":76561199244250562,"connected_time":5066000000000,"state":"active","ping":108},{"user_id":103,"name":"capitan jamacia","steam_id":76561198071440081,"connected_time":1281000000000,"state":"active","ping":95},{"user_id":38,"name":"Lola bunny","steam_id":76561198214149431,"connected_time":4972000000000,"state":"active","ping":49},{"user_id":110,"name":"dancle une","steam_id":76561197968945306,"connected_time":932000000000,"state":"active","ping":69},{"user_id":72,"name":"Bepperman","steam_id":76561198397517828,"connected_time":2916000000000,"state":"active","ping":60},{"user_id":92,"name":"Osmo","steam_id":76561199286764992,"connected_time":1758000000000,"state":"active","ping":89},{"user_id":108,"name":"Skuld","steam_id":76561198064734905,"connected_time":1029000000000,"state":"active","ping":93},{"user_id":94,"name":"Vladimir Lenin","steam_id":76561199438120787,"connected_time":1739000000000,"state":"active","ping":58},{"user_id":105,"name":"TheBeardedM1G","steam_id":76561198040208946,"connected_time":1270000000000,"state":"active","ping":43},{"user_id":106,"name":"[dopijus]","steam_id":76561198943009513,"connected_time":1257000000000,"state":"active","ping":102}]},{"server_id":21,"name":"Uncletopia | London | 5 | All Maps","name_short":"lon-5","host":"lon-1.uk.uncletopia.com","port":27055,"enabled":true,"region":"eu","cc":"gb","latitude":51.509865,"longitude":-0.118092,"reserved":0,"last_update":"0001-01-01T00:00:00Z","name_a2s":"Uncletopia | London | 5 | All Maps","protocol":17,"map":"cp_egypt_final","folder":"tf","game":"Team Fortress","app_id":440,"player_count":24,"max_players":24,"Bots":0,"server_type":"Dedicated","server_os":"Linux","password":true,"vac":true,"version":"7932396","steam_id":85568392924742829,"keywords":["cp","nocrits","nodmgspread","uncletopia"],"game_id":440,"stv_port":27056,"stv_name":"Uncletopia | London | 5 | All Maps | STV","players":[{"user_id":423,"name":"neet","steam_id":76561197968115168,"connected_time":998000000000,"state":"active","ping":117},{"user_id":438,"name":"moki","steam_id":76561198314358032,"connected_time":374000000000,"state":"active","ping":76},{"user_id":394,"name":"Ryter","steam_id":76561198396279597,"connected_time":2943000000000,"state":"active","ping":89},{"user_id":424,"name":"LuckLuster","steam_id":76561198092986647,"connected_time":986000000000,"state":"active","ping":106},{"user_id":439,"name":"Dr.Nefario","steam_id":76561198874586020,"connected_time":325000000000,"state":"active","ping":70},{"user_id":418,"name":"Urfangonultasadana","steam_id":76561199389286151,"connected_time":1151000000000,"state":"active","ping":96},{"user_id":434,"name":"Mr Gnash","steam_id":76561198007410990,"connected_time":576000000000,"state":"active","ping":60},{"user_id":409,"name":"tigersonalex","steam_id":76561198197991235,"connected_time":2272000000000,"state":"active","ping":72},{"user_id":410,"name":"Narnio","steam_id":76561198046416510,"connected_time":2209000000000,"state":"active","ping":145},{"user_id":413,"name":"alcoholic alcohol","steam_id":76561198248239796,"connected_time":1920000000000,"state":"active","ping":58},{"user_id":419,"name":"Greasy","steam_id":76561198868180366,"connected_time":1117000000000,"state":"active","ping":63},{"user_id":348,"name":"magnos62564","steam_id":76561198356968225,"connected_time":6261000000000,"state":"active","ping":76},{"user_id":414,"name":"Le Barbu","steam_id":76561198982141827,"connected_time":1896000000000,"state":"active","ping":138},{"user_id":431,"name":"weed dispenser","steam_id":76561199090859842,"connected_time":636000000000,"state":"active","ping":90},{"user_id":440,"name":"The milkman (milks you)","steam_id":76561199155456102,"connected_time":323000000000,"state":"active","ping":190},{"user_id":437,"name":"leonioni","steam_id":76561198833825968,"connected_time":413000000000,"state":"active","ping":60},{"user_id":427,"name":"CHARGE ME DOCTOR !","steam_id":76561199475968804,"connected_time":865000000000,"state":"active","ping":96},{"user_id":429,"name":"murlan","steam_id":76561198068802023,"connected_time":845000000000,"state":"active","ping":75},{"user_id":442,"name":"Haggabah,WhoPliesTheUmbralPath","steam_id":76561198846984399,"connected_time":72000000000,"state":"active","ping":89},{"user_id":432,"name":"Momovsky","steam_id":76561198005738407,"connected_time":626000000000,"state":"active","ping":95},{"user_id":441,"name":"StingyLettuce","steam_id":76561199010337406,"connected_time":277000000000,"state":"active","ping":115},{"user_id":386,"name":"♂ Animan ♂ Studios ♂","steam_id":76561198308302932,"connected_time":4090000000000,"state":"active","ping":104},{"user_id":377,"name":"vurtun","steam_id":76561198857395274,"connected_time":5108000000000,"state":"active","ping":60},{"user_id":425,"name":"Dry Chester","steam_id":76561198044095538,"connected_time":942000000000,"state":"active","ping":76}]},{"server_id":22,"name":"Uncletopia | London | 6 | All Maps","name_short":"lon-6","host":"lon-1.uk.uncletopia.com","port":27065,"enabled":true,"region":"eu","cc":"gb","latitude":51.509865,"longitude":-0.118092,"reserved":0,"last_update":"0001-01-01T00:00:00Z","name_a2s":"Uncletopia | London | 6 | All Maps","protocol":17,"map":"pl_swiftwater_final1","folder":"tf","game":"Team Fortress","app_id":440,"player_count":5,"max_players":24,"Bots":0,"server_type":"Dedicated","server_os":"Linux","password":true,"vac":true,"version":"7932396","steam_id":85568392924742830,"keywords":["nocrits","nodmgspread","payload","uncletopia"],"game_id":440,"stv_port":27066,"stv_name":"Uncletopia | London | 6 | All Maps | STV","players":[{"user_id":230,"name":"venomew2","steam_id":76561198327081077,"connected_time":1709000000000,"state":"active","ping":165},{"user_id":240,"name":"AFairFew","steam_id":76561198194484645,"connected_time":572000000000,"state":"active","ping":64},{"user_id":241,"name":"yumyumfan69","steam_id":76561198118695769,"connected_time":504000000000,"state":"active","ping":31},{"user_id":242,"name":"JustNo.","steam_id":76561199025402885,"connected_time":446000000000,"state":"active","ping":40},{"user_id":243,"name":"Woman (Real)","steam_id":76561199151823932,"connected_time":207000000000,"state":"active","ping":83}]},{"server_id":40,"name":"Uncletopia | London | 7 | No Payload","name_short":"lon-7","host":"lon-1.uk.uncletopia.com","port":27075,"enabled":true,"region":"eu","cc":"gb","latitude":51.509865,"longitude":-0.118092,"reserved":0,"last_update":"0001-01-01T00:00:00Z","name_a2s":"Uncletopia | London | 7 | No Payload","protocol":17,"map":"ctf_turbine","folder":"tf","game":"Team Fortress","app_id":440,"player_count":0,"max_players":24,"Bots":0,"server_type":"Dedicated","server_os":"Linux","password":true,"vac":true,"version":"7932396","steam_id":85568392924964314,"keywords":["ctf","nocrits","nodmgspread","uncletopia"],"game_id":440,"stv_port":27076,"stv_name":"Uncletopia | London | 7 | No Payload | STV","players":null},{"server_id":41,"name":"Uncletopia | London | 8 | Community","name_short":"lon-8","host":"lon-1.uk.uncletopia.com","port":27085,"enabled":true,"region":"eu","cc":"gb","latitude":51.509865,"longitude":-0.118092,"reserved":0,"last_update":"0001-01-01T00:00:00Z","name_a2s":"Uncletopia | London | 8 | Community","protocol":17,"map":"workshop/koth_slaughter_rc1.ugc1712845210","folder":"tf","game":"Team Fortress","app_id":440,"player_count":0,"max_players":24,"Bots":0,"server_type":"Dedicated","server_os":"Linux","password":true,"vac":true,"version":"7932396","steam_id":85568392924964315,"keywords":["cp","nocrits","nodmgspread","uncletopia"],"game_id":440,"stv_port":27086,"stv_name":"Uncletopia | London | 8 | Community | STV","players":null},{"server_id":300,"name":"Uncletopia | Montréal | 1 | All Maps","name_short":"mtl-1","host":"mtl-1.ca.uncletopia.com","port":27015,"enabled":true,"region":"us-east","cc":"ca","latitude":45.50889,"longitude":-73.56167,"reserved":0,"last_update":"0001-01-01T00:00:00Z","name_a2s":"Uncletopia | Montréal | 1 | All Maps","protocol":17,"map":"koth_cascade","folder":"tf","game":"Team Fortress","app_id":440,"player_count":0,"max_players":24,"Bots":0,"server_type":"Dedicated","server_os":"Linux","password":true,"vac":true,"version":"7932396","steam_id":85568392924500087,"keywords":["cp","nocrits","nodmgspread","uncletopia"],"game_id":440,"stv_port":27016,"stv_name":"Uncletopia | Montréal | 1 | All Maps | STV","players":null},{"server_id":301,"name":"Uncletopia | Montréal | 2 | All Maps","name_short":"mtl-2","host":"mtl-1.ca.uncletopia.com","port":27025,"enabled":true,"region":"us-east","cc":"ca","latitude":45.50889,"longitude":-73.56167,"reserved":0,"last_update":"0001-01-01T00:00:00Z","name_a2s":"Uncletopia | Montréal | 2 | All Maps","protocol":17,"map":"koth_lakeside_final","folder":"tf","game":"Team Fortress","app_id":440,"player_count":0,"max_players":24,"Bots":0,"server_type":"Dedicated","server_os":"Linux","password":true,"vac":true,"version":"7932396","steam_id":85568392924500088,"keywords":["cp","nocrits","nodmgspread","uncletopia"],"game_id":440,"stv_port":27026,"stv_name":"Uncletopia | Montréal | 2 | All Maps | STV","players":null},{"server_id":302,"name":"Uncletopia | Montréal | 3 | All Maps","name_short":"mtl-3","host":"mtl-1.ca.uncletopia.com","port":27035,"enabled":true,"region":"us-east","cc":"ca","latitude":45.50889,"longitude":-73.56167,"reserved":0,"last_update":"0001-01-01T00:00:00Z","name_a2s":"Uncletopia | Montréal | 3 | All Maps","protocol":17,"map":"cp_process_final","folder":"tf","game":"Team Fortress","app_id":440,"player_count":0,"max_players":24,"Bots":0,"server_type":"Dedicated","server_os":"Linux","password":true,"vac":true,"version":"7932396","steam_id":85568392924500089,"keywords":["cp","nocrits","nodmgspread","uncletopia"],"game_id":440,"stv_port":27036,"stv_name":"Uncletopia | Montréal | 3 | All Maps | STV","players":null},{"server_id":303,"name":"Uncletopia | Montréal | 4 | No Payload","name_short":"mtl-4","host":"mtl-1.ca.uncletopia.com","port":27045,"enabled":true,"region":"us-east","cc":"ca","latitude":45.50889,"longitude":-73.56167,"reserved":0,"last_update":"0001-01-01T00:00:00Z","name_a2s":"Uncletopia | Montréal | 4 | No Payload","protocol":17,"map":"cp_snakewater_final1","folder":"tf","game":"Team Fortress","app_id":440,"player_count":0,"max_players":24,"Bots":0,"server_type":"Dedicated","server_os":"Linux","password":true,"vac":true,"version":"7932396","steam_id":85568392924500090,"keywords":["cp","nocrits","nodmgspread","uncletopia"],"game_id":440,"stv_port":27046,"stv_name":"Uncletopia | Montréal | 4 | No Payload | STV","players":null},{"server_id":13,"name":"Uncletopia | New York City | 1 | All Maps","name_short":"nyc-1","host":"nyc-1.us.uncletopia.com","port":27015,"enabled":true,"region":"us-east","cc":"us","latitude":40.73061,"longitude":-73.93524,"reserved":0,"last_update":"0001-01-01T00:00:00Z","name_a2s":"Uncletopia | New York City | 1 | All Maps","protocol":17,"map":"pl_borneo","folder":"tf","game":"Team Fortress","app_id":440,"player_count":24,"max_players":24,"Bots":0,"server_type":"Dedicated","server_os":"Linux","password":true,"vac":true,"version":"7932396","steam_id":85568392924469993,"keywords":["nocrits","nodmgspread","payload","uncletopia"],"game_id":440,"stv_port":27016,"stv_name":"Uncletopia | New York City | 1 | All Maps | STV","players":[{"user_id":10,"name":"B∞p | ❤Fasto❤","steam_id":76561198118298527,"connected_time":7374000000000,"state":"active","ping":138},{"user_id":110,"name":"you forgot the sauce","steam_id":76561198387016713,"connected_time":243000000000,"state":"active","ping":64},{"user_id":104,"name":"Timon's high on crack cocaine!","steam_id":76561198180396430,"connected_time":1284000000000,"state":"active","ping":53},{"user_id":13,"name":"B∞p | ❤Hina❤","steam_id":76561198058465921,"connected_time":7363000000000,"state":"active","ping":119},{"user_id":114,"name":"fred","steam_id":76561199065834574,"connected_time":196000000000,"state":"active","ping":70},{"user_id":123,"name":"ky jelly packing","steam_id":76561198240906222,"connected_time":1000000000,"state":"spawning","ping":114},{"user_id":111,"name":"Judge Holden","steam_id":76561198322479866,"connected_time":241000000000,"state":"active","ping":44},{"user_id":115,"name":"ya ya breathe","steam_id":76561198075858067,"connected_time":165000000000,"state":"active","ping":46},{"user_id":116,"name":"Dwarfo","steam_id":76561198119220289,"connected_time":153000000000,"state":"active","ping":82},{"user_id":113,"name":"Chaotic Rushu","steam_id":76561198170054407,"connected_time":229000000000,"state":"active","ping":65},{"user_id":108,"name":"DJ-Whatchya #rEtiReD","steam_id":76561198060355298,"connected_time":847000000000,"state":"active","ping":86},{"user_id":117,"name":"FreonAddict9x19","steam_id":76561198060010824,"connected_time":129000000000,"state":"active","ping":53},{"user_id":112,"name":"nhbiker","steam_id":76561198081277675,"connected_time":235000000000,"state":"active","ping":58},{"user_id":101,"name":"saib","steam_id":76561198966980576,"connected_time":2074000000000,"state":"active","ping":49},{"user_id":107,"name":"PyroEagle","steam_id":76561198296434231,"connected_time":1188000000000,"state":"active","ping":86},{"user_id":118,"name":"not_pro_yet","steam_id":76561198262838300,"connected_time":113000000000,"state":"active","ping":95},{"user_id":106,"name":"Monsteh","steam_id":76561198325898181,"connected_time":1254000000000,"state":"active","ping":141},{"user_id":29,"name":"Wire  Bash","steam_id":76561198033268371,"connected_time":6606000000000,"state":"active","ping":134},{"user_id":119,"name":"Draco6257","steam_id":76561199147322448,"connected_time":105000000000,"state":"active","ping":27},{"user_id":80,"name":"Dead People Are Unable To Live","steam_id":76561198443172836,"connected_time":3277000000000,"state":"active","ping":47},{"user_id":32,"name":"woople","steam_id":76561198076625889,"connected_time":6562000000000,"state":"active","ping":139},{"user_id":120,"name":"leumas","steam_id":76561198240408540,"connected_time":65000000000,"state":"active","ping":62},{"user_id":82,"name":"SeaBass","steam_id":76561198278914206,"connected_time":3274000000000,"state":"active","ping":86},{"user_id":121,"name":"GobThisKnob","steam_id":76561198122020886,"connected_time":42000000000,"state":"active","ping":64}]},{"server_id":14,"name":"Uncletopia | New York City | 2 | All Maps","name_short":"nyc-2","host":"nyc-1.us.uncletopia.com","port":27025,"enabled":true,"region":"us-east","cc":"us","latitude":40.73061,"longitude":-73.93524,"reserved":0,"last_update":"0001-01-01T00:00:00Z","name_a2s":"Uncletopia | New York City | 2 | All Maps","protocol":17,"map":"cp_altitude","folder":"tf","game":"Team Fortress","app_id":440,"player_count":24,"max_players":24,"Bots":0,"server_type":"Dedicated","server_os":"Linux","password":true,"vac":true,"version":"7932396","steam_id":85568392924469994,"keywords":["cp","nocrits","nodmgspread","uncletopia"],"game_id":440,"stv_port":27026,"stv_name":"Uncletopia | New York City | 2 | All Maps | STV","players":[{"user_id":273,"name":"PageBoiSkull","steam_id":76561198237353578,"connected_time":344000000000,"state":"active","ping":123},{"user_id":230,"name":"acid","steam_id":76561198055855408,"connected_time":2594000000000,"state":"active","ping":56},{"user_id":222,"name":"Spicey","steam_id":76561198039548756,"connected_time":3776000000000,"state":"active","ping":66},{"user_id":261,"name":"✪ goofbears -iwnl-","steam_id":76561199100831175,"connected_time":545000000000,"state":"active","ping":57},{"user_id":277,"name":"floppy muppet","steam_id":76561198003076261,"connected_time":10000000000,"state":"active","ping":107},{"user_id":263,"name":"shoxidizer","steam_id":76561198981983698,"connected_time":539000000000,"state":"active","ping":69},{"user_id":256,"name":"Ciaphas Cain","steam_id":76561198185598330,"connected_time":623000000000,"state":"active","ping":99},{"user_id":241,"name":"crayonnipple","steam_id":76561198070253331,"connected_time":1762000000000,"state":"active","ping":62},{"user_id":190,"name":"Qrbrbrbl","steam_id":76561197999497203,"connected_time":5649000000000,"state":"active","ping":85},{"user_id":214,"name":"Tyranitar9999","steam_id":76561198071637331,"connected_time":4345000000000,"state":"active","ping":64},{"user_id":275,"name":"Wigl","steam_id":76561198019324464,"connected_time":217000000000,"state":"active","ping":49},{"user_id":264,"name":"MrDragadon","steam_id":76561199058815749,"connected_time":509000000000,"state":"active","ping":130},{"user_id":254,"name":"RoboWarrior0410a","steam_id":76561199106531261,"connected_time":682000000000,"state":"active","ping":69},{"user_id":252,"name":"extra purple","steam_id":76561198044344111,"connected_time":701000000000,"state":"active","ping":58},{"user_id":265,"name":"Furry Trash \u003c3","steam_id":76561198141538566,"connected_time":504000000000,"state":"active","ping":75},{"user_id":267,"name":"Sasu","steam_id":76561198893447505,"connected_time":475000000000,"state":"active","ping":91},{"user_id":247,"name":"Santamen","steam_id":76561198119478199,"connected_time":1361000000000,"state":"active","ping":43},{"user_id":268,"name":"Yato","steam_id":76561198084100335,"connected_time":464000000000,"state":"active","ping":76},{"user_id":205,"name":"The World's Softest Sandwich","steam_id":76561198015577707,"connected_time":5290000000000,"state":"active","ping":95},{"user_id":269,"name":"1001NinjaDucks","steam_id":76561198058169660,"connected_time":456000000000,"state":"active","ping":46},{"user_id":206,"name":"Fresh Lychee","steam_id":76561198045399559,"connected_time":5288000000000,"state":"active","ping":70},{"user_id":270,"name":"ATL","steam_id":76561198431196926,"connected_time":455000000000,"state":"active","ping":98},{"user_id":271,"name":"MrRobbins","steam_id":76561199171169987,"connected_time":449000000000,"state":"active","ping":97},{"user_id":276,"name":"Gayne Wretzky","steam_id":76561198069816677,"connected_time":180000000000,"state":"active","ping":69}]},{"server_id":15,"name":"Uncletopia | New York City | 3 | Stopwatch Beta","name_short":"nyc-3","host":"nyc-1.us.uncletopia.com","port":27035,"enabled":true,"region":"us-east","cc":"us","latitude":40.73061,"longitude":-73.93524,"reserved":0,"last_update":"0001-01-01T00:00:00Z","name_a2s":"Uncletopia | New York City | 3 | Stopwatch Beta","protocol":17,"map":"cp_sunshine","folder":"tf","game":"Team Fortress","app_id":440,"player_count":0,"max_players":24,"Bots":0,"server_type":"Dedicated","server_os":"Linux","password":true,"vac":true,"version":"7932396","steam_id":85568392924742820,"keywords":["cp","nocrits","nodmgspread","uncletopia"],"game_id":440,"stv_port":27036,"stv_name":"Uncletopia | New York City | 3 | Stopwatch Beta | STV","players":null},{"server_id":16,"name":"Uncletopia | New York City | 4 | Community","name_short":"nyc-4","host":"nyc-1.us.uncletopia.com","port":27045,"enabled":true,"region":"us-east","cc":"us","latitude":40.73061,"longitude":-73.93524,"reserved":0,"last_update":"0001-01-01T00:00:00Z","name_a2s":"Uncletopia | New York City | 4 | Community","protocol":17,"map":"workshop/cp_glacier_rc6.ugc2905735376","folder":"tf","game":"Team Fortress","app_id":440,"player_count":0,"max_players":24,"Bots":0,"server_type":"Dedicated","server_os":"Linux","password":true,"vac":true,"version":"7932396","steam_id":85568392924742821,"keywords":["cp","nocrits","nodmgspread","uncletopia"],"game_id":440,"stv_port":27046,"stv_name":"Uncletopia | New York City | 4 | Community | STV","players":null},{"server_id":142,"name":"Uncletopia | São Paulo | 1 | All Maps","name_short":"sao-1","host":"sao-1.br.uncletopia.com","port":27015,"enabled":true,"region":"sa","cc":"br","latitude":-23.533773,"longitude":-46.62529,"reserved":0,"last_update":"0001-01-01T00:00:00Z","name_a2s":"Uncletopia | São Paulo | 1 | All Maps","protocol":17,"map":"koth_viaduct","folder":"tf","game":"Team Fortress","app_id":440,"player_count":0,"max_players":24,"Bots":0,"server_type":"Dedicated","server_os":"Linux","password":true,"vac":true,"version":"7932396","steam_id":85568392924469996,"keywords":["cp","nocrits","nodmgspread","uncletopia"],"game_id":440,"stv_port":27016,"stv_name":"Uncletopia | São Paulo | 1 | All Maps | STV","players":null},{"server_id":143,"name":"Uncletopia | São Paulo | 2 | All Maps","name_short":"sao-2","host":"sao-2.br.uncletopia.com","port":27015,"enabled":true,"region":"sa","cc":"br","latitude":-23.533773,"longitude":-46.62529,"reserved":0,"last_update":"0001-01-01T00:00:00Z","name_a2s":"Uncletopia | São Paulo | 2 | All Maps","protocol":17,"map":"cp_dustbowl","folder":"tf","game":"Team Fortress","app_id":440,"player_count":0,"max_players":24,"Bots":0,"server_type":"Dedicated","server_os":"Linux","password":true,"vac":true,"version":"7932396","steam_id":85568392924485349,"keywords":["cp","nocrits","nodmgspread","uncletopia"],"game_id":440,"stv_port":27016,"stv_name":"Uncletopia | São Paulo | 2 | All Maps | STV","players":null},{"server_id":7,"name":"Uncletopia | Seattle | 1 | All Maps","name_short":"sea-1","host":"sea-1.us.uncletopia.com","port":27015,"enabled":true,"region":"us-west","cc":"us","latitude":47.608013,"longitude":-122.33517,"reserved":0,"last_update":"0001-01-01T00:00:00Z","name_a2s":"Uncletopia | Seattle | 1 | All Maps","protocol":17,"map":"pl_thundermountain","folder":"tf","game":"Team Fortress","app_id":440,"player_count":24,"max_players":24,"Bots":0,"server_type":"Dedicated","server_os":"Linux","password":true,"vac":true,"version":"7932396","steam_id":85568392924469997,"keywords":["nocrits","nodmgspread","payload","uncletopia"],"game_id":440,"stv_port":27016,"stv_name":"Uncletopia | Seattle | 1 | All Maps | STV","players":[{"user_id":138,"name":"captain red","steam_id":76561198191587983,"connected_time":4819000000000,"state":"active","ping":75},{"user_id":95,"name":"Goldensliv","steam_id":76561198161673891,"connected_time":9985000000000,"state":"active","ping":73},{"user_id":173,"name":"Astronat","steam_id":76561198096321896,"connected_time":529000000000,"state":"active","ping":69},{"user_id":151,"name":"jammy nutrient boy genius","steam_id":76561198165086917,"connected_time":3116000000000,"state":"active","ping":80},{"user_id":114,"name":"Goth Spy Boyfriend","steam_id":76561198104086771,"connected_time":8125000000000,"state":"active","ping":75},{"user_id":8,"name":"CoffeeZombee","steam_id":76561198172708053,"connected_time":15930000000000,"state":"active","ping":134},{"user_id":9,"name":"Flippityflop","steam_id":76561198086692908,"connected_time":15918000000000,"state":"active","ping":131},{"user_id":132,"name":"Lucas","steam_id":76561198399704604,"connected_time":5495000000000,"state":"active","ping":81},{"user_id":142,"name":"abcdefghijklmnopqrstuvwxyz","steam_id":76561198175741741,"connected_time":4640000000000,"state":"active","ping":65},{"user_id":155,"name":"Corpe","steam_id":76561198054490549,"connected_time":2688000000000,"state":"active","ping":50},{"user_id":169,"name":"Vincent Van Bro","steam_id":76561197966919802,"connected_time":1597000000000,"state":"active","ping":60},{"user_id":133,"name":"MegaBitmap","steam_id":76561198086027059,"connected_time":5491000000000,"state":"active","ping":73},{"user_id":126,"name":"Themasterman75","steam_id":76561199385573293,"connected_time":6313000000000,"state":"active","ping":76},{"user_id":172,"name":"Chunck","steam_id":76561198952356892,"connected_time":999000000000,"state":"active","ping":132},{"user_id":70,"name":"Sprit ♥","steam_id":76561198268780781,"connected_time":11648000000000,"state":"active","ping":102},{"user_id":153,"name":"griffy","steam_id":76561198858732642,"connected_time":2732000000000,"state":"active","ping":59},{"user_id":162,"name":"Ryld","steam_id":76561198010174380,"connected_time":2418000000000,"state":"active","ping":64},{"user_id":164,"name":"Get Pipe God'd (In Minecraft)","steam_id":76561198209153291,"connected_time":2312000000000,"state":"active","ping":87},{"user_id":147,"name":"Oldengie","steam_id":76561199074712665,"connected_time":3794000000000,"state":"active","ping":85},{"user_id":174,"name":"_ROBLOX_LOVER_","steam_id":76561198870649125,"connected_time":90000000000,"state":"active","ping":91},{"user_id":171,"name":"SnailYT","steam_id":76561198332040385,"connected_time":1155000000000,"state":"active","ping":64},{"user_id":137,"name":"DrD","steam_id":76561198067266383,"connected_time":4841000000000,"state":"active","ping":44},{"user_id":154,"name":"Truly Cryo","steam_id":76561198347497484,"connected_time":2715000000000,"state":"active","ping":143},{"user_id":168,"name":"The Angel of Death","steam_id":76561198026079349,"connected_time":1740000000000,"state":"active","ping":69}]},{"server_id":119,"name":"Uncletopia | Seattle | 2 | All Maps","name_short":"sea-2","host":"sea-1.us.uncletopia.com","port":27025,"enabled":true,"region":"us-west","cc":"us","latitude":47.608013,"longitude":-122.33517,"reserved":0,"last_update":"0001-01-01T00:00:00Z","name_a2s":"Uncletopia | Seattle | 2 | All Maps","protocol":17,"map":"pl_upward","folder":"tf","game":"Team Fortress","app_id":440,"player_count":24,"max_players":24,"Bots":0,"server_type":"Dedicated","server_os":"Linux","password":true,"vac":true,"version":"7932396","steam_id":85568392924469998,"keywords":["nocrits","nodmgspread","payload","uncletopia"],"game_id":440,"stv_port":27026,"stv_name":"Uncletopia | Seattle | 2 | All Maps | STV","players":[{"user_id":117,"name":"Apathetica","steam_id":76561197978237633,"connected_time":3067000000000,"state":"active","ping":57},{"user_id":147,"name":"Ping","steam_id":76561199206514106,"connected_time":884000000000,"state":"active","ping":105},{"user_id":138,"name":"CamelyKonas","steam_id":76561198097672992,"connected_time":1501000000000,"state":"active","ping":110},{"user_id":146,"name":"Grandpa 1MinecraftEmpire","steam_id":76561198069046338,"connected_time":1005000000000,"state":"active","ping":102},{"user_id":137,"name":"mango cafe","steam_id":76561198142328193,"connected_time":1855000000000,"state":"active","ping":50},{"user_id":82,"name":"Underscorn","steam_id":76561198374209415,"connected_time":5711000000000,"state":"active","ping":108},{"user_id":64,"name":"♥ Milo Stefferson ♥ (Soupca","steam_id":76561198056269538,"connected_time":6748000000000,"state":"active","ping":60},{"user_id":121,"name":"Xiphor","steam_id":76561199236537212,"connected_time":2840000000000,"state":"active","ping":113},{"user_id":69,"name":"Aeris","steam_id":76561198287271028,"connected_time":6485000000000,"state":"active","ping":100},{"user_id":148,"name":"Batman in one piece","steam_id":76561199129969202,"connected_time":876000000000,"state":"active","ping":141},{"user_id":91,"name":"Dimple #TF2Center","steam_id":76561198980324190,"connected_time":5058000000000,"state":"active","ping":59},{"user_id":154,"name":"Aqua Tofana","steam_id":76561198351183381,"connected_time":238000000000,"state":"active","ping":59},{"user_id":142,"name":"Dietrich","steam_id":76561198028163840,"connected_time":1135000000000,"state":"active","ping":90},{"user_id":84,"name":"monk mode protocol","steam_id":76561199100342013,"connected_time":5405000000000,"state":"active","ping":73},{"user_id":151,"name":"Eraser cat","steam_id":76561199045570463,"connected_time":550000000000,"state":"active","ping":47},{"user_id":93,"name":"DistantJragon","steam_id":76561198117563641,"connected_time":4989000000000,"state":"active","ping":112},{"user_id":145,"name":"Mico (Mico)","steam_id":76561198125462953,"connected_time":1050000000000,"state":"active","ping":46},{"user_id":123,"name":"Keamy","steam_id":76561199471434875,"connected_time":2801000000000,"state":"active","ping":42},{"user_id":152,"name":"Taco","steam_id":76561198158621392,"connected_time":536000000000,"state":"active","ping":116},{"user_id":118,"name":"oske","steam_id":76561198131526809,"connected_time":2906000000000,"state":"active","ping":92},{"user_id":153,"name":"bcizzo","steam_id":76561197994399953,"connected_time":318000000000,"state":"active","ping":71},{"user_id":99,"name":"Laffey","steam_id":76561198107049456,"connected_time":4643000000000,"state":"active","ping":56},{"user_id":89,"name":"Vruk","steam_id":76561198116930332,"connected_time":5354000000000,"state":"active","ping":61},{"user_id":150,"name":"non_ai","steam_id":76561198270951938,"connected_time":789000000000,"state":"active","ping":116}]},{"server_id":406,"name":"Uncletopia | Seattle | 3 | Stopwatch Beta","name_short":"sea-3","host":"sea-1.us.uncletopia.com","port":27035,"enabled":true,"region":"us-west","cc":"us","latitude":47.608013,"longitude":-122.33517,"reserved":0,"last_update":"0001-01-01T00:00:00Z","name_a2s":"Uncletopia | Seattle | 3 | Stopwatch Beta","protocol":17,"map":"pl_upward","folder":"tf","game":"Team Fortress","app_id":440,"player_count":0,"max_players":24,"Bots":0,"server_type":"Dedicated","server_os":"Linux","password":true,"vac":true,"version":"7932396","steam_id":85568392924515217,"keywords":["nocrits","nodmgspread","payload","uncletopia"],"game_id":440,"stv_port":27036,"stv_name":"Uncletopia | Seattle | 3 | Stopwatch Beta | STV","players":null},{"server_id":17,"name":"Uncletopia | San Francisco | 1 | All Maps","name_short":"sfo-1","host":"sfo-1.us.uncletopia.com","port":27015,"enabled":true,"region":"us-west","cc":"us","latitude":37.77397,"longitude":-122.4313,"reserved":0,"last_update":"0001-01-01T00:00:00Z","name_a2s":"Uncletopia | San Francisco | 1 | All Maps","protocol":17,"map":"cp_sunshine","folder":"tf","game":"Team Fortress","app_id":440,"player_count":14,"max_players":24,"Bots":0,"server_type":"Dedicated","server_os":"Linux","password":true,"vac":true,"version":"7932396","steam_id":85568392924469999,"keywords":["cp","nocrits","nodmgspread","uncletopia"],"game_id":440,"stv_port":27016,"stv_name":"Uncletopia | San Francisco | 1 | All Maps | STV","players":[{"user_id":6,"name":"a cat plushie","steam_id":76561198080046542,"connected_time":6320000000000,"state":"active","ping":58},{"user_id":105,"name":"MALWARE9000","steam_id":76561198065238093,"connected_time":121000000000,"state":"active","ping":85},{"user_id":10,"name":"a single goal","steam_id":76561198042913843,"connected_time":5635000000000,"state":"active","ping":73},{"user_id":106,"name":"Vlad","steam_id":76561198072334604,"connected_time":81000000000,"state":"active","ping":70},{"user_id":98,"name":"J21","steam_id":76561198066590783,"connected_time":535000000000,"state":"active","ping":121},{"user_id":107,"name":"neph","steam_id":76561198962318010,"connected_time":69000000000,"state":"active","ping":130},{"user_id":109,"name":"Dr. Bubs","steam_id":76561198011696595,"connected_time":37000000000,"state":"active","ping":58},{"user_id":86,"name":"ForAPessimistImPrettyOptimistic","steam_id":76561198170128009,"connected_time":1580000000000,"state":"active","ping":58},{"user_id":65,"name":"Vorpas Jabwak","steam_id":76561198112186064,"connected_time":2559000000000,"state":"active","ping":79},{"user_id":95,"name":"worker","steam_id":76561198039608940,"connected_time":740000000000,"state":"active","ping":74},{"user_id":92,"name":"The_Machine","steam_id":76561198120939109,"connected_time":830000000000,"state":"active","ping":58},{"user_id":29,"name":"nori_420","steam_id":76561199117134203,"connected_time":4289000000000,"state":"active","ping":60},{"user_id":91,"name":"Nolan","steam_id":76561198169648081,"connected_time":923000000000,"state":"active","ping":103},{"user_id":103,"name":"Smitty Werbenjagermanjensen","steam_id":76561198065782439,"connected_time":432000000000,"state":"active","ping":97}]},{"server_id":18,"name":"Uncletopia | San Francisco | 2 | All Maps","name_short":"sfo-2","host":"sfo-1.us.uncletopia.com","port":27025,"enabled":true,"region":"us-west","cc":"us","latitude":37.77397,"longitude":-122.4313,"reserved":0,"last_update":"0001-01-01T00:00:00Z","name_a2s":"Uncletopia | San Francisco | 2 | All Maps","protocol":17,"map":"cp_dustbowl","folder":"tf","game":"Team Fortress","app_id":440,"player_count":0,"max_players":24,"Bots":0,"server_type":"Dedicated","server_os":"Linux","password":true,"vac":true,"version":"7932396","steam_id":85568392924470000,"keywords":["cp","nocrits","nodmgspread","uncletopia"],"game_id":440,"stv_port":27026,"stv_name":"Uncletopia | San Francisco | 2 | All Maps | STV","players":null},{"server_id":19,"name":"Uncletopia | San Francisco | 3 | Stopwatch Beta","name_short":"sfo-3","host":"sfo-1.us.uncletopia.com","port":27035,"enabled":true,"region":"us-west","cc":"us","latitude":37.77397,"longitude":-122.4313,"reserved":0,"last_update":"0001-01-01T00:00:00Z","name_a2s":"Uncletopia | San Francisco | 3 | Stopwatch Beta","protocol":17,"map":"cp_process_final","folder":"tf","game":"Team Fortress","app_id":440,"player_count":0,"max_players":24,"Bots":0,"server_type":"Dedicated","server_os":"Linux","password":true,"vac":true,"version":"7932396","steam_id":85568392924742824,"keywords":["cp","nocrits","nodmgspread","uncletopia"],"game_id":440,"stv_port":27036,"stv_name":"Uncletopia | San Francisco | 3 | Stopwatch Beta | STV","players":null},{"server_id":20,"name":"Uncletopia | San Francisco | 4 | Community","name_short":"sfo-4","host":"sfo-1.us.uncletopia.com","port":27045,"enabled":true,"region":"us-west","cc":"us","latitude":37.77397,"longitude":-122.4313,"reserved":0,"last_update":"0001-01-01T00:00:00Z","name_a2s":"Uncletopia | San Francisco | 4 | Community","protocol":17,"map":"pl_borneo","folder":"tf","game":"Team Fortress","app_id":440,"player_count":0,"max_players":24,"Bots":0,"server_type":"Dedicated","server_os":"Linux","password":true,"vac":true,"version":"7932396","steam_id":85568392924742826,"keywords":["nocrits","nodmgspread","payload","uncletopia"],"game_id":440,"stv_port":27046,"stv_name":"Uncletopia | San Francisco | 4 | Community | STV","players":null},{"server_id":141,"name":"Uncletopia | Sydney | 1 | All Maps","name_short":"syd-1","host":"syd-1.au.uncletopia.com","port":27015,"enabled":true,"region":"au","cc":"au","latitude":-33.865143,"longitude":151.2099,"reserved":0,"last_update":"0001-01-01T00:00:00Z","name_a2s":"Uncletopia | Sydney | 1 | All Maps","protocol":17,"map":"cp_process_final","folder":"tf","game":"Team Fortress","app_id":440,"player_count":0,"max_players":24,"Bots":0,"server_type":"Dedicated","server_os":"Linux","password":true,"vac":true,"version":"7932396","steam_id":85568392924470001,"keywords":["cp","nocrits","nodmgspread","uncletopia"],"game_id":440,"stv_port":27016,"stv_name":"Uncletopia | Sydney | 1 | All Maps | STV","players":null},{"server_id":123,"name":"Uncletopia | Sydney | 2 | All Maps","name_short":"syd-2","host":"syd-1.au.uncletopia.com","port":27025,"enabled":true,"region":"au","cc":"au","latitude":-33.865143,"longitude":151.2099,"reserved":0,"last_update":"0001-01-01T00:00:00Z","name_a2s":"Uncletopia | Sydney | 2 | All Maps","protocol":17,"map":"ctf_2fort","folder":"tf","game":"Team Fortress","app_id":440,"player_count":0,"max_players":24,"Bots":0,"server_type":"Dedicated","server_os":"Linux","password":true,"vac":true,"version":"7932396","steam_id":85568392924470002,"keywords":["ctf","nocrits","nodmgspread","uncletopia"],"game_id":440,"stv_port":27026,"stv_name":"Uncletopia | Sydney | 2 | All Maps | STV","players":null},{"server_id":395,"name":"Uncletopia | Sydney | 3 | All Maps","name_short":"syd-3","host":"syd-1.au.uncletopia.com","port":27035,"enabled":true,"region":"au","cc":"au","latitude":-33.865143,"longitude":151.2099,"reserved":0,"last_update":"0001-01-01T00:00:00Z","name_a2s":"Uncletopia | Sydney | 3 | All Maps","protocol":17,"map":"koth_cascade","folder":"tf","game":"Team Fortress","app_id":440,"player_count":0,"max_players":24,"Bots":0,"server_type":"Dedicated","server_os":"Linux","password":true,"vac":true,"version":"7932396","steam_id":85568392925194467,"keywords":["cp","nocrits","nodmgspread","uncletopia"],"game_id":440,"stv_port":27036,"stv_name":"Uncletopia | Sydney | 3 | All Maps | STV","players":null},{"server_id":396,"name":"Uncletopia | Sydney | 4 | All Maps","name_short":"syd-4","host":"syd-1.au.uncletopia.com","port":27045,"enabled":true,"region":"au","cc":"au","latitude":-33.865143,"longitude":151.2099,"reserved":0,"last_update":"0001-01-01T00:00:00Z","name_a2s":"Uncletopia | Sydney | 4 | All Maps","protocol":17,"map":"koth_lakeside_final","folder":"tf","game":"Team Fortress","app_id":440,"player_count":0,"max_players":24,"Bots":0,"server_type":"Dedicated","server_os":"Linux","password":true,"vac":true,"version":"7932396","steam_id":85568392925397958,"keywords":["cp","nocrits","nodmgspread","uncletopia"],"game_id":440,"stv_port":27046,"stv_name":"Uncletopia | Sydney | 4 | All Maps | STV","players":null},{"server_id":58,"name":"Uncletopia | Sydney | 5 | Stopwatch Beta","name_short":"syd-5","host":"syd-1.au.uncletopia.com","port":27055,"enabled":true,"region":"au","cc":"au","latitude":-33.865143,"longitude":151.2099,"reserved":0,"last_update":"0001-01-01T00:00:00Z","name_a2s":"Uncletopia | Sydney | 5 | Stopwatch Beta","protocol":17,"map":"pl_borneo","folder":"tf","game":"Team Fortress","app_id":440,"player_count":0,"max_players":24,"Bots":0,"server_type":"Dedicated","server_os":"Linux","password":true,"vac":true,"version":"7932396","steam_id":85568392925397959,"keywords":["nocrits","nodmgspread","payload","uncletopia"],"game_id":440,"stv_port":27056,"stv_name":"Uncletopia | Sydney | 5 | Stopwatch Beta | STV","players":null},{"server_id":59,"name":"Uncletopia | Sydney | 6 | Community","name_short":"syd-6","host":"syd-1.au.uncletopia.com","port":27065,"enabled":true,"region":"au","cc":"au","latitude":-33.865143,"longitude":151.2099,"reserved":0,"last_update":"0001-01-01T00:00:00Z","name_a2s":"Uncletopia | Sydney | 6 | Community","protocol":17,"map":"workshop/koth_product_final.ugc454272353","folder":"tf","game":"Team Fortress","app_id":440,"player_count":0,"max_players":24,"Bots":0,"server_type":"Dedicated","server_os":"Linux","password":true,"vac":true,"version":"7932396","steam_id":85568392925397960,"keywords":["cp","nocrits","nodmgspread","uncletopia"],"game_id":440,"stv_port":27066,"stv_name":"Uncletopia | Sydney | 6 | Community | STV","players":null},{"server_id":49,"name":"Uncletopia | Warsaw | 1 | All Maps","name_short":"waw-1","host":"waw-1.pl.uncletopia.com","port":27015,"enabled":true,"region":"eu","cc":"pl","latitude":52.2297,"longitude":21.017532,"reserved":0,"last_update":"0001-01-01T00:00:00Z","name_a2s":"","protocol":0,"map":"","folder":"","game":"","app_id":0,"player_count":0,"max_players":0,"Bots":0,"server_type":"","server_os":"","password":false,"vac":false,"version":"","steam_id":0,"keywords":null,"game_id":0,"stv_port":0,"stv_name":"","players":null},{"server_id":50,"name":"Uncletopia | Warsaw | 2 | All Maps","name_short":"waw-2","host":"waw-1.pl.uncletopia.com","port":27025,"enabled":true,"region":"eu","cc":"pl","latitude":52.2297,"longitude":21.017532,"reserved":0,"last_update":"0001-01-01T00:00:00Z","name_a2s":"Uncletopia | Warsaw | 2 | All Maps","protocol":17,"map":"pl_barnblitz","folder":"tf","game":"Team Fortress","app_id":440,"player_count":0,"max_players":24,"Bots":0,"server_type":"Dedicated","server_os":"Linux","password":true,"vac":true,"version":"7932396","steam_id":85568392925397851,"keywords":["nocrits","nodmgspread","payload","uncletopia"],"game_id":440,"stv_port":27026,"stv_name":"Uncletopia | Warsaw | 2 | All Maps | STV","players":null},{"server_id":51,"name":"Uncletopia | Warsaw | 3 | All Maps","name_short":"waw-3","host":"waw-1.pl.uncletopia.com","port":27035,"enabled":true,"region":"eu","cc":"pl","latitude":52.2297,"longitude":21.017532,"reserved":0,"last_update":"0001-01-01T00:00:00Z","name_a2s":"Uncletopia | Warsaw | 3 | All Maps","protocol":17,"map":"pl_barnblitz","folder":"tf","game":"Team Fortress","app_id":440,"player_count":1,"max_players":24,"Bots":0,"server_type":"Dedicated","server_os":"Linux","password":true,"vac":true,"version":"7932396","steam_id":85568392925397852,"keywords":["nocrits","nodmgspread","payload","uncletopia"],"game_id":440,"stv_port":27036,"stv_name":"Uncletopia | Warsaw | 3 | All Maps | STV","players":[{"user_id":28,"name":"Doods","steam_id":76561199172809660,"connected_time":391000000000,"state":"active","ping":119}]},{"server_id":52,"name":"Uncletopia | Warsaw | 4 | All Maps","name_short":"waw-4","host":"waw-1.pl.uncletopia.com","port":27045,"enabled":true,"region":"eu","cc":"pl","latitude":52.2297,"longitude":21.017532,"reserved":0,"last_update":"0001-01-01T00:00:00Z","name_a2s":"Uncletopia | Warsaw | 4 | All Maps","protocol":17,"map":"pl_swiftwater_final1","folder":"tf","game":"Team Fortress","app_id":440,"player_count":0,"max_players":24,"Bots":0,"server_type":"Dedicated","server_os":"Linux","password":true,"vac":true,"version":"7932396","steam_id":85568392925397853,"keywords":["nocrits","nodmgspread","payload","uncletopia"],"game_id":440,"stv_port":27046,"stv_name":"Uncletopia | Warsaw | 4 | All Maps | STV","players":null},{"server_id":53,"name":"Uncletopia | Warsaw | 5 | Stopwatch Beta","name_short":"waw-5","host":"waw-1.pl.uncletopia.com","port":27055,"enabled":true,"region":"eu","cc":"pl","latitude":52.2297,"longitude":21.017532,"reserved":0,"last_update":"0001-01-01T00:00:00Z","name_a2s":"Uncletopia | Warsaw | 5 | Stopwatch Beta","protocol":17,"map":"koth_lakeside_final","folder":"tf","game":"Team Fortress","app_id":440,"player_count":0,"max_players":24,"Bots":0,"server_type":"Dedicated","server_os":"Linux","password":true,"vac":true,"version":"7932396","steam_id":85568392925397854,"keywords":["cp","nocrits","nodmgspread","uncletopia"],"game_id":440,"stv_port":27056,"stv_name":"Uncletopia | Warsaw | 5 | Stopwatch Beta | STV","players":null},{"server_id":54,"name":"Uncletopia | Warsaw | 6 | Community","name_short":"waw-6","host":"waw-1.pl.uncletopia.com","port":27065,"enabled":true,"region":"eu","cc":"pl","latitude":52.2297,"longitude":21.017532,"reserved":0,"last_update":"0001-01-01T00:00:00Z","name_a2s":"Uncletopia | Warsaw | 6 | Community","protocol":17,"map":"workshop/koth_ramjam_rc1.ugc459778887","folder":"tf","game":"Team Fortress","app_id":440,"player_count":0,"max_players":24,"Bots":0,"server_type":"Dedicated","server_os":"Linux","password":true,"vac":true,"version":"7932396","steam_id":85568392925397856,"keywords":["cp","nocrits","nodmgspread","uncletopia"],"game_id":440,"stv_port":27066,"stv_name":"Uncletopia | Warsaw | 6 | Community | STV","players":null}]}