{"status":true,"message":"","result":[{"server_id":9,"name":"Uncletopia | Atlanta | 1 | All Maps","name_short":"atl-1","host":"atl-1.us.uncletopia.com","port":27015,"enabled":true,"region":"us-east","cc":"us","latitude":33.753746,"longitude":-84.38633,"reserved":0,"last_update":"0001-01-01T00:00:00Z","name_a2s":"Uncletopia | Atlanta | 1 | All Maps","protocol":17,"map":"pl_barnblitz","folder":"tf","game":"Team Fortress","app_id":440,"player_count":24,"max_players":24,"Bots":0,"server_type":"Dedicated","server_os":"Linux","password":true,"vac":true,"version":"7961495","steam_id":85568392924469982,"keywords":["nocrits","nodmgspread","payload","uncletopia"],"game_id":440,"stv_port":27016,"stv_name":"Uncletopia | Atlanta | 1 | All Maps | STV","players":[{"user_id":718,"name":"ballmuncher29","steam_id":76561199122915452,"connected_time":647000000000,"state":"active","ping":113},{"user_id":701,"name":"MexicanTortilla","steam_id":76561198195872719,"connected_time":3012000000000,"state":"active","ping":126},{"user_id":721,"name":"Skip Hop Doo Bop","steam_id":76561199161571849,"connected_time":476000000000,"state":"active","ping":103},{"user_id":707,"name":"Bunt","steam_id":76561198124477567,"connected_time":2158000000000,"state":"active","ping":40},{"user_id":722,"name":"Shovel Knight","steam_id":76561198924976190,"connected_time":466000000000,"state":"active","ping":162},{"user_id":720,"name":"Darkshadows","steam_id":76561198051424894,"connected_time":534000000000,"state":"active","ping":98},{"user_id":716,"name":"Kiphus","steam_id":76561198025289407,"connected_time":949000000000,"state":"active","ping":62},{"user_id":723,"name":"HALF","steam_id":76561199032347375,"connected_time":420000000000,"state":"active","ping":48},{"user_id":724,"name":"ekohtwo","steam_id":76561198067994868,"connected_time":408000000000,"state":"active","ping":61},{"user_id":706,"name":"DerpMan107","steam_id":76561198131507408,"connected_time":2507000000000,"state":"active","ping":83},{"user_id":678,"name":"gallowsCalibrator","steam_id":76561198404707578,"connected_time":3944000000000,"state":"active","ping":59},{"user_id":680,"name":"zoey","steam_id":76561198084679526,"connected_time":3761000000000,"state":"active","ping":67},{"user_id":725,"name":"Derpytemmie","steam_id":76561198403204065,"connected_time":388000000000,"state":"active","ping":53},{"user_id":681,"name":"Generic","steam_id":76561198092579482,"connected_time":3745000000000,"state":"active","ping":60},{"user_id":682,"name":"FinalFlash9000","steam_id":76561199092775051,"connected_time":3680000000000,"state":"active","ping":77},{"user_id":692,"name":"jek","steam_id":76561198097816136,"connected_time":3321000000000,"state":"active","ping":47},{"user_id":684,"name":"saucy jack","steam_id":76561198307012859,"connected_time":3546000000000,"state":"active","ping":93},{"user_id":698,"name":"robot with human hair","steam_id":76561198018691308,"connected_time":3161000000000,"state":"active","ping":87},{"user_id":710,"name":"Theoktistos","steam_id":76561198930868567,"connected_time":1939000000000,"state":"active","ping":84},{"user_id":686,"name":"Scrux","steam_id":76561198129763115,"connected_time":3501000000000,"state":"active","ping":95},{"user_id":726,"name":"PotatoSpam","steam_id":76561198391643737,"connected_time":380000000000,"state":"active","ping":54},{"user_id":727,"name":"Oopsie Daisy ❋","steam_id":76561198042144492,"connected_time":360000000000,"state":"active","ping":47},{"user_id":712,"name":"paetho YT","steam_id":76561198152690003,"connected_time":1329000000000,"state":"active","ping":46},{"user_id":700,"name":"Mad{}Mouse","steam_id":76561198162576354,"connected_time":3122000000000,"state":"active","ping":75}]},{"server_id":104,"name":"Uncletopia | Atlanta | 2 | All Maps","name_short":"atl-2","host":"atl-1.us.uncletopia.com","port":27025,"enabled":true,"region":"us-east","cc":"us","latitude":33.753746,"longitude":-84.38633,"reserved":0,"last_update":"0001-01-01T00:00:00Z","name_a2s":"Uncletopia | Atlanta | 2 | All Maps","protocol":17,"map":"pl_thundermountain","folder":"tf","game":"Team Fortress","app_id":440,"player_count":0,"max_players":24,"Bots":0,"server_type":"Dedicated","server_os":"Linux","password":true,"vac":true,"version":"7961495","steam_id":85568392924469983,"keywords":["nocrits","nodmgspread","payload","uncletopia"],"game_id":440,"stv_port":27026,"stv_name":"Uncletopia | Atlanta | 2 | All Maps | STV","players":null},{"server_id":400,"name":"Uncletopia | Atlanta | 3 | Stopwatch","name_short":"atl-3","host":"atl-1.us.uncletopia.com","port":27035,"enabled":true,"region":"us-east","cc":"us","latitude":33.753746,"longitude":-84.38633,"reserved":0,"last_update":"0001-01-01T00:00:00Z","name_a2s":"Uncletopia | Atlanta | 3 | Stopwatch","protocol":17,"map":"pl_borneo","folder":"tf","game":"Team Fortress","app_id":440,"player_count":0,"max_players":24,"Bots":0,"server_type":"Dedicated","server_os":"Linux","password":true,"vac":true,"version":"7961495","steam_id":85568392924515187,"keywords":["nocrits","nodmgspread","payload","uncletopia"],"game_id":440,"stv_port":27036,"stv_name":"Uncletopia | Atlanta | 3 | Stopwatch | STV","players":null},{"server_id":401,"name":"Uncletopia | Atlanta | 4 | Community","name_short":"atl-4","host":"atl-1.us.uncletopia.com","port":27045,"enabled":true,"region":"us-east","cc":"us","latitude":33.753746,"longitude":-84.38633,"reserved":0,"last_update":"0001-01-01T00:00:00Z","name_a2s":"Uncletopia | Atlanta | 4 | Community","protocol":17,"map":"workshop/koth_kemptown_rc1.ugc767410655","folder":"tf","game":"Team Fortress","app_id":440,"player_count":0,"max_players":24,"Bots":0,"server_type":"Dedicated","server_os":"Linux","password":true,"vac":true,"version":"7961495","steam_id":85568392924515188,"keywords":["cp","nocrits","nodmgspread","uncletopia"],"game_id":440,"stv_port":27046,"stv_name":"Uncletopia | Atlanta | 4 | Community | STV","players":null},{"server_id":2,"name":"Uncletopia | Chicago | 1 | All Maps","name_short":"chi-1","host":"chi-1.us.uncletopia.com","port":27015,"enabled":true,"region":"us-central","cc":"us","latitude":41.881832,"longitude":-87.62318,"reserved":0,"last_update":"0001-01-01T00:00:00Z","name_a2s":"Uncletopia | Chicago | 1 | All Maps","protocol":17,"map":"pl_upward","folder":"tf","game":"Team Fortress","app_id":440,"player_count":24,"max_players":24,"Bots":0,"server_type":"Dedicated","server_os":"Linux","password":true,"vac":true,"version":"7961495","steam_id":85568392924469984,"keywords":["nocrits","nodmgspread","payload","uncletopia"],"game_id":440,"stv_port":27016,"stv_name":"Uncletopia | Chicago | 1 | All Maps | STV","players":[{"user_id":674,"name":"Passionate Map Researcher","steam_id":76561199490508357,"connected_time":1331000000000,"state":"active","ping":56},{"user_id":639,"name":"Bubby Koromon the 4rd","steam_id":76561198398729993,"connected_time":4261000000000,"state":"active","ping":72},{"user_id":682,"name":"stormfoam","steam_id":76561198936871387,"connected_time":942000000000,"state":"active","ping":59},{"user_id":702,"name":"raya","steam_id":76561198051504581,"connected_time":157000000000,"state":"active","ping":61},{"user_id":675,"name":"Pongallow","steam_id":76561198146876078,"connected_time":1306000000000,"state":"active","ping":44},{"user_id":680,"name":"Elias","steam_id":76561198106431732,"connected_time":1080000000000,"state":"active","ping":56},{"user_id":684,"name":"base","steam_id":76561199031775779,"connected_time":731000000000,"state":"active","ping":81},{"user_id":696,"name":"HanakoToast","steam_id":76561198045233131,"connected_time":449000000000,"state":"active","ping":90},{"user_id":637,"name":"High King of Hoodoo","steam_id":76561198299094088,"connected_time":4291000000000,"state":"active","ping":72},{"user_id":677,"name":"Raccoon Wizard","steam_id":76561198072562591,"connected_time":1291000000000,"state":"active","ping":67},{"user_id":699,"name":"LikeASir","steam_id":76561198042209721,"connected_time":359000000000,"state":"active","ping":45},{"user_id":667,"name":"GoodleShoes/ttv","steam_id":76561198030993521,"connected_time":2045000000000,"state":"active","ping":66},{"user_id":695,"name":"cooldude636","steam_id":76561199053447753,"connected_time":531000000000,"state":"active","ping":109},{"user_id":666,"name":"Bunner","steam_id":76561198074464842,"connected_time":2069000000000,"state":"active","ping":97},{"user_id":700,"name":"opossum","steam_id":76561198148905570,"connected_time":314000000000,"state":"active","ping":81},{"user_id":690,"name":"twinbl0ck","steam_id":76561198157414556,"connected_time":665000000000,"state":"active","ping":63},{"user_id":687,"name":"GamingJuice42","steam_id":76561198110469437,"connected_time":721000000000,"state":"active","ping":61},{"user_id":672,"name":"Minimite","steam_id":76561198119628940,"connected_time":1603000000000,"state":"active","ping":64},{"user_id":692,"name":"Dark Aztec Prince","steam_id":76561198100942055,"connected_time":622000000000,"state":"active","ping":103},{"user_id":693,"name":"hedahman","steam_id":76561198052398134,"connected_time":607000000000,"state":"active","ping":96},{"user_id":618,"name":"Comradical","steam_id":76561197990808285,"connected_time":6869000000000,"state":"active","ping":56},{"user_id":648,"name":"Eugene Thaddeus Hinkle V","steam_id":76561198821535846,"connected_time":4026000000000,"state":"active","ping":62},{"user_id":703,"name":"bath","steam_id":76561197969993352,"connected_time":2000000000,"state":"spawning","ping":54},{"user_id":698,"name":"Ark","steam_id":76561198053000340,"connected_time":419000000000,"state":"active","ping":38}]},{"server_id":106,"name":"Uncletopia | Chicago | 2 | All Maps","name_short":"chi-2","host":"chi-1.us.uncletopia.com","port":27025,"enabled":true,"region":"us-central","cc":"us","latitude":41.881832,"longitude":-87.62318,"reserved":0,"last_update":"0001-01-01T00:00:00Z","name_a2s":"Uncletopia | Chicago | 2 | All Maps","protocol":17,"map":"pl_swiftwater_final1","folder":"tf","game":"Team Fortress","app_id":440,"player_count":23,"max_players":24,"Bots":0,"server_type":"Dedicated","server_os":"Linux","password":true,"vac":true,"version":"7961495","steam_id":85568392924469985,"keywords":["nocrits","nodmgspread","payload","uncletopia"],"game_id":440,"stv_port":27026,"stv_name":"Uncletopia | Chicago | 2 | All Maps | STV","players":[{"user_id":917,"name":"The Pug","steam_id":76561198067827959,"connected_time":947000000000,"state":"active","ping":73},{"user_id":860,"name":"-Spîdêr-","steam_id":76561198064531248,"connected_time":6123000000000,"state":"active","ping":82},{"user_id":916,"name":"Ruby","steam_id":76561198053335880,"connected_time":1023000000000,"state":"active","ping":73},{"user_id":912,"name":"SteveC","steam_id":76561197994786195,"connected_time":1177000000000,"state":"active","ping":65},{"user_id":861,"name":"Liminality","steam_id":76561198002601402,"connected_time":6117000000000,"state":"active","ping":94},{"user_id":918,"name":"dserv789","steam_id":76561199496842836,"connected_time":923000000000,"state":"active","ping":181},{"user_id":849,"name":"yuumi...! ♡","steam_id":76561198084708100,"connected_time":6702000000000,"state":"active","ping":89},{"user_id":891,"name":"Gaming is for girls","steam_id":76561198401725755,"connected_time":3626000000000,"state":"active","ping":45},{"user_id":905,"name":"Shulgin_4-HO_MET","steam_id":76561198038784254,"connected_time":1985000000000,"state":"active","ping":47},{"user_id":876,"name":"tome123","steam_id":76561198078206722,"connected_time":5090000000000,"state":"active","ping":104},{"user_id":881,"name":"9gon Danmar33","steam_id":76561198056453091,"connected_time":4889000000000,"state":"active","ping":46},{"user_id":887,"name":"runescape legend","steam_id":76561198077791373,"connected_time":4146000000000,"state":"active","ping":50},{"user_id":920,"name":"zpalmtree","steam_id":76561198134307620,"connected_time":749000000000,"state":"active","ping":60},{"user_id":925,"name":"PickleHater13","steam_id":76561198259380127,"connected_time":476000000000,"state":"active","ping":59},{"user_id":908,"name":"Zesty Zucchini Ziti","steam_id":76561198092494136,"connected_time":1792000000000,"state":"active","ping":87},{"user_id":914,"name":"joseph stalin","steam_id":76561199230441293,"connected_time":1166000000000,"state":"active","ping":72},{"user_id":922,"name":"shnowshner","steam_id":76561198066450438,"connected_time":730000000000,"state":"active","ping":74},{"user_id":923,"name":"zzzz","steam_id":76561198310495200,"connected_time":693000000000,"state":"active","ping":58},{"user_id":924,"name":"Charlie","steam_id":76561199098209171,"connected_time":532000000000,"state":"active","ping":75},{"user_id":894,"name":"sock","steam_id":76561198278457431,"connected_time":3500000000000,"state":"active","ping":78},{"user_id":919,"name":"frank","steam_id":76561198137777483,"connected_time":848000000000,"state":"active","ping":71},{"user_id":898,"name":"exa*✩‧₊˚","steam_id":76561198044511912,"connected_time":3395000000000,"state":"active","ping":104},{"user_id":850,"name":"Ashton","steam_id":76561198300590302,"connected_time":6696000000000,"state":"active","ping":57}]},{"server_id":402,"name":"Uncletopia | Chicago | 3 | All Maps","name_short":"chi-3","host":"chi-1.us.uncletopia.com","port":27035,"enabled":true,"region":"us-central","cc":"us","latitude":41.881832,"longitude":-87.62318,"reserved":0,"last_update":"0001-01-01T00:00:00Z","name_a2s":"Uncletopia | Chicago | 3 | All Maps","protocol":17,"map":"cp_sunshine","folder":"tf","game":"Team Fortress","app_id":440,"player_count":0,"max_players":24,"Bots":0,"server_type":"Dedicated","server_os":"Linux","password":true,"vac":true,"version":"7961495","steam_id":85568392924515191,"keywords":["cp","nocrits","nodmgspread","uncletopia"],"game_id":440,"stv_port":27036,"stv_name":"Uncletopia | Chicago | 3 | All Maps | STV","players":null},{"server_id":403,"name":"Uncletopia | Chicago | 4 | All Maps","name_short":"chi-4","host":"chi-1.us.uncletopia.com","port":27045,"enabled":true,"region":"us-central","cc":"us","latitude":41.881832,"longitude":-87.62318,"reserved":0,"last_update":"0001-01-01T00:00:00Z","name_a2s":"Uncletopia | Chicago | 4 | All Maps","protocol":17,"map":"pl_upward","folder":"tf","game":"Team Fortress","app_id":440,"player_count":0,"max_players":24,"Bots":0,"server_type":"Dedicated","server_os":"Linux","password":true,"vac":true,"version":"7961495","steam_id":85568392924515193,"keywords":["nocrits","nodmgspread","payload","uncletopia"],"game_id":440,"stv_port":27046,"stv_name":"Uncletopia | Chicago | 4 | All Maps | STV","players":null},{"server_id":36,"name":"Uncletopia | Chicago | 5 | All Maps","name_short":"chi-5","host":"chi-2.us.uncletopia.com","port":27015,"enabled":true,"region":"us-central","cc":"us","latitude":41.881832,"longitude":-87.62318,"reserved":0,"last_update":"0001-01-01T00:00:00Z","name_a2s":"Uncletopia | Chicago | 5 | All Maps","protocol":17,"map":"koth_highpass","folder":"tf","game":"Team Fortress","app_id":440,"player_count":0,"max_players":24,"Bots":0,"server_type":"Dedicated","server_os":"Linux","password":true,"vac":true,"version":"7961495","steam_id":85568392924866362,"keywords":["cp","nocrits","nodmgspread","uncletopia"],"game_id":440,"stv_port":27016,"stv_name":"Uncletopia | Chicago | 5 | All Maps | STV","players":null},{"server_id":37,"name":"Uncletopia | Chicago | 6 | All Maps","name_short":"chi-6","host":"chi-2.us.uncletopia.com","port":27025,"enabled":true,"region":"us-central","cc":"us","latitude":41.881832,"longitude":-87.62318,"reserved":0,"last_update":"0001-01-01T00:00:00Z","name_a2s":"Uncletopia | Chicago | 6 | All Maps","protocol":17,"map":"cp_dustbowl","folder":"tf","game":"Team Fortress","app_id":440,"player_count":4,"max_players":24,"Bots":0,"server_type":"Dedicated","server_os":"Linux","password":true,"vac":true,"version":"7961495","steam_id":85568392924866363,"keywords":["cp","nocrits","nodmgspread","uncletopia"],"game_id":440,"stv_port":27026,"stv_name":"Uncletopia | Chicago | 6 | All Maps | STV","players":[{"user_id":415,"name":"Esteban Delsin","steam_id":76561198433519639,"connected_time":3079000000000,"state":"active","ping":86},{"user_id":355,"name":"ATLS1 | Strange Festive","steam_id":76561198050385093,"connected_time":8699000000000,"state":"active","ping":60},{"user_id":406,"name":"fish","steam_id":76561198054070811,"connected_time":4693000000000,"state":"active","ping":91},{"user_id":352,"name":"C Papi","steam_id":76561198027779564,"connected_time":9211000000000,"state":"active","ping":47}]},{"server_id":38,"name":"Uncletopia | Chicago | 7 | Stopwatch","name_short":"chi-7","host":"chi-2.us.uncletopia.com","port":27035,"enabled":true,"region":"us-central","cc":"us","latitude":41.881832,"longitude":-87.62318,"reserved":0,"last_update":"0001-01-01T00:00:00Z","name_a2s":"Uncletopia | Chicago | 7 | Stopwatch","protocol":17,"map":"pl_upward","folder":"tf","game":"Team Fortress","app_id":440,"player_count":0,"max_players":24,"Bots":0,"server_type":"Dedicated","server_os":"Linux","password":true,"vac":true,"version":"7961495","steam_id":85568392924866364,"keywords":["nocrits","nodmgspread","payload","uncletopia"],"game_id":440,"stv_port":27036,"stv_name":"Uncletopia | Chicago | 7 | Stopwatch | STV","players":null},{"server_id":39,"name":"Uncletopia | Chicago | 8 | Community","name_short":"chi-8","host":"chi-2.us.uncletopia.com","port":27045,"enabled":true,"region":"us-central","cc":"us","latitude":41.881832,"longitude":-87.62318,"reserved":0,"last_update":"0001-01-01T00:00:00Z","name_a2s":"Uncletopia | Chicago | 8 | Community","protocol":17,"map":"workshop/pl_corrode_rc2.ugc546577989","folder":"tf","game":"Team Fortress","app_id":440,"player_count":0,"max_players":24,"Bots":0,"server_type":"Dedicated","server_os":"Linux","password":true,"vac":true,"version":"7961495","steam_id":85568392924866365,"keywords":["nocrits","nodmgspread","payload","uncletopia"],"game_id":440,"stv_port":27046,"stv_name":"Uncletopia | Chicago | 8 | Community | STV","players":null},{"server_id":8,"name":"Uncletopia | Dallas | 1 | All Maps","name_short":"dal-1","host":"dal-1.us.uncletopia.com","port":27015,"enabled":true,"region":"us-central","cc":"us","latitude":32.779167,"longitude":-96.80889,"reserved":0,"last_update":"0001-01-01T00:00:00Z","name_a2s":"Uncletopia | Dallas | 1 | All Maps","protocol":17,"map":"cp_gorge","folder":"tf","game":"Team Fortress","app_id":440,"player_count":24,"max_players":24,"Bots":0,"server_type":"Dedicated","server_os":"Linux","password":true,"vac":true,"version":"7961495","steam_id":85568392924469986,"keywords":["cp","nocrits","nodmgspread","uncletopia"],"game_id":440,"stv_port":27016,"stv_name":"Uncletopia | Dallas | 1 | All Maps | STV","players":[{"user_id":429,"name":"AvapXia","steam_id":76561198147476096,"connected_time":2399000000000,"state":"active","ping":108},{"user_id":447,"name":"DeckofDragons","steam_id":76561198057398213,"connected_time":682000000000,"state":"active","ping":57},{"user_id":425,"name":"9/11 Airlines","steam_id":76561198096306325,"connected_time":2843000000000,"state":"active","ping":74},{"user_id":458,"name":"Stinky Wizzleteats.","steam_id":76561198075628776,"connected_time":111000000000,"state":"active","ping":77},{"user_id":451,"name":"copper","steam_id":76561198146250533,"connected_time":500000000000,"state":"active","ping":80},{"user_id":444,"name":"noise","steam_id":76561198081375875,"connected_time":791000000000,"state":"active","ping":61},{"user_id":445,"name":"boogerboy77","steam_id":76561198841559088,"connected_time":756000000000,"state":"active","ping":87},{"user_id":397,"name":"kris736","steam_id":76561198038208255,"connected_time":5668000000000,"state":"active","ping":86},{"user_id":446,"name":"Alphatass","steam_id":76561197992442602,"connected_time":735000000000,"state":"active","ping":60},{"user_id":448,"name":"Chiefirons","steam_id":76561198057984431,"connected_time":679000000000,"state":"active","ping":76},{"user_id":449,"name":"mario is missing!!!","steam_id":76561198028249503,"connected_time":628000000000,"state":"active","ping":99},{"user_id":450,"name":"DidYouToeGaming?","steam_id":76561198036091406,"connected_time":616000000000,"state":"active","ping":91},{"user_id":428,"name":"Tokani","steam_id":76561198066904353,"connected_time":2440000000000,"state":"active","ping":55},{"user_id":452,"name":"The Big Stick","steam_id":76561198039864821,"connected_time":475000000000,"state":"active","ping":96},{"user_id":453,"name":"Traceback","steam_id":76561197993212340,"connected_time":415000000000,"state":"active","ping":67},{"user_id":436,"name":"lobster","steam_id":76561198147417707,"connected_time":1442000000000,"state":"active","ping":75},{"user_id":454,"name":"Myx (eviler version)","steam_id":76561198256889832,"connected_time":413000000000,"state":"active","ping":95},{"user_id":457,"name":"Sunny","steam_id":76561198125892600,"connected_time":232000000000,"state":"active","ping":65},{"user_id":412,"name":"tsz","steam_id":76561199246231090,"connected_time":3941000000000,"state":"active","ping":76},{"user_id":456,"name":"Ruwa","steam_id":76561198249729292,"connected_time":261000000000,"state":"active","ping":62},{"user_id":422,"name":"VenomX","steam_id":76561198123418900,"connected_time":3089000000000,"state":"active","ping":75},{"user_id":442,"name":"Ŧayeє.4.ⓤ","steam_id":76561198044176988,"connected_time":1011000000000,"state":"active","ping":84},{"user_id":439,"name":"transfem atsuko kagari","steam_id":76561198217402847,"connected_time":1405000000000,"state":"active","ping":86},{"user_id":426,"name":"basilberry","steam_id":76561198145275937,"connected_time":2701000000000,"state":"active","ping":67}]},{"server_id":108,"name":"Uncletopia | Dallas | 2 | All Maps","name_short":"dal-2","host":"dal-1.us.uncletopia.com","port":27025,"enabled":true,"region":"us-central","cc":"us","latitude":32.779167,"longitude":-96.80889,"reserved":0,"last_update":"0001-01-01T00:00:00Z","name_a2s":"Uncletopia | Dallas | 2 | All Maps","protocol":17,"map":"pl_upward","folder":"tf","game":"Team Fortress","app_id":440,"player_count":19,"max_players":24,"Bots":0,"server_type":"Dedicated","server_os":"Linux","password":true,"vac":true,"version":"7961495","steam_id":85568392924469988,"keywords":["nocrits","nodmgspread","payload","uncletopia"],"game_id":440,"stv_port":27026,"stv_name":"Uncletopia | Dallas | 2 | All Maps | STV","players":[{"user_id":539,"name":"ルナ・ノー・スラッツ","steam_id":76561198197135971,"connected_time":935000000000,"state":"active","ping":48},{"user_id":541,"name":"O.G. C.E.O","steam_id":76561198063928325,"connected_time":778000000000,"state":"active","ping":56},{"user_id":528,"name":"spicydogecena6505+","steam_id":76561198053609801,"connected_time":1205000000000,"state":"active","ping":60},{"user_id":527,"name":"sleepy","steam_id":76561198288663776,"connected_time":1256000000000,"state":"active","ping":94},{"user_id":537,"name":"ashelin praxis nude mod","steam_id":76561198167907089,"connected_time":974000000000,"state":"active","ping":72},{"user_id":519,"name":"Dr. Kokkinbahlz","steam_id":76561198166245239,"connected_time":2439000000000,"state":"active","ping":44},{"user_id":545,"name":"Lost","steam_id":76561198025933206,"connected_time":226000000000,"state":"active","ping":57},{"user_id":552,"name":"0","steam_id":76561198046065237,"connected_time":39000000000,"state":"active","ping":78},{"user_id":547,"name":"Unlimited_Trees","steam_id":76561198299141443,"connected_time":213000000000,"state":"active","ping":95},{"user_id":549,"name":"UrbudBenny","steam_id":76561198362317483,"connected_time":159000000000,"state":"active","ping":67},{"user_id":533,"name":"Kenn","steam_id":76561198061505015,"connected_time":1078000000000,"state":"active","ping":80},{"user_id":550,"name":"1000 Ping","steam_id":76561198098330939,"connected_time":127000000000,"state":"active","ping":103},{"user_id":551,"name":"semoku","steam_id":76561198838877619,"connected_time":102000000000,"state":"active","ping":197},{"user_id":553,"name":"william.thompson2007","steam_id":76561199504451873,"connected_time":6000000000,"state":"spawning","ping":75},{"user_id":538,"name":"have blue","steam_id":76561198054260599,"connected_time":954000000000,"state":"active","ping":56},{"user_id":540,"name":"Team Fartpiss Poo","steam_id":76561199163591880,"connected_time":884000000000,"state":"active","ping":81},{"user_id":498,"name":"Yongle","steam_id":76561198068591156,"connected_time":4450000000000,"state":"active","ping":76},{"user_id":499,"name":"Big Chungus Gaming","steam_id":76561198068794194,"connected_time":4440000000000,"state":"active","ping":75},{"user_id":544,"name":"Censure","steam_id":76561198850891374,"connected_time":579000000000,"state":"active","ping":87}]},{"server_id":404,"name":"Uncletopia | Dallas | 3 | All Maps","name_short":"dal-3","host":"dal-1.us.uncletopia.com","port":27035,"enabled":true,"region":"us-central","cc":"us","latitude":32.779167,"longitude":-96.80889,"reserved":0,"last_update":"0001-01-01T00:00:00Z","name_a2s":"Uncletopia | Dallas | 3 | All Maps","protocol":17,"map":"koth_lakeside_final","folder":"tf","game":"Team Fortress","app_id":440,"player_count":0,"max_players":24,"Bots":0,"server_type":"Dedicated","server_os":"Linux","password":true,"vac":true,"version":"7961495","steam_id":85568392924515219,"keywords":["cp","nocrits","nodmgspread","uncletopia"],"game_id":440,"stv_port":27036,"stv_name":"Uncletopia | Dallas | 3 | All Maps | STV","players":null},{"server_id":405,"name":"Uncletopia | Dallas | 4 | Community","name_short":"dal-4","host":"dal-1.us.uncletopia.com","port":27045,"enabled":true,"region":"us-central","cc":"us","latitude":32.779167,"longitude":-96.80889,"reserved":0,"last_update":"0001-01-01T00:00:00Z","name_a2s":"Uncletopia | Dallas | 4 | Community","protocol":17,"map":"workshop/koth_ashville_final.ugc2130459942","folder":"tf","game":"Team Fortress","app_id":440,"player_count":0,"max_players":24,"Bots":0,"server_type":"Dedicated","server_os":"Linux","password":true,"vac":true,"version":"7961495","steam_id":85568392924515220,"keywords":["cp","nocrits","nodmgspread","uncletopia"],"game_id":440,"stv_port":27046,"stv_name":"Uncletopia | Dallas | 4 | Community | STV","players":null},{"server_id":5,"name":"Uncletopia | Frankfurt | 1 | All Maps","name_short":"frk-1","host":"frk-1.de.uncletopia.com","port":27015,"enabled":true,"region":"eu","cc":"de","latitude":50.110924,"longitude":8.682127,"reserved":0,"last_update":"0001-01-01T00:00:00Z","name_a2s":"Uncletopia | Frankfurt | 1 | All Maps","protocol":17,"map":"koth_viaduct","folder":"tf","game":"Team Fortress","app_id":440,"player_count":0,"max_players":24,"Bots":0,"server_type":"Dedicated","server_os":"Linux","password":true,"vac":true,"version":"7961495","steam_id":85568392924469989,"keywords":["cp","nocrits","nodmgspread","uncletopia"],"game_id":440,"stv_port":27016,"stv_name":"Uncletopia | Frankfurt | 1 | All Maps | STV","players":null},{"server_id":110,"name":"Uncletopia | Frankfurt | 2 | All Maps","name_short":"frk-2","host":"frk-1.de.uncletopia.com","port":27025,"enabled":true,"region":"eu","cc":"de","latitude":50.110924,"longitude":8.682127,"reserved":0,"last_update":"0001-01-01T00:00:00Z","name_a2s":"Uncletopia | Frankfurt | 2 | All Maps","protocol":17,"map":"plr_hightower","folder":"tf","game":"Team Fortress","app_id":440,"player_count":0,"max_players":24,"Bots":0,"server_type":"Dedicated","server_os":"Linux","password":true,"vac":true,"version":"7961495","steam_id":85568392924469990,"keywords":["nocrits","nodmgspread","payload","uncletopia"],"game_id":440,"stv_port":27026,"stv_name":"Uncletopia | Frankfurt | 2 | All Maps | STV","players":null},{"server_id":308,"name":"Uncletopia | Frankfurt | 3 | All Maps","name_short":"frk-3","host":"frk-1.de.uncletopia.com","port":27035,"enabled":true,"region":"eu","cc":"de","latitude":50.110924,"longitude":8.682127,"reserved":0,"last_update":"0001-01-01T00:00:00Z","name_a2s":"Uncletopia | Frankfurt | 3 | All Maps","protocol":17,"map":"cp_process_final","folder":"tf","game":"Team Fortress","app_id":440,"player_count":0,"max_players":24,"Bots":0,"server_type":"Dedicated","server_os":"Linux","password":true,"vac":true,"version":"7961495","steam_id":85568392924504274,"keywords":["cp","nocrits","nodmgspread","uncletopia"],"game_id":440,"stv_port":27036,"stv_name":"Uncletopia | Frankfurt | 3 | All Maps | STV","players":null},{"server_id":309,"name":"Uncletopia | Frankfurt | 4 | All Maps","name_short":"frk-4","host":"frk-1.de.uncletopia.com","port":27045,"enabled":true,"region":"eu","cc":"de","latitude":50.110924,"longitude":8.682127,"reserved":0,"last_update":"0001-01-01T00:00:00Z","name_a2s":"Uncletopia | Frankfurt | 4 | All Maps","protocol":17,"map":"cp_gorge","folder":"tf","game":"Team Fortress","app_id":440,"player_count":0,"max_players":24,"Bots":0,"server_type":"Dedicated","server_os":"Linux","password":true,"vac":true,"version":"7961495","steam_id":85568392924504275,"keywords":["cp","nocrits","nodmgspread","uncletopia"],"game_id":440,"stv_port":27046,"stv_name":"Uncletopia | Frankfurt | 4 | All Maps | STV","players":null},{"server_id":310,"name":"Uncletopia | Frankfurt | 5 | All Maps","name_short":"frk-5","host":"frk-1.de.uncletopia.com","port":27055,"enabled":true,"region":"eu","cc":"de","latitude":50.110924,"longitude":8.682127,"reserved":0,"last_update":"0001-01-01T00:00:00Z","name_a2s":"Uncletopia | Frankfurt | 5 | All Maps","protocol":17,"map":"koth_nucleus","folder":"tf","game":"Team Fortress","app_id":440,"player_count":0,"max_players":24,"Bots":0,"server_type":"Dedicated","server_os":"Linux","password":true,"vac":true,"version":"7961495","steam_id":85568392924504277,"keywords":["cp","nocrits","nodmgspread","uncletopia"],"game_id":440,"stv_port":27056,"stv_name":"Uncletopia | Frankfurt | 5 | All Maps | STV","players":null},{"server_id":311,"name":"Uncletopia | Frankfurt | 6 | All Maps","name_short":"frk-6","host":"frk-1.de.uncletopia.com","port":27065,"enabled":true,"region":"eu","cc":"de","latitude":50.110924,"longitude":8.682127,"reserved":0,"last_update":"0001-01-01T00:00:00Z","name_a2s":"Uncletopia | Frankfurt | 6 | All Maps","protocol":17,"map":"cp_coldfront","folder":"tf","game":"Team Fortress","app_id":440,"player_count":0,"max_players":24,"Bots":0,"server_type":"Dedicated","server_os":"Linux","password":true,"vac":true,"version":"7961495","steam_id":85568392924504278,"keywords":["cp","nocrits","nodmgspread","uncletopia"],"game_id":440,"stv_port":27066,"stv_name":"Uncletopia | Frankfurt | 6 | All Maps | STV","players":null},{"server_id":23,"name":"Uncletopia | Frankfurt | 7 | Stopwatch","name_short":"frk-7","host":"frk-1.de.uncletopia.com","port":27075,"enabled":true,"region":"eu","cc":"de","latitude":50.110924,"longitude":8.682127,"reserved":0,"last_update":"0001-01-01T00:00:00Z","name_a2s":"Uncletopia | Frankfurt | 7 | Stopwatch","protocol":17,"map":"cp_sunshine","folder":"tf","game":"Team Fortress","app_id":440,"player_count":0,"max_players":24,"Bots":0,"server_type":"Dedicated","server_os":"Linux","password":true,"vac":true,"version":"7961495","steam_id":85568392924742827,"keywords":["cp","nocrits","nodmgspread","uncletopia"],"game_id":440,"stv_port":27076,"stv_name":"Uncletopia | Frankfurt | 7 | Stopwatch | STV","players":null},{"server_id":24,"name":"Uncletopia | Frankfurt | 8 | Community","name_short":"frk-8","host":"frk-1.de.uncletopia.com","port":27085,"enabled":true,"region":"eu","cc":"de","latitude":50.110924,"longitude":8.682127,"reserved":0,"last_update":"0001-01-01T00:00:00Z","name_a2s":"Uncletopia | Frankfurt | 8 | Community","protocol":17,"map":"workshop/pl_boundary_final1.ugc456799153","folder":"tf","game":"Team Fortress","app_id":440,"player_count":0,"max_players":24,"Bots":0,"server_type":"Dedicated","server_os":"Linux","password":true,"vac":true,"version":"7961495","steam_id":85568392924742828,"keywords":["nocrits","nodmgspread","payload","uncletopia"],"game_id":440,"stv_port":27086,"stv_name":"Uncletopia | Frankfurt | 8 | Community | STV","players":null},{"server_id":202,"name":"Uncletopia | Hong Kong | 1 | All Maps","name_short":"hgk-1","host":"hgk-1.hk.uncletopia.com","port":27015,"enabled":true,"region":"asia","cc":"hk","latitude":22.302711,"longitude":114.177216,"reserved":0,"last_update":"0001-01-01T00:00:00Z","name_a2s":"Uncletopia | Hong Kong | 1 | All Maps","protocol":17,"map":"koth_highpass","folder":"tf","game":"Team Fortress","app_id":440,"player_count":0,"max_players":24,"Bots":0,"server_type":"Dedicated","server_os":"Linux","password":true,"vac":true,"version":"7961495","steam_id":85568392924494504,"keywords":["cp","nocrits","nodmgspread","uncletopia"],"game_id":440,"stv_port":27016,"stv_name":"Uncletopia | Hong Kong | 1 | All Maps | STV","players":null},{"server_id":1,"name":"Uncletopia | Los Angeles | 1 | All Maps","name_short":"lax-1","host":"lax-1.us.uncletopia.com","port":27015,"enabled":true,"region":"us-west","cc":"us","latitude":33.94279,"longitude":-118.41004,"reserved":0,"last_update":"0001-01-01T00:00:00Z","name_a2s":"Uncletopia | Los Angeles | 1 | All Maps","protocol":17,"map":"pl_badwater","folder":"tf","game":"Team Fortress","app_id":440,"player_count":21,"max_players":24,"Bots":0,"server_type":"Dedicated","server_os":"Linux","password":true,"vac":true,"version":"7961495","steam_id":85568392924469991,"keywords":["nocrits","nodmgspread","payload","uncletopia"],"game_id":440,"stv_port":27016,"stv_name":"Uncletopia | Los Angeles | 1 | All Maps | STV","players":[{"user_id":309,"name":"lol","steam_id":76561198026491738,"connected_time":2939000000000,"state":"active","ping":71},{"user_id":318,"name":"MDEEEEE","steam_id":76561198058460585,"connected_time":2260000000000,"state":"active","ping":50},{"user_id":298,"name":"a chicken","steam_id":76561198313121580,"connected_time":3973000000000,"state":"active","ping":61},{"user_id":349,"name":"moe","steam_id":76561198929586245,"connected_time":52000000000,"state":"active","ping":46},{"user_id":310,"name":"Humble Learner","steam_id":76561198066091050,"connected_time":2868000000000,"state":"active","ping":82},{"user_id":350,"name":"Olitude","steam_id":76561199238964574,"connected_time":48000000000,"state":"active","ping":47},{"user_id":351,"name":"Sergant_Fappington","steam_id":76561198806134135,"connected_time":37000000000,"state":"active","ping":70},{"user_id":352,"name":"Funny Man","steam_id":76561198196592955,"connected_time":25000000000,"state":"active","ping":60},{"user_id":337,"name":"FI LO","steam_id":76561198976530881,"connected_time":1085000000000,"state":"active","ping":44},{"user_id":269,"name":"Avem","steam_id":76561198058763710,"connected_time":5818000000000,"state":"active","ping":46},{"user_id":294,"name":"Weegee","steam_id":76561198140095755,"connected_time":4392000000000,"state":"active","ping":48},{"user_id":311,"name":"Whisper!","steam_id":76561198119609795,"connected_time":2773000000000,"state":"active","ping":53},{"user_id":343,"name":"bansheerubber","steam_id":76561198042009362,"connected_time":898000000000,"state":"active","ping":58},{"user_id":347,"name":"fonz!E","steam_id":76561197987165510,"connected_time":562000000000,"state":"active","ping":45},{"user_id":332,"name":"Junebouvier","steam_id":76561198154395780,"connected_time":1713000000000,"state":"active","ping":105},{"user_id":330,"name":"*chuckles smugly*","steam_id":76561198068113347,"connected_time":1960000000000,"state":"active","ping":47},{"user_id":329,"name":"Juicy","steam_id":76561198049220780,"connected_time":1990000000000,"state":"active","ping":50},{"user_id":333,"name":"Stroop","steam_id":76561198138687730,"connected_time":1169000000000,"state":"active","ping":75},{"user_id":334,"name":"endwalker simp","steam_id":76561198066177299,"connected_time":1098000000000,"state":"active","ping":104},{"user_id":300,"name":"John Calibur","steam_id":76561197999986606,"connected_time":3752000000000,"state":"active","ping":44},{"user_id":335,"name":"strawberry jam bagel","steam_id":76561198319442494,"connected_time":1098000000000,"state":"active","ping":55}]},{"server_id":112,"name":"Uncletopia | Los Angeles | 2 | All Maps","name_short":"lax-2","host":"lax-1.us.uncletopia.com","port":27025,"enabled":true,"region":"us-west","cc":"us","latitude":33.94279,"longitude":-118.41004,"reserved":0,"last_update":"0001-01-01T00:00:00Z","name_a2s":"Uncletopia | Los Angeles | 2 | All Maps","protocol":17,"map":"koth_viaduct","folder":"tf","game":"Team Fortress","app_id":440,"player_count":0,"max_players":24,"Bots":0,"server_type":"Dedicated","server_os":"Linux","password":true,"vac":true,"version":"7961495","steam_id":85568392924469992,"keywords":["cp","nocrits","nodmgspread","uncletopia"],"game_id":440,"stv_port":27026,"stv_name":"Uncletopia | Los Angeles | 2 | All Maps | STV","players":null},{"server_id":324,"name":"Uncletopia | Los Angeles | 3 | All Maps","name_short":"lax-3","host":"lax-1.us.uncletopia.com","port":27035,"enabled":true,"region":"us-west","cc":"us","latitude":33.94279,"longitude":-118.41004,"reserved":0,"last_update":"0001-01-01T00:00:00Z","name_a2s":"Uncletopia | Los Angeles | 3 | All Maps","protocol":17,"map":"cp_process_final","folder":"tf","game":"Team Fortress","app_id":440,"player_count":0,"max_players":24,"Bots":0,"server_type":"Dedicated","server_os":"Linux","password":true,"vac":true,"version":"7961495","steam_id":85568392924510198,"keywords":["cp","nocrits","nodmgspread","uncletopia"],"game_id":440,"stv_port":27036,"stv_name":"Uncletopia | Los Angeles | 3 | All Maps | STV","players":null},{"server_id":25,"name":"Uncletopia | Los Angeles | 4 | Stopwatch","name_short":"lax-4","host":"lax-1.us.uncletopia.com","port":27045,"enabled":true,"region":"us-west","cc":"us","latitude":33.94279,"longitude":-118.41004,"reserved":0,"last_update":"0001-01-01T00:00:00Z","name_a2s":"Uncletopia | Los Angeles | 4 | Stopwatch","protocol":17,"map":"workshop/koth_product_final.ugc454272353","folder":"tf","game":"Team Fortress","app_id":440,"player_count":0,"max_players":24,"Bots":0,"server_type":"Dedicated","server_os":"Linux","password":true,"vac":true,"version":"7961495","steam_id":85568392924510199,"keywords":["cp","nocrits","nodmgspread","uncletopia"],"game_id":440,"stv_port":27046,"stv_name":"Uncletopia | Los Angeles | 4 | Stopwatch | STV","players":null},{"server_id":11,"name":"Uncletopia | London | 1 | All Maps","name_short":"lon-1","host":"lon-1.uk.uncletopia.com","port":27015,"enabled":true,"region":"eu","cc":"gb","latitude":51.509865,"longitude":-0.118092,"reserved":0,"last_update":"0001-01-01T00:00:00Z","name_a2s":"Uncletopia | London | 1 | All Maps","protocol":17,"map":"koth_nucleus","folder":"tf","game":"Team Fortress","app_id":440,"player_count":0,"max_players":24,"Bots":0,"server_type":"Dedicated","server_os":"Linux","password":true,"vac":true,"version":"7961495","steam_id":85568392924367362,"keywords":["cp","nocrits","nodmgspread","uncletopia"],"game_id":440,"stv_port":27016,"stv_name":"Uncletopia | London | 1 | All Maps | STV","players":null},{"server_id":114,"name":"Uncletopia | London | 2 | All Maps","name_short":"lon-2","host":"lon-1.uk.uncletopia.com","port":27025,"enabled":true,"region":"eu","cc":"gb","latitude":51.509865,"longitude":-0.118092,"reserved":0,"last_update":"0001-01-01T00:00:00Z","name_a2s":"Uncletopia | London | 2 | All Maps","protocol":17,"map":"pl_snowycoast","folder":"tf","game":"Team Fortress","app_id":440,"player_count":0,"max_players":24,"Bots":0,"server_type":"Dedicated","server_os":"Linux","password":true,"vac":true,"version":"7961495","steam_id":85568392924470941,"keywords":["nocrits","nodmgspread","payload","uncletopia"],"game_id":440,"stv_port":27026,"stv_name":"Uncletopia | London | 2 | All Maps | STV","players":null},{"server_id":320,"name":"Uncletopia | London | 3 | All Maps","name_short":"lon-3","host":"lon-1.uk.uncletopia.com","port":27035,"enabled":true,"region":"eu","cc":"gb","latitude":51.509865,"longitude":-0.118092,"reserved":0,"last_update":"0001-01-01T00:00:00Z","name_a2s":"Uncletopia | London | 3 | All Maps","protocol":17,"map":"pl_borneo","folder":"tf","game":"Team Fortress","app_id":440,"player_count":0,"max_players":24,"Bots":0,"server_type":"Dedicated","server_os":"Linux","password":true,"vac":true,"version":"7961495","steam_id":85568392924510192,"keywords":["nocrits","nodmgspread","payload","uncletopia"],"game_id":440,"stv_port":27036,"stv_name":"Uncletopia | London | 3 | All Maps | STV","players":null},{"server_id":321,"name":"Uncletopia | London | 4 | All Maps","name_short":"lon-4","host":"lon-1.uk.uncletopia.com","port":27045,"enabled":true,"region":"eu","cc":"gb","latitude":51.509865,"longitude":-0.118092,"reserved":0,"last_update":"0001-01-01T00:00:00Z","name_a2s":"Uncletopia | London | 4 | All Maps","protocol":17,"map":"pl_badwater","folder":"tf","game":"Team Fortress","app_id":440,"player_count":0,"max_players":24,"Bots":0,"server_type":"Dedicated","server_os":"Linux","password":true,"vac":true,"version":"7961495","steam_id":85568392924510193,"keywords":["nocrits","nodmgspread","payload","uncletopia"],"game_id":440,"stv_port":27046,"stv_name":"Uncletopia | London | 4 | All Maps | STV","players":null},{"server_id":21,"name":"Uncletopia | London | 5 | All Maps","name_short":"lon-5","host":"lon-1.uk.uncletopia.com","port":27055,"enabled":true,"region":"eu","cc":"gb","latitude":51.509865,"longitude":-0.118092,"reserved":0,"last_update":"0001-01-01T00:00:00Z","name_a2s":"Uncletopia | London | 5 | All Maps","protocol":17,"map":"koth_lazarus","folder":"tf","game":"Team Fortress","app_id":440,"player_count":0,"max_players":24,"Bots":0,"server_type":"Dedicated","server_os":"Linux","password":true,"vac":true,"version":"7961495","steam_id":85568392924742829,"keywords":["cp","nocrits","nodmgspread","uncletopia"],"game_id":440,"stv_port":27056,"stv_name":"Uncletopia | London | 5 | All Maps | STV","players":null},{"server_id":22,"name":"Uncletopia | London | 6 | All Maps","name_short":"lon-6","host":"lon-1.uk.uncletopia.com","port":27065,"enabled":true,"region":"eu","cc":"gb","latitude":51.509865,"longitude":-0.118092,"reserved":0,"last_update":"0001-01-01T00:00:00Z","name_a2s":"Uncletopia | London | 6 | All Maps","protocol":17,"map":"cp_snakewater_final1","folder":"tf","game":"Team Fortress","app_id":440,"player_count":0,"max_players":24,"Bots":0,"server_type":"Dedicated","server_os":"Linux","password":true,"vac":true,"version":"7961495","steam_id":85568392924742830,"keywords":["cp","nocrits","nodmgspread","uncletopia"],"game_id":440,"stv_port":27066,"stv_name":"Uncletopia | London | 6 | All Maps | STV","players":null},{"server_id":40,"name":"Uncletopia | London | 7 | Stopwatch","name_short":"lon-7","host":"lon-1.uk.uncletopia.com","port":27075,"enabled":true,"region":"eu","cc":"gb","latitude":51.509865,"longitude":-0.118092,"reserved":0,"last_update":"0001-01-01T00:00:00Z","name_a2s":"Uncletopia | London | 7 | Stopwatch","protocol":17,"map":"workshop/pl_badwater_pro_v12.ugc2142942074","folder":"tf","game":"Team Fortress","app_id":440,"player_count":0,"max_players":24,"Bots":0,"server_type":"Dedicated","server_os":"Linux","password":true,"vac":true,"version":"7961495","steam_id":85568392924964314,"keywords":["nocrits","nodmgspread","payload","uncletopia"],"game_id":440,"stv_port":27076,"stv_name":"Uncletopia | London | 7 | Stopwatch | STV","players":null},{"server_id":41,"name":"Uncletopia | London | 8 | Community","name_short":"lon-8","host":"lon-1.uk.uncletopia.com","port":27085,"enabled":true,"region":"eu","cc":"gb","latitude":51.509865,"longitude":-0.118092,"reserved":0,"last_update":"0001-01-01T00:00:00Z","name_a2s":"Uncletopia | London | 8 | Community","protocol":17,"map":"workshop/cp_propaganda_b18.ugc1603743849","folder":"tf","game":"Team Fortress","app_id":440,"player_count":0,"max_players":24,"Bots":0,"server_type":"Dedicated","server_os":"Linux","password":true,"vac":true,"version":"7961495","steam_id":85568392924964315,"keywords":["cp","nocrits","nodmgspread","uncletopia"],"game_id":440,"stv_port":27086,"stv_name":"Uncletopia | London | 8 | Community | STV","players":null},{"server_id":300,"name":"Uncletopia | Montréal | 1 | One Thousand Uncles","name_short":"mtl-1","host":"mtl-1.ca.uncletopia.com","port":27015,"enabled":true,"region":"us-east","cc":"ca","latitude":45.50889,"longitude":-73.56167,"reserved":0,"last_update":"0001-01-01T00:00:00Z","name_a2s":"Uncletopia | Montréal | 1 | One Thousand Uncles","protocol":17,"map":"pl_goldrush","folder":"tf","game":"Team Fortress","app_id":440,"player_count":0,"max_players":32,"Bots":0,"server_type":"Dedicated","server_os":"Linux","password":true,"vac":true,"version":"7961495","steam_id":85568392924500087,"keywords":["alltalk","danepve","increased_maxplayers","norespawntime","payload","uncletopia"],"game_id":440,"stv_port":0,"stv_name":"","players":null},{"server_id":301,"name":"Uncletopia | Montréal | 2 | One Thousand Uncles","name_short":"mtl-2","host":"mtl-1.ca.uncletopia.com","port":27025,"enabled":true,"region":"us-east","cc":"ca","latitude":45.50889,"longitude":-73.56167,"reserved":0,"last_update":"0001-01-01T00:00:00Z","name_a2s":"Uncletopia | Montréal | 2 | One Thousand Uncles","protocol":17,"map":"pl_chilly","folder":"tf","game":"Team Fortress","app_id":440,"player_count":0,"max_players":32,"Bots":0,"server_type":"Dedicated","server_os":"Linux","password":true,"vac":true,"version":"7961495","steam_id":85568392924500088,"keywords":["alltalk","danepve","increased_maxplayers","norespawntime","payload","uncletopia"],"game_id":440,"stv_port":0,"stv_name":"","players":null},{"server_id":302,"name":"Uncletopia | Montréal | 3 | One Thousand Uncles","name_short":"mtl-3","host":"mtl-1.ca.uncletopia.com","port":27035,"enabled":true,"region":"us-east","cc":"ca","latitude":45.50889,"longitude":-73.56167,"reserved":0,"last_update":"0001-01-01T00:00:00Z","name_a2s":"Uncletopia | Montréal | 3 | One Thousand Uncles","protocol":17,"map":"pl_pier","folder":"tf","game":"Team Fortress","app_id":440,"player_count":0,"max_players":32,"Bots":0,"server_type":"Dedicated","server_os":"Linux","password":true,"vac":true,"version":"7961495","steam_id":85568392924500089,"keywords":["alltalk","danepve","increased_maxplayers","norespawntime","payload","uncletopia"],"game_id":440,"stv_port":0,"stv_name":"","players":null},{"server_id":13,"name":"Uncletopia | New York City | 1 | All Maps","name_short":"nyc-1","host":"nyc-1.us.uncletopia.com","port":27015,"enabled":true,"region":"us-east","cc":"us","latitude":40.73061,"longitude":-73.93524,"reserved":0,"last_update":"0001-01-01T00:00:00Z","name_a2s":"Uncletopia | New York City | 1 | All Maps","protocol":17,"map":"pl_badwater","folder":"tf","game":"Team Fortress","app_id":440,"player_count":24,"max_players":24,"Bots":0,"server_type":"Dedicated","server_os":"Linux","password":true,"vac":true,"version":"7961495","steam_id":85568392924469993,"keywords":["nocrits","nodmgspread","payload","uncletopia"],"game_id":440,"stv_port":27016,"stv_name":"Uncletopia | New York City | 1 | All Maps | STV","players":[{"user_id":616,"name":"PlatniumBoi","steam_id":76561198276140755,"connected_time":1636000000000,"state":"active","ping":89},{"user_id":599,"name":"alfredodan no-edphones","steam_id":76561198025011044,"connected_time":3161000000000,"state":"active","ping":74},{"user_id":636,"name":"for the king","steam_id":76561197973488858,"connected_time":211000000000,"state":"active","ping":44},{"user_id":618,"name":"SpaceSanctum","steam_id":76561198805242305,"connected_time":1436000000000,"state":"active","ping":44},{"user_id":625,"name":"Draugluin","steam_id":76561199219965276,"connected_time":513000000000,"state":"active","ping":134},{"user_id":630,"name":"IBA Chandler","steam_id":76561198403649648,"connected_time":377000000000,"state":"active","ping":75},{"user_id":637,"name":"playguy carter","steam_id":76561198080679337,"connected_time":189000000000,"state":"active","ping":75},{"user_id":601,"name":"PotatoTheCarrot","steam_id":76561198014089484,"connected_time":2930000000000,"state":"active","ping":62},{"user_id":612,"name":"mayor of cool person city","steam_id":76561198048882285,"connected_time":2152000000000,"state":"active","ping":37},{"user_id":611,"name":"Lumi The ✧Lesbian✧","steam_id":76561198089978036,"connected_time":2273000000000,"state":"active","ping":37},{"user_id":600,"name":"bomba","steam_id":76561198301585642,"connected_time":3021000000000,"state":"active","ping":54},{"user_id":629,"name":"Jupes","steam_id":76561197989459160,"connected_time":403000000000,"state":"active","ping":119},{"user_id":628,"name":"Madokanon","steam_id":76561199392794183,"connected_time":420000000000,"state":"active","ping":180},{"user_id":631,"name":"Ligodraco","steam_id":76561198182271438,"connected_time":364000000000,"state":"active","ping":70},{"user_id":595,"name":"estoy durmiendo honk shoo honk ","steam_id":76561198059575962,"connected_time":3375000000000,"state":"active","ping":63},{"user_id":537,"name":"space man","steam_id":76561198066333670,"connected_time":8162000000000,"state":"active","ping":44},{"user_id":638,"name":"soluticn","steam_id":76561198093819043,"connected_time":127000000000,"state":"active","ping":45},{"user_id":633,"name":"long john larry","steam_id":76561198078238722,"connected_time":292000000000,"state":"active","ping":113},{"user_id":619,"name":"De","steam_id":76561198206728044,"connected_time":984000000000,"state":"active","ping":73},{"user_id":419,"name":"Yuzu","steam_id":76561198417913035,"connected_time":16731000000000,"state":"active","ping":56},{"user_id":639,"name":"Bungus","steam_id":76561197984426574,"connected_time":108000000000,"state":"active","ping":52},{"user_id":596,"name":"frog from pond AT","steam_id":76561198184900753,"connected_time":3362000000000,"state":"active","ping":53},{"user_id":640,"name":"Zeelidox","steam_id":76561198110613375,"connected_time":100000000000,"state":"active","ping":96},{"user_id":621,"name":"googa","steam_id":76561198133130452,"connected_time":941000000000,"state":"active","ping":51}]},{"server_id":14,"name":"Uncletopia | New York City | 2 | All Maps","name_short":"nyc-2","host":"nyc-1.us.uncletopia.com","port":27025,"enabled":true,"region":"us-east","cc":"us","latitude":40.73061,"longitude":-73.93524,"reserved":0,"last_update":"0001-01-01T00:00:00Z","name_a2s":"Uncletopia | New York City | 2 | All Maps","protocol":17,"map":"pl_snowycoast","folder":"tf","game":"Team Fortress","app_id":440,"player_count":0,"max_players":24,"Bots":0,"server_type":"Dedicated","server_os":"Linux","password":true,"vac":true,"version":"7961495","steam_id":85568392924469994,"keywords":["nocrits","nodmgspread","payload","uncletopia"],"game_id":440,"stv_port":27026,"stv_name":"Uncletopia | New York City | 2 | All Maps | STV","players":null},{"server_id":15,"name":"Uncletopia | New York City | 3 | Stopwatch","name_short":"nyc-3","host":"nyc-1.us.uncletopia.com","port":27035,"enabled":true,"region":"us-east","cc":"us","latitude":40.73061,"longitude":-73.93524,"reserved":0,"last_update":"0001-01-01T00:00:00Z","name_a2s":"Uncletopia | New York City | 3 | Stopwatch","protocol":17,"map":"koth_highpass","folder":"tf","game":"Team Fortress","app_id":440,"player_count":0,"max_players":24,"Bots":0,"server_type":"Dedicated","server_os":"Linux","password":true,"vac":true,"version":"7961495","steam_id":85568392924742820,"keywords":["cp","nocrits","nodmgspread","uncletopia"],"game_id":440,"stv_port":27036,"stv_name":"Uncletopia | New York City | 3 | Stopwatch | STV","players":null},{"server_id":16,"name":"Uncletopia | New York City | 4 | Community","name_short":"nyc-4","host":"nyc-1.us.uncletopia.com","port":27045,"enabled":true,"region":"us-east","cc":"us","latitude":40.73061,"longitude":-73.93524,"reserved":0,"last_update":"0001-01-01T00:00:00Z","name_a2s":"Uncletopia | New York City | 4 | Community","protocol":17,"map":"workshop/cp_indulge.ugc528106646","folder":"tf","game":"Team Fortress","app_id":440,"player_count":0,"max_players":24,"Bots":0,"server_type":"Dedicated","server_os":"Linux","password":true,"vac":true,"version":"7961495","steam_id":85568392924742821,"keywords":["cp","nocrits","nodmgspread","uncletopia"],"game_id":440,"stv_port":27046,"stv_name":"Uncletopia | New York City | 4 | Community | STV","players":null},{"server_id":142,"name":"Uncletopia | São Paulo | 1 | All Maps","name_short":"sao-1","host":"sao-1.br.uncletopia.com","port":27015,"enabled":true,"region":"sa","cc":"br","latitude":-23.533773,"longitude":-46.62529,"reserved":0,"last_update":"0001-01-01T00:00:00Z","name_a2s":"Uncletopia | São Paulo | 1 | All Maps","protocol":17,"map":"koth_viaduct","folder":"tf","game":"Team Fortress","app_id":440,"player_count":0,"max_players":24,"Bots":0,"server_type":"Dedicated","server_os":"Linux","password":true,"vac":true,"version":"7961495","steam_id":85568392924469996,"keywords":["cp","nocrits","nodmgspread","uncletopia"],"game_id":440,"stv_port":27016,"stv_name":"Uncletopia | São Paulo | 1 | All Maps | STV","players":null},{"server_id":143,"name":"Uncletopia | São Paulo | 2 | Community","name_short":"sao-2","host":"sao-2.br.uncletopia.com","port":27015,"enabled":true,"region":"sa","cc":"br","latitude":-23.533773,"longitude":-46.62529,"reserved":0,"last_update":"0001-01-01T00:00:00Z","name_a2s":"Uncletopia | São Paulo | 2 | Community","protocol":17,"map":"workshop/koth_product_final.ugc454272353","folder":"tf","game":"Team Fortress","app_id":440,"player_count":0,"max_players":24,"Bots":0,"server_type":"Dedicated","server_os":"Linux","password":true,"vac":true,"version":"7961495","steam_id":85568392924485349,"keywords":["cp","nocrits","nodmgspread","uncletopia"],"game_id":440,"stv_port":27016,"stv_name":"Uncletopia | São Paulo | 2 | Community | STV","players":null},{"server_id":7,"name":"Uncletopia | Seattle | 1 | All Maps","name_short":"sea-1","host":"sea-1.us.uncletopia.com","port":27015,"enabled":true,"region":"us-west","cc":"us","latitude":47.608013,"longitude":-122.33517,"reserved":0,"last_update":"0001-01-01T00:00:00Z","name_a2s":"Uncletopia | Seattle | 1 | All Maps","protocol":17,"map":"cp_gravelpit","folder":"tf","game":"Team Fortress","app_id":440,"player_count":24,"max_players":24,"Bots":0,"server_type":"Dedicated","server_os":"Linux","password":true,"vac":true,"version":"7961495","steam_id":85568392924469997,"keywords":["cp","nocrits","nodmgspread","uncletopia"],"game_id":440,"stv_port":27016,"stv_name":"Uncletopia | Seattle | 1 | All Maps | STV","players":[{"user_id":701,"name":"Hawksgamer","steam_id":76561198152405941,"connected_time":2937000000000,"state":"active","ping":44},{"user_id":683,"name":"RainboomCrash","steam_id":76561198065612273,"connected_time":4910000000000,"state":"active","ping":51},{"user_id":719,"name":"Coke Himmy","steam_id":76561198397459211,"connected_time":1239000000000,"state":"active","ping":122},{"user_id":710,"name":"evil jesus 05","steam_id":76561198419315893,"connected_time":2112000000000,"state":"active","ping":89},{"user_id":728,"name":"rhsiegetank","steam_id":76561198359829118,"connected_time":408000000000,"state":"active","ping":60},{"user_id":722,"name":"Soulman","steam_id":76561199012664006,"connected_time":785000000000,"state":"active","ping":62},{"user_id":670,"name":"Melly","steam_id":76561198045867175,"connected_time":5779000000000,"state":"active","ping":59},{"user_id":724,"name":"Stev the Hypergamous Pebble","steam_id":76561197999442625,"connected_time":682000000000,"state":"active","ping":52},{"user_id":703,"name":"Moffein","steam_id":76561198016739296,"connected_time":2919000000000,"state":"active","ping":64},{"user_id":738,"name":"Cactus™ ♥","steam_id":76561198036441270,"connected_time":56000000000,"state":"active","ping":104},{"user_id":726,"name":"frankie calories","steam_id":76561198071525893,"connected_time":554000000000,"state":"active","ping":86},{"user_id":734,"name":"seats","steam_id":76561197998756039,"connected_time":148000000000,"state":"active","ping":75},{"user_id":736,"name":"Soggy Zogg","steam_id":76561198836316052,"connected_time":101000000000,"state":"active","ping":75},{"user_id":699,"name":"ghor","steam_id":76561197994547132,"connected_time":3456000000000,"state":"active","ping":30},{"user_id":727,"name":"chocky","steam_id":76561198057491296,"connected_time":487000000000,"state":"active","ping":48},{"user_id":729,"name":"Houdini Cache","steam_id":76561198045506970,"connected_time":405000000000,"state":"active","ping":42},{"user_id":702,"name":"Mr8bittripper","steam_id":76561198133894229,"connected_time":2935000000000,"state":"active","ping":43},{"user_id":709,"name":"Finkly","steam_id":76561198049828110,"connected_time":2174000000000,"state":"active","ping":46},{"user_id":733,"name":"Saggle","steam_id":76561198056075147,"connected_time":306000000000,"state":"active","ping":178},{"user_id":737,"name":"goth witch","steam_id":76561198069605283,"connected_time":96000000000,"state":"active","ping":77},{"user_id":708,"name":"Sailor","steam_id":76561199081983517,"connected_time":2453000000000,"state":"active","ping":90},{"user_id":700,"name":"Tea Enthusiast","steam_id":76561198185583925,"connected_time":3410000000000,"state":"active","ping":87},{"user_id":725,"name":"Furikuri","steam_id":76561197998277739,"connected_time":662000000000,"state":"active","ping":45},{"user_id":732,"name":"Endstar","steam_id":76561198326392714,"connected_time":337000000000,"state":"active","ping":57}]},{"server_id":119,"name":"Uncletopia | Seattle | 2 | All Maps","name_short":"sea-2","host":"sea-1.us.uncletopia.com","port":27025,"enabled":true,"region":"us-west","cc":"us","latitude":47.608013,"longitude":-122.33517,"reserved":0,"last_update":"0001-01-01T00:00:00Z","name_a2s":"Uncletopia | Seattle | 2 | All Maps","protocol":17,"map":"pl_badwater","folder":"tf","game":"Team Fortress","app_id":440,"player_count":18,"max_players":24,"Bots":0,"server_type":"Dedicated","server_os":"Linux","password":true,"vac":true,"version":"7961495","steam_id":85568392924469998,"keywords":["nocrits","nodmgspread","payload","uncletopia"],"game_id":440,"stv_port":27026,"stv_name":"Uncletopia | Seattle | 2 | All Maps | STV","players":[{"user_id":301,"name":"pyrotechnic","steam_id":76561198043558709,"connected_time":232000000000,"state":"active","ping":46},{"user_id":278,"name":"duddlee","steam_id":76561198030052564,"connected_time":1660000000000,"state":"active","ping":55},{"user_id":281,"name":"Antzen","steam_id":76561198041343470,"connected_time":1624000000000,"state":"active","ping":58},{"user_id":279,"name":"JacobOneHundredPercentWholeWhea","steam_id":76561198045992418,"connected_time":1643000000000,"state":"active","ping":58},{"user_id":282,"name":"GalaxyDoug32","steam_id":76561197997126305,"connected_time":1622000000000,"state":"active","ping":59},{"user_id":239,"name":"NEBULA","steam_id":76561198086878595,"connected_time":4198000000000,"state":"active","ping":72},{"user_id":302,"name":"Xylemon","steam_id":76561197965297420,"connected_time":101000000000,"state":"active","ping":53},{"user_id":287,"name":"epic","steam_id":76561198097321881,"connected_time":1518000000000,"state":"active","ping":44},{"user_id":303,"name":"Tasty Lemon","steam_id":76561198021270585,"connected_time":64000000000,"state":"active","ping":45},{"user_id":299,"name":"BMoney","steam_id":76561198799389030,"connected_time":628000000000,"state":"active","ping":61},{"user_id":286,"name":"roody","steam_id":76561198066260405,"connected_time":1572000000000,"state":"active","ping":44},{"user_id":288,"name":"algebraictoast","steam_id":76561198230086812,"connected_time":1505000000000,"state":"active","ping":41},{"user_id":291,"name":"[Smorz] HamletEspacial","steam_id":76561199084414649,"connected_time":1330000000000,"state":"active","ping":81},{"user_id":295,"name":"Phyre112","steam_id":76561198064367510,"connected_time":1283000000000,"state":"active","ping":69},{"user_id":292,"name":"Amazing476","steam_id":76561198103937489,"connected_time":1328000000000,"state":"active","ping":85},{"user_id":272,"name":":^1 Hekken","steam_id":76561198109933577,"connected_time":2342000000000,"state":"active","ping":45},{"user_id":237,"name":"Doctor™","steam_id":76561198134309750,"connected_time":4439000000000,"state":"active","ping":129},{"user_id":296,"name":"mega","steam_id":76561198089520959,"connected_time":1123000000000,"state":"active","ping":97}]},{"server_id":406,"name":"Uncletopia | Seattle | 3 | Stopwatch","name_short":"sea-3","host":"sea-1.us.uncletopia.com","port":27035,"enabled":true,"region":"us-west","cc":"us","latitude":47.608013,"longitude":-122.33517,"reserved":0,"last_update":"0001-01-01T00:00:00Z","name_a2s":"Uncletopia | Seattle | 3 | Stopwatch","protocol":17,"map":"workshop/koth_ashville_final.ugc2130459942","folder":"tf","game":"Team Fortress","app_id":440,"player_count":0,"max_players":24,"Bots":0,"server_type":"Dedicated","server_os":"Linux","password":true,"vac":true,"version":"7961495","steam_id":85568392924515217,"keywords":["cp","nocrits","nodmgspread","uncletopia"],"game_id":440,"stv_port":27036,"stv_name":"Uncletopia | Seattle | 3 | Stopwatch | STV","players":null},{"server_id":17,"name":"Uncletopia | San Francisco | 1 | All Maps","name_short":"sfo-1","host":"sfo-1.us.uncletopia.com","port":27015,"enabled":true,"region":"us-west","cc":"us","latitude":37.77397,"longitude":-122.4313,"reserved":0,"last_update":"0001-01-01T00:00:00Z","name_a2s":"Uncletopia | San Francisco | 1 | All Maps","protocol":17,"map":"pl_upward","folder":"tf","game":"Team Fortress","app_id":440,"player_count":22,"max_players":24,"Bots":0,"server_type":"Dedicated","server_os":"Linux","password":true,"vac":true,"version":"7961495","steam_id":85568392924469999,"keywords":["nocrits","nodmgspread","payload","uncletopia"],"game_id":440,"stv_port":27016,"stv_name":"Uncletopia | San Francisco | 1 | All Maps | STV","players":[{"user_id":200,"name":"Artic_Ryuu","steam_id":76561198182194918,"connected_time":1718000000000,"state":"active","ping":51},{"user_id":215,"name":"uegue","steam_id":76561198254639173,"connected_time":439000000000,"state":"active","ping":90},{"user_id":213,"name":"Soft copper wings","steam_id":76561198092317849,"connected_time":474000000000,"state":"active","ping":54},{"user_id":216,"name":"weed lesbian","steam_id":76561198042263805,"connected_time":419000000000,"state":"active","ping":63},{"user_id":214,"name":"Grimm_Reaper164","steam_id":76561198848333297,"connected_time":472000000000,"state":"active","ping":46},{"user_id":217,"name":"earthDF","steam_id":76561198026084025,"connected_time":401000000000,"state":"active","ping":57},{"user_id":221,"name":"[RC]Mr. PoopyButtHole","steam_id":76561197971794938,"connected_time":197000000000,"state":"active","ping":99},{"user_id":208,"name":"nop","steam_id":76561199119420455,"connected_time":1337000000000,"state":"active","ping":67},{"user_id":225,"name":"G.bo","steam_id":76561198085176270,"connected_time":57000000000,"state":"active","ping":41},{"user_id":202,"name":"CaiGaming","steam_id":76561198313023508,"connected_time":1685000000000,"state":"active","ping":47},{"user_id":224,"name":"uufyfuu","steam_id":76561198142787212,"connected_time":78000000000,"state":"active","ping":85},{"user_id":222,"name":"she pity on my t till i fool","steam_id":76561198986534519,"connected_time":177000000000,"state":"active","ping":62},{"user_id":184,"name":"dewey","steam_id":76561198132791511,"connected_time":4427000000000,"state":"active","ping":51},{"user_id":226,"name":"Urdu","steam_id":76561199132402685,"connected_time":27000000000,"state":"spawning","ping":267},{"user_id":190,"name":"Catgirl Explise","steam_id":76561198044413891,"connected_time":3655000000000,"state":"active","ping":71},{"user_id":195,"name":"› We Are You.j2","steam_id":76561197995242200,"connected_time":2812000000000,"state":"active","ping":40},{"user_id":203,"name":"Wedge Antilles","steam_id":76561198005023811,"connected_time":1658000000000,"state":"active","ping":60},{"user_id":204,"name":"Adderall Admiral","steam_id":76561198034212160,"connected_time":1654000000000,"state":"active","ping":60},{"user_id":69,"name":"-={o.W.n.}=- Dark Murkrow 3","steam_id":76561198174432643,"connected_time":15242000000000,"state":"active","ping":59},{"user_id":206,"name":"c6racing","steam_id":76561198114603745,"connected_time":1509000000000,"state":"active","ping":58},{"user_id":161,"name":"Alcohol Hominid","steam_id":76561198320313950,"connected_time":7471000000000,"state":"active","ping":83},{"user_id":147,"name":"Wick","steam_id":76561198062996360,"connected_time":9721000000000,"state":"active","ping":55}]},{"server_id":18,"name":"Uncletopia | San Francisco | 2 | All Maps","name_short":"sfo-2","host":"sfo-1.us.uncletopia.com","port":27025,"enabled":true,"region":"us-west","cc":"us","latitude":37.77397,"longitude":-122.4313,"reserved":0,"last_update":"0001-01-01T00:00:00Z","name_a2s":"Uncletopia | San Francisco | 2 | All Maps","protocol":17,"map":"cp_altitude","folder":"tf","game":"Team Fortress","app_id":440,"player_count":0,"max_players":24,"Bots":0,"server_type":"Dedicated","server_os":"Linux","password":true,"vac":true,"version":"7961495","steam_id":85568392924470000,"keywords":["cp","nocrits","nodmgspread","uncletopia"],"game_id":440,"stv_port":27026,"stv_name":"Uncletopia | San Francisco | 2 | All Maps | STV","players":null},{"server_id":19,"name":"Uncletopia | San Francisco | 3 | Stopwatch","name_short":"sfo-3","host":"sfo-1.us.uncletopia.com","port":27035,"enabled":true,"region":"us-west","cc":"us","latitude":37.77397,"longitude":-122.4313,"reserved":0,"last_update":"0001-01-01T00:00:00Z","name_a2s":"Uncletopia | San Francisco | 3 | Stopwatch","protocol":17,"map":"workshop/koth_jamram_rc1a.ugc2964065613","folder":"tf","game":"Team Fortress","app_id":440,"player_count":0,"max_players":24,"Bots":0,"server_type":"Dedicated","server_os":"Linux","password":true,"vac":true,"version":"7961495","steam_id":85568392924742824,"keywords":["cp","nocrits","nodmgspread","uncletopia"],"game_id":440,"stv_port":27036,"stv_name":"Uncletopia | San Francisco | 3 | Stopwatch | STV","players":null},{"server_id":20,"name":"Uncletopia | San Francisco | 4 | Community","name_short":"sfo-4","host":"sfo-1.us.uncletopia.com","port":27045,"enabled":true,"region":"us-west","cc":"us","latitude":37.77397,"longitude":-122.4313,"reserved":0,"last_update":"0001-01-01T00:00:00Z","name_a2s":"Uncletopia | San Francisco | 4 | Community","protocol":17,"map":"workshop/pl_cactuscanyon_redux_final2.ugc2579644293","folder":"tf","game":"Team Fortress","app_id":440,"player_count":0,"max_players":24,"Bots":0,"server_type":"Dedicated","server_os":"Linux","password":true,"vac":true,"version":"7961495","steam_id":85568392924742826,"keywords":["nocrits","nodmgspread","payload","uncletopia"],"game_id":440,"stv_port":27046,"stv_name":"Uncletopia | San Francisco | 4 | Community | STV","players":null},{"server_id":141,"name":"Uncletopia | Sydney | 1 | All Maps","name_short":"syd-1","host":"syd-1.au.uncletopia.com","port":27015,"enabled":true,"region":"au","cc":"au","latitude":-33.865143,"longitude":151.2099,"reserved":0,"last_update":"0001-01-01T00:00:00Z","name_a2s":"Uncletopia | Sydney | 1 | All Maps","protocol":17,"map":"pl_upward","folder":"tf","game":"Team Fortress","app_id":440,"player_count":24,"max_players":24,"Bots":0,"server_type":"Dedicated","server_os":"Linux","password":true,"vac":true,"version":"7961495","steam_id":85568392924470001,"keywords":["nocrits","nodmgspread","payload","uncletopia"],"game_id":440,"stv_port":27016,"stv_name":"Uncletopia | Sydney | 1 | All Maps | STV","players":[{"user_id":81,"name":"Livid","steam_id":76561198060024585,"connected_time":3073000000000,"state":"active","ping":33},{"user_id":54,"name":"Qwertles","steam_id":76561198033779273,"connected_time":4710000000000,"state":"active","ping":48},{"user_id":97,"name":"Chooka","steam_id":76561197992307814,"connected_time":1669000000000,"state":"active","ping":65},{"user_id":79,"name":"Mikey","steam_id":76561198438203131,"connected_time":3143000000000,"state":"active","ping":59},{"user_id":113,"name":"Theducktube","steam_id":76561198137265224,"connected_time":37000000000,"state":"active","ping":152},{"user_id":63,"name":"Distilledrain41","steam_id":76561198272717119,"connected_time":3702000000000,"state":"active","ping":46},{"user_id":106,"name":"better safe than Gregory","steam_id":76561198301282416,"connected_time":87000000000,"state":"active","ping":46},{"user_id":82,"name":"man","steam_id":76561198094041769,"connected_time":2992000000000,"state":"active","ping":44},{"user_id":86,"name":"fat tits haver","steam_id":76561198081681647,"connected_time":2274000000000,"state":"active","ping":71},{"user_id":57,"name":"no ones none","steam_id":76561198038536815,"connected_time":4377000000000,"state":"active","ping":46},{"user_id":94,"name":"LightningBlock","steam_id":76561198289997742,"connected_time":1700000000000,"state":"active","ping":23},{"user_id":103,"name":"COLLINSct","steam_id":76561198045395403,"connected_time":946000000000,"state":"active","ping":47},{"user_id":85,"name":"StevenGreenOnline64","steam_id":76561198058512735,"connected_time":2304000000000,"state":"active","ping":44},{"user_id":62,"name":"homes inc","steam_id":76561198170188198,"connected_time":3923000000000,"state":"active","ping":50},{"user_id":110,"name":"cas ganister + water","steam_id":76561198879023728,"connected_time":71000000000,"state":"active","ping":74},{"user_id":67,"name":"Swell","steam_id":76561198219336768,"connected_time":3655000000000,"state":"active","ping":49},{"user_id":114,"name":"reginald spoingus jr.","steam_id":76561198079351541,"connected_time":10000000000,"state":"spawning","ping":55},{"user_id":40,"name":"Tantei Rotana","steam_id":76561198041204323,"connected_time":5302000000000,"state":"active","ping":61},{"user_id":60,"name":"Pompadouraus","steam_id":76561198327530525,"connected_time":4239000000000,"state":"active","ping":75},{"user_id":101,"name":"_ChickenSpringRoll","steam_id":76561198860546559,"connected_time":977000000000,"state":"active","ping":60},{"user_id":68,"name":"Trex988","steam_id":76561198147725676,"connected_time":3643000000000,"state":"active","ping":60},{"user_id":104,"name":"Comic Sans G","steam_id":76561198036184916,"connected_time":213000000000,"state":"active","ping":60},{"user_id":89,"name":"UncleManBun","steam_id":76561199235832391,"connected_time":1995000000000,"state":"active","ping":49},{"user_id":109,"name":"webbadon, the horrid ᘛ⁐̤\ufffd\ufffd","steam_id":76561198061998379,"connected_time":86000000000,"state":"active","ping":42}]},{"server_id":123,"name":"Uncletopia | Sydney | 2 | All Maps","name_short":"syd-2","host":"syd-1.au.uncletopia.com","port":27025,"enabled":true,"region":"au","cc":"au","latitude":-33.865143,"longitude":151.2099,"reserved":0,"last_update":"0001-01-01T00:00:00Z","name_a2s":"Uncletopia | Sydney | 2 | All Maps","protocol":17,"map":"pl_snowycoast","folder":"tf","game":"Team Fortress","app_id":440,"player_count":1,"max_players":24,"Bots":0,"server_type":"Dedicated","server_os":"Linux","password":true,"vac":true,"version":"7961495","steam_id":85568392924470002,"keywords":["nocrits","nodmgspread","payload","uncletopia"],"game_id":440,"stv_port":27026,"stv_name":"Uncletopia | Sydney | 2 | All Maps | STV","players":[{"user_id":10,"name":"Luigi3257","steam_id":76561198282882729,"connected_time":19000000000,"state":"spawning","ping":149}]},{"server_id":395,"name":"Uncletopia | Sydney | 3 | All Maps","name_short":"syd-3","host":"syd-1.au.uncletopia.com","port":27035,"enabled":true,"region":"au","cc":"au","latitude":-33.865143,"longitude":151.2099,"reserved":0,"last_update":"0001-01-01T00:00:00Z","name_a2s":"Uncletopia | Sydney | 3 | All Maps","protocol":17,"map":"cp_metalworks","folder":"tf","game":"Team Fortress","app_id":440,"player_count":0,"max_players":24,"Bots":0,"server_type":"Dedicated","server_os":"Linux","password":true,"vac":true,"version":"7961495","steam_id":85568392925194467,"keywords":["cp","nocrits","nodmgspread","uncletopia"],"game_id":440,"stv_port":27036,"stv_name":"Uncletopia | Sydney | 3 | All Maps | STV","players":null},{"server_id":396,"name":"Uncletopia | Sydney | 4 | All Maps","name_short":"syd-4","host":"syd-1.au.uncletopia.com","port":27045,"enabled":true,"region":"au","cc":"au","latitude":-33.865143,"longitude":151.2099,"reserved":0,"last_update":"0001-01-01T00:00:00Z","name_a2s":"Uncletopia | Sydney | 4 | All Maps","protocol":17,"map":"koth_cascade","folder":"tf","game":"Team Fortress","app_id":440,"player_count":0,"max_players":24,"Bots":0,"server_type":"Dedicated","server_os":"Linux","password":true,"vac":true,"version":"7961495","steam_id":85568392925397958,"keywords":["cp","nocrits","nodmgspread","uncletopia"],"game_id":440,"stv_port":27046,"stv_name":"Uncletopia | Sydney | 4 | All Maps | STV","players":null},{"server_id":58,"name":"Uncletopia | Sydney | 5 | Stopwatch","name_short":"syd-5","host":"syd-1.au.uncletopia.com","port":27055,"enabled":true,"region":"au","cc":"au","latitude":-33.865143,"longitude":151.2099,"reserved":0,"last_update":"0001-01-01T00:00:00Z","name_a2s":"Uncletopia | Sydney | 5 | Stopwatch","protocol":17,"map":"workshop/koth_product_final.ugc454272353","folder":"tf","game":"Team Fortress","app_id":440,"player_count":0,"max_players":24,"Bots":0,"server_type":"Dedicated","server_os":"Linux","password":true,"vac":true,"version":"7961495","steam_id":85568392925397959,"keywords":["cp","nocrits","nodmgspread","uncletopia"],"game_id":440,"stv_port":27056,"stv_name":"Uncletopia | Sydney | 5 | Stopwatch | STV","players":null},{"server_id":59,"name":"Uncletopia | Sydney | 6 | Community","name_short":"syd-6","host":"syd-1.au.uncletopia.com","port":27065,"enabled":true,"region":"au","cc":"au","latitude":-33.865143,"longitude":151.2099,"reserved":0,"last_update":"0001-01-01T00:00:00Z","name_a2s":"Uncletopia | Sydney | 6 | Community","protocol":17,"map":"workshop/koth_trenchfoot_ab1.ugc731436616","folder":"tf","game":"Team Fortress","app_id":440,"player_count":0,"max_players":24,"Bots":0,"server_type":"Dedicated","server_os":"Linux","password":true,"vac":true,"version":"7961495","steam_id":85568392925397960,"keywords":["cp","nocrits","nodmgspread","uncletopia"],"game_id":440,"stv_port":27066,"stv_name":"Uncletopia | Sydney | 6 | Community | STV","players":null},{"server_id":49,"name":"Uncletopia | Warsaw | 1 | One Thousand Uncles","name_short":"waw-1","host":"waw-1.pl.uncletopia.com","port":27015,"enabled":true,"region":"eu","cc":"pl","latitude":52.2297,"longitude":21.017532,"reserved":0,"last_update":"0001-01-01T00:00:00Z","name_a2s":"Uncletopia | Warsaw | 1 | One Thousand Uncles","protocol":17,"map":"cp_mercenarypark","folder":"tf","game":"Team Fortress","app_id":440,"player_count":0,"max_players":32,"Bots":0,"server_type":"Dedicated","server_os":"Linux","password":true,"vac":true,"version":"7961495","steam_id":85568392925397850,"keywords":["alltalk","cp","danepve","increased_maxplayers","norespawntime","uncletopia"],"game_id":440,"stv_port":0,"stv_name":"","players":null},{"server_id":50,"name":"Uncletopia | Warsaw | 2 | One Thousand Uncles","name_short":"waw-2","host":"waw-1.pl.uncletopia.com","port":27025,"enabled":true,"region":"eu","cc":"pl","latitude":52.2297,"longitude":21.017532,"reserved":0,"last_update":"0001-01-01T00:00:00Z","name_a2s":"Uncletopia | Warsaw | 2 | One Thousand Uncles","protocol":17,"map":"cp_egypt_final","folder":"tf","game":"Team Fortress","app_id":440,"player_count":0,"max_players":32,"Bots":0,"server_type":"Dedicated","server_os":"Linux","password":true,"vac":true,"version":"7961495","steam_id":85568392925397851,"keywords":["alltalk","cp","danepve","increased_maxplayers","norespawntime","uncletopia"],"game_id":440,"stv_port":0,"stv_name":"","players":null},{"server_id":51,"name":"Uncletopia | Warsaw | 3 | All Maps","name_short":"waw-3","host":"waw-1.pl.uncletopia.com","port":27035,"enabled":true,"region":"eu","cc":"pl","latitude":52.2297,"longitude":21.017532,"reserved":0,"last_update":"0001-01-01T00:00:00Z","name_a2s":"Uncletopia | Warsaw | 3 | All Maps","protocol":17,"map":"pl_snowycoast","folder":"tf","game":"Team Fortress","app_id":440,"player_count":0,"max_players":24,"Bots":0,"server_type":"Dedicated","server_os":"Linux","password":true,"vac":true,"version":"7961495","steam_id":85568392925397852,"keywords":["nocrits","nodmgspread","payload","uncletopia"],"game_id":440,"stv_port":27036,"stv_name":"Uncletopia | Warsaw | 3 | All Maps | STV","players":null},{"server_id":52,"name":"Uncletopia | Warsaw | 4 | All Maps","name_short":"waw-4","host":"waw-1.pl.uncletopia.com","port":27045,"enabled":true,"region":"eu","cc":"pl","latitude":52.2297,"longitude":21.017532,"reserved":0,"last_update":"0001-01-01T00:00:00Z","name_a2s":"Uncletopia | Warsaw | 4 | All Maps","protocol":17,"map":"cp_fastlane","folder":"tf","game":"Team Fortress","app_id":440,"player_count":0,"max_players":24,"Bots":0,"server_type":"Dedicated","server_os":"Linux","password":true,"vac":true,"version":"7961495","steam_id":85568392925397853,"keywords":["cp","nocrits","nodmgspread","uncletopia"],"game_id":440,"stv_port":27046,"stv_name":"Uncletopia | Warsaw | 4 | All Maps | STV","players":null},{"server_id":53,"name":"Uncletopia | Warsaw | 5 | Stopwatch","name_short":"waw-5","host":"waw-1.pl.uncletopia.com","port":27055,"enabled":true,"region":"eu","cc":"pl","latitude":52.2297,"longitude":21.017532,"reserved":0,"last_update":"0001-01-01T00:00:00Z","name_a2s":"Uncletopia | Warsaw | 5 | Stopwatch","protocol":17,"map":"cp_gullywash_final1","folder":"tf","game":"Team Fortress","app_id":440,"player_count":0,"max_players":24,"Bots":0,"server_type":"Dedicated","server_os":"Linux","password":true,"vac":true,"version":"7961495","steam_id":85568392925397854,"keywords":["cp","nocrits","nodmgspread","uncletopia"],"game_id":440,"stv_port":27056,"stv_name":"Uncletopia | Warsaw | 5 | Stopwatch | STV","players":null},{"server_id":54,"name":"Uncletopia | Warsaw | 6 | Community","name_short":"waw-6","host":"waw-1.pl.uncletopia.com","port":27065,"enabled":true,"region":"eu","cc":"pl","latitude":52.2297,"longitude":21.017532,"reserved":0,"last_update":"0001-01-01T00:00:00Z","name_a2s":"Uncletopia | Warsaw | 6 | Community","protocol":17,"map":"workshop/cp_fulgur_rc2a.ugc2068252300","folder":"tf","game":"Team Fortress","app_id":440,"player_count":0,"max_players":24,"Bots":0,"server_type":"Dedicated","server_os":"Linux","password":true,"vac":true,"version":"7961495","steam_id":85568392925397856,"keywords":["cp","nocrits","nodmgspread","uncletopia"],"game_id":440,"stv_port":27066,"stv_name":"Uncletopia | Warsaw | 6 | Community | STV","players":null}]}