{"status":true,"message":"","result":[{"server_id":9,"name":"Uncletopia | Atlanta | 1 | All Maps","name_short":"atl-1","host":"atl-1.us.uncletopia.com","port":27015,"enabled":true,"region":"us-east","cc":"us","latitude":33.753746,"longitude":-84.38633,"reserved":0,"last_update":"0001-01-01T00:00:00Z","name_a2s":"Uncletopia | Atlanta | 1 | All Maps","protocol":17,"map":"pl_barnblitz","folder":"tf","game":"Team Fortress","app_id":440,"player_count":24,"max_players":24,"Bots":0,"server_type":"Dedicated","server_os":"Linux","password":true,"vac":true,"version":"7961495","steam_id":85568392924469982,"keywords":["nocrits","nodmgspread","payload","uncletopia"],"game_id":440,"stv_port":27016,"stv_name":"Uncletopia | Atlanta | 1 | All Maps | STV","players":[{"user_id":137,"name":"Im High","steam_id":76561198049954886,"connected_time":1189000000000,"state":"active","ping":71},{"user_id":127,"name":"--_Cook_--","steam_id":76561198080855748,"connected_time":2200000000000,"state":"active","ping":62},{"user_id":118,"name":"Obelisk","steam_id":76561198049416866,"connected_time":2873000000000,"state":"active","ping":48},{"user_id":112,"name":"Intro Bonito","steam_id":76561198119478838,"connected_time":4172000000000,"state":"active","ping":46},{"user_id":136,"name":"hayes","steam_id":76561198057101042,"connected_time":1196000000000,"state":"active","ping":68},{"user_id":100,"name":"Thotimus Begonimus","steam_id":76561197970275938,"connected_time":5014000000000,"state":"active","ping":44},{"user_id":125,"name":"Trenbolone Acetate","steam_id":76561198353869378,"connected_time":2382000000000,"state":"active","ping":94},{"user_id":142,"name":"Heathcliff","steam_id":76561198044288534,"connected_time":1041000000000,"state":"active","ping":60},{"user_id":122,"name":"Sergeant Snowflake","steam_id":76561198041474489,"connected_time":2838000000000,"state":"active","ping":73},{"user_id":132,"name":"Hyper","steam_id":76561199102864718,"connected_time":1510000000000,"state":"active","ping":73},{"user_id":135,"name":"Zeetch","steam_id":76561198110579765,"connected_time":1200000000000,"state":"active","ping":75},{"user_id":62,"name":"lil hog","steam_id":76561199230929836,"connected_time":8895000000000,"state":"active","ping":91},{"user_id":22,"name":"Carl, Good to see you","steam_id":76561198070574075,"connected_time":10621000000000,"state":"active","ping":45},{"user_id":74,"name":"Ashes!","steam_id":76561197998475441,"connected_time":8340000000000,"state":"active","ping":69},{"user_id":97,"name":"lynt","steam_id":76561198988333976,"connected_time":5452000000000,"state":"active","ping":45},{"user_id":138,"name":"jpuck","steam_id":76561198025018960,"connected_time":1179000000000,"state":"active","ping":46},{"user_id":147,"name":"HeadOfB.O.XNews","steam_id":76561198823322405,"connected_time":20000000000,"state":"spawning","ping":59},{"user_id":145,"name":"Aviyarn","steam_id":76561199074194652,"connected_time":828000000000,"state":"active","ping":71},{"user_id":144,"name":"Electroid","steam_id":76561199092263960,"connected_time":1008000000000,"state":"active","ping":47},{"user_id":116,"name":"Chimpish","steam_id":76561199263493270,"connected_time":3890000000000,"state":"active","ping":66},{"user_id":141,"name":"Albino Jellyfish","steam_id":76561198208561097,"connected_time":1077000000000,"state":"active","ping":59},{"user_id":146,"name":"YourFriendJessie *REAL*","steam_id":76561198176883097,"connected_time":404000000000,"state":"active","ping":84},{"user_id":134,"name":"Sucsubot","steam_id":76561198106456128,"connected_time":1488000000000,"state":"active","ping":54},{"user_id":121,"name":"☦ Crazee Orthodox Possum ☦","steam_id":76561198079018805,"connected_time":2858000000000,"state":"active","ping":75}]},{"server_id":104,"name":"Uncletopia | Atlanta | 2 | All Maps","name_short":"atl-2","host":"atl-1.us.uncletopia.com","port":27025,"enabled":true,"region":"us-east","cc":"us","latitude":33.753746,"longitude":-84.38633,"reserved":0,"last_update":"0001-01-01T00:00:00Z","name_a2s":"Uncletopia | Atlanta | 2 | All Maps","protocol":17,"map":"pl_upward","folder":"tf","game":"Team Fortress","app_id":440,"player_count":24,"max_players":24,"Bots":0,"server_type":"Dedicated","server_os":"Linux","password":true,"vac":true,"version":"7961495","steam_id":85568392924469983,"keywords":["nocrits","nodmgspread","payload","uncletopia"],"game_id":440,"stv_port":27026,"stv_name":"Uncletopia | Atlanta | 2 | All Maps | STV","players":[{"user_id":6,"name":"DRWILDMAN","steam_id":76561199098369850,"connected_time":3013000000000,"state":"active","ping":44},{"user_id":53,"name":"walrus","steam_id":76561198057853319,"connected_time":14000000000,"state":"spawning","ping":61},{"user_id":51,"name":"Steak-Pocketer","steam_id":76561198277651410,"connected_time":591000000000,"state":"active","ping":45},{"user_id":37,"name":"JJ","steam_id":76561198115405064,"connected_time":1277000000000,"state":"active","ping":61},{"user_id":49,"name":"Chris Duo","steam_id":76561198312765677,"connected_time":918000000000,"state":"active","ping":52},{"user_id":21,"name":"DMM","steam_id":76561198065426171,"connected_time":1720000000000,"state":"active","ping":62},{"user_id":14,"name":"Bomb Squirtle™","steam_id":76561197998931145,"connected_time":2051000000000,"state":"active","ping":77},{"user_id":29,"name":"daemon","steam_id":76561198001541433,"connected_time":1440000000000,"state":"active","ping":79},{"user_id":30,"name":"Scarecrow","steam_id":76561198045870511,"connected_time":1424000000000,"state":"active","ping":64},{"user_id":19,"name":"cumgoblin","steam_id":76561198113270138,"connected_time":1869000000000,"state":"active","ping":56},{"user_id":40,"name":"_GOOSE","steam_id":76561198013747901,"connected_time":1187000000000,"state":"active","ping":54},{"user_id":31,"name":"zod","steam_id":76561198071374501,"connected_time":1416000000000,"state":"active","ping":54},{"user_id":38,"name":"princess fern \u003c3333","steam_id":76561198881792140,"connected_time":1229000000000,"state":"active","ping":61},{"user_id":28,"name":"000000","steam_id":76561198100942212,"connected_time":1519000000000,"state":"active","ping":60},{"user_id":25,"name":"short bus enthusiast","steam_id":76561198069380992,"connected_time":1610000000000,"state":"active","ping":71},{"user_id":44,"name":"the munch","steam_id":76561199164347838,"connected_time":1090000000000,"state":"active","ping":84},{"user_id":50,"name":"VioletSpecs (She/Her)","steam_id":76561198089366466,"connected_time":885000000000,"state":"active","ping":72},{"user_id":34,"name":"lilac brooch...","steam_id":76561198333718916,"connected_time":1339000000000,"state":"active","ping":53},{"user_id":39,"name":"Hiro","steam_id":76561198103601761,"connected_time":1199000000000,"state":"active","ping":60},{"user_id":41,"name":"Hi, I'm Jesus","steam_id":76561198015327152,"connected_time":1157000000000,"state":"active","ping":49},{"user_id":42,"name":"goblin","steam_id":76561199004451589,"connected_time":1149000000000,"state":"active","ping":68},{"user_id":45,"name":"fish","steam_id":76561198054070811,"connected_time":1064000000000,"state":"active","ping":108},{"user_id":46,"name":"Kyrisuu","steam_id":76561198362711064,"connected_time":1063000000000,"state":"active","ping":112},{"user_id":47,"name":"the keebler","steam_id":76561199486326945,"connected_time":1052000000000,"state":"active","ping":67}]},{"server_id":400,"name":"Uncletopia | Atlanta | 3 | Stopwatch","name_short":"atl-3","host":"atl-1.us.uncletopia.com","port":27035,"enabled":true,"region":"us-east","cc":"us","latitude":33.753746,"longitude":-84.38633,"reserved":0,"last_update":"0001-01-01T00:00:00Z","name_a2s":"Uncletopia | Atlanta | 3 | Stopwatch","protocol":17,"map":"pl_swiftwater_final1","folder":"tf","game":"Team Fortress","app_id":440,"player_count":9,"max_players":24,"Bots":0,"server_type":"Dedicated","server_os":"Linux","password":true,"vac":true,"version":"7961495","steam_id":85568392924515187,"keywords":["nocrits","nodmgspread","payload","uncletopia"],"game_id":440,"stv_port":27036,"stv_name":"Uncletopia | Atlanta | 3 | Stopwatch | STV","players":[{"user_id":22,"name":"werg","steam_id":76561198335242836,"connected_time":1906000000000,"state":"active","ping":77},{"user_id":14,"name":"Artixes","steam_id":76561198379574232,"connected_time":2495000000000,"state":"active","ping":43},{"user_id":23,"name":"Maple","steam_id":76561198439657830,"connected_time":1444000000000,"state":"active","ping":43},{"user_id":20,"name":"Capybara Enjoyer","steam_id":76561199147114434,"connected_time":2058000000000,"state":"active","ping":94},{"user_id":25,"name":"Jesus Burgess","steam_id":76561199343316814,"connected_time":970000000000,"state":"active","ping":45},{"user_id":26,"name":"PyroTechno","steam_id":76561198060929872,"connected_time":379000000000,"state":"active","ping":31},{"user_id":28,"name":"name420","steam_id":76561198129374525,"connected_time":118000000000,"state":"active","ping":45},{"user_id":29,"name":"Boingo","steam_id":76561199086931535,"connected_time":94000000000,"state":"active","ping":59},{"user_id":30,"name":"RokkitFrog","steam_id":76561198046465850,"connected_time":77000000000,"state":"active","ping":60}]},{"server_id":401,"name":"Uncletopia | Atlanta | 4 | Community","name_short":"atl-4","host":"atl-1.us.uncletopia.com","port":27045,"enabled":true,"region":"us-east","cc":"us","latitude":33.753746,"longitude":-84.38633,"reserved":0,"last_update":"0001-01-01T00:00:00Z","name_a2s":"Uncletopia | Atlanta | 4 | Community","protocol":17,"map":"workshop/cp_bruhstbowl_b6.ugc2878604990","folder":"tf","game":"Team Fortress","app_id":440,"player_count":0,"max_players":24,"Bots":0,"server_type":"Dedicated","server_os":"Linux","password":true,"vac":true,"version":"7961495","steam_id":85568392924515188,"keywords":["cp","nocrits","nodmgspread","uncletopia"],"game_id":440,"stv_port":27046,"stv_name":"Uncletopia | Atlanta | 4 | Community | STV","players":null},{"server_id":2,"name":"Uncletopia | Chicago | 1 | All Maps","name_short":"chi-1","host":"chi-1.us.uncletopia.com","port":27015,"enabled":true,"region":"us-central","cc":"us","latitude":41.881832,"longitude":-87.62318,"reserved":0,"last_update":"0001-01-01T00:00:00Z","name_a2s":"Uncletopia | Chicago | 1 | All Maps","protocol":17,"map":"pl_upward","folder":"tf","game":"Team Fortress","app_id":440,"player_count":23,"max_players":24,"Bots":0,"server_type":"Dedicated","server_os":"Linux","password":true,"vac":true,"version":"7961495","steam_id":85568392924469984,"keywords":["nocrits","nodmgspread","payload","uncletopia"],"game_id":440,"stv_port":27016,"stv_name":"Uncletopia | Chicago | 1 | All Maps | STV","players":[{"user_id":259,"name":"tf2 sentry manual mukbang","steam_id":76561198263314693,"connected_time":632000000000,"state":"active","ping":60},{"user_id":253,"name":"Ditto","steam_id":76561198259871363,"connected_time":1444000000000,"state":"active","ping":96},{"user_id":255,"name":"Orange Triangle","steam_id":76561198320498182,"connected_time":769000000000,"state":"active","ping":40},{"user_id":245,"name":"draavtizs","steam_id":76561199101200994,"connected_time":1546000000000,"state":"active","ping":40},{"user_id":262,"name":"Nestor","steam_id":76561198070782619,"connected_time":54000000000,"state":"active","ping":50},{"user_id":171,"name":"richard clock","steam_id":76561198048455671,"connected_time":7219000000000,"state":"active","ping":50},{"user_id":226,"name":"Great Malenko","steam_id":76561199193786567,"connected_time":3352000000000,"state":"spawning","ping":73},{"user_id":257,"name":"general.b","steam_id":76561198162480519,"connected_time":726000000000,"state":"active","ping":53},{"user_id":231,"name":"Cam","steam_id":76561198139174433,"connected_time":3211000000000,"state":"active","ping":83},{"user_id":234,"name":"Dareu","steam_id":76561198081781710,"connected_time":2879000000000,"state":"active","ping":64},{"user_id":242,"name":"Jango","steam_id":76561198084589742,"connected_time":1768000000000,"state":"active","ping":81},{"user_id":261,"name":"Just a BLU Toon","steam_id":76561198273199771,"connected_time":596000000000,"state":"active","ping":73},{"user_id":201,"name":"goldenfish","steam_id":76561199473648568,"connected_time":4910000000000,"state":"active","ping":63},{"user_id":229,"name":"eloressa","steam_id":76561198120330867,"connected_time":3242000000000,"state":"active","ping":55},{"user_id":263,"name":"Pongallow","steam_id":76561198146876078,"connected_time":38000000000,"state":"active","ping":45},{"user_id":243,"name":"pHsHy","steam_id":76561198013195018,"connected_time":1761000000000,"state":"active","ping":75},{"user_id":241,"name":"troll","steam_id":76561198082680563,"connected_time":1991000000000,"state":"active","ping":45},{"user_id":225,"name":"JAKandBEL","steam_id":76561198213060931,"connected_time":3363000000000,"state":"active","ping":47},{"user_id":264,"name":"slasher4713","steam_id":76561199033532858,"connected_time":20000000000,"state":"active","ping":46},{"user_id":244,"name":"tydogzilla","steam_id":76561198054254518,"connected_time":1660000000000,"state":"active","ping":61},{"user_id":258,"name":"kINgKrOoLFoOTjOB.mp4","steam_id":76561198068654532,"connected_time":674000000000,"state":"active","ping":110},{"user_id":252,"name":"Limp Pumpo Discography Fan Club","steam_id":76561198145748479,"connected_time":1475000000000,"state":"active","ping":81},{"user_id":199,"name":"bluefly (Add if AFK)","steam_id":76561198383113602,"connected_time":5237000000000,"state":"active","ping":89}]},{"server_id":106,"name":"Uncletopia | Chicago | 2 | All Maps","name_short":"chi-2","host":"chi-1.us.uncletopia.com","port":27025,"enabled":true,"region":"us-central","cc":"us","latitude":41.881832,"longitude":-87.62318,"reserved":0,"last_update":"0001-01-01T00:00:00Z","name_a2s":"Uncletopia | Chicago | 2 | All Maps","protocol":17,"map":"cp_snakewater_final1","folder":"tf","game":"Team Fortress","app_id":440,"player_count":22,"max_players":24,"Bots":0,"server_type":"Dedicated","server_os":"Linux","password":true,"vac":true,"version":"7961495","steam_id":85568392924469985,"keywords":["cp","nocrits","nodmgspread","uncletopia"],"game_id":440,"stv_port":27026,"stv_name":"Uncletopia | Chicago | 2 | All Maps | STV","players":[{"user_id":132,"name":"Lv3 Kobold Shadow Sorcerer","steam_id":76561198042068995,"connected_time":74000000000,"state":"active","ping":88},{"user_id":119,"name":"Gene Takovic","steam_id":76561198881039861,"connected_time":1845000000000,"state":"active","ping":55},{"user_id":126,"name":"friendofdorothy","steam_id":76561199014888603,"connected_time":1034000000000,"state":"active","ping":69},{"user_id":129,"name":"King","steam_id":76561198039763676,"connected_time":572000000000,"state":"active","ping":66},{"user_id":130,"name":"Tobo","steam_id":76561198085846393,"connected_time":521000000000,"state":"active","ping":75},{"user_id":95,"name":"subdromeda","steam_id":76561198884351860,"connected_time":3771000000000,"state":"active","ping":61},{"user_id":133,"name":"2fort feboy #187","steam_id":76561199507702496,"connected_time":69000000000,"state":"active","ping":58},{"user_id":87,"name":"Tony Slark","steam_id":76561198151256410,"connected_time":5321000000000,"state":"active","ping":135},{"user_id":61,"name":"mrappledumb","steam_id":76561199133590774,"connected_time":7109000000000,"state":"active","ping":59},{"user_id":124,"name":"Roxii :3","steam_id":76561198799922000,"connected_time":1477000000000,"state":"active","ping":76},{"user_id":134,"name":"leumas","steam_id":76561198240408540,"connected_time":45000000000,"state":"active","ping":72},{"user_id":106,"name":"Butthole Cafeteria","steam_id":76561197986078333,"connected_time":2985000000000,"state":"active","ping":67},{"user_id":80,"name":"Captain Slow","steam_id":76561198116957161,"connected_time":5709000000000,"state":"active","ping":55},{"user_id":135,"name":"astrobob911","steam_id":76561199099110654,"connected_time":36000000000,"state":"active","ping":59},{"user_id":94,"name":"GuyGoom","steam_id":76561198254522178,"connected_time":4730000000000,"state":"active","ping":61},{"user_id":137,"name":"Always Here for You","steam_id":76561198219252313,"connected_time":30000000000,"state":"active","ping":78},{"user_id":115,"name":"soltuno","steam_id":76561198074430565,"connected_time":2301000000000,"state":"active","ping":102},{"user_id":76,"name":"VisciousPotato","steam_id":76561198992859414,"connected_time":5843000000000,"state":"active","ping":90},{"user_id":92,"name":"YeeterSkeeter","steam_id":76561198015380933,"connected_time":5201000000000,"state":"active","ping":130},{"user_id":138,"name":"DualiTea","steam_id":76561198081733870,"connected_time":10000000000,"state":"spawning","ping":46},{"user_id":139,"name":"mm","steam_id":76561198841559088,"connected_time":1000000000,"state":"spawning","ping":34},{"user_id":123,"name":"Major Woody","steam_id":76561198835541533,"connected_time":1563000000000,"state":"active","ping":76}]},{"server_id":402,"name":"Uncletopia | Chicago | 3 | All Maps","name_short":"chi-3","host":"chi-1.us.uncletopia.com","port":27035,"enabled":true,"region":"us-central","cc":"us","latitude":41.881832,"longitude":-87.62318,"reserved":0,"last_update":"0001-01-01T00:00:00Z","name_a2s":"Uncletopia | Chicago | 3 | All Maps","protocol":17,"map":"plr_pipeline","folder":"tf","game":"Team Fortress","app_id":440,"player_count":0,"max_players":24,"Bots":0,"server_type":"Dedicated","server_os":"Linux","password":true,"vac":true,"version":"7961495","steam_id":85568392924515191,"keywords":["nocrits","nodmgspread","payload","uncletopia"],"game_id":440,"stv_port":27036,"stv_name":"Uncletopia | Chicago | 3 | All Maps | STV","players":null},{"server_id":403,"name":"Uncletopia | Chicago | 4 | All Maps","name_short":"chi-4","host":"chi-1.us.uncletopia.com","port":27045,"enabled":true,"region":"us-central","cc":"us","latitude":41.881832,"longitude":-87.62318,"reserved":0,"last_update":"0001-01-01T00:00:00Z","name_a2s":"Uncletopia | Chicago | 4 | All Maps","protocol":17,"map":"cp_sunshine","folder":"tf","game":"Team Fortress","app_id":440,"player_count":8,"max_players":24,"Bots":0,"server_type":"Dedicated","server_os":"Linux","password":true,"vac":true,"version":"7961495","steam_id":85568392924515193,"keywords":["cp","nocrits","nodmgspread","uncletopia"],"game_id":440,"stv_port":27046,"stv_name":"Uncletopia | Chicago | 4 | All Maps | STV","players":[{"user_id":5,"name":"Mikeera","steam_id":76561198392453186,"connected_time":2285000000000,"state":"active","ping":62},{"user_id":26,"name":"Jade Greenleaf","steam_id":76561198304845413,"connected_time":314000000000,"state":"active","ping":59},{"user_id":27,"name":"Shame","steam_id":76561198100490994,"connected_time":233000000000,"state":"active","ping":61},{"user_id":28,"name":"Wildslender21","steam_id":76561198313204812,"connected_time":203000000000,"state":"active","ping":60},{"user_id":9,"name":"Natasha Abuser","steam_id":76561198054072665,"connected_time":1757000000000,"state":"active","ping":74},{"user_id":11,"name":"I'mWalkerHere","steam_id":76561199310055450,"connected_time":1649000000000,"state":"active","ping":74},{"user_id":29,"name":"Big_Beans888","steam_id":76561198100822287,"connected_time":192000000000,"state":"active","ping":92},{"user_id":30,"name":"w a l k  q u i e t","steam_id":76561198143453873,"connected_time":191000000000,"state":"active","ping":48}]},{"server_id":36,"name":"Uncletopia | Chicago | 5 | All Maps","name_short":"chi-5","host":"chi-2.us.uncletopia.com","port":27015,"enabled":true,"region":"us-central","cc":"us","latitude":41.881832,"longitude":-87.62318,"reserved":0,"last_update":"0001-01-01T00:00:00Z","name_a2s":"Uncletopia | Chicago | 5 | All Maps","protocol":17,"map":"koth_cascade","folder":"tf","game":"Team Fortress","app_id":440,"player_count":0,"max_players":24,"Bots":0,"server_type":"Dedicated","server_os":"Linux","password":true,"vac":true,"version":"7961495","steam_id":85568392924866362,"keywords":["cp","nocrits","nodmgspread","uncletopia"],"game_id":440,"stv_port":27016,"stv_name":"Uncletopia | Chicago | 5 | All Maps | STV","players":null},{"server_id":37,"name":"Uncletopia | Chicago | 6 | All Maps","name_short":"chi-6","host":"chi-2.us.uncletopia.com","port":27025,"enabled":true,"region":"us-central","cc":"us","latitude":41.881832,"longitude":-87.62318,"reserved":0,"last_update":"0001-01-01T00:00:00Z","name_a2s":"Uncletopia | Chicago | 6 | All Maps","protocol":17,"map":"koth_viaduct","folder":"tf","game":"Team Fortress","app_id":440,"player_count":0,"max_players":24,"Bots":0,"server_type":"Dedicated","server_os":"Linux","password":true,"vac":true,"version":"7961495","steam_id":85568392924866363,"keywords":["cp","nocrits","nodmgspread","uncletopia"],"game_id":440,"stv_port":27026,"stv_name":"Uncletopia | Chicago | 6 | All Maps | STV","players":null},{"server_id":38,"name":"Uncletopia | Chicago | 7 | Stopwatch","name_short":"chi-7","host":"chi-2.us.uncletopia.com","port":27035,"enabled":true,"region":"us-central","cc":"us","latitude":41.881832,"longitude":-87.62318,"reserved":0,"last_update":"0001-01-01T00:00:00Z","name_a2s":"Uncletopia | Chicago | 7 | Stopwatch","protocol":17,"map":"cp_snakewater_final1","folder":"tf","game":"Team Fortress","app_id":440,"player_count":0,"max_players":24,"Bots":0,"server_type":"Dedicated","server_os":"Linux","password":true,"vac":true,"version":"7961495","steam_id":85568392924866364,"keywords":["cp","nocrits","nodmgspread","uncletopia"],"game_id":440,"stv_port":27036,"stv_name":"Uncletopia | Chicago | 7 | Stopwatch | STV","players":null},{"server_id":39,"name":"Uncletopia | Chicago | 8 | Community","name_short":"chi-8","host":"chi-2.us.uncletopia.com","port":27045,"enabled":true,"region":"us-central","cc":"us","latitude":41.881832,"longitude":-87.62318,"reserved":0,"last_update":"0001-01-01T00:00:00Z","name_a2s":"Uncletopia | Chicago | 8 | Community","protocol":17,"map":"workshop/koth_slaughter_rc1.ugc1712845210","folder":"tf","game":"Team Fortress","app_id":440,"player_count":0,"max_players":24,"Bots":0,"server_type":"Dedicated","server_os":"Linux","password":true,"vac":true,"version":"7961495","steam_id":85568392924866365,"keywords":["cp","nocrits","nodmgspread","uncletopia"],"game_id":440,"stv_port":27046,"stv_name":"Uncletopia | Chicago | 8 | Community | STV","players":null},{"server_id":8,"name":"Uncletopia | Dallas | 1 | All Maps","name_short":"dal-1","host":"dal-1.us.uncletopia.com","port":27015,"enabled":true,"region":"us-central","cc":"us","latitude":32.779167,"longitude":-96.80889,"reserved":0,"last_update":"0001-01-01T00:00:00Z","name_a2s":"Uncletopia | Dallas | 1 | All Maps","protocol":17,"map":"pl_snowycoast","folder":"tf","game":"Team Fortress","app_id":440,"player_count":0,"max_players":24,"Bots":0,"server_type":"Dedicated","server_os":"Linux","password":true,"vac":true,"version":"7961495","steam_id":85568392924469986,"keywords":["nocrits","nodmgspread","payload","uncletopia"],"game_id":440,"stv_port":27016,"stv_name":"Uncletopia | Dallas | 1 | All Maps | STV","players":null},{"server_id":108,"name":"Uncletopia | Dallas | 2 | All Maps","name_short":"dal-2","host":"dal-1.us.uncletopia.com","port":27025,"enabled":true,"region":"us-central","cc":"us","latitude":32.779167,"longitude":-96.80889,"reserved":0,"last_update":"0001-01-01T00:00:00Z","name_a2s":"Uncletopia | Dallas | 2 | All Maps","protocol":17,"map":"pl_snowycoast","folder":"tf","game":"Team Fortress","app_id":440,"player_count":0,"max_players":24,"Bots":0,"server_type":"Dedicated","server_os":"Linux","password":true,"vac":true,"version":"7961495","steam_id":85568392924469988,"keywords":["nocrits","nodmgspread","payload","uncletopia"],"game_id":440,"stv_port":27026,"stv_name":"Uncletopia | Dallas | 2 | All Maps | STV","players":null},{"server_id":404,"name":"Uncletopia | Dallas | 3 | All Maps","name_short":"dal-3","host":"dal-1.us.uncletopia.com","port":27035,"enabled":true,"region":"us-central","cc":"us","latitude":32.779167,"longitude":-96.80889,"reserved":0,"last_update":"0001-01-01T00:00:00Z","name_a2s":"Uncletopia | Dallas | 3 | All Maps","protocol":17,"map":"cp_coldfront","folder":"tf","game":"Team Fortress","app_id":440,"player_count":0,"max_players":24,"Bots":0,"server_type":"Dedicated","server_os":"Linux","password":true,"vac":true,"version":"7961495","steam_id":85568392924515219,"keywords":["cp","nocrits","nodmgspread","uncletopia"],"game_id":440,"stv_port":27036,"stv_name":"Uncletopia | Dallas | 3 | All Maps | STV","players":null},{"server_id":405,"name":"Uncletopia | Dallas | 4 | Community","name_short":"dal-4","host":"dal-1.us.uncletopia.com","port":27045,"enabled":true,"region":"us-central","cc":"us","latitude":32.779167,"longitude":-96.80889,"reserved":0,"last_update":"0001-01-01T00:00:00Z","name_a2s":"Uncletopia | Dallas | 4 | Community","protocol":17,"map":"workshop/koth_synthetic_rc6a.ugc1549817316","folder":"tf","game":"Team Fortress","app_id":440,"player_count":0,"max_players":24,"Bots":0,"server_type":"Dedicated","server_os":"Linux","password":true,"vac":true,"version":"7961495","steam_id":85568392924515220,"keywords":["cp","nocrits","nodmgspread","uncletopia"],"game_id":440,"stv_port":27046,"stv_name":"Uncletopia | Dallas | 4 | Community | STV","players":null},{"server_id":5,"name":"Uncletopia | Frankfurt | 1 | All Maps","name_short":"frk-1","host":"frk-1.de.uncletopia.com","port":27015,"enabled":true,"region":"eu","cc":"de","latitude":50.110924,"longitude":8.682127,"reserved":0,"last_update":"0001-01-01T00:00:00Z","name_a2s":"Uncletopia | Frankfurt | 1 | All Maps","protocol":17,"map":"cp_dustbowl","folder":"tf","game":"Team Fortress","app_id":440,"player_count":24,"max_players":24,"Bots":0,"server_type":"Dedicated","server_os":"Linux","password":true,"vac":true,"version":"7961495","steam_id":85568392924469989,"keywords":["cp","nocrits","nodmgspread","uncletopia"],"game_id":440,"stv_port":27016,"stv_name":"Uncletopia | Frankfurt | 1 | All Maps | STV","players":[{"user_id":342,"name":"(All Muted) Visphiric","steam_id":76561198071938027,"connected_time":326000000000,"state":"active","ping":52},{"user_id":303,"name":"i just ate a shawarma","steam_id":76561199227541378,"connected_time":2806000000000,"state":"active","ping":160},{"user_id":314,"name":"FrameTrash","steam_id":76561199167260122,"connected_time":1655000000000,"state":"active","ping":157},{"user_id":334,"name":"somenameidc","steam_id":76561198819545774,"connected_time":760000000000,"state":"active","ping":49},{"user_id":335,"name":"Zulik92","steam_id":76561198152442373,"connected_time":749000000000,"state":"active","ping":56},{"user_id":336,"name":"Jacio | the one who games.","steam_id":76561199491964000,"connected_time":747000000000,"state":"active","ping":49},{"user_id":340,"name":"socaramel","steam_id":76561197984480336,"connected_time":367000000000,"state":"active","ping":78},{"user_id":339,"name":"emeradik","steam_id":76561199195558370,"connected_time":440000000000,"state":"active","ping":113},{"user_id":332,"name":"jmp","steam_id":76561198168283286,"connected_time":1077000000000,"state":"active","ping":74},{"user_id":331,"name":"Underage Undertaker","steam_id":76561198130328543,"connected_time":1096000000000,"state":"active","ping":130},{"user_id":250,"name":"wasps","steam_id":76561198049485054,"connected_time":6495000000000,"state":"active","ping":84},{"user_id":333,"name":"info","steam_id":76561198119354946,"connected_time":1071000000000,"state":"active","ping":40},{"user_id":320,"name":"adi_puscasu","steam_id":76561198817792396,"connected_time":1555000000000,"state":"active","ping":66},{"user_id":346,"name":"TemmZz","steam_id":76561199204183212,"connected_time":37000000000,"state":"active","ping":47},{"user_id":323,"name":"Divine","steam_id":76561198430207251,"connected_time":1469000000000,"state":"active","ping":130},{"user_id":324,"name":"Nejt","steam_id":76561199264515158,"connected_time":1422000000000,"state":"active","ping":66},{"user_id":307,"name":"Sicronici","steam_id":76561199054534566,"connected_time":2688000000000,"state":"active","ping":65},{"user_id":326,"name":"M4tt_Four","steam_id":76561198261887595,"connected_time":1373000000000,"state":"active","ping":76},{"user_id":308,"name":"Grimm","steam_id":76561198044684227,"connected_time":2665000000000,"state":"active","ping":52},{"user_id":327,"name":"Vel0city","steam_id":76561198049687798,"connected_time":1360000000000,"state":"active","ping":49},{"user_id":345,"name":"Michalo","steam_id":76561198195021867,"connected_time":134000000000,"state":"active","ping":78},{"user_id":176,"name":"AleXandriX","steam_id":76561198035203950,"connected_time":11205000000000,"state":"active","ping":56},{"user_id":341,"name":"Haha?","steam_id":76561198056882245,"connected_time":345000000000,"state":"active","ping":52},{"user_id":344,"name":"W","steam_id":76561199501358967,"connected_time":250000000000,"state":"active","ping":60}]},{"server_id":110,"name":"Uncletopia | Frankfurt | 2 | All Maps","name_short":"frk-2","host":"frk-1.de.uncletopia.com","port":27025,"enabled":true,"region":"eu","cc":"de","latitude":50.110924,"longitude":8.682127,"reserved":0,"last_update":"0001-01-01T00:00:00Z","name_a2s":"Uncletopia | Frankfurt | 2 | All Maps","protocol":17,"map":"pl_barnblitz","folder":"tf","game":"Team Fortress","app_id":440,"player_count":24,"max_players":24,"Bots":0,"server_type":"Dedicated","server_os":"Linux","password":true,"vac":true,"version":"7961495","steam_id":85568392924469990,"keywords":["nocrits","nodmgspread","payload","uncletopia"],"game_id":440,"stv_port":27026,"stv_name":"Uncletopia | Frankfurt | 2 | All Maps | STV","players":[{"user_id":225,"name":"Mind Fuzz","steam_id":76561198050079428,"connected_time":6501000000000,"state":"active","ping":87},{"user_id":277,"name":"tr1ckster133","steam_id":76561198055421844,"connected_time":2618000000000,"state":"active","ping":44},{"user_id":309,"name":"Peskyplumber64","steam_id":76561198044458330,"connected_time":173000000000,"state":"active","ping":58},{"user_id":287,"name":"zinzyk","steam_id":76561198128011822,"connected_time":1415000000000,"state":"active","ping":51},{"user_id":247,"name":"LOBZIK","steam_id":76561198114830120,"connected_time":5031000000000,"state":"active","ping":78},{"user_id":294,"name":"Drojdier","steam_id":76561198080789836,"connected_time":1224000000000,"state":"active","ping":61},{"user_id":289,"name":"SLB055","steam_id":76561198320511977,"connected_time":1365000000000,"state":"active","ping":59},{"user_id":304,"name":"bright","steam_id":76561198323945338,"connected_time":544000000000,"state":"active","ping":119},{"user_id":312,"name":"Road to Hale sniper riffle","steam_id":76561198112181197,"connected_time":2000000000,"state":"spawning","ping":53},{"user_id":279,"name":"HeroeN","steam_id":76561199243937265,"connected_time":2398000000000,"state":"active","ping":86},{"user_id":311,"name":"Chiers","steam_id":76561198073461642,"connected_time":153000000000,"state":"active","ping":45},{"user_id":303,"name":"cuddles","steam_id":76561198805181599,"connected_time":648000000000,"state":"active","ping":67},{"user_id":186,"name":"giclure :;","steam_id":76561197986362828,"connected_time":8559000000000,"state":"active","ping":48},{"user_id":300,"name":"The economy","steam_id":76561198358275344,"connected_time":1154000000000,"state":"active","ping":69},{"user_id":297,"name":"KiteNock","steam_id":76561198160622922,"connected_time":1195000000000,"state":"active","ping":61},{"user_id":306,"name":"Razef","steam_id":76561198030309484,"connected_time":374000000000,"state":"active","ping":46},{"user_id":271,"name":"NALA","steam_id":76561198039806469,"connected_time":2895000000000,"state":"active","ping":74},{"user_id":301,"name":"Cöffee","steam_id":76561198115131952,"connected_time":1030000000000,"state":"active","ping":101},{"user_id":290,"name":"Doecheldorf","steam_id":76561198291628630,"connected_time":1361000000000,"state":"active","ping":54},{"user_id":169,"name":"Plop_","steam_id":76561198112567921,"connected_time":9914000000000,"state":"active","ping":45},{"user_id":293,"name":"Clydios","steam_id":76561198332311225,"connected_time":1286000000000,"state":"active","ping":76},{"user_id":291,"name":"james_bondage","steam_id":76561199476062624,"connected_time":1356000000000,"state":"active","ping":147},{"user_id":299,"name":"Sweeet","steam_id":76561198054050828,"connected_time":1179000000000,"state":"active","ping":74},{"user_id":228,"name":"we do a little tomfoolery","steam_id":76561198169208730,"connected_time":6254000000000,"state":"active","ping":76}]},{"server_id":308,"name":"Uncletopia | Frankfurt | 3 | All Maps","name_short":"frk-3","host":"frk-1.de.uncletopia.com","port":27035,"enabled":true,"region":"eu","cc":"de","latitude":50.110924,"longitude":8.682127,"reserved":0,"last_update":"0001-01-01T00:00:00Z","name_a2s":"Uncletopia | Frankfurt | 3 | All Maps","protocol":17,"map":"pl_snowycoast","folder":"tf","game":"Team Fortress","app_id":440,"player_count":24,"max_players":24,"Bots":0,"server_type":"Dedicated","server_os":"Linux","password":true,"vac":true,"version":"7961495","steam_id":85568392924504274,"keywords":["nocrits","nodmgspread","payload","uncletopia"],"game_id":440,"stv_port":27036,"stv_name":"Uncletopia | Frankfurt | 3 | All Maps | STV","players":[{"user_id":233,"name":"Broex","steam_id":76561198213082531,"connected_time":409000000000,"state":"active","ping":88},{"user_id":235,"name":"panne doodah","steam_id":76561198171431171,"connected_time":356000000000,"state":"active","ping":80},{"user_id":238,"name":"Alter","steam_id":76561199135934698,"connected_time":174000000000,"state":"active","ping":61},{"user_id":234,"name":"GermanBoy","steam_id":76561199230176650,"connected_time":395000000000,"state":"active","ping":55},{"user_id":226,"name":"Nittugai","steam_id":76561198067366462,"connected_time":817000000000,"state":"active","ping":60},{"user_id":227,"name":"WarAndroid","steam_id":76561198873727435,"connected_time":760000000000,"state":"active","ping":57},{"user_id":236,"name":"Edsuedi","steam_id":76561198074722832,"connected_time":303000000000,"state":"active","ping":51},{"user_id":228,"name":"Fat Pigeon","steam_id":76561198817940142,"connected_time":758000000000,"state":"active","ping":49},{"user_id":217,"name":"Paste","steam_id":76561198139275322,"connected_time":984000000000,"state":"active","ping":77},{"user_id":239,"name":"goofster","steam_id":76561199052275857,"connected_time":156000000000,"state":"active","ping":98},{"user_id":208,"name":"El Presidente","steam_id":76561198302711029,"connected_time":1600000000000,"state":"active","ping":73},{"user_id":220,"name":"Big Trader","steam_id":76561197992364667,"connected_time":928000000000,"state":"active","ping":60},{"user_id":166,"name":"German Prick","steam_id":76561198181410637,"connected_time":4394000000000,"state":"active","ping":39},{"user_id":240,"name":"Paciùg remover","steam_id":76561198035928111,"connected_time":144000000000,"state":"active","ping":61},{"user_id":209,"name":"SleepySheepiez","steam_id":76561198442938414,"connected_time":1584000000000,"state":"active","ping":138},{"user_id":241,"name":"razmerus","steam_id":76561198105569706,"connected_time":105000000000,"state":"active","ping":170},{"user_id":206,"name":"Max, Mighty Pirate™","steam_id":76561198077677744,"connected_time":1673000000000,"state":"active","ping":45},{"user_id":242,"name":"sun_cola","steam_id":76561199056317430,"connected_time":100000000000,"state":"active","ping":150},{"user_id":243,"name":"IDontEvenKnow","steam_id":76561198154422946,"connected_time":99000000000,"state":"active","ping":100},{"user_id":244,"name":"ramedlaV^^","steam_id":76561198074352339,"connected_time":58000000000,"state":"active","ping":69},{"user_id":222,"name":"[HOL] Solringen","steam_id":76561198003584681,"connected_time":855000000000,"state":"active","ping":66},{"user_id":245,"name":"eevee","steam_id":76561198447072392,"connected_time":57000000000,"state":"active","ping":76},{"user_id":205,"name":"Arc","steam_id":76561198805049375,"connected_time":1707000000000,"state":"active","ping":61},{"user_id":246,"name":"Imperial City Guard","steam_id":76561198083355845,"connected_time":19000000000,"state":"active","ping":57}]},{"server_id":309,"name":"Uncletopia | Frankfurt | 4 | All Maps","name_short":"frk-4","host":"frk-1.de.uncletopia.com","port":27045,"enabled":true,"region":"eu","cc":"de","latitude":50.110924,"longitude":8.682127,"reserved":0,"last_update":"0001-01-01T00:00:00Z","name_a2s":"Uncletopia | Frankfurt | 4 | All Maps","protocol":17,"map":"pl_swiftwater_final1","folder":"tf","game":"Team Fortress","app_id":440,"player_count":24,"max_players":24,"Bots":0,"server_type":"Dedicated","server_os":"Linux","password":true,"vac":true,"version":"7961495","steam_id":85568392924504275,"keywords":["nocrits","nodmgspread","payload","uncletopia"],"game_id":440,"stv_port":27046,"stv_name":"Uncletopia | Frankfurt | 4 | All Maps | STV","players":[{"user_id":96,"name":"Generic","steam_id":76561198171073018,"connected_time":605000000000,"state":"active","ping":58},{"user_id":86,"name":"stegosaurus sex","steam_id":76561199120843402,"connected_time":854000000000,"state":"active","ping":59},{"user_id":82,"name":"Mébh Óg MacTíre","steam_id":76561198346399624,"connected_time":1083000000000,"state":"active","ping":61},{"user_id":95,"name":"Charles Darwin","steam_id":76561197973496139,"connected_time":636000000000,"state":"active","ping":70},{"user_id":102,"name":"ssx tricky \\\\\\ dryg","steam_id":76561197994299134,"connected_time":398000000000,"state":"active","ping":62},{"user_id":68,"name":"Kristall_54","steam_id":76561199405759756,"connected_time":2037000000000,"state":"active","ping":212},{"user_id":101,"name":"jones","steam_id":76561198044434971,"connected_time":429000000000,"state":"active","ping":55},{"user_id":34,"name":"dfcv rftgvb ghtb","steam_id":76561198397764042,"connected_time":3127000000000,"state":"active","ping":83},{"user_id":88,"name":"Woman (Real)","steam_id":76561199151823932,"connected_time":836000000000,"state":"active","ping":61},{"user_id":36,"name":"Jeremy265","steam_id":76561199004316549,"connected_time":3057000000000,"state":"active","ping":105},{"user_id":89,"name":"beepboop007","steam_id":76561199152819950,"connected_time":834000000000,"state":"active","ping":69},{"user_id":39,"name":"Carry Krypl","steam_id":76561198136938121,"connected_time":3008000000000,"state":"active","ping":44},{"user_id":97,"name":"kemor","steam_id":76561198027684291,"connected_time":604000000000,"state":"active","ping":40},{"user_id":69,"name":"Pietro Badoglio","steam_id":76561198302435743,"connected_time":1989000000000,"state":"active","ping":80},{"user_id":90,"name":"KnugenIV","steam_id":76561198127091993,"connected_time":833000000000,"state":"active","ping":65},{"user_id":50,"name":"rainman","steam_id":76561198059761822,"connected_time":2855000000000,"state":"active","ping":52},{"user_id":98,"name":"Fluid","steam_id":76561198348464129,"connected_time":468000000000,"state":"active","ping":83},{"user_id":103,"name":"Nuuskis","steam_id":76561198084042012,"connected_time":369000000000,"state":"active","ping":84},{"user_id":99,"name":"Zaka","steam_id":76561198148434957,"connected_time":448000000000,"state":"active","ping":61},{"user_id":85,"name":"Кашак","steam_id":76561198206102275,"connected_time":907000000000,"state":"active","ping":74},{"user_id":76,"name":"zeeko683","steam_id":76561198429788727,"connected_time":1403000000000,"state":"active","ping":45},{"user_id":92,"name":"Walle","steam_id":76561197995148937,"connected_time":816000000000,"state":"active","ping":62},{"user_id":61,"name":"Toasty5050","steam_id":76561198073540881,"connected_time":2492000000000,"state":"active","ping":48},{"user_id":94,"name":"cactus sandwich","steam_id":76561198164210779,"connected_time":752000000000,"state":"active","ping":84}]},{"server_id":310,"name":"Uncletopia | Frankfurt | 5 | All Maps","name_short":"frk-5","host":"frk-1.de.uncletopia.com","port":27055,"enabled":true,"region":"eu","cc":"de","latitude":50.110924,"longitude":8.682127,"reserved":0,"last_update":"0001-01-01T00:00:00Z","name_a2s":"Uncletopia | Frankfurt | 5 | All Maps","protocol":17,"map":"koth_lakeside_final","folder":"tf","game":"Team Fortress","app_id":440,"player_count":0,"max_players":24,"Bots":0,"server_type":"Dedicated","server_os":"Linux","password":true,"vac":true,"version":"7961495","steam_id":85568392924504277,"keywords":["cp","nocrits","nodmgspread","uncletopia"],"game_id":440,"stv_port":27056,"stv_name":"Uncletopia | Frankfurt | 5 | All Maps | STV","players":null},{"server_id":311,"name":"Uncletopia | Frankfurt | 6 | All Maps","name_short":"frk-6","host":"frk-1.de.uncletopia.com","port":27065,"enabled":true,"region":"eu","cc":"de","latitude":50.110924,"longitude":8.682127,"reserved":0,"last_update":"0001-01-01T00:00:00Z","name_a2s":"Uncletopia | Frankfurt | 6 | All Maps","protocol":17,"map":"koth_lakeside_final","folder":"tf","game":"Team Fortress","app_id":440,"player_count":0,"max_players":24,"Bots":0,"server_type":"Dedicated","server_os":"Linux","password":true,"vac":true,"version":"7961495","steam_id":85568392924504278,"keywords":["cp","nocrits","nodmgspread","uncletopia"],"game_id":440,"stv_port":27066,"stv_name":"Uncletopia | Frankfurt | 6 | All Maps | STV","players":null},{"server_id":23,"name":"Uncletopia | Frankfurt | 7 | Stopwatch","name_short":"frk-7","host":"frk-1.de.uncletopia.com","port":27075,"enabled":true,"region":"eu","cc":"de","latitude":50.110924,"longitude":8.682127,"reserved":0,"last_update":"0001-01-01T00:00:00Z","name_a2s":"Uncletopia | Frankfurt | 7 | Stopwatch","protocol":17,"map":"workshop/cp_reckoner_rc6.ugc674719999","folder":"tf","game":"Team Fortress","app_id":440,"player_count":24,"max_players":24,"Bots":0,"server_type":"Dedicated","server_os":"Linux","password":true,"vac":true,"version":"7961495","steam_id":85568392924742827,"keywords":["cp","nocrits","nodmgspread","uncletopia"],"game_id":440,"stv_port":27076,"stv_name":"Uncletopia | Frankfurt | 7 | Stopwatch | STV","players":[{"user_id":399,"name":"rafisiedi","steam_id":76561199073496494,"connected_time":287000000000,"state":"active","ping":63},{"user_id":376,"name":"PENGUN","steam_id":76561199015156956,"connected_time":1465000000000,"state":"active","ping":94},{"user_id":396,"name":"1ggy","steam_id":76561199051285912,"connected_time":467000000000,"state":"active","ping":81},{"user_id":397,"name":"mülleimer überhitzene","steam_id":76561198174135981,"connected_time":422000000000,"state":"active","ping":59},{"user_id":348,"name":"Deez nuts","steam_id":76561199429562693,"connected_time":3162000000000,"state":"active","ping":71},{"user_id":365,"name":"Flavia ♥","steam_id":76561198108360671,"connected_time":2086000000000,"state":"active","ping":101},{"user_id":387,"name":"ⓅⓁⓈ | Pink Panther","steam_id":76561198046434381,"connected_time":843000000000,"state":"active","ping":47},{"user_id":351,"name":"combine","steam_id":76561198007909007,"connected_time":3016000000000,"state":"active","ping":58},{"user_id":389,"name":"sloppy transgirl toppy","steam_id":76561198057092208,"connected_time":782000000000,"state":"active","ping":65},{"user_id":388,"name":"PanPatrik","steam_id":76561198293331527,"connected_time":828000000000,"state":"active","ping":57},{"user_id":390,"name":"please","steam_id":76561199149307190,"connected_time":767000000000,"state":"active","ping":75},{"user_id":377,"name":"Welder","steam_id":76561198355300561,"connected_time":1375000000000,"state":"active","ping":66},{"user_id":371,"name":"KarlRanzeier","steam_id":76561198066281337,"connected_time":1811000000000,"state":"active","ping":46},{"user_id":391,"name":"Artemis","steam_id":76561198199091801,"connected_time":740000000000,"state":"active","ping":50},{"user_id":392,"name":"tadisab","steam_id":76561199484049632,"connected_time":655000000000,"state":"active","ping":134},{"user_id":402,"name":"silicon based life form","steam_id":76561199127121346,"connected_time":72000000000,"state":"active","ping":53},{"user_id":393,"name":"godbased05","steam_id":76561199508052448,"connected_time":625000000000,"state":"active","ping":142},{"user_id":364,"name":"Osek","steam_id":76561197972646003,"connected_time":2187000000000,"state":"active","ping":62},{"user_id":381,"name":"Cupcake","steam_id":76561198017604608,"connected_time":1282000000000,"state":"active","ping":59},{"user_id":401,"name":"ikcikoR","steam_id":76561198208906749,"connected_time":176000000000,"state":"active","ping":56},{"user_id":382,"name":"mary","steam_id":76561198014828037,"connected_time":1266000000000,"state":"active","ping":65},{"user_id":383,"name":"PROFILE NAME","steam_id":76561198180056982,"connected_time":1224000000000,"state":"active","ping":72},{"user_id":394,"name":"Borloxos","steam_id":76561198123110073,"connected_time":614000000000,"state":"active","ping":58},{"user_id":395,"name":"Borlor","steam_id":76561198206059604,"connected_time":575000000000,"state":"active","ping":47}]},{"server_id":24,"name":"Uncletopia | Frankfurt | 8 | Community","name_short":"frk-8","host":"frk-1.de.uncletopia.com","port":27085,"enabled":true,"region":"eu","cc":"de","latitude":50.110924,"longitude":8.682127,"reserved":0,"last_update":"0001-01-01T00:00:00Z","name_a2s":"Uncletopia | Frankfurt | 8 | Community","protocol":17,"map":"workshop/koth_trenchfoot_ab1.ugc731436616","folder":"tf","game":"Team Fortress","app_id":440,"player_count":0,"max_players":24,"Bots":0,"server_type":"Dedicated","server_os":"Linux","password":true,"vac":true,"version":"7961495","steam_id":85568392924742828,"keywords":["cp","nocrits","nodmgspread","uncletopia"],"game_id":440,"stv_port":27086,"stv_name":"Uncletopia | Frankfurt | 8 | Community | STV","players":null},{"server_id":202,"name":"Uncletopia | Hong Kong | 1 | All Maps","name_short":"hgk-1","host":"hgk-1.hk.uncletopia.com","port":27015,"enabled":true,"region":"asia","cc":"hk","latitude":22.302711,"longitude":114.177216,"reserved":0,"last_update":"0001-01-01T00:00:00Z","name_a2s":"Uncletopia | Hong Kong | 1 | All Maps","protocol":17,"map":"cp_mountainlab","folder":"tf","game":"Team Fortress","app_id":440,"player_count":6,"max_players":24,"Bots":0,"server_type":"Dedicated","server_os":"Linux","password":true,"vac":true,"version":"7961495","steam_id":85568392924494504,"keywords":["cp","nocrits","nodmgspread","uncletopia"],"game_id":440,"stv_port":27016,"stv_name":"Uncletopia | Hong Kong | 1 | All Maps | STV","players":[{"user_id":561,"name":"Jangli","steam_id":76561198103923652,"connected_time":1528000000000,"state":"active","ping":151},{"user_id":563,"name":"the voices in my head","steam_id":76561198191349670,"connected_time":118000000000,"state":"active","ping":52},{"user_id":553,"name":"toad♡","steam_id":76561198082199290,"connected_time":2382000000000,"state":"active","ping":43},{"user_id":554,"name":"Sam Lin","steam_id":76561198312180666,"connected_time":2342000000000,"state":"active","ping":85},{"user_id":559,"name":"母の肉団子@hao123.com","steam_id":76561198069561896,"connected_time":1922000000000,"state":"active","ping":30},{"user_id":539,"name":"MANCO FETT","steam_id":76561198107128889,"connected_time":3317000000000,"state":"active","ping":101}]},{"server_id":1,"name":"Uncletopia | Los Angeles | 1 | All Maps","name_short":"lax-1","host":"lax-1.us.uncletopia.com","port":27015,"enabled":true,"region":"us-west","cc":"us","latitude":33.94279,"longitude":-118.41004,"reserved":0,"last_update":"0001-01-01T00:00:00Z","name_a2s":"Uncletopia | Los Angeles | 1 | All Maps","protocol":17,"map":"cp_gorge","folder":"tf","game":"Team Fortress","app_id":440,"player_count":0,"max_players":24,"Bots":0,"server_type":"Dedicated","server_os":"Linux","password":true,"vac":true,"version":"7961495","steam_id":85568392924469991,"keywords":["cp","nocrits","nodmgspread","uncletopia"],"game_id":440,"stv_port":27016,"stv_name":"Uncletopia | Los Angeles | 1 | All Maps | STV","players":null},{"server_id":112,"name":"Uncletopia | Los Angeles | 2 | All Maps","name_short":"lax-2","host":"lax-1.us.uncletopia.com","port":27025,"enabled":true,"region":"us-west","cc":"us","latitude":33.94279,"longitude":-118.41004,"reserved":0,"last_update":"0001-01-01T00:00:00Z","name_a2s":"Uncletopia | Los Angeles | 2 | All Maps","protocol":17,"map":"koth_cascade","folder":"tf","game":"Team Fortress","app_id":440,"player_count":0,"max_players":24,"Bots":0,"server_type":"Dedicated","server_os":"Linux","password":true,"vac":true,"version":"7961495","steam_id":85568392924469992,"keywords":["cp","nocrits","nodmgspread","uncletopia"],"game_id":440,"stv_port":27026,"stv_name":"Uncletopia | Los Angeles | 2 | All Maps | STV","players":null},{"server_id":324,"name":"Uncletopia | Los Angeles | 3 | All Maps","name_short":"lax-3","host":"lax-1.us.uncletopia.com","port":27035,"enabled":true,"region":"us-west","cc":"us","latitude":33.94279,"longitude":-118.41004,"reserved":0,"last_update":"0001-01-01T00:00:00Z","name_a2s":"Uncletopia | Los Angeles | 3 | All Maps","protocol":17,"map":"pl_hoodoo_final","folder":"tf","game":"Team Fortress","app_id":440,"player_count":2,"max_players":24,"Bots":0,"server_type":"Dedicated","server_os":"Linux","password":true,"vac":true,"version":"7961495","steam_id":85568392924510198,"keywords":["nocrits","nodmgspread","payload","uncletopia"],"game_id":440,"stv_port":27036,"stv_name":"Uncletopia | Los Angeles | 3 | All Maps | STV","players":[{"user_id":3,"name":"Daruke","steam_id":76561198300686262,"connected_time":928000000000,"state":"active","ping":101},{"user_id":4,"name":"Dwebus","steam_id":76561198086559045,"connected_time":187000000000,"state":"active","ping":56}]},{"server_id":25,"name":"Uncletopia | Los Angeles | 4 | Stopwatch","name_short":"lax-4","host":"lax-1.us.uncletopia.com","port":27045,"enabled":true,"region":"us-west","cc":"us","latitude":33.94279,"longitude":-118.41004,"reserved":0,"last_update":"0001-01-01T00:00:00Z","name_a2s":"Uncletopia | Los Angeles | 4 | Stopwatch","protocol":17,"map":"koth_highpass","folder":"tf","game":"Team Fortress","app_id":440,"player_count":0,"max_players":24,"Bots":0,"server_type":"Dedicated","server_os":"Linux","password":true,"vac":true,"version":"7961495","steam_id":85568392924510199,"keywords":["cp","nocrits","nodmgspread","uncletopia"],"game_id":440,"stv_port":27046,"stv_name":"Uncletopia | Los Angeles | 4 | Stopwatch | STV","players":null},{"server_id":11,"name":"Uncletopia | London | 1 | All Maps","name_short":"lon-1","host":"lon-1.uk.uncletopia.com","port":27015,"enabled":true,"region":"eu","cc":"gb","latitude":51.509865,"longitude":-0.118092,"reserved":0,"last_update":"0001-01-01T00:00:00Z","name_a2s":"Uncletopia | London | 1 | All Maps","protocol":17,"map":"koth_lakeside_final","folder":"tf","game":"Team Fortress","app_id":440,"player_count":23,"max_players":24,"Bots":0,"server_type":"Dedicated","server_os":"Linux","password":true,"vac":true,"version":"7961495","steam_id":85568392924367362,"keywords":["cp","nocrits","nodmgspread","uncletopia"],"game_id":440,"stv_port":27016,"stv_name":"Uncletopia | London | 1 | All Maps | STV","players":[{"user_id":477,"name":"Anus01","steam_id":76561198101884780,"connected_time":912000000000,"state":"active","ping":74},{"user_id":470,"name":"After8","steam_id":76561198090750865,"connected_time":1567000000000,"state":"active","ping":68},{"user_id":485,"name":"Healix","steam_id":76561198130270161,"connected_time":23000000000,"state":"active","ping":59},{"user_id":460,"name":"Cryo","steam_id":76561198324132940,"connected_time":2812000000000,"state":"active","ping":56},{"user_id":478,"name":"BonesJohnson","steam_id":76561198799169951,"connected_time":838000000000,"state":"active","ping":44},{"user_id":444,"name":"mertefe","steam_id":76561199237126613,"connected_time":4102000000000,"state":"active","ping":85},{"user_id":479,"name":"Pinkchup","steam_id":76561198106802803,"connected_time":811000000000,"state":"active","ping":76},{"user_id":462,"name":"NitPig","steam_id":76561198212991935,"connected_time":2568000000000,"state":"active","ping":81},{"user_id":480,"name":"Forsén","steam_id":76561199131971501,"connected_time":745000000000,"state":"active","ping":72},{"user_id":482,"name":"ShadowTwin","steam_id":76561198046658200,"connected_time":609000000000,"state":"active","ping":46},{"user_id":486,"name":"Autumn","steam_id":76561198288382452,"connected_time":20000000000,"state":"spawning","ping":76},{"user_id":469,"name":"sniper's kangaroo wife","steam_id":76561198334042273,"connected_time":1955000000000,"state":"active","ping":42},{"user_id":472,"name":"Blastrock64","steam_id":76561199008932704,"connected_time":1531000000000,"state":"active","ping":83},{"user_id":435,"name":"Klorophyte","steam_id":76561198885112655,"connected_time":4976000000000,"state":"active","ping":95},{"user_id":468,"name":"Mendo","steam_id":76561198068884273,"connected_time":1985000000000,"state":"active","ping":115},{"user_id":426,"name":"✘˵ ˡ ◡ ˡ ˶✘","steam_id":76561198016642281,"connected_time":5680000000000,"state":"active","ping":67},{"user_id":483,"name":"♣Генсек Поноса","steam_id":76561198796404149,"connected_time":191000000000,"state":"active","ping":101},{"user_id":481,"name":"Dr. Robotnik's Nice Rice Device","steam_id":76561198027393309,"connected_time":718000000000,"state":"active","ping":45},{"user_id":440,"name":"Blob","steam_id":76561197971418993,"connected_time":4571000000000,"state":"active","ping":93},{"user_id":443,"name":"Çodar","steam_id":76561198235518444,"connected_time":4115000000000,"state":"active","ping":33},{"user_id":412,"name":"Snake-chan","steam_id":76561199044755854,"connected_time":6232000000000,"state":"active","ping":87},{"user_id":437,"name":"OutOfDucks","steam_id":76561198166376227,"connected_time":4865000000000,"state":"active","ping":45},{"user_id":450,"name":"Penis Gaming","steam_id":76561199198623988,"connected_time":4026000000000,"state":"active","ping":46}]},{"server_id":114,"name":"Uncletopia | London | 2 | All Maps","name_short":"lon-2","host":"lon-1.uk.uncletopia.com","port":27025,"enabled":true,"region":"eu","cc":"gb","latitude":51.509865,"longitude":-0.118092,"reserved":0,"last_update":"0001-01-01T00:00:00Z","name_a2s":"Uncletopia | London | 2 | All Maps","protocol":17,"map":"pl_frontier_final","folder":"tf","game":"Team Fortress","app_id":440,"player_count":24,"max_players":24,"Bots":0,"server_type":"Dedicated","server_os":"Linux","password":true,"vac":true,"version":"7961495","steam_id":85568392924470941,"keywords":["nocrits","nodmgspread","payload","uncletopia"],"game_id":440,"stv_port":27026,"stv_name":"Uncletopia | London | 2 | All Maps | STV","players":[{"user_id":183,"name":"0xConnectUser","steam_id":76561198441513355,"connected_time":133000000000,"state":"active","ping":134},{"user_id":165,"name":"Shoe Gayser","steam_id":76561198063127464,"connected_time":1453000000000,"state":"active","ping":59},{"user_id":156,"name":"burbocarged","steam_id":76561198116943421,"connected_time":2192000000000,"state":"active","ping":90},{"user_id":157,"name":"alibi","steam_id":76561198079490000,"connected_time":2173000000000,"state":"active","ping":52},{"user_id":100,"name":"bigwish | bmod.tf","steam_id":76561197997859723,"connected_time":5538000000000,"state":"active","ping":70},{"user_id":184,"name":"janvaljen","steam_id":76561198017781450,"connected_time":131000000000,"state":"active","ping":90},{"user_id":158,"name":"psu","steam_id":76561198094652091,"connected_time":2173000000000,"state":"active","ping":81},{"user_id":168,"name":"autistic luigi","steam_id":76561199218285040,"connected_time":975000000000,"state":"active","ping":68},{"user_id":169,"name":"JohkupohkuXD","steam_id":76561198391108762,"connected_time":943000000000,"state":"active","ping":86},{"user_id":147,"name":"Leftovers","steam_id":76561198046041079,"connected_time":3019000000000,"state":"active","ping":121},{"user_id":178,"name":"TreatFly","steam_id":76561198069707362,"connected_time":327000000000,"state":"active","ping":42},{"user_id":154,"name":"Tavish","steam_id":76561197971486686,"connected_time":2339000000000,"state":"active","ping":47},{"user_id":181,"name":"GM","steam_id":76561198014733498,"connected_time":194000000000,"state":"active","ping":143},{"user_id":180,"name":"Rad","steam_id":76561199001560866,"connected_time":226000000000,"state":"active","ping":71},{"user_id":186,"name":"The_voices","steam_id":76561199095701143,"connected_time":54000000000,"state":"active","ping":65},{"user_id":182,"name":"Violent_Raccoons","steam_id":76561199006002337,"connected_time":183000000000,"state":"active","ping":45},{"user_id":113,"name":"Saul Badman","steam_id":76561199013233409,"connected_time":4743000000000,"state":"active","ping":59},{"user_id":167,"name":"Its_Marucu","steam_id":76561199122174768,"connected_time":1003000000000,"state":"active","ping":57},{"user_id":185,"name":"need a dispenser here","steam_id":76561198060912995,"connected_time":129000000000,"state":"active","ping":112},{"user_id":176,"name":"pine cone","steam_id":76561198168254686,"connected_time":679000000000,"state":"active","ping":83},{"user_id":177,"name":"Jeryx","steam_id":76561197995602803,"connected_time":595000000000,"state":"active","ping":72},{"user_id":118,"name":"minuscule portions of clowning","steam_id":76561198059535856,"connected_time":4459000000000,"state":"active","ping":163},{"user_id":85,"name":"lillunya ♡","steam_id":76561198330418866,"connected_time":6893000000000,"state":"active","ping":61},{"user_id":187,"name":"Flycat","steam_id":76561198071504997,"connected_time":43000000000,"state":"active","ping":65}]},{"server_id":320,"name":"Uncletopia | London | 3 | All Maps","name_short":"lon-3","host":"lon-1.uk.uncletopia.com","port":27035,"enabled":true,"region":"eu","cc":"gb","latitude":51.509865,"longitude":-0.118092,"reserved":0,"last_update":"0001-01-01T00:00:00Z","name_a2s":"Uncletopia | London | 3 | All Maps","protocol":17,"map":"koth_lakeside_final","folder":"tf","game":"Team Fortress","app_id":440,"player_count":10,"max_players":24,"Bots":0,"server_type":"Dedicated","server_os":"Linux","password":true,"vac":true,"version":"7961495","steam_id":85568392924510192,"keywords":["cp","nocrits","nodmgspread","uncletopia"],"game_id":440,"stv_port":27036,"stv_name":"Uncletopia | London | 3 | All Maps | STV","players":[{"user_id":13,"name":"gun spy","steam_id":76561199389926609,"connected_time":1662000000000,"state":"active","ping":87},{"user_id":12,"name":"Valy","steam_id":76561198826452607,"connected_time":1739000000000,"state":"active","ping":90},{"user_id":15,"name":"unnamed","steam_id":76561198085168502,"connected_time":1250000000000,"state":"active","ping":89},{"user_id":18,"name":"Rabbit","steam_id":76561199466718294,"connected_time":846000000000,"state":"active","ping":84},{"user_id":17,"name":"Jeffrey Harpen","steam_id":76561199073314677,"connected_time":969000000000,"state":"active","ping":67},{"user_id":19,"name":"Mr.Cupcake","steam_id":76561198152711174,"connected_time":630000000000,"state":"active","ping":63},{"user_id":26,"name":"El Gran Dovich","steam_id":76561199155718202,"connected_time":245000000000,"state":"active","ping":93},{"user_id":21,"name":"Serzh8","steam_id":76561199246002978,"connected_time":554000000000,"state":"active","ping":88},{"user_id":28,"name":"Old Hat","steam_id":76561197994673297,"connected_time":130000000000,"state":"active","ping":48},{"user_id":24,"name":"Marl Karx","steam_id":76561198396797516,"connected_time":342000000000,"state":"active","ping":48}]},{"server_id":321,"name":"Uncletopia | London | 4 | All Maps","name_short":"lon-4","host":"lon-1.uk.uncletopia.com","port":27045,"enabled":true,"region":"eu","cc":"gb","latitude":51.509865,"longitude":-0.118092,"reserved":0,"last_update":"0001-01-01T00:00:00Z","name_a2s":"Uncletopia | London | 4 | All Maps","protocol":17,"map":"pl_snowycoast","folder":"tf","game":"Team Fortress","app_id":440,"player_count":24,"max_players":24,"Bots":0,"server_type":"Dedicated","server_os":"Linux","password":true,"vac":true,"version":"7961495","steam_id":85568392924510193,"keywords":["nocrits","nodmgspread","payload","uncletopia"],"game_id":440,"stv_port":27046,"stv_name":"Uncletopia | London | 4 | All Maps | STV","players":[{"user_id":68,"name":"Yimir","steam_id":76561198122584400,"connected_time":3362000000000,"state":"active","ping":33},{"user_id":100,"name":"Maker’s_Mark","steam_id":76561198198371445,"connected_time":304000000000,"state":"active","ping":137},{"user_id":103,"name":"Shadowdude","steam_id":76561199238877979,"connected_time":267000000000,"state":"active","ping":74},{"user_id":106,"name":"kinimon","steam_id":76561198178453270,"connected_time":162000000000,"state":"active","ping":39},{"user_id":72,"name":"IndigoJones","steam_id":76561198050284262,"connected_time":1503000000000,"state":"active","ping":45},{"user_id":111,"name":"deez","steam_id":76561198831476915,"connected_time":26000000000,"state":"active","ping":47},{"user_id":78,"name":"dools18","steam_id":76561198880768062,"connected_time":917000000000,"state":"active","ping":58},{"user_id":104,"name":"Saucisse","steam_id":76561198119955969,"connected_time":193000000000,"state":"active","ping":45},{"user_id":79,"name":"Playback_time","steam_id":76561198349426598,"connected_time":813000000000,"state":"active","ping":46},{"user_id":77,"name":"not engineer gaming","steam_id":76561199091849034,"connected_time":1026000000000,"state":"active","ping":44},{"user_id":98,"name":"Scotaborg","steam_id":76561198080764719,"connected_time":349000000000,"state":"active","ping":58},{"user_id":105,"name":"Mitrixie","steam_id":76561198842023498,"connected_time":176000000000,"state":"active","ping":84},{"user_id":84,"name":"filewav","steam_id":76561198884659731,"connected_time":613000000000,"state":"active","ping":119},{"user_id":85,"name":"RFireRed","steam_id":76561198982078622,"connected_time":604000000000,"state":"active","ping":61},{"user_id":89,"name":"rubn","steam_id":76561198119586410,"connected_time":544000000000,"state":"active","ping":73},{"user_id":87,"name":"wG silentes","steam_id":76561197999595616,"connected_time":585000000000,"state":"active","ping":44},{"user_id":107,"name":"Victoriss7","steam_id":76561198260261672,"connected_time":131000000000,"state":"active","ping":84},{"user_id":90,"name":"Oxy","steam_id":76561198058640737,"connected_time":541000000000,"state":"active","ping":44},{"user_id":92,"name":"Spxndrej","steam_id":76561199426583978,"connected_time":516000000000,"state":"active","ping":62},{"user_id":99,"name":"Destinys","steam_id":76561198056132894,"connected_time":330000000000,"state":"active","ping":59},{"user_id":108,"name":"Noob_with_source","steam_id":76561198870362103,"connected_time":124000000000,"state":"active","ping":60},{"user_id":97,"name":"Weed Kratos","steam_id":76561199069263356,"connected_time":426000000000,"state":"active","ping":60},{"user_id":112,"name":"smiley","steam_id":76561198042245117,"connected_time":11000000000,"state":"spawning","ping":62}]},{"server_id":21,"name":"Uncletopia | London | 5 | All Maps","name_short":"lon-5","host":"lon-1.uk.uncletopia.com","port":27055,"enabled":true,"region":"eu","cc":"gb","latitude":51.509865,"longitude":-0.118092,"reserved":0,"last_update":"0001-01-01T00:00:00Z","name_a2s":"Uncletopia | London | 5 | All Maps","protocol":17,"map":"pl_badwater","folder":"tf","game":"Team Fortress","app_id":440,"player_count":24,"max_players":24,"Bots":0,"server_type":"Dedicated","server_os":"Linux","password":true,"vac":true,"version":"7961495","steam_id":85568392924742829,"keywords":["nocrits","nodmgspread","payload","uncletopia"],"game_id":440,"stv_port":27056,"stv_name":"Uncletopia | London | 5 | All Maps | STV","players":[{"user_id":134,"name":"Eggcracker","steam_id":76561199274850641,"connected_time":2200000000000,"state":"active","ping":63},{"user_id":95,"name":"Zero","steam_id":76561198033384990,"connected_time":4630000000000,"state":"active","ping":108},{"user_id":124,"name":"vedatbora35 (f2p)","steam_id":76561199242623968,"connected_time":2504000000000,"state":"active","ping":82},{"user_id":152,"name":"simeswipe","steam_id":76561198188471097,"connected_time":175000000000,"state":"active","ping":65},{"user_id":75,"name":"ekin(TheFurryPound)","steam_id":76561198046873337,"connected_time":5043000000000,"state":"active","ping":53},{"user_id":139,"name":"Dwight Schrute","steam_id":76561198015871883,"connected_time":1162000000000,"state":"active","ping":74},{"user_id":76,"name":"Dei Genetrix","steam_id":76561198305678122,"connected_time":5031000000000,"state":"active","ping":48},{"user_id":108,"name":"soney","steam_id":76561198121177512,"connected_time":3773000000000,"state":"active","ping":61},{"user_id":141,"name":"Villdjack","steam_id":76561197999480096,"connected_time":1017000000000,"state":"active","ping":63},{"user_id":142,"name":"MeleeMeta","steam_id":76561198237963558,"connected_time":987000000000,"state":"active","ping":45},{"user_id":153,"name":"wano","steam_id":76561198127657906,"connected_time":83000000000,"state":"active","ping":43},{"user_id":133,"name":"siema","steam_id":76561198033698248,"connected_time":2245000000000,"state":"active","ping":92},{"user_id":147,"name":"The SPy","steam_id":76561198392505656,"connected_time":754000000000,"state":"active","ping":64},{"user_id":138,"name":"Packet","steam_id":76561199173195875,"connected_time":1706000000000,"state":"active","ping":74},{"user_id":105,"name":"jack'o classes","steam_id":76561199030218131,"connected_time":4012000000000,"state":"active","ping":44},{"user_id":136,"name":"Ephix","steam_id":76561197977164055,"connected_time":2121000000000,"state":"active","ping":54},{"user_id":145,"name":"Jack","steam_id":76561198079575891,"connected_time":893000000000,"state":"active","ping":44},{"user_id":127,"name":"sam_","steam_id":76561198814734120,"connected_time":2445000000000,"state":"active","ping":104},{"user_id":111,"name":"compact disc","steam_id":76561198154677956,"connected_time":3759000000000,"state":"active","ping":74},{"user_id":79,"name":"ek!n","steam_id":76561198076219289,"connected_time":5024000000000,"state":"active","ping":56},{"user_id":115,"name":"shlongy bongy","steam_id":76561198015876799,"connected_time":3297000000000,"state":"active","ping":62},{"user_id":122,"name":"Paulo Doutor","steam_id":76561198168674032,"connected_time":2610000000000,"state":"active","ping":68},{"user_id":151,"name":"Sac","steam_id":76561197992659494,"connected_time":612000000000,"state":"active","ping":59},{"user_id":123,"name":"rummy","steam_id":76561197997573379,"connected_time":2605000000000,"state":"active","ping":39}]},{"server_id":22,"name":"Uncletopia | London | 6 | All Maps","name_short":"lon-6","host":"lon-1.uk.uncletopia.com","port":27065,"enabled":true,"region":"eu","cc":"gb","latitude":51.509865,"longitude":-0.118092,"reserved":0,"last_update":"0001-01-01T00:00:00Z","name_a2s":"Uncletopia | London | 6 | All Maps","protocol":17,"map":"koth_highpass","folder":"tf","game":"Team Fortress","app_id":440,"player_count":0,"max_players":24,"Bots":0,"server_type":"Dedicated","server_os":"Linux","password":true,"vac":true,"version":"7961495","steam_id":85568392924742830,"keywords":["cp","nocrits","nodmgspread","uncletopia"],"game_id":440,"stv_port":27066,"stv_name":"Uncletopia | London | 6 | All Maps | STV","players":null},{"server_id":40,"name":"Uncletopia | London | 7 | Stopwatch","name_short":"lon-7","host":"lon-1.uk.uncletopia.com","port":27075,"enabled":true,"region":"eu","cc":"gb","latitude":51.509865,"longitude":-0.118092,"reserved":0,"last_update":"0001-01-01T00:00:00Z","name_a2s":"Uncletopia | London | 7 | Stopwatch","protocol":17,"map":"cp_snakewater_final1","folder":"tf","game":"Team Fortress","app_id":440,"player_count":0,"max_players":24,"Bots":0,"server_type":"Dedicated","server_os":"Linux","password":true,"vac":true,"version":"7961495","steam_id":85568392924964314,"keywords":["cp","nocrits","nodmgspread","uncletopia"],"game_id":440,"stv_port":27076,"stv_name":"Uncletopia | London | 7 | Stopwatch | STV","players":null},{"server_id":41,"name":"Uncletopia | London | 8 | Community","name_short":"lon-8","host":"lon-1.uk.uncletopia.com","port":27085,"enabled":true,"region":"eu","cc":"gb","latitude":51.509865,"longitude":-0.118092,"reserved":0,"last_update":"0001-01-01T00:00:00Z","name_a2s":"Uncletopia | London | 8 | Community","protocol":17,"map":"workshop/pl_highwood_b13.ugc1769496557","folder":"tf","game":"Team Fortress","app_id":440,"player_count":0,"max_players":24,"Bots":0,"server_type":"Dedicated","server_os":"Linux","password":true,"vac":true,"version":"7961495","steam_id":85568392924964315,"keywords":["nocrits","nodmgspread","payload","uncletopia"],"game_id":440,"stv_port":27086,"stv_name":"Uncletopia | London | 8 | Community | STV","players":null},{"server_id":300,"name":"Uncletopia | Montréal | 1 | One Thousand Uncles","name_short":"mtl-1","host":"mtl-1.ca.uncletopia.com","port":27015,"enabled":true,"region":"us-east","cc":"ca","latitude":45.50889,"longitude":-73.56167,"reserved":0,"last_update":"0001-01-01T00:00:00Z","name_a2s":"Uncletopia | Montréal | 1 | One Thousand Uncles","protocol":17,"map":"pl_chilly","folder":"tf","game":"Team Fortress","app_id":440,"player_count":18,"max_players":32,"Bots":16,"server_type":"Dedicated","server_os":"Linux","password":true,"vac":true,"version":"7961495","steam_id":85568392924500087,"keywords":["alltalk","bots","danepve","increased_maxplayers","norespawntime","payload","uncletopia"],"game_id":440,"stv_port":0,"stv_name":"","players":[{"user_id":2,"name":"TheBoringEdward","steam_id":76561199061482992,"connected_time":683000000000,"state":"active","ping":132},{"user_id":3,"name":"HyperPan_wow","steam_id":76561199146562090,"connected_time":676000000000,"state":"active","ping":122}]},{"server_id":301,"name":"Uncletopia | Montréal | 2 | One Thousand Uncles","name_short":"mtl-2","host":"mtl-1.ca.uncletopia.com","port":27025,"enabled":true,"region":"us-east","cc":"ca","latitude":45.50889,"longitude":-73.56167,"reserved":0,"last_update":"0001-01-01T00:00:00Z","name_a2s":"Uncletopia | Montréal | 2 | One Thousand Uncles","protocol":17,"map":"pl_chilly","folder":"tf","game":"Team Fortress","app_id":440,"player_count":0,"max_players":32,"Bots":0,"server_type":"Dedicated","server_os":"Linux","password":true,"vac":true,"version":"7961495","steam_id":85568392924500088,"keywords":["alltalk","danepve","increased_maxplayers","norespawntime","payload","uncletopia"],"game_id":440,"stv_port":0,"stv_name":"","players":null},{"server_id":302,"name":"Uncletopia | Montréal | 3 | One Thousand Uncles","name_short":"mtl-3","host":"mtl-1.ca.uncletopia.com","port":27035,"enabled":true,"region":"us-east","cc":"ca","latitude":45.50889,"longitude":-73.56167,"reserved":0,"last_update":"0001-01-01T00:00:00Z","name_a2s":"Uncletopia | Montréal | 3 | One Thousand Uncles","protocol":17,"map":"pl_upward","folder":"tf","game":"Team Fortress","app_id":440,"player_count":0,"max_players":32,"Bots":0,"server_type":"Dedicated","server_os":"Linux","password":true,"vac":true,"version":"7961495","steam_id":85568392924500089,"keywords":["alltalk","danepve","increased_maxplayers","norespawntime","payload","uncletopia"],"game_id":440,"stv_port":0,"stv_name":"","players":null},{"server_id":13,"name":"Uncletopia | New York City | 1 | All Maps","name_short":"nyc-1","host":"nyc-1.us.uncletopia.com","port":27015,"enabled":true,"region":"us-east","cc":"us","latitude":40.73061,"longitude":-73.93524,"reserved":0,"last_update":"0001-01-01T00:00:00Z","name_a2s":"Uncletopia | New York City | 1 | All Maps","protocol":17,"map":"koth_brazil","folder":"tf","game":"Team Fortress","app_id":440,"player_count":2,"max_players":24,"Bots":0,"server_type":"Dedicated","server_os":"Linux","password":true,"vac":true,"version":"7961495","steam_id":85568392924469993,"keywords":["cp","nocrits","nodmgspread","uncletopia"],"game_id":440,"stv_port":27016,"stv_name":"Uncletopia | New York City | 1 | All Maps | STV","players":[{"user_id":20,"name":"Hoopla","steam_id":76561198327775508,"connected_time":76000000000,"state":"active","ping":30},{"user_id":21,"name":"CAVAECHRIST","steam_id":76561199092677510,"connected_time":9000000000,"state":"spawning","ping":32}]},{"server_id":14,"name":"Uncletopia | New York City | 2 | All Maps","name_short":"nyc-2","host":"nyc-1.us.uncletopia.com","port":27025,"enabled":true,"region":"us-east","cc":"us","latitude":40.73061,"longitude":-73.93524,"reserved":0,"last_update":"0001-01-01T00:00:00Z","name_a2s":"Uncletopia | New York City | 2 | All Maps","protocol":17,"map":"cp_process_final","folder":"tf","game":"Team Fortress","app_id":440,"player_count":0,"max_players":24,"Bots":0,"server_type":"Dedicated","server_os":"Linux","password":true,"vac":true,"version":"7961495","steam_id":85568392924469994,"keywords":["cp","nocrits","nodmgspread","uncletopia"],"game_id":440,"stv_port":27026,"stv_name":"Uncletopia | New York City | 2 | All Maps | STV","players":null},{"server_id":15,"name":"Uncletopia | New York City | 3 | Stopwatch","name_short":"nyc-3","host":"nyc-1.us.uncletopia.com","port":27035,"enabled":true,"region":"us-east","cc":"us","latitude":40.73061,"longitude":-73.93524,"reserved":0,"last_update":"0001-01-01T00:00:00Z","name_a2s":"Uncletopia | New York City | 3 | Stopwatch","protocol":17,"map":"workshop/cp_reckoner_rc6.ugc674719999","folder":"tf","game":"Team Fortress","app_id":440,"player_count":0,"max_players":24,"Bots":0,"server_type":"Dedicated","server_os":"Linux","password":true,"vac":true,"version":"7961495","steam_id":85568392924742820,"keywords":["cp","nocrits","nodmgspread","uncletopia"],"game_id":440,"stv_port":27036,"stv_name":"Uncletopia | New York City | 3 | Stopwatch | STV","players":null},{"server_id":16,"name":"Uncletopia | New York City | 4 | Community","name_short":"nyc-4","host":"nyc-1.us.uncletopia.com","port":27045,"enabled":true,"region":"us-east","cc":"us","latitude":40.73061,"longitude":-73.93524,"reserved":0,"last_update":"0001-01-01T00:00:00Z","name_a2s":"Uncletopia | New York City | 4 | Community","protocol":17,"map":"workshop/cp_indulge.ugc528106646","folder":"tf","game":"Team Fortress","app_id":440,"player_count":0,"max_players":24,"Bots":0,"server_type":"Dedicated","server_os":"Linux","password":true,"vac":true,"version":"7961495","steam_id":85568392924742821,"keywords":["cp","nocrits","nodmgspread","uncletopia"],"game_id":440,"stv_port":27046,"stv_name":"Uncletopia | New York City | 4 | Community | STV","players":null},{"server_id":142,"name":"Uncletopia | São Paulo | 1 | All Maps","name_short":"sao-1","host":"sao-1.br.uncletopia.com","port":27015,"enabled":true,"region":"sa","cc":"br","latitude":-23.533773,"longitude":-46.62529,"reserved":0,"last_update":"0001-01-01T00:00:00Z","name_a2s":"Uncletopia | São Paulo | 1 | All Maps","protocol":17,"map":"cp_granary","folder":"tf","game":"Team Fortress","app_id":440,"player_count":0,"max_players":24,"Bots":0,"server_type":"Dedicated","server_os":"Linux","password":true,"vac":true,"version":"7961495","steam_id":85568392924469996,"keywords":["cp","nocrits","nodmgspread","uncletopia"],"game_id":440,"stv_port":27016,"stv_name":"Uncletopia | São Paulo | 1 | All Maps | STV","players":null},{"server_id":143,"name":"Uncletopia | São Paulo | 2 | Community","name_short":"sao-2","host":"sao-2.br.uncletopia.com","port":27015,"enabled":true,"region":"sa","cc":"br","latitude":-23.533773,"longitude":-46.62529,"reserved":0,"last_update":"0001-01-01T00:00:00Z","name_a2s":"Uncletopia | São Paulo | 2 | Community","protocol":17,"map":"workshop/koth_product_final.ugc454272353","folder":"tf","game":"Team Fortress","app_id":440,"player_count":0,"max_players":24,"Bots":0,"server_type":"Dedicated","server_os":"Linux","password":true,"vac":true,"version":"7961495","steam_id":85568392924485349,"keywords":["cp","nocrits","nodmgspread","uncletopia"],"game_id":440,"stv_port":27016,"stv_name":"Uncletopia | São Paulo | 2 | Community | STV","players":null},{"server_id":7,"name":"Uncletopia | Seattle | 1 | All Maps","name_short":"sea-1","host":"sea-1.us.uncletopia.com","port":27015,"enabled":true,"region":"us-west","cc":"us","latitude":47.608013,"longitude":-122.33517,"reserved":0,"last_update":"0001-01-01T00:00:00Z","name_a2s":"Uncletopia | Seattle | 1 | All Maps","protocol":17,"map":"cp_process_final","folder":"tf","game":"Team Fortress","app_id":440,"player_count":22,"max_players":24,"Bots":0,"server_type":"Dedicated","server_os":"Linux","password":true,"vac":true,"version":"7961495","steam_id":85568392924469997,"keywords":["cp","nocrits","nodmgspread","uncletopia"],"game_id":440,"stv_port":27016,"stv_name":"Uncletopia | Seattle | 1 | All Maps | STV","players":[{"user_id":180,"name":"canna van gogh","steam_id":76561198056331193,"connected_time":279000000000,"state":"active","ping":46},{"user_id":149,"name":"[TrC] Dackstrus","steam_id":76561197973518509,"connected_time":2593000000000,"state":"active","ping":54},{"user_id":162,"name":"oskeB","steam_id":76561198131526809,"connected_time":1268000000000,"state":"active","ping":66},{"user_id":154,"name":"AirMan121","steam_id":76561198042951349,"connected_time":2303000000000,"state":"active","ping":62},{"user_id":178,"name":"suck it sideways","steam_id":76561198327633561,"connected_time":536000000000,"state":"active","ping":82},{"user_id":183,"name":"All Tomorrow's Parties","steam_id":76561197995936212,"connected_time":125000000000,"state":"active","ping":88},{"user_id":182,"name":"nikeshoe92","steam_id":76561197973093864,"connected_time":242000000000,"state":"active","ping":113},{"user_id":166,"name":"Mikke","steam_id":76561198170234003,"connected_time":991000000000,"state":"active","ping":76},{"user_id":184,"name":"pim","steam_id":76561198095163441,"connected_time":86000000000,"state":"active","ping":99},{"user_id":179,"name":"vfa","steam_id":76561198055729118,"connected_time":385000000000,"state":"active","ping":56},{"user_id":175,"name":"Ridley","steam_id":76561198014857463,"connected_time":816000000000,"state":"active","ping":115},{"user_id":137,"name":"dust | it/she [no mic]","steam_id":76561198045218909,"connected_time":3830000000000,"state":"active","ping":44},{"user_id":167,"name":"Hazel (Racist)","steam_id":76561199247095754,"connected_time":965000000000,"state":"active","ping":54},{"user_id":158,"name":"Oktayey","steam_id":76561198143213426,"connected_time":1485000000000,"state":"active","ping":62},{"user_id":168,"name":"marlow","steam_id":76561198094408360,"connected_time":957000000000,"state":"active","ping":120},{"user_id":174,"name":"Frank","steam_id":76561198428759980,"connected_time":833000000000,"state":"active","ping":32},{"user_id":170,"name":"LAB8","steam_id":76561198047743526,"connected_time":944000000000,"state":"active","ping":40},{"user_id":171,"name":"penetreitor","steam_id":76561198278519600,"connected_time":938000000000,"state":"active","ping":120},{"user_id":151,"name":"Petrivus","steam_id":76561198202152453,"connected_time":2469000000000,"state":"active","ping":45},{"user_id":172,"name":"Judith The Adversary","steam_id":76561198932113568,"connected_time":920000000000,"state":"active","ping":149},{"user_id":177,"name":"zinnk","steam_id":76561198092081825,"connected_time":566000000000,"state":"active","ping":59},{"user_id":176,"name":"OGBobbyJohns","steam_id":76561197964339077,"connected_time":656000000000,"state":"active","ping":45}]},{"server_id":119,"name":"Uncletopia | Seattle | 2 | All Maps","name_short":"sea-2","host":"sea-1.us.uncletopia.com","port":27025,"enabled":true,"region":"us-west","cc":"us","latitude":47.608013,"longitude":-122.33517,"reserved":0,"last_update":"0001-01-01T00:00:00Z","name_a2s":"Uncletopia | Seattle | 2 | All Maps","protocol":17,"map":"koth_lakeside_final","folder":"tf","game":"Team Fortress","app_id":440,"player_count":1,"max_players":24,"Bots":0,"server_type":"Dedicated","server_os":"Linux","password":true,"vac":true,"version":"7961495","steam_id":85568392924469998,"keywords":["cp","nocrits","nodmgspread","uncletopia"],"game_id":440,"stv_port":27026,"stv_name":"Uncletopia | Seattle | 2 | All Maps | STV","players":[{"user_id":5,"name":"Marge \"ZaZa\" Simpson","steam_id":76561198156496197,"connected_time":553000000000,"state":"active","ping":89}]},{"server_id":406,"name":"Uncletopia | Seattle | 3 | Stopwatch","name_short":"sea-3","host":"sea-1.us.uncletopia.com","port":27035,"enabled":true,"region":"us-west","cc":"us","latitude":47.608013,"longitude":-122.33517,"reserved":0,"last_update":"0001-01-01T00:00:00Z","name_a2s":"Uncletopia | Seattle | 3 | Stopwatch","protocol":17,"map":"cp_gullywash_final1","folder":"tf","game":"Team Fortress","app_id":440,"player_count":0,"max_players":24,"Bots":0,"server_type":"Dedicated","server_os":"Linux","password":true,"vac":true,"version":"7961495","steam_id":85568392924515217,"keywords":["cp","nocrits","nodmgspread","uncletopia"],"game_id":440,"stv_port":27036,"stv_name":"Uncletopia | Seattle | 3 | Stopwatch | STV","players":null},{"server_id":17,"name":"Uncletopia | San Francisco | 1 | All Maps","name_short":"sfo-1","host":"sfo-1.us.uncletopia.com","port":27015,"enabled":true,"region":"us-west","cc":"us","latitude":37.77397,"longitude":-122.4313,"reserved":0,"last_update":"0001-01-01T00:00:00Z","name_a2s":"Uncletopia | San Francisco | 1 | All Maps","protocol":17,"map":"koth_highpass","folder":"tf","game":"Team Fortress","app_id":440,"player_count":0,"max_players":24,"Bots":0,"server_type":"Dedicated","server_os":"Linux","password":true,"vac":true,"version":"7961495","steam_id":85568392924469999,"keywords":["cp","nocrits","nodmgspread","uncletopia"],"game_id":440,"stv_port":27016,"stv_name":"Uncletopia | San Francisco | 1 | All Maps | STV","players":null},{"server_id":18,"name":"Uncletopia | San Francisco | 2 | All Maps","name_short":"sfo-2","host":"sfo-1.us.uncletopia.com","port":27025,"enabled":true,"region":"us-west","cc":"us","latitude":37.77397,"longitude":-122.4313,"reserved":0,"last_update":"0001-01-01T00:00:00Z","name_a2s":"Uncletopia | San Francisco | 2 | All Maps","protocol":17,"map":"koth_cascade","folder":"tf","game":"Team Fortress","app_id":440,"player_count":0,"max_players":24,"Bots":0,"server_type":"Dedicated","server_os":"Linux","password":true,"vac":true,"version":"7961495","steam_id":85568392924470000,"keywords":["cp","nocrits","nodmgspread","uncletopia"],"game_id":440,"stv_port":27026,"stv_name":"Uncletopia | San Francisco | 2 | All Maps | STV","players":null},{"server_id":19,"name":"Uncletopia | San Francisco | 3 | Stopwatch","name_short":"sfo-3","host":"sfo-1.us.uncletopia.com","port":27035,"enabled":true,"region":"us-west","cc":"us","latitude":37.77397,"longitude":-122.4313,"reserved":0,"last_update":"0001-01-01T00:00:00Z","name_a2s":"Uncletopia | San Francisco | 3 | Stopwatch","protocol":17,"map":"workshop/koth_product_final.ugc454272353","folder":"tf","game":"Team Fortress","app_id":440,"player_count":0,"max_players":24,"Bots":0,"server_type":"Dedicated","server_os":"Linux","password":true,"vac":true,"version":"7961495","steam_id":85568392924742824,"keywords":["cp","nocrits","nodmgspread","uncletopia"],"game_id":440,"stv_port":27036,"stv_name":"Uncletopia | San Francisco | 3 | Stopwatch | STV","players":null},{"server_id":20,"name":"Uncletopia | San Francisco | 4 | Community","name_short":"sfo-4","host":"sfo-1.us.uncletopia.com","port":27045,"enabled":true,"region":"us-west","cc":"us","latitude":37.77397,"longitude":-122.4313,"reserved":0,"last_update":"0001-01-01T00:00:00Z","name_a2s":"Uncletopia | San Francisco | 4 | Community","protocol":17,"map":"workshop/cp_reckoner_rc6.ugc674719999","folder":"tf","game":"Team Fortress","app_id":440,"player_count":0,"max_players":24,"Bots":0,"server_type":"Dedicated","server_os":"Linux","password":true,"vac":true,"version":"7961495","steam_id":85568392924742826,"keywords":["cp","nocrits","nodmgspread","uncletopia"],"game_id":440,"stv_port":27046,"stv_name":"Uncletopia | San Francisco | 4 | Community | STV","players":null},{"server_id":141,"name":"Uncletopia | Sydney | 1 | All Maps","name_short":"syd-1","host":"syd-1.au.uncletopia.com","port":27015,"enabled":true,"region":"au","cc":"au","latitude":-33.865143,"longitude":151.2099,"reserved":0,"last_update":"0001-01-01T00:00:00Z","name_a2s":"Uncletopia | Sydney | 1 | All Maps","protocol":17,"map":"ctf_2fort","folder":"tf","game":"Team Fortress","app_id":440,"player_count":0,"max_players":24,"Bots":0,"server_type":"Dedicated","server_os":"Linux","password":true,"vac":true,"version":"7961495","steam_id":85568392924470001,"keywords":["ctf","nocrits","nodmgspread","uncletopia"],"game_id":440,"stv_port":27016,"stv_name":"Uncletopia | Sydney | 1 | All Maps | STV","players":null},{"server_id":123,"name":"Uncletopia | Sydney | 2 | All Maps","name_short":"syd-2","host":"syd-1.au.uncletopia.com","port":27025,"enabled":true,"region":"au","cc":"au","latitude":-33.865143,"longitude":151.2099,"reserved":0,"last_update":"0001-01-01T00:00:00Z","name_a2s":"Uncletopia | Sydney | 2 | All Maps","protocol":17,"map":"cp_dustbowl","folder":"tf","game":"Team Fortress","app_id":440,"player_count":0,"max_players":24,"Bots":0,"server_type":"Dedicated","server_os":"Linux","password":true,"vac":true,"version":"7961495","steam_id":85568392924470002,"keywords":["cp","nocrits","nodmgspread","uncletopia"],"game_id":440,"stv_port":27026,"stv_name":"Uncletopia | Sydney | 2 | All Maps | STV","players":null},{"server_id":395,"name":"Uncletopia | Sydney | 3 | All Maps","name_short":"syd-3","host":"syd-1.au.uncletopia.com","port":27035,"enabled":true,"region":"au","cc":"au","latitude":-33.865143,"longitude":151.2099,"reserved":0,"last_update":"0001-01-01T00:00:00Z","name_a2s":"Uncletopia | Sydney | 3 | All Maps","protocol":17,"map":"cp_sunshine","folder":"tf","game":"Team Fortress","app_id":440,"player_count":0,"max_players":24,"Bots":0,"server_type":"Dedicated","server_os":"Linux","password":true,"vac":true,"version":"7961495","steam_id":85568392925194467,"keywords":["cp","nocrits","nodmgspread","uncletopia"],"game_id":440,"stv_port":27036,"stv_name":"Uncletopia | Sydney | 3 | All Maps | STV","players":null},{"server_id":396,"name":"Uncletopia | Sydney | 4 | All Maps","name_short":"syd-4","host":"syd-1.au.uncletopia.com","port":27045,"enabled":true,"region":"au","cc":"au","latitude":-33.865143,"longitude":151.2099,"reserved":0,"last_update":"0001-01-01T00:00:00Z","name_a2s":"Uncletopia | Sydney | 4 | All Maps","protocol":17,"map":"koth_cascade","folder":"tf","game":"Team Fortress","app_id":440,"player_count":0,"max_players":24,"Bots":0,"server_type":"Dedicated","server_os":"Linux","password":true,"vac":true,"version":"7961495","steam_id":85568392925397958,"keywords":["cp","nocrits","nodmgspread","uncletopia"],"game_id":440,"stv_port":27046,"stv_name":"Uncletopia | Sydney | 4 | All Maps | STV","players":null},{"server_id":58,"name":"Uncletopia | Sydney | 5 | Stopwatch","name_short":"syd-5","host":"syd-1.au.uncletopia.com","port":27055,"enabled":true,"region":"au","cc":"au","latitude":-33.865143,"longitude":151.2099,"reserved":0,"last_update":"0001-01-01T00:00:00Z","name_a2s":"Uncletopia | Sydney | 5 | Stopwatch","protocol":17,"map":"pl_borneo","folder":"tf","game":"Team Fortress","app_id":440,"player_count":1,"max_players":24,"Bots":0,"server_type":"Dedicated","server_os":"Linux","password":true,"vac":true,"version":"7961495","steam_id":85568392925397959,"keywords":["nocrits","nodmgspread","payload","uncletopia"],"game_id":440,"stv_port":27056,"stv_name":"Uncletopia | Sydney | 5 | Stopwatch | STV","players":[{"user_id":5,"name":"t.tv/catherine_x3","steam_id":76561198041907885,"connected_time":561000000000,"state":"active","ping":60}]},{"server_id":59,"name":"Uncletopia | Sydney | 6 | Community","name_short":"syd-6","host":"syd-1.au.uncletopia.com","port":27065,"enabled":true,"region":"au","cc":"au","latitude":-33.865143,"longitude":151.2099,"reserved":0,"last_update":"0001-01-01T00:00:00Z","name_a2s":"Uncletopia | Sydney | 6 | Community","protocol":17,"map":"workshop/koth_ashville_final.ugc2130459942","folder":"tf","game":"Team Fortress","app_id":440,"player_count":0,"max_players":24,"Bots":0,"server_type":"Dedicated","server_os":"Linux","password":true,"vac":true,"version":"7961495","steam_id":85568392925397960,"keywords":["cp","nocrits","nodmgspread","uncletopia"],"game_id":440,"stv_port":27066,"stv_name":"Uncletopia | Sydney | 6 | Community | STV","players":null},{"server_id":49,"name":"Uncletopia | Warsaw | 1 | One Thousand Uncles","name_short":"waw-1","host":"waw-1.pl.uncletopia.com","port":27015,"enabled":true,"region":"eu","cc":"pl","latitude":52.2297,"longitude":21.017532,"reserved":0,"last_update":"0001-01-01T00:00:00Z","name_a2s":"Uncletopia | Warsaw | 1 | One Thousand Uncles","protocol":17,"map":"pl_upward","folder":"tf","game":"Team Fortress","app_id":440,"player_count":27,"max_players":32,"Bots":16,"server_type":"Dedicated","server_os":"Linux","password":true,"vac":true,"version":"7961495","steam_id":85568392925397850,"keywords":["alltalk","bots","danepve","increased_maxplayers","norespawntime","payload","uncletopia"],"game_id":440,"stv_port":0,"stv_name":"","players":[{"user_id":444,"name":"Ve1zei1","steam_id":76561199418028100,"connected_time":3217000000000,"state":"active","ping":89},{"user_id":448,"name":"CHEK","steam_id":76561199474613865,"connected_time":2901000000000,"state":"active","ping":68},{"user_id":466,"name":"Senpaiツ","steam_id":76561198857611627,"connected_time":1519000000000,"state":"active","ping":76},{"user_id":483,"name":"Jansku","steam_id":76561198321340149,"connected_time":1432000000000,"state":"active","ping":102},{"user_id":484,"name":"Slav_monke","steam_id":76561199243657026,"connected_time":1263000000000,"state":"active","ping":61},{"user_id":485,"name":"DaNugget_Prime","steam_id":76561198360512945,"connected_time":1204000000000,"state":"active","ping":60},{"user_id":496,"name":"𝓹𝓱𝓪𝓷𝓽𝓸𝓶","steam_id":76561199095923041,"connected_time":293000000000,"state":"active","ping":148},{"user_id":452,"name":"Emuruh","steam_id":76561198312038610,"connected_time":2465000000000,"state":"active","ping":59},{"user_id":487,"name":"asad.khan078909","steam_id":76561199508257502,"connected_time":1060000000000,"state":"active","ping":71},{"user_id":458,"name":"SpongKebab","steam_id":76561199489987701,"connected_time":2060000000000,"state":"active","ping":101},{"user_id":492,"name":"Smartest Person In the Universe","steam_id":76561199444636848,"connected_time":652000000000,"state":"active","ping":86}]},{"server_id":50,"name":"Uncletopia | Warsaw | 2 | One Thousand Uncles","name_short":"waw-2","host":"waw-1.pl.uncletopia.com","port":27025,"enabled":true,"region":"eu","cc":"pl","latitude":52.2297,"longitude":21.017532,"reserved":0,"last_update":"0001-01-01T00:00:00Z","name_a2s":"Uncletopia | Warsaw | 2 | One Thousand Uncles","protocol":17,"map":"pl_goldrush","folder":"tf","game":"Team Fortress","app_id":440,"player_count":26,"max_players":32,"Bots":16,"server_type":"Dedicated","server_os":"Linux","password":true,"vac":true,"version":"7961495","steam_id":85568392925397851,"keywords":["alltalk","bots","danepve","increased_maxplayers","norespawntime","payload","uncletopia"],"game_id":440,"stv_port":0,"stv_name":"","players":[{"user_id":21,"name":"d u k k i","steam_id":76561198071807437,"connected_time":8079000000000,"state":"active","ping":48},{"user_id":140,"name":"Arkenstein","steam_id":76561199091543520,"connected_time":138000000000,"state":"active","ping":78},{"user_id":139,"name":"Octopus","steam_id":76561199387405278,"connected_time":506000000000,"state":"active","ping":48},{"user_id":92,"name":"Phisor","steam_id":76561198233450952,"connected_time":3068000000000,"state":"active","ping":71},{"user_id":131,"name":"ZharMeny","steam_id":76561199086841610,"connected_time":1802000000000,"state":"active","ping":107},{"user_id":133,"name":"Miedzan","steam_id":76561198405250516,"connected_time":1301000000000,"state":"active","ping":45},{"user_id":134,"name":"Zodaick","steam_id":76561198083662129,"connected_time":1283000000000,"state":"active","ping":59},{"user_id":135,"name":"АzMp3","steam_id":76561199096907268,"connected_time":999000000000,"state":"active","ping":112},{"user_id":138,"name":"Facebook Blaster","steam_id":76561198050292560,"connected_time":577000000000,"state":"active","ping":57},{"user_id":141,"name":"King_mario","steam_id":76561199496012006,"connected_time":32000000000,"state":"active","ping":56}]},{"server_id":51,"name":"Uncletopia | Warsaw | 3 | All Maps","name_short":"waw-3","host":"waw-1.pl.uncletopia.com","port":27035,"enabled":true,"region":"eu","cc":"pl","latitude":52.2297,"longitude":21.017532,"reserved":0,"last_update":"0001-01-01T00:00:00Z","name_a2s":"Uncletopia | Warsaw | 3 | All Maps","protocol":17,"map":"koth_viaduct","folder":"tf","game":"Team Fortress","app_id":440,"player_count":0,"max_players":24,"Bots":0,"server_type":"Dedicated","server_os":"Linux","password":true,"vac":true,"version":"7961495","steam_id":85568392925397852,"keywords":["cp","nocrits","nodmgspread","uncletopia"],"game_id":440,"stv_port":27036,"stv_name":"Uncletopia | Warsaw | 3 | All Maps | STV","players":null},{"server_id":52,"name":"Uncletopia | Warsaw | 4 | All Maps","name_short":"waw-4","host":"waw-1.pl.uncletopia.com","port":27045,"enabled":true,"region":"eu","cc":"pl","latitude":52.2297,"longitude":21.017532,"reserved":0,"last_update":"0001-01-01T00:00:00Z","name_a2s":"Uncletopia | Warsaw | 4 | All Maps","protocol":17,"map":"cp_mountainlab","folder":"tf","game":"Team Fortress","app_id":440,"player_count":0,"max_players":24,"Bots":0,"server_type":"Dedicated","server_os":"Linux","password":true,"vac":true,"version":"7961495","steam_id":85568392925397853,"keywords":["cp","nocrits","nodmgspread","uncletopia"],"game_id":440,"stv_port":27046,"stv_name":"Uncletopia | Warsaw | 4 | All Maps | STV","players":null},{"server_id":53,"name":"Uncletopia | Warsaw | 5 | Stopwatch","name_short":"waw-5","host":"waw-1.pl.uncletopia.com","port":27055,"enabled":true,"region":"eu","cc":"pl","latitude":52.2297,"longitude":21.017532,"reserved":0,"last_update":"0001-01-01T00:00:00Z","name_a2s":"Uncletopia | Warsaw | 5 | Stopwatch","protocol":17,"map":"koth_highpass","folder":"tf","game":"Team Fortress","app_id":440,"player_count":0,"max_players":24,"Bots":0,"server_type":"Dedicated","server_os":"Linux","password":true,"vac":true,"version":"7961495","steam_id":85568392925397854,"keywords":["cp","nocrits","nodmgspread","uncletopia"],"game_id":440,"stv_port":27056,"stv_name":"Uncletopia | Warsaw | 5 | Stopwatch | STV","players":null},{"server_id":54,"name":"Uncletopia | Warsaw | 6 | Community","name_short":"waw-6","host":"waw-1.pl.uncletopia.com","port":27065,"enabled":true,"region":"eu","cc":"pl","latitude":52.2297,"longitude":21.017532,"reserved":0,"last_update":"0001-01-01T00:00:00Z","name_a2s":"Uncletopia | Warsaw | 6 | Community","protocol":17,"map":"workshop/cp_fulgur_rc2a.ugc2068252300","folder":"tf","game":"Team Fortress","app_id":440,"player_count":0,"max_players":24,"Bots":0,"server_type":"Dedicated","server_os":"Linux","password":true,"vac":true,"version":"7961495","steam_id":85568392925397856,"keywords":["cp","nocrits","nodmgspread","uncletopia"],"game_id":440,"stv_port":27066,"stv_name":"Uncletopia | Warsaw | 6 | Community | STV","players":null}]}