{"status":true,"message":"","result":[{"server_id":9,"name":"Uncletopia | Atlanta | 1 | All Maps","name_short":"atl-1","host":"atl-1.us.uncletopia.com","port":27015,"enabled":true,"region":"us-east","cc":"us","latitude":33.753746,"longitude":-84.38633,"reserved":0,"last_update":"0001-01-01T00:00:00Z","name_a2s":"Uncletopia | Atlanta | 1 | All Maps","protocol":17,"map":"pl_barnblitz","folder":"tf","game":"Team Fortress","app_id":440,"player_count":24,"max_players":24,"Bots":0,"server_type":"Dedicated","server_os":"Linux","password":true,"vac":true,"version":"7961495","steam_id":85568392924469982,"keywords":["nocrits","nodmgspread","payload","uncletopia"],"game_id":440,"stv_port":27016,"stv_name":"Uncletopia | Atlanta | 1 | All Maps | STV","players":null},{"server_id":104,"name":"Uncletopia | Atlanta | 2 | All Maps","name_short":"atl-2","host":"atl-1.us.uncletopia.com","port":27025,"enabled":true,"region":"us-east","cc":"us","latitude":33.753746,"longitude":-84.38633,"reserved":0,"last_update":"0001-01-01T00:00:00Z","name_a2s":"Uncletopia | Atlanta | 2 | All Maps","protocol":17,"map":"koth_highpass","folder":"tf","game":"Team Fortress","app_id":440,"player_count":2,"max_players":24,"Bots":0,"server_type":"Dedicated","server_os":"Linux","password":true,"vac":true,"version":"7961495","steam_id":85568392924469983,"keywords":["cp","nocrits","nodmgspread","uncletopia"],"game_id":440,"stv_port":27026,"stv_name":"Uncletopia | Atlanta | 2 | All Maps | STV","players":null},{"server_id":400,"name":"Uncletopia | Atlanta | 3 | All Maps","name_short":"atl-3","host":"atl-1.us.uncletopia.com","port":27035,"enabled":true,"region":"us-east","cc":"us","latitude":33.753746,"longitude":-84.38633,"reserved":0,"last_update":"0001-01-01T00:00:00Z","name_a2s":"Uncletopia | Atlanta | 3 | All Maps","protocol":17,"map":"pl_hoodoo_final","folder":"tf","game":"Team Fortress","app_id":440,"player_count":19,"max_players":24,"Bots":0,"server_type":"Dedicated","server_os":"Linux","password":true,"vac":true,"version":"7961495","steam_id":85568392924515187,"keywords":["nocrits","nodmgspread","payload","uncletopia"],"game_id":440,"stv_port":27036,"stv_name":"Uncletopia | Atlanta | 3 | All Maps | STV","players":null},{"server_id":401,"name":"Uncletopia | Atlanta | 4 | Community","name_short":"atl-4","host":"atl-1.us.uncletopia.com","port":27045,"enabled":true,"region":"us-east","cc":"us","latitude":33.753746,"longitude":-84.38633,"reserved":0,"last_update":"0001-01-01T00:00:00Z","name_a2s":"Uncletopia | Atlanta | 4 | Community","protocol":17,"map":"pl_eruption_b9a","folder":"tf","game":"Team Fortress","app_id":440,"player_count":0,"max_players":24,"Bots":0,"server_type":"Dedicated","server_os":"Linux","password":true,"vac":true,"version":"7961495","steam_id":85568392924515188,"keywords":["nocrits","nodmgspread","payload","uncletopia"],"game_id":440,"stv_port":27046,"stv_name":"Uncletopia | Atlanta | 4 | Community | STV","players":null},{"server_id":2,"name":"Uncletopia | Chicago | 1 | All Maps","name_short":"chi-1","host":"chi-1.us.uncletopia.com","port":27015,"enabled":true,"region":"us-central","cc":"us","latitude":41.881832,"longitude":-87.62318,"reserved":0,"last_update":"0001-01-01T00:00:00Z","name_a2s":"Uncletopia | Chicago | 1 | All Maps","protocol":17,"map":"cp_junction_final","folder":"tf","game":"Team Fortress","app_id":440,"player_count":23,"max_players":24,"Bots":0,"server_type":"Dedicated","server_os":"Linux","password":true,"vac":true,"version":"7961495","steam_id":85568392924469984,"keywords":["cp","nocrits","nodmgspread","uncletopia"],"game_id":440,"stv_port":27016,"stv_name":"Uncletopia | Chicago | 1 | All Maps | STV","players":[{"user_id":301,"name":"brandon von hoesli","steam_id":76561198156333207,"connected_time":4763000000000,"state":"active","ping":97},{"user_id":359,"name":"xiii","steam_id":76561198079416036,"connected_time":1981000000000,"state":"active","ping":44},{"user_id":314,"name":"DuckMann","steam_id":76561198197058638,"connected_time":3671000000000,"state":"active","ping":60},{"user_id":354,"name":"fear_the-penguins","steam_id":76561199013292217,"connected_time":2220000000000,"state":"active","ping":66},{"user_id":344,"name":"Peepster","steam_id":76561198297854733,"connected_time":2958000000000,"state":"active","ping":71},{"user_id":308,"name":"Ghille","steam_id":76561198027234838,"connected_time":4055000000000,"state":"active","ping":48},{"user_id":370,"name":"DeLinda","steam_id":76561198095321611,"connected_time":557000000000,"state":"active","ping":51},{"user_id":371,"name":"TSX","steam_id":76561198417313493,"connected_time":548000000000,"state":"active","ping":73},{"user_id":346,"name":"Lektic","steam_id":76561199124304208,"connected_time":2941000000000,"state":"active","ping":55},{"user_id":365,"name":"Astoriae!","steam_id":76561199090168858,"connected_time":1094000000000,"state":"active","ping":68},{"user_id":372,"name":"unicornCatLili","steam_id":76561199391478575,"connected_time":521000000000,"state":"active","ping":112},{"user_id":373,"name":"Magic","steam_id":76561198354674755,"connected_time":507000000000,"state":"active","ping":54},{"user_id":379,"name":"Fiendish Flounder","steam_id":76561198026003224,"connected_time":301000000000,"state":"active","ping":64},{"user_id":375,"name":"Stormy","steam_id":76561198119467780,"connected_time":490000000000,"state":"active","ping":76},{"user_id":368,"name":"HarryjusttHarry","steam_id":76561198982810452,"connected_time":783000000000,"state":"active","ping":79},{"user_id":382,"name":"PhaserLazer","steam_id":76561198407341298,"connected_time":164000000000,"state":"active","ping":74},{"user_id":357,"name":"qwerty nubbit","steam_id":76561198119732249,"connected_time":2183000000000,"state":"active","ping":79},{"user_id":362,"name":"boys who say :3","steam_id":76561198392539722,"connected_time":1658000000000,"state":"active","ping":78},{"user_id":310,"name":"Aware","steam_id":76561198013338167,"connected_time":4022000000000,"state":"active","ping":59},{"user_id":350,"name":"ApertureCity","steam_id":76561198004153607,"connected_time":2461000000000,"state":"active","ping":81},{"user_id":383,"name":"Actual Furry Femboy Gamer","steam_id":76561199466934791,"connected_time":51000000000,"state":"active","ping":131},{"user_id":377,"name":"my name jeff","steam_id":76561198179816898,"connected_time":453000000000,"state":"active","ping":89},{"user_id":341,"name":"freyjaaaaaaaaaaaaaaaaaaaaaaaaaa","steam_id":76561198249206656,"connected_time":3248000000000,"state":"active","ping":70}]},{"server_id":106,"name":"Uncletopia | Chicago | 2 | All Maps","name_short":"chi-2","host":"chi-1.us.uncletopia.com","port":27025,"enabled":true,"region":"us-central","cc":"us","latitude":41.881832,"longitude":-87.62318,"reserved":0,"last_update":"0001-01-01T00:00:00Z","name_a2s":"Uncletopia | Chicago | 2 | All Maps","protocol":17,"map":"pl_borneo","folder":"tf","game":"Team Fortress","app_id":440,"player_count":24,"max_players":24,"Bots":0,"server_type":"Dedicated","server_os":"Linux","password":true,"vac":true,"version":"7961495","steam_id":85568392924469985,"keywords":["nocrits","nodmgspread","payload","uncletopia"],"game_id":440,"stv_port":27026,"stv_name":"Uncletopia | Chicago | 2 | All Maps | STV","players":[{"user_id":221,"name":"Dr. House","steam_id":76561198052910702,"connected_time":475000000000,"state":"active","ping":50},{"user_id":205,"name":"Omegacat69","steam_id":76561199224022636,"connected_time":1344000000000,"state":"active","ping":73},{"user_id":207,"name":"QuakAtack","steam_id":76561198870770157,"connected_time":1068000000000,"state":"active","ping":66},{"user_id":226,"name":"Deeeefers","steam_id":76561198082592496,"connected_time":64000000000,"state":"active","ping":95},{"user_id":219,"name":"FUCKMONKE(theanimalnotppl)","steam_id":76561198796487556,"connected_time":674000000000,"state":"active","ping":61},{"user_id":209,"name":"Flops","steam_id":76561197961030141,"connected_time":1053000000000,"state":"active","ping":96},{"user_id":202,"name":"Eyeless Painter","steam_id":76561198044030986,"connected_time":1715000000000,"state":"active","ping":85},{"user_id":152,"name":"TacoMan","steam_id":76561198049405741,"connected_time":4656000000000,"state":"active","ping":96},{"user_id":203,"name":"Aristotle Voulton","steam_id":76561198100174923,"connected_time":1458000000000,"state":"active","ping":82},{"user_id":195,"name":"captainskullet","steam_id":76561198314597170,"connected_time":2155000000000,"state":"active","ping":67},{"user_id":215,"name":"Willem Dafoe","steam_id":76561198037453253,"connected_time":887000000000,"state":"active","ping":61},{"user_id":218,"name":"5phunky_","steam_id":76561198045290207,"connected_time":781000000000,"state":"active","ping":60},{"user_id":211,"name":"A new Player(F2p)","steam_id":76561199388826335,"connected_time":1024000000000,"state":"active","ping":77},{"user_id":220,"name":"battle clown","steam_id":76561198045788371,"connected_time":517000000000,"state":"active","ping":66},{"user_id":197,"name":"DivineBanana","steam_id":76561198026529731,"connected_time":2071000000000,"state":"active","ping":90},{"user_id":204,"name":"Ðιяту BɄβblє","steam_id":76561198382555244,"connected_time":1441000000000,"state":"active","ping":79},{"user_id":223,"name":"MY LOVE DRIPS IN RED","steam_id":76561198072179483,"connected_time":102000000000,"state":"active","ping":91},{"user_id":176,"name":"Mer","steam_id":76561198192171041,"connected_time":3563000000000,"state":"active","ping":105},{"user_id":150,"name":"bunger","steam_id":76561199132076391,"connected_time":4714000000000,"state":"active","ping":57},{"user_id":115,"name":"Zhong Xina","steam_id":76561198048157121,"connected_time":7604000000000,"state":"active","ping":86},{"user_id":213,"name":"Citron","steam_id":76561198278687374,"connected_time":1015000000000,"state":"active","ping":71},{"user_id":216,"name":"donk","steam_id":76561198097138000,"connected_time":859000000000,"state":"active","ping":58},{"user_id":222,"name":"hjönk","steam_id":76561197998953817,"connected_time":224000000000,"state":"active","ping":59},{"user_id":225,"name":"owlxvll","steam_id":76561199181082977,"connected_time":88000000000,"state":"active","ping":109}]},{"server_id":402,"name":"Uncletopia | Chicago | 3 | All Maps","name_short":"chi-3","host":"chi-1.us.uncletopia.com","port":27035,"enabled":true,"region":"us-central","cc":"us","latitude":41.881832,"longitude":-87.62318,"reserved":0,"last_update":"0001-01-01T00:00:00Z","name_a2s":"Uncletopia | Chicago | 3 | All Maps","protocol":17,"map":"pl_barnblitz","folder":"tf","game":"Team Fortress","app_id":440,"player_count":23,"max_players":24,"Bots":0,"server_type":"Dedicated","server_os":"Linux","password":true,"vac":true,"version":"7961495","steam_id":85568392924515191,"keywords":["nocrits","nodmgspread","payload","uncletopia"],"game_id":440,"stv_port":27036,"stv_name":"Uncletopia | Chicago | 3 | All Maps | STV","players":[{"user_id":283,"name":"Wolfmeme","steam_id":76561198115713601,"connected_time":5273000000000,"state":"active","ping":87},{"user_id":288,"name":"I have no idea what I am doing?","steam_id":76561198093152207,"connected_time":4536000000000,"state":"active","ping":70},{"user_id":342,"name":"animeisbad","steam_id":76561199198005106,"connected_time":1019000000000,"state":"active","ping":78},{"user_id":354,"name":"@reallyBigBoss","steam_id":76561198137903950,"connected_time":434000000000,"state":"active","ping":71},{"user_id":340,"name":"Imabee","steam_id":76561198032523749,"connected_time":1146000000000,"state":"active","ping":65},{"user_id":355,"name":"paolobuts","steam_id":76561199047108638,"connected_time":394000000000,"state":"active","ping":69},{"user_id":356,"name":"Unwavering Flavor","steam_id":76561198053306065,"connected_time":394000000000,"state":"active","ping":80},{"user_id":312,"name":"AkimboAoki","steam_id":76561198158323058,"connected_time":3314000000000,"state":"active","ping":90},{"user_id":351,"name":"Sussin'","steam_id":76561198059813696,"connected_time":492000000000,"state":"active","ping":65},{"user_id":353,"name":"Elite_Friendly","steam_id":76561198819972127,"connected_time":471000000000,"state":"active","ping":92},{"user_id":339,"name":"Grimace D. Drippings","steam_id":76561198050849790,"connected_time":1298000000000,"state":"active","ping":117},{"user_id":357,"name":"Just a baby","steam_id":76561198018660838,"connected_time":391000000000,"state":"active","ping":96},{"user_id":359,"name":"SlurpyTheDog","steam_id":76561198799733154,"connected_time":300000000000,"state":"active","ping":57},{"user_id":345,"name":"toastman","steam_id":76561198207073088,"connected_time":969000000000,"state":"active","ping":91},{"user_id":360,"name":"[GUT] RiDiK®","steam_id":76561197969756446,"connected_time":284000000000,"state":"active","ping":59},{"user_id":336,"name":"ATL69 | weewa","steam_id":76561198064876090,"connected_time":1643000000000,"state":"active","ping":69},{"user_id":330,"name":"N00SE","steam_id":76561198211473307,"connected_time":1854000000000,"state":"active","ping":61},{"user_id":323,"name":"Captain Bug","steam_id":76561198137763878,"connected_time":2050000000000,"state":"active","ping":83},{"user_id":361,"name":"Person","steam_id":76561198093244204,"connected_time":273000000000,"state":"active","ping":73},{"user_id":362,"name":"BiasZebra","steam_id":76561198882072568,"connected_time":227000000000,"state":"active","ping":75},{"user_id":346,"name":"Hashslinging Slasher","steam_id":76561198099015430,"connected_time":959000000000,"state":"active","ping":124},{"user_id":349,"name":"NoobCesar","steam_id":76561198095250755,"connected_time":780000000000,"state":"active","ping":63},{"user_id":318,"name":"vectorman","steam_id":76561198274544005,"connected_time":3205000000000,"state":"active","ping":61}]},{"server_id":403,"name":"Uncletopia | Chicago | 4 | All Maps","name_short":"chi-4","host":"chi-1.us.uncletopia.com","port":27045,"enabled":true,"region":"us-central","cc":"us","latitude":41.881832,"longitude":-87.62318,"reserved":0,"last_update":"0001-01-01T00:00:00Z","name_a2s":"Uncletopia | Chicago | 4 | All Maps","protocol":17,"map":"pl_barnblitz","folder":"tf","game":"Team Fortress","app_id":440,"player_count":24,"max_players":24,"Bots":0,"server_type":"Dedicated","server_os":"Linux","password":true,"vac":true,"version":"7961495","steam_id":85568392924515193,"keywords":["nocrits","nodmgspread","payload","uncletopia"],"game_id":440,"stv_port":27046,"stv_name":"Uncletopia | Chicago | 4 | All Maps | STV","players":[{"user_id":228,"name":"dedaF","steam_id":76561198006568936,"connected_time":797000000000,"state":"active","ping":109},{"user_id":230,"name":"tuna","steam_id":76561198034955422,"connected_time":662000000000,"state":"active","ping":142},{"user_id":205,"name":"Crazy Dave!","steam_id":76561198951414566,"connected_time":1887000000000,"state":"active","ping":71},{"user_id":231,"name":"Capybara Enjoyer","steam_id":76561199147114434,"connected_time":329000000000,"state":"active","ping":109},{"user_id":201,"name":"w a l k  q u i e t","steam_id":76561198143453873,"connected_time":2058000000000,"state":"active","ping":52},{"user_id":202,"name":"I don't have object permanence","steam_id":76561198075325837,"connected_time":2040000000000,"state":"active","ping":45},{"user_id":225,"name":"BNTF","steam_id":76561198062740087,"connected_time":1310000000000,"state":"active","ping":76},{"user_id":175,"name":"Dum_Bass(Fish)","steam_id":76561197988105207,"connected_time":3369000000000,"state":"active","ping":70},{"user_id":209,"name":"=Silver=","steam_id":76561198292307127,"connected_time":1760000000000,"state":"active","ping":100},{"user_id":233,"name":"King Of The Chill","steam_id":76561197971394640,"connected_time":285000000000,"state":"active","ping":98},{"user_id":226,"name":"butterdick dog","steam_id":76561198067926582,"connected_time":1260000000000,"state":"active","ping":88},{"user_id":220,"name":"Scrumpy Main","steam_id":76561198146302597,"connected_time":1498000000000,"state":"active","ping":54},{"user_id":196,"name":"not a good idea","steam_id":76561198032259680,"connected_time":2368000000000,"state":"active","ping":68},{"user_id":215,"name":"goblin?","steam_id":76561198007192438,"connected_time":1587000000000,"state":"active","ping":67},{"user_id":179,"name":"CraigMode","steam_id":76561198997956347,"connected_time":3314000000000,"state":"active","ping":90},{"user_id":234,"name":"Gingie","steam_id":76561198258981931,"connected_time":249000000000,"state":"active","ping":103},{"user_id":217,"name":"Kamin","steam_id":76561198255299559,"connected_time":1568000000000,"state":"active","ping":87},{"user_id":218,"name":"kid named amogus","steam_id":76561198156093674,"connected_time":1561000000000,"state":"active","ping":58},{"user_id":221,"name":"☆","steam_id":76561199089788373,"connected_time":1475000000000,"state":"active","ping":89},{"user_id":222,"name":"Sulong","steam_id":76561198798244209,"connected_time":1457000000000,"state":"active","ping":72},{"user_id":187,"name":"1-800-GHOST-DANCE","steam_id":76561198835430429,"connected_time":3146000000000,"state":"active","ping":90},{"user_id":188,"name":"Sunflower","steam_id":76561198081223793,"connected_time":3132000000000,"state":"active","ping":56},{"user_id":235,"name":"frank","steam_id":76561198137777483,"connected_time":240000000000,"state":"active","ping":92},{"user_id":236,"name":"sppmorris","steam_id":76561199055512312,"connected_time":183000000000,"state":"active","ping":60}]},{"server_id":36,"name":"Uncletopia | Chicago | 5 | All Maps","name_short":"chi-5","host":"chi-2.us.uncletopia.com","port":27015,"enabled":true,"region":"us-central","cc":"us","latitude":41.881832,"longitude":-87.62318,"reserved":0,"last_update":"0001-01-01T00:00:00Z","name_a2s":"Uncletopia | Chicago | 5 | All Maps","protocol":17,"map":"pl_upward","folder":"tf","game":"Team Fortress","app_id":440,"player_count":24,"max_players":24,"Bots":0,"server_type":"Dedicated","server_os":"Linux","password":true,"vac":true,"version":"7961495","steam_id":85568392924866362,"keywords":["nocrits","nodmgspread","payload","uncletopia"],"game_id":440,"stv_port":27016,"stv_name":"Uncletopia | Chicago | 5 | All Maps | STV","players":[{"user_id":241,"name":"Buckeye Crusader","steam_id":76561198126115279,"connected_time":727000000000,"state":"active","ping":74},{"user_id":162,"name":"BEHUGGING1","steam_id":76561198126386686,"connected_time":5266000000000,"state":"active","ping":45},{"user_id":245,"name":"nova","steam_id":76561199129194252,"connected_time":502000000000,"state":"active","ping":65},{"user_id":222,"name":"pepsi mario","steam_id":76561198097804555,"connected_time":1336000000000,"state":"active","ping":77},{"user_id":192,"name":"turnkeyson","steam_id":76561199168848749,"connected_time":2937000000000,"state":"active","ping":63},{"user_id":193,"name":"CorsaireCruiser","steam_id":76561199471511497,"connected_time":2891000000000,"state":"active","ping":102},{"user_id":243,"name":"eat Pant","steam_id":76561197974965536,"connected_time":591000000000,"state":"active","ping":59},{"user_id":223,"name":"Frog CEO","steam_id":76561198075153213,"connected_time":1328000000000,"state":"active","ping":81},{"user_id":248,"name":"Barium_Oxide","steam_id":76561198318491448,"connected_time":186000000000,"state":"active","ping":47},{"user_id":246,"name":"cloaker","steam_id":76561199453618642,"connected_time":354000000000,"state":"active","ping":88},{"user_id":229,"name":"LittleFieryOne","steam_id":76561198107463724,"connected_time":1038000000000,"state":"active","ping":59},{"user_id":242,"name":"O13","steam_id":76561198830608237,"connected_time":705000000000,"state":"active","ping":79},{"user_id":247,"name":"The Horselords and Animal Gods","steam_id":76561197975094050,"connected_time":211000000000,"state":"active","ping":115},{"user_id":213,"name":"scrub","steam_id":76561198284916494,"connected_time":1560000000000,"state":"active","ping":46},{"user_id":249,"name":"Farseer Ulwithy","steam_id":76561197965179245,"connected_time":137000000000,"state":"active","ping":73},{"user_id":250,"name":"Poodle","steam_id":76561199319713877,"connected_time":124000000000,"state":"active","ping":59},{"user_id":230,"name":"Morefun8","steam_id":76561198274524278,"connected_time":1036000000000,"state":"active","ping":58},{"user_id":224,"name":"josh","steam_id":76561198077902438,"connected_time":1320000000000,"state":"active","ping":75},{"user_id":235,"name":"Telushealth","steam_id":76561199422760247,"connected_time":982000000000,"state":"active","ping":97},{"user_id":251,"name":"moe","steam_id":76561198929586245,"connected_time":104000000000,"state":"active","ping":98},{"user_id":240,"name":"Bread","steam_id":76561198251896612,"connected_time":800000000000,"state":"active","ping":44},{"user_id":232,"name":"Bodacious","steam_id":76561197964402976,"connected_time":1024000000000,"state":"active","ping":91},{"user_id":161,"name":"Moo_UwU","steam_id":76561199138512017,"connected_time":5348000000000,"state":"active","ping":68},{"user_id":204,"name":"Spazz","steam_id":76561198036167494,"connected_time":2701000000000,"state":"active","ping":38}]},{"server_id":37,"name":"Uncletopia | Chicago | 6 | All Maps","name_short":"chi-6","host":"chi-2.us.uncletopia.com","port":27025,"enabled":true,"region":"us-central","cc":"us","latitude":41.881832,"longitude":-87.62318,"reserved":0,"last_update":"0001-01-01T00:00:00Z","name_a2s":"Uncletopia | Chicago | 6 | All Maps","protocol":17,"map":"koth_king","folder":"tf","game":"Team Fortress","app_id":440,"player_count":15,"max_players":24,"Bots":0,"server_type":"Dedicated","server_os":"Linux","password":true,"vac":true,"version":"7961495","steam_id":85568392924866363,"keywords":["cp","nocrits","nodmgspread","uncletopia"],"game_id":440,"stv_port":27026,"stv_name":"Uncletopia | Chicago | 6 | All Maps | STV","players":[{"user_id":143,"name":"French Fry Burrito","steam_id":76561198103496593,"connected_time":2403000000000,"state":"active","ping":60},{"user_id":97,"name":"wafflehamster2000","steam_id":76561198849161820,"connected_time":6023000000000,"state":"active","ping":94},{"user_id":167,"name":"Vellie","steam_id":76561198835639084,"connected_time":311000000000,"state":"active","ping":90},{"user_id":170,"name":"Keph","steam_id":76561198853420295,"connected_time":38000000000,"state":"active","ping":103},{"user_id":166,"name":"Zen","steam_id":76561198400431495,"connected_time":326000000000,"state":"active","ping":75},{"user_id":168,"name":"Simply_Komeiji","steam_id":76561198354177703,"connected_time":251000000000,"state":"active","ping":115},{"user_id":169,"name":"Hoopy_White","steam_id":76561198152768069,"connected_time":187000000000,"state":"active","ping":71},{"user_id":145,"name":"MARKED","steam_id":76561199086346913,"connected_time":2371000000000,"state":"active","ping":64},{"user_id":140,"name":"corned beef","steam_id":76561199366782761,"connected_time":2771000000000,"state":"active","ping":155},{"user_id":171,"name":"CJAIME01345","steam_id":76561199091599141,"connected_time":16000000000,"state":"active","ping":157},{"user_id":172,"name":"z_blues","steam_id":76561198303296267,"connected_time":2000000000,"state":"spawning","ping":64},{"user_id":128,"name":"Sanshi","steam_id":76561198145823543,"connected_time":3329000000000,"state":"active","ping":166},{"user_id":149,"name":"Mecha","steam_id":76561198014927379,"connected_time":2326000000000,"state":"active","ping":83},{"user_id":155,"name":"wise","steam_id":76561198030066204,"connected_time":1608000000000,"state":"active","ping":46},{"user_id":161,"name":"StupidUgly","steam_id":76561198029187395,"connected_time":1207000000000,"state":"active","ping":80}]},{"server_id":38,"name":"Uncletopia | Chicago | 7 | Stopwatch Beta","name_short":"chi-7","host":"chi-2.us.uncletopia.com","port":27035,"enabled":true,"region":"us-central","cc":"us","latitude":41.881832,"longitude":-87.62318,"reserved":0,"last_update":"0001-01-01T00:00:00Z","name_a2s":"Uncletopia | Chicago | 7 | Stopwatch Beta","protocol":17,"map":"workshop/koth_product_final.ugc454272353","folder":"tf","game":"Team Fortress","app_id":440,"player_count":0,"max_players":24,"Bots":0,"server_type":"Dedicated","server_os":"Linux","password":true,"vac":true,"version":"7961495","steam_id":85568392924866364,"keywords":["cp","nocrits","nodmgspread","uncletopia"],"game_id":440,"stv_port":27036,"stv_name":"Uncletopia | Chicago | 7 | Stopwatch Beta | STV","players":null},{"server_id":39,"name":"Uncletopia | Chicago | 8 | Community","name_short":"chi-8","host":"chi-2.us.uncletopia.com","port":27045,"enabled":true,"region":"us-central","cc":"us","latitude":41.881832,"longitude":-87.62318,"reserved":0,"last_update":"0001-01-01T00:00:00Z","name_a2s":"Uncletopia | Chicago | 8 | Community","protocol":17,"map":"workshop/pl_boundary_final1.ugc456799153","folder":"tf","game":"Team Fortress","app_id":440,"player_count":24,"max_players":24,"Bots":0,"server_type":"Dedicated","server_os":"Linux","password":true,"vac":true,"version":"7961495","steam_id":85568392924866365,"keywords":["nocrits","nodmgspread","payload","uncletopia"],"game_id":440,"stv_port":27046,"stv_name":"Uncletopia | Chicago | 8 | Community | STV","players":[{"user_id":370,"name":"this","steam_id":76561198170195505,"connected_time":707000000000,"state":"active","ping":80},{"user_id":376,"name":"Kasodani Kyouko","steam_id":76561198023178589,"connected_time":432000000000,"state":"active","ping":88},{"user_id":281,"name":"Tendesius","steam_id":76561198057349433,"connected_time":6864000000000,"state":"active","ping":66},{"user_id":318,"name":"*Gage*","steam_id":76561197975233869,"connected_time":4173000000000,"state":"active","ping":85},{"user_id":371,"name":"kunemav","steam_id":76561198072900882,"connected_time":622000000000,"state":"active","ping":41},{"user_id":361,"name":"Smoky Haus","steam_id":76561199040586542,"connected_time":1675000000000,"state":"active","ping":70},{"user_id":374,"name":"green bean","steam_id":76561198113099204,"connected_time":494000000000,"state":"active","ping":81},{"user_id":377,"name":"ScoobieSlayer79","steam_id":76561198061701905,"connected_time":42000000000,"state":"active","ping":62},{"user_id":329,"name":"Silverback","steam_id":76561198928735294,"connected_time":3011000000000,"state":"active","ping":156},{"user_id":358,"name":"Gh0w0st","steam_id":76561199471261226,"connected_time":1895000000000,"state":"active","ping":90},{"user_id":326,"name":"TheGrassMan (He/Him)","steam_id":76561198118984048,"connected_time":3130000000000,"state":"active","ping":59},{"user_id":362,"name":"Goat","steam_id":76561198068447650,"connected_time":1661000000000,"state":"active","ping":64},{"user_id":363,"name":"SantaMuerte","steam_id":76561198039898148,"connected_time":1541000000000,"state":"active","ping":63},{"user_id":364,"name":"Skullking42","steam_id":76561198854222476,"connected_time":1524000000000,"state":"active","ping":114},{"user_id":334,"name":"Knuckles","steam_id":76561198000704259,"connected_time":2770000000000,"state":"active","ping":57},{"user_id":366,"name":"beans","steam_id":76561199082781884,"connected_time":1315000000000,"state":"active","ping":63},{"user_id":336,"name":"AvitaGeek","steam_id":76561197998674977,"connected_time":2689000000000,"state":"active","ping":70},{"user_id":341,"name":"Gad","steam_id":76561198020792373,"connected_time":2541000000000,"state":"active","ping":59},{"user_id":367,"name":"Squilliam Afton","steam_id":76561198945724920,"connected_time":1206000000000,"state":"active","ping":84},{"user_id":339,"name":"Zhenaj","steam_id":76561199209016136,"connected_time":2595000000000,"state":"active","ping":59},{"user_id":373,"name":"Orville Redenpopcornicon","steam_id":76561198054419547,"connected_time":510000000000,"state":"active","ping":66},{"user_id":356,"name":"i will be your killer fish for ","steam_id":76561197993777553,"connected_time":1967000000000,"state":"active","ping":134},{"user_id":375,"name":"Cherry Bomb!","steam_id":76561198017947020,"connected_time":494000000000,"state":"active","ping":63},{"user_id":360,"name":"Mango","steam_id":76561198156746320,"connected_time":1870000000000,"state":"active","ping":49}]},{"server_id":8,"name":"Uncletopia | Dallas | 1 | All Maps","name_short":"dal-1","host":"dal-1.us.uncletopia.com","port":27015,"enabled":true,"region":"us-central","cc":"us","latitude":32.779167,"longitude":-96.80889,"reserved":0,"last_update":"0001-01-01T00:00:00Z","name_a2s":"Uncletopia | Dallas | 1 | All Maps","protocol":17,"map":"pl_snowycoast","folder":"tf","game":"Team Fortress","app_id":440,"player_count":24,"max_players":24,"Bots":0,"server_type":"Dedicated","server_os":"Linux","password":true,"vac":true,"version":"7961495","steam_id":85568392924469986,"keywords":["nocrits","nodmgspread","payload","uncletopia"],"game_id":440,"stv_port":27016,"stv_name":"Uncletopia | Dallas | 1 | All Maps | STV","players":[{"user_id":371,"name":"Smug Pug","steam_id":76561198059423334,"connected_time":572000000000,"state":"active","ping":72},{"user_id":366,"name":"Dopefish","steam_id":76561197964755058,"connected_time":859000000000,"state":"active","ping":55},{"user_id":348,"name":"BicycleTube","steam_id":76561198078311430,"connected_time":1921000000000,"state":"active","ping":72},{"user_id":365,"name":"Trigger!","steam_id":76561198061514186,"connected_time":912000000000,"state":"active","ping":89},{"user_id":372,"name":"[BALLS] r30848","steam_id":76561199123984543,"connected_time":402000000000,"state":"active","ping":58},{"user_id":369,"name":"Cat_Soldier","steam_id":76561198799974610,"connected_time":665000000000,"state":"active","ping":67},{"user_id":359,"name":"(NUKEDROPPER) 320 DPM KOJAKK","steam_id":76561199060841878,"connected_time":1301000000000,"state":"active","ping":100},{"user_id":360,"name":"jungus","steam_id":76561198119655907,"connected_time":1292000000000,"state":"active","ping":73},{"user_id":345,"name":"Starkiller","steam_id":76561198101643120,"connected_time":2023000000000,"state":"active","ping":99},{"user_id":356,"name":"Stick","steam_id":76561198987222560,"connected_time":1322000000000,"state":"active","ping":63},{"user_id":338,"name":"Dwane Johnson From Amogus","steam_id":76561199091290729,"connected_time":2434000000000,"state":"active","ping":62},{"user_id":358,"name":"Jung","steam_id":76561198844037864,"connected_time":1305000000000,"state":"active","ping":73},{"user_id":347,"name":"flintdotcom #TransRights","steam_id":76561199198577763,"connected_time":1994000000000,"state":"active","ping":67},{"user_id":310,"name":"Fatpoob","steam_id":76561198056730096,"connected_time":4143000000000,"state":"active","ping":74},{"user_id":353,"name":"Outta Kenya","steam_id":76561198153604875,"connected_time":1854000000000,"state":"active","ping":76},{"user_id":373,"name":"dude6487","steam_id":76561199113081920,"connected_time":27000000000,"state":"active","ping":65},{"user_id":355,"name":"Yvette420","steam_id":76561199472888498,"connected_time":1824000000000,"state":"active","ping":113},{"user_id":351,"name":"Snivy","steam_id":76561198135488292,"connected_time":1907000000000,"state":"active","ping":78},{"user_id":364,"name":"pinglefingle","steam_id":76561198216580197,"connected_time":1084000000000,"state":"active","ping":63},{"user_id":352,"name":"Farty McDooDoo","steam_id":76561198040367929,"connected_time":1900000000000,"state":"active","ping":41},{"user_id":363,"name":"papi Chulo","steam_id":76561198126274984,"connected_time":1209000000000,"state":"active","ping":95},{"user_id":370,"name":"gorf?","steam_id":76561198142286417,"connected_time":662000000000,"state":"active","ping":76},{"user_id":354,"name":"SmokyDank","steam_id":76561198045782886,"connected_time":1831000000000,"state":"active","ping":114},{"user_id":367,"name":"Theboigamer11","steam_id":76561199013615511,"connected_time":846000000000,"state":"active","ping":99}]},{"server_id":108,"name":"Uncletopia | Dallas | 2 | All Maps","name_short":"dal-2","host":"dal-1.us.uncletopia.com","port":27025,"enabled":true,"region":"us-central","cc":"us","latitude":32.779167,"longitude":-96.80889,"reserved":0,"last_update":"0001-01-01T00:00:00Z","name_a2s":"Uncletopia | Dallas | 2 | All Maps","protocol":17,"map":"pl_swiftwater_final1","folder":"tf","game":"Team Fortress","app_id":440,"player_count":24,"max_players":24,"Bots":0,"server_type":"Dedicated","server_os":"Linux","password":true,"vac":true,"version":"7961495","steam_id":85568392924469988,"keywords":["nocrits","nodmgspread","payload","uncletopia"],"game_id":440,"stv_port":27026,"stv_name":"Uncletopia | Dallas | 2 | All Maps | STV","players":[{"user_id":266,"name":"Per My Last Email","steam_id":76561197970096950,"connected_time":2596000000000,"state":"active","ping":40},{"user_id":292,"name":"Randumb","steam_id":76561199083286636,"connected_time":865000000000,"state":"active","ping":88},{"user_id":278,"name":"Foxyz","steam_id":76561198040642992,"connected_time":1842000000000,"state":"active","ping":165},{"user_id":297,"name":"Fernando","steam_id":76561198443038047,"connected_time":446000000000,"state":"active","ping":72},{"user_id":295,"name":"Malex","steam_id":76561198012216805,"connected_time":654000000000,"state":"active","ping":83},{"user_id":281,"name":"WaterTightFrogPussyLikeFlexSeal","steam_id":76561199116166706,"connected_time":1360000000000,"state":"active","ping":167},{"user_id":296,"name":"2JZ_","steam_id":76561198064027289,"connected_time":483000000000,"state":"active","ping":121},{"user_id":300,"name":"Nut Bustray","steam_id":76561198092403883,"connected_time":25000000000,"state":"active","ping":86},{"user_id":241,"name":"Redkiller","steam_id":76561199453655288,"connected_time":4835000000000,"state":"active","ping":95},{"user_id":293,"name":"Orange Triangle","steam_id":76561198320498182,"connected_time":803000000000,"state":"active","ping":85},{"user_id":298,"name":"BlueEyesDankDragon","steam_id":76561198359988117,"connected_time":237000000000,"state":"active","ping":130},{"user_id":211,"name":"JakeK","steam_id":76561198149375504,"connected_time":7476000000000,"state":"active","ping":100},{"user_id":280,"name":"fire","steam_id":76561198044354279,"connected_time":1478000000000,"state":"active","ping":79},{"user_id":301,"name":"Ruthal","steam_id":76561198004393612,"connected_time":24000000000,"state":"active","ping":131},{"user_id":273,"name":"Gelliterate","steam_id":76561198107233070,"connected_time":2180000000000,"state":"active","ping":59},{"user_id":299,"name":"Stillkill","steam_id":76561198065069057,"connected_time":147000000000,"state":"active","ping":41},{"user_id":285,"name":"Bonk Co.","steam_id":76561198009355408,"connected_time":1117000000000,"state":"active","ping":94},{"user_id":279,"name":"loser","steam_id":76561198259380127,"connected_time":1693000000000,"state":"active","ping":75},{"user_id":253,"name":"cant get enough of this stuff","steam_id":76561198215275267,"connected_time":4124000000000,"state":"active","ping":55},{"user_id":243,"name":"H.","steam_id":76561198074951179,"connected_time":4728000000000,"state":"active","ping":63},{"user_id":212,"name":"Dragus","steam_id":76561198032967285,"connected_time":7471000000000,"state":"active","ping":73},{"user_id":239,"name":"marantmed06","steam_id":76561199180381715,"connected_time":4873000000000,"state":"active","ping":79},{"user_id":289,"name":"Mephistopheles","steam_id":76561198253731826,"connected_time":1070000000000,"state":"active","ping":102},{"user_id":291,"name":"Dakko","steam_id":76561198388363822,"connected_time":988000000000,"state":"active","ping":122}]},{"server_id":404,"name":"Uncletopia | Dallas | 3 | All Maps","name_short":"dal-3","host":"dal-1.us.uncletopia.com","port":27035,"enabled":true,"region":"us-central","cc":"us","latitude":32.779167,"longitude":-96.80889,"reserved":0,"last_update":"0001-01-01T00:00:00Z","name_a2s":"Uncletopia | Dallas | 3 | All Maps","protocol":17,"map":"pl_frontier_final","folder":"tf","game":"Team Fortress","app_id":440,"player_count":21,"max_players":24,"Bots":0,"server_type":"Dedicated","server_os":"Linux","password":true,"vac":true,"version":"7961495","steam_id":85568392924515219,"keywords":["nocrits","nodmgspread","payload","uncletopia"],"game_id":440,"stv_port":27036,"stv_name":"Uncletopia | Dallas | 3 | All Maps | STV","players":[{"user_id":265,"name":"CampinCarl","steam_id":76561197997373624,"connected_time":217000000000,"state":"active","ping":78},{"user_id":170,"name":"makito","steam_id":76561199025164519,"connected_time":3356000000000,"state":"active","ping":85},{"user_id":266,"name":"DavidAllanToad@.gg/KWWX7TyVSU","steam_id":76561198889579299,"connected_time":101000000000,"state":"active","ping":42},{"user_id":263,"name":"Interrobang","steam_id":76561198385044529,"connected_time":241000000000,"state":"active","ping":126},{"user_id":267,"name":"Sup m8","steam_id":76561198081659121,"connected_time":83000000000,"state":"active","ping":45},{"user_id":271,"name":"fredrico fazbear","steam_id":76561198120626931,"connected_time":57000000000,"state":"active","ping":102},{"user_id":269,"name":"SneakySneak","steam_id":76561198064847921,"connected_time":78000000000,"state":"active","ping":69},{"user_id":126,"name":"soltuno","steam_id":76561198074430565,"connected_time":5388000000000,"state":"active","ping":94},{"user_id":272,"name":"Stryder","steam_id":76561199387418697,"connected_time":51000000000,"state":"active","ping":70},{"user_id":270,"name":"Toa of Time","steam_id":76561198086867556,"connected_time":78000000000,"state":"active","ping":79},{"user_id":118,"name":"can man (cigarette advocate)","steam_id":76561197967844454,"connected_time":5719000000000,"state":"active","ping":93},{"user_id":273,"name":"Clumsy","steam_id":76561198056345245,"connected_time":47000000000,"state":"active","ping":71},{"user_id":262,"name":"Syth911","steam_id":76561198124758778,"connected_time":256000000000,"state":"active","ping":56},{"user_id":84,"name":"PiolaCat","steam_id":76561199100535345,"connected_time":8043000000000,"state":"active","ping":99},{"user_id":56,"name":"mkl","steam_id":76561197986401685,"connected_time":9436000000000,"state":"active","ping":59},{"user_id":137,"name":"SynSten","steam_id":76561199122281764,"connected_time":4770000000000,"state":"active","ping":73},{"user_id":218,"name":"Sheev Palpatine","steam_id":76561198252332430,"connected_time":1778000000000,"state":"active","ping":93},{"user_id":162,"name":"TechnoBear2099","steam_id":76561198238863596,"connected_time":3845000000000,"state":"active","ping":47},{"user_id":242,"name":"Epifiny","steam_id":76561198027958086,"connected_time":1139000000000,"state":"active","ping":95},{"user_id":152,"name":"the gamer","steam_id":76561199175442910,"connected_time":4230000000000,"state":"active","ping":102},{"user_id":231,"name":"Dush Garnett","steam_id":76561198300278502,"connected_time":1354000000000,"state":"active","ping":73}]},{"server_id":405,"name":"Uncletopia | Dallas | 4 | Community","name_short":"dal-4","host":"dal-1.us.uncletopia.com","port":27045,"enabled":true,"region":"us-central","cc":"us","latitude":32.779167,"longitude":-96.80889,"reserved":0,"last_update":"0001-01-01T00:00:00Z","name_a2s":"Uncletopia | Dallas | 4 | Community","protocol":17,"map":"workshop/cp_propaganda_b18.ugc1603743849","folder":"tf","game":"Team Fortress","app_id":440,"player_count":0,"max_players":24,"Bots":0,"server_type":"Dedicated","server_os":"Linux","password":true,"vac":true,"version":"7961495","steam_id":85568392924515220,"keywords":["cp","nocrits","nodmgspread","uncletopia"],"game_id":440,"stv_port":27046,"stv_name":"Uncletopia | Dallas | 4 | Community | STV","players":null},{"server_id":5,"name":"Uncletopia | Frankfurt | 1 | All Maps","name_short":"frk-1","host":"frk-1.de.uncletopia.com","port":27015,"enabled":true,"region":"eu","cc":"de","latitude":50.110924,"longitude":8.682127,"reserved":0,"last_update":"0001-01-01T00:00:00Z","name_a2s":"Uncletopia | Frankfurt | 1 | All Maps","protocol":17,"map":"pl_upward","folder":"tf","game":"Team Fortress","app_id":440,"player_count":24,"max_players":24,"Bots":0,"server_type":"Dedicated","server_os":"Linux","password":true,"vac":true,"version":"7961495","steam_id":85568392924469989,"keywords":["nocrits","nodmgspread","payload","uncletopia"],"game_id":440,"stv_port":27016,"stv_name":"Uncletopia | Frankfurt | 1 | All Maps | STV","players":[{"user_id":797,"name":"Egtu","steam_id":76561198013757235,"connected_time":104000000000,"state":"active","ping":62},{"user_id":771,"name":"Femboy Silly ❤","steam_id":76561198972654736,"connected_time":3134000000000,"state":"active","ping":85},{"user_id":742,"name":"Skippy","steam_id":76561199245844181,"connected_time":5273000000000,"state":"active","ping":70},{"user_id":784,"name":"Puss in Boots","steam_id":76561198211599767,"connected_time":1636000000000,"state":"active","ping":67},{"user_id":723,"name":"Robyn","steam_id":76561198140713805,"connected_time":5429000000000,"state":"active","ping":75},{"user_id":749,"name":"Chucko Kokos","steam_id":76561198112553005,"connected_time":5136000000000,"state":"active","ping":67},{"user_id":793,"name":"faccboi","steam_id":76561198137816642,"connected_time":597000000000,"state":"active","ping":60},{"user_id":782,"name":"aida","steam_id":76561198311044984,"connected_time":1800000000000,"state":"active","ping":63},{"user_id":768,"name":"Phodom","steam_id":76561198348490786,"connected_time":3434000000000,"state":"active","ping":54},{"user_id":785,"name":"LordWoodpecker","steam_id":76561198031647387,"connected_time":1606000000000,"state":"active","ping":58},{"user_id":799,"name":"LEGEND FUMO.","steam_id":76561198061033903,"connected_time":55000000000,"state":"active","ping":44},{"user_id":791,"name":"Coda","steam_id":76561198250946954,"connected_time":637000000000,"state":"active","ping":126},{"user_id":800,"name":"meap","steam_id":76561198126639221,"connected_time":36000000000,"state":"active","ping":91},{"user_id":738,"name":"cheriberry","steam_id":76561198093577036,"connected_time":5315000000000,"state":"active","ping":59},{"user_id":741,"name":"Carl","steam_id":76561198045638738,"connected_time":5304000000000,"state":"active","ping":72},{"user_id":781,"name":"Groose","steam_id":76561198261094295,"connected_time":2156000000000,"state":"active","ping":61},{"user_id":796,"name":"hot catguy","steam_id":76561198201418334,"connected_time":134000000000,"state":"active","ping":65},{"user_id":644,"name":"domek","steam_id":76561198048447632,"connected_time":7109000000000,"state":"active","ping":61},{"user_id":795,"name":"İBO","steam_id":76561199125309810,"connected_time":452000000000,"state":"active","ping":90},{"user_id":792,"name":"bird ideas","steam_id":76561199480942903,"connected_time":604000000000,"state":"active","ping":69},{"user_id":798,"name":"JujuBalu","steam_id":76561198207253071,"connected_time":96000000000,"state":"active","ping":48},{"user_id":794,"name":"Henry Binklebottoms Dinglenut I","steam_id":76561198271798194,"connected_time":538000000000,"state":"active","ping":90},{"user_id":789,"name":"cazador","steam_id":76561198123096922,"connected_time":1425000000000,"state":"active","ping":90},{"user_id":790,"name":"rob","steam_id":76561198122211848,"connected_time":944000000000,"state":"active","ping":87}]},{"server_id":110,"name":"Uncletopia | Frankfurt | 2 | All Maps","name_short":"frk-2","host":"frk-1.de.uncletopia.com","port":27025,"enabled":true,"region":"eu","cc":"de","latitude":50.110924,"longitude":8.682127,"reserved":0,"last_update":"0001-01-01T00:00:00Z","name_a2s":"Uncletopia | Frankfurt | 2 | All Maps","protocol":17,"map":"pl_barnblitz","folder":"tf","game":"Team Fortress","app_id":440,"player_count":23,"max_players":24,"Bots":0,"server_type":"Dedicated","server_os":"Linux","password":true,"vac":true,"version":"7961495","steam_id":85568392924469990,"keywords":["nocrits","nodmgspread","payload","uncletopia"],"game_id":440,"stv_port":27026,"stv_name":"Uncletopia | Frankfurt | 2 | All Maps | STV","players":[{"user_id":494,"name":"true","steam_id":76561198031145243,"connected_time":602000000000,"state":"active","ping":87},{"user_id":424,"name":"Emir","steam_id":76561198113089831,"connected_time":5478000000000,"state":"active","ping":90},{"user_id":453,"name":"Mr. Watch","steam_id":76561198276103501,"connected_time":3824000000000,"state":"active","ping":78},{"user_id":471,"name":"Insain Bolt!","steam_id":76561198025687726,"connected_time":1821000000000,"state":"active","ping":63},{"user_id":493,"name":"Strangerdanger","steam_id":76561198206728500,"connected_time":663000000000,"state":"active","ping":72},{"user_id":482,"name":"Shapeshifter","steam_id":76561198052898368,"connected_time":1154000000000,"state":"active","ping":82},{"user_id":479,"name":"ThatKetos","steam_id":76561198989682540,"connected_time":1367000000000,"state":"active","ping":45},{"user_id":456,"name":"LordTrap.exe","steam_id":76561198318089716,"connected_time":3363000000000,"state":"active","ping":61},{"user_id":495,"name":"wicked","steam_id":76561198164376035,"connected_time":576000000000,"state":"active","ping":74},{"user_id":496,"name":"Kyrie Kurage","steam_id":76561198020030175,"connected_time":556000000000,"state":"active","ping":85},{"user_id":488,"name":"BELADIT","steam_id":76561198011911501,"connected_time":1042000000000,"state":"active","ping":73},{"user_id":468,"name":"Cerberus","steam_id":76561198140442059,"connected_time":2175000000000,"state":"active","ping":64},{"user_id":503,"name":"Kyatlu Xann","steam_id":76561198069685009,"connected_time":347000000000,"state":"active","ping":90},{"user_id":498,"name":"NaselPopcorn","steam_id":76561199454333176,"connected_time":524000000000,"state":"active","ping":171},{"user_id":464,"name":"knyazF","steam_id":76561198163278585,"connected_time":2371000000000,"state":"active","ping":70},{"user_id":499,"name":"E² FTH","steam_id":76561198066287815,"connected_time":515000000000,"state":"active","ping":122},{"user_id":502,"name":"fryingpan","steam_id":76561197985655573,"connected_time":470000000000,"state":"active","ping":77},{"user_id":504,"name":"Adushka","steam_id":76561198053095808,"connected_time":210000000000,"state":"active","ping":75},{"user_id":501,"name":"F.Fazbear","steam_id":76561198406606196,"connected_time":492000000000,"state":"active","ping":70},{"user_id":476,"name":"Virgil","steam_id":76561198248786778,"connected_time":1703000000000,"state":"active","ping":113},{"user_id":392,"name":"WAU","steam_id":76561198052486330,"connected_time":7838000000000,"state":"active","ping":45},{"user_id":398,"name":"FoOzTV","steam_id":76561197998636728,"connected_time":7202000000000,"state":"active","ping":69},{"user_id":491,"name":"☭King☭","steam_id":76561199214677088,"connected_time":925000000000,"state":"active","ping":79}]},{"server_id":308,"name":"Uncletopia | Frankfurt | 3 | All Maps","name_short":"frk-3","host":"frk-1.de.uncletopia.com","port":27035,"enabled":true,"region":"eu","cc":"de","latitude":50.110924,"longitude":8.682127,"reserved":0,"last_update":"0001-01-01T00:00:00Z","name_a2s":"Uncletopia | Frankfurt | 3 | All Maps","protocol":17,"map":"pl_snowycoast","folder":"tf","game":"Team Fortress","app_id":440,"player_count":24,"max_players":24,"Bots":0,"server_type":"Dedicated","server_os":"Linux","password":true,"vac":true,"version":"7961495","steam_id":85568392924504274,"keywords":["nocrits","nodmgspread","payload","uncletopia"],"game_id":440,"stv_port":27036,"stv_name":"Uncletopia | Frankfurt | 3 | All Maps | STV","players":[{"user_id":34,"name":"hyvakii705","steam_id":76561198086630552,"connected_time":40809000000000,"state":"active","ping":103},{"user_id":555,"name":"VK2124 :D","steam_id":76561198111130688,"connected_time":2516000000000,"state":"active","ping":48},{"user_id":560,"name":"shacomain54","steam_id":76561199494394521,"connected_time":2325000000000,"state":"active","ping":67},{"user_id":539,"name":"Real (Real)","steam_id":76561198323425034,"connected_time":4215000000000,"state":"active","ping":78},{"user_id":583,"name":"D0kai","steam_id":76561198389271720,"connected_time":750000000000,"state":"active","ping":62},{"user_id":559,"name":"Ducky[WADZ]","steam_id":76561198060341245,"connected_time":2359000000000,"state":"active","ping":55},{"user_id":582,"name":"2BCD","steam_id":76561198178254946,"connected_time":846000000000,"state":"active","ping":68},{"user_id":524,"name":"Da Gus","steam_id":76561198435032627,"connected_time":5212000000000,"state":"active","ping":99},{"user_id":571,"name":"Los Trollos","steam_id":76561199094592508,"connected_time":1364000000000,"state":"active","ping":65},{"user_id":574,"name":"mitical uknown","steam_id":76561198844852761,"connected_time":1237000000000,"state":"active","ping":67},{"user_id":591,"name":"joe","steam_id":76561198061717026,"connected_time":360000000000,"state":"active","ping":49},{"user_id":581,"name":"fronin","steam_id":76561198189553021,"connected_time":916000000000,"state":"active","ping":73},{"user_id":585,"name":"MR BUBBLES","steam_id":76561198019005259,"connected_time":664000000000,"state":"active","ping":100},{"user_id":533,"name":"Dokuro","steam_id":76561198005413903,"connected_time":4401000000000,"state":"active","ping":72},{"user_id":566,"name":"MayhemPie","steam_id":76561198018976366,"connected_time":1898000000000,"state":"active","ping":69},{"user_id":576,"name":"Zedespook","steam_id":76561198265479349,"connected_time":1100000000000,"state":"active","ping":57},{"user_id":587,"name":"Tutitu","steam_id":76561198110584542,"connected_time":619000000000,"state":"active","ping":99},{"user_id":578,"name":"pizda.com","steam_id":76561198179392402,"connected_time":972000000000,"state":"active","ping":55},{"user_id":443,"name":"Nittugai","steam_id":76561198067366462,"connected_time":13103000000000,"state":"active","ping":65},{"user_id":580,"name":"Toxicò","steam_id":76561199031920676,"connected_time":939000000000,"state":"active","ping":77},{"user_id":590,"name":"aids","steam_id":76561197991994247,"connected_time":412000000000,"state":"active","ping":76},{"user_id":361,"name":"Fat Pigeon","steam_id":76561198817940142,"connected_time":20157000000000,"state":"active","ping":58},{"user_id":523,"name":"Ceiling fan enthusiast","steam_id":76561197989214268,"connected_time":5243000000000,"state":"active","ping":67},{"user_id":562,"name":"Jahusi!*","steam_id":76561197992445165,"connected_time":2091000000000,"state":"active","ping":52}]},{"server_id":309,"name":"Uncletopia | Frankfurt | 4 | All Maps","name_short":"frk-4","host":"frk-1.de.uncletopia.com","port":27045,"enabled":true,"region":"eu","cc":"de","latitude":50.110924,"longitude":8.682127,"reserved":0,"last_update":"0001-01-01T00:00:00Z","name_a2s":"Uncletopia | Frankfurt | 4 | All Maps","protocol":17,"map":"pl_frontier_final","folder":"tf","game":"Team Fortress","app_id":440,"player_count":17,"max_players":24,"Bots":0,"server_type":"Dedicated","server_os":"Linux","password":true,"vac":true,"version":"7961495","steam_id":85568392924504275,"keywords":["nocrits","nodmgspread","payload","uncletopia"],"game_id":440,"stv_port":27046,"stv_name":"Uncletopia | Frankfurt | 4 | All Maps | STV","players":[{"user_id":461,"name":"Kfer","steam_id":76561198809708638,"connected_time":6134000000000,"state":"active","ping":68},{"user_id":545,"name":"M I OK?","steam_id":76561198147277460,"connected_time":135000000000,"state":"active","ping":48},{"user_id":546,"name":"Worm","steam_id":76561198296497176,"connected_time":72000000000,"state":"active","ping":91},{"user_id":485,"name":"bad_egg","steam_id":76561198870666753,"connected_time":4401000000000,"state":"active","ping":101},{"user_id":526,"name":"Jabussy","steam_id":76561198111148719,"connected_time":1703000000000,"state":"active","ping":68},{"user_id":547,"name":"₪ PluNgBe ₪","steam_id":76561198131100420,"connected_time":66000000000,"state":"active","ping":74},{"user_id":492,"name":"Finn","steam_id":76561198179960193,"connected_time":4286000000000,"state":"active","ping":49},{"user_id":528,"name":"shrky - ♡ A ♡","steam_id":76561198413761084,"connected_time":1604000000000,"state":"active","ping":63},{"user_id":534,"name":"tamz","steam_id":76561198146873972,"connected_time":1056000000000,"state":"active","ping":40},{"user_id":548,"name":"tiiyama","steam_id":76561198046196005,"connected_time":9000000000,"state":"active","ping":82},{"user_id":463,"name":"AftiksPL","steam_id":76561198875182686,"connected_time":5984000000000,"state":"active","ping":90},{"user_id":529,"name":"JehovahsThiccness","steam_id":76561198173218318,"connected_time":1604000000000,"state":"active","ping":51},{"user_id":538,"name":"woodenpcwarlord","steam_id":76561198037938833,"connected_time":390000000000,"state":"active","ping":40},{"user_id":519,"name":"я ненавижу русск\ufffd","steam_id":76561198992026574,"connected_time":2203000000000,"state":"active","ping":87},{"user_id":493,"name":"sarii ☆","steam_id":76561199155102111,"connected_time":4001000000000,"state":"active","ping":76},{"user_id":532,"name":"Proud Jojo Fan #TF2SP","steam_id":76561198847327216,"connected_time":1078000000000,"state":"active","ping":47},{"user_id":543,"name":"matthe","steam_id":76561198145465595,"connected_time":269000000000,"state":"active","ping":51}]},{"server_id":310,"name":"Uncletopia | Frankfurt | 5 | All Maps","name_short":"frk-5","host":"frk-1.de.uncletopia.com","port":27055,"enabled":true,"region":"eu","cc":"de","latitude":50.110924,"longitude":8.682127,"reserved":0,"last_update":"0001-01-01T00:00:00Z","name_a2s":"Uncletopia | Frankfurt | 5 | All Maps","protocol":17,"map":"koth_lakeside_final","folder":"tf","game":"Team Fortress","app_id":440,"player_count":24,"max_players":24,"Bots":0,"server_type":"Dedicated","server_os":"Linux","password":true,"vac":true,"version":"7961495","steam_id":85568392924504277,"keywords":["cp","nocrits","nodmgspread","uncletopia"],"game_id":440,"stv_port":27056,"stv_name":"Uncletopia | Frankfurt | 5 | All Maps | STV","players":[{"user_id":425,"name":"HUGO","steam_id":76561198317134996,"connected_time":795000000000,"state":"active","ping":86},{"user_id":427,"name":"the one who grips","steam_id":76561198381106289,"connected_time":553000000000,"state":"active","ping":73},{"user_id":417,"name":"Tusho","steam_id":76561198115447383,"connected_time":1416000000000,"state":"active","ping":72},{"user_id":394,"name":"MassiveL","steam_id":76561198120243019,"connected_time":2300000000000,"state":"active","ping":100},{"user_id":428,"name":"MaypulSoyrup","steam_id":76561199213966821,"connected_time":512000000000,"state":"active","ping":94},{"user_id":440,"name":"prophits","steam_id":76561198011854314,"connected_time":109000000000,"state":"active","ping":71},{"user_id":439,"name":"Smuggs","steam_id":76561197999456003,"connected_time":157000000000,"state":"active","ping":59},{"user_id":430,"name":"Delcup","steam_id":76561199006338376,"connected_time":430000000000,"state":"active","ping":123},{"user_id":393,"name":"Desuangle","steam_id":76561198110800599,"connected_time":2347000000000,"state":"active","ping":73},{"user_id":321,"name":"realness","steam_id":76561199129226935,"connected_time":7158000000000,"state":"active","ping":89},{"user_id":412,"name":"Certified Hood pybro (ua)","steam_id":76561198970562699,"connected_time":1899000000000,"state":"active","ping":58},{"user_id":441,"name":"Milosz52","steam_id":76561199060940204,"connected_time":18000000000,"state":"spawning","ping":68},{"user_id":432,"name":"guildyfan2001","steam_id":76561198038827937,"connected_time":422000000000,"state":"active","ping":65},{"user_id":422,"name":"Archive","steam_id":76561198071255385,"connected_time":1239000000000,"state":"active","ping":91},{"user_id":419,"name":"Germanium_Ge","steam_id":76561198130561775,"connected_time":1371000000000,"state":"active","ping":51},{"user_id":397,"name":"top 10 movement videos","steam_id":76561199195985387,"connected_time":2264000000000,"state":"active","ping":76},{"user_id":438,"name":"Baribal","steam_id":76561198263513521,"connected_time":236000000000,"state":"active","ping":54},{"user_id":400,"name":"Popop","steam_id":76561198004793795,"connected_time":2249000000000,"state":"active","ping":45},{"user_id":411,"name":"ToonFood","steam_id":76561198038594124,"connected_time":2012000000000,"state":"active","ping":60},{"user_id":437,"name":"Mr. Owl","steam_id":76561198144781153,"connected_time":258000000000,"state":"active","ping":165},{"user_id":403,"name":"Amandus","steam_id":76561198036281079,"connected_time":2246000000000,"state":"active","ping":56},{"user_id":435,"name":"[RUS]tfavvfan69❤","steam_id":76561198062362168,"connected_time":368000000000,"state":"active","ping":60},{"user_id":413,"name":"Bobo","steam_id":76561198052308399,"connected_time":1786000000000,"state":"active","ping":60},{"user_id":407,"name":"Tort","steam_id":76561198329646769,"connected_time":2213000000000,"state":"active","ping":86}]},{"server_id":311,"name":"Uncletopia | Frankfurt | 6 | All Maps","name_short":"frk-6","host":"frk-1.de.uncletopia.com","port":27065,"enabled":true,"region":"eu","cc":"de","latitude":50.110924,"longitude":8.682127,"reserved":0,"last_update":"0001-01-01T00:00:00Z","name_a2s":"Uncletopia | Frankfurt | 6 | All Maps","protocol":17,"map":"pl_frontier_final","folder":"tf","game":"Team Fortress","app_id":440,"player_count":23,"max_players":24,"Bots":0,"server_type":"Dedicated","server_os":"Linux","password":true,"vac":true,"version":"7961495","steam_id":85568392924504278,"keywords":["nocrits","nodmgspread","payload","uncletopia"],"game_id":440,"stv_port":27066,"stv_name":"Uncletopia | Frankfurt | 6 | All Maps | STV","players":[{"user_id":84,"name":"xTheDarkLight","steam_id":76561198239128298,"connected_time":811000000000,"state":"active","ping":45},{"user_id":85,"name":"djstrawberry22","steam_id":76561198318496072,"connected_time":732000000000,"state":"active","ping":115},{"user_id":35,"name":"Brixlemy","steam_id":76561198222855616,"connected_time":3761000000000,"state":"active","ping":75},{"user_id":37,"name":"Michał","steam_id":76561198320346362,"connected_time":3533000000000,"state":"active","ping":80},{"user_id":94,"name":"TheJulez","steam_id":76561198038723712,"connected_time":177000000000,"state":"active","ping":61},{"user_id":90,"name":"aguy without amustache","steam_id":76561198397105421,"connected_time":495000000000,"state":"active","ping":60},{"user_id":79,"name":"blibby smalls","steam_id":76561198984296222,"connected_time":1000000000000,"state":"active","ping":75},{"user_id":43,"name":"Brinier","steam_id":76561199012604288,"connected_time":2507000000000,"state":"active","ping":60},{"user_id":86,"name":"誰かが見ている","steam_id":76561198834913692,"connected_time":727000000000,"state":"active","ping":61},{"user_id":87,"name":"ifih","steam_id":76561199493567777,"connected_time":727000000000,"state":"active","ping":55},{"user_id":95,"name":"Kentucky Fried Baby","steam_id":76561198041088562,"connected_time":168000000000,"state":"active","ping":58},{"user_id":83,"name":"Gorlami","steam_id":76561199003079242,"connected_time":850000000000,"state":"active","ping":75},{"user_id":58,"name":"bull","steam_id":76561199233979726,"connected_time":1931000000000,"state":"active","ping":80},{"user_id":55,"name":"Faraday's Law","steam_id":76561198105385977,"connected_time":1966000000000,"state":"active","ping":61},{"user_id":88,"name":"Uguyguy","steam_id":76561198348140423,"connected_time":665000000000,"state":"active","ping":154},{"user_id":81,"name":"Sivik","steam_id":76561198370329466,"connected_time":884000000000,"state":"active","ping":62},{"user_id":89,"name":"zak","steam_id":76561197998895428,"connected_time":617000000000,"state":"active","ping":58},{"user_id":62,"name":"ff:ff:ff:ff:ff:ff","steam_id":76561198072122983,"connected_time":1899000000000,"state":"active","ping":63},{"user_id":63,"name":"generic alias","steam_id":76561198271607226,"connected_time":1897000000000,"state":"active","ping":91},{"user_id":64,"name":"TJ1212","steam_id":76561199013575313,"connected_time":1887000000000,"state":"active","ping":66},{"user_id":65,"name":"Labracababrador","steam_id":76561198255280285,"connected_time":1882000000000,"state":"active","ping":92},{"user_id":93,"name":"cowboy","steam_id":76561198080361351,"connected_time":230000000000,"state":"active","ping":45},{"user_id":91,"name":"EZN","steam_id":76561198339412521,"connected_time":306000000000,"state":"active","ping":88}]},{"server_id":23,"name":"Uncletopia | Frankfurt | 7 | Stopwatch Beta","name_short":"frk-7","host":"frk-1.de.uncletopia.com","port":27075,"enabled":true,"region":"eu","cc":"de","latitude":50.110924,"longitude":8.682127,"reserved":0,"last_update":"0001-01-01T00:00:00Z","name_a2s":"Uncletopia | Frankfurt | 7 | Stopwatch Beta","protocol":17,"map":"pl_borneo","folder":"tf","game":"Team Fortress","app_id":440,"player_count":0,"max_players":24,"Bots":0,"server_type":"Dedicated","server_os":"Linux","password":true,"vac":true,"version":"7961495","steam_id":85568392924742827,"keywords":["nocrits","nodmgspread","payload","uncletopia"],"game_id":440,"stv_port":27076,"stv_name":"Uncletopia | Frankfurt | 7 | Stopwatch Beta | STV","players":null},{"server_id":24,"name":"Uncletopia | Frankfurt | 8 | Community","name_short":"frk-8","host":"frk-1.de.uncletopia.com","port":27085,"enabled":true,"region":"eu","cc":"de","latitude":50.110924,"longitude":8.682127,"reserved":0,"last_update":"0001-01-01T00:00:00Z","name_a2s":"Uncletopia | Frankfurt | 8 | Community","protocol":17,"map":"workshop/koth_product_final.ugc454272353","folder":"tf","game":"Team Fortress","app_id":440,"player_count":3,"max_players":24,"Bots":0,"server_type":"Dedicated","server_os":"Linux","password":true,"vac":true,"version":"7961495","steam_id":85568392924742828,"keywords":["cp","nocrits","nodmgspread","uncletopia"],"game_id":440,"stv_port":27086,"stv_name":"Uncletopia | Frankfurt | 8 | Community | STV","players":[{"user_id":420,"name":"JeffTheDwarf","steam_id":76561198867619407,"connected_time":5482000000000,"state":"active","ping":70},{"user_id":421,"name":"Hampter","steam_id":76561198966522530,"connected_time":5467000000000,"state":"active","ping":83},{"user_id":430,"name":"The Sewer r4t","steam_id":76561199028541854,"connected_time":1914000000000,"state":"active","ping":97}]},{"server_id":202,"name":"Uncletopia | Hong Kong | 1 | All Maps","name_short":"hgk-1","host":"hgk-1.hk.uncletopia.com","port":27015,"enabled":true,"region":"asia","cc":"hk","latitude":22.302711,"longitude":114.177216,"reserved":0,"last_update":"0001-01-01T00:00:00Z","name_a2s":"Uncletopia | Hong Kong | 1 | All Maps","protocol":17,"map":"koth_cascade","folder":"tf","game":"Team Fortress","app_id":440,"player_count":0,"max_players":24,"Bots":0,"server_type":"Dedicated","server_os":"Linux","password":true,"vac":true,"version":"7961495","steam_id":85568392924494504,"keywords":["cp","nocrits","nodmgspread","uncletopia"],"game_id":440,"stv_port":27016,"stv_name":"Uncletopia | Hong Kong | 1 | All Maps | STV","players":null},{"server_id":1,"name":"Uncletopia | Los Angeles | 1 | All Maps","name_short":"lax-1","host":"lax-1.us.uncletopia.com","port":27015,"enabled":true,"region":"us-west","cc":"us","latitude":33.94279,"longitude":-118.41004,"reserved":0,"last_update":"0001-01-01T00:00:00Z","name_a2s":"Uncletopia | Los Angeles | 1 | All Maps","protocol":17,"map":"koth_cascade","folder":"tf","game":"Team Fortress","app_id":440,"player_count":0,"max_players":24,"Bots":0,"server_type":"Dedicated","server_os":"Linux","password":true,"vac":true,"version":"7961495","steam_id":85568392924469991,"keywords":["cp","nocrits","nodmgspread","uncletopia"],"game_id":440,"stv_port":27016,"stv_name":"Uncletopia | Los Angeles | 1 | All Maps | STV","players":null},{"server_id":112,"name":"Uncletopia | Los Angeles | 2 | All Maps","name_short":"lax-2","host":"lax-1.us.uncletopia.com","port":27025,"enabled":true,"region":"us-west","cc":"us","latitude":33.94279,"longitude":-118.41004,"reserved":0,"last_update":"0001-01-01T00:00:00Z","name_a2s":"Uncletopia | Los Angeles | 2 | All Maps","protocol":17,"map":"koth_viaduct","folder":"tf","game":"Team Fortress","app_id":440,"player_count":0,"max_players":24,"Bots":0,"server_type":"Dedicated","server_os":"Linux","password":true,"vac":true,"version":"7961495","steam_id":85568392924469992,"keywords":["cp","nocrits","nodmgspread","uncletopia"],"game_id":440,"stv_port":27026,"stv_name":"Uncletopia | Los Angeles | 2 | All Maps | STV","players":null},{"server_id":324,"name":"Uncletopia | Los Angeles | 3 | All Maps","name_short":"lax-3","host":"lax-1.us.uncletopia.com","port":27035,"enabled":true,"region":"us-west","cc":"us","latitude":33.94279,"longitude":-118.41004,"reserved":0,"last_update":"0001-01-01T00:00:00Z","name_a2s":"Uncletopia | Los Angeles | 3 | All Maps","protocol":17,"map":"cp_dustbowl","folder":"tf","game":"Team Fortress","app_id":440,"player_count":24,"max_players":24,"Bots":0,"server_type":"Dedicated","server_os":"Linux","password":true,"vac":true,"version":"7961495","steam_id":85568392924510198,"keywords":["cp","nocrits","nodmgspread","uncletopia"],"game_id":440,"stv_port":27036,"stv_name":"Uncletopia | Los Angeles | 3 | All Maps | STV","players":[{"user_id":297,"name":"Ralph Kramden (Slim Charles)","steam_id":76561197981687895,"connected_time":209000000000,"state":"active","ping":64},{"user_id":281,"name":"sqnguine","steam_id":76561199481839224,"connected_time":1909000000000,"state":"active","ping":61},{"user_id":214,"name":"Kiwsatz Hederach","steam_id":76561198131567365,"connected_time":6603000000000,"state":"active","ping":66},{"user_id":282,"name":"sirturdalot","steam_id":76561199008362692,"connected_time":1852000000000,"state":"active","ping":72},{"user_id":261,"name":"Sleuth","steam_id":76561198418288939,"connected_time":3166000000000,"state":"active","ping":62},{"user_id":293,"name":"Lucky","steam_id":76561198828715832,"connected_time":364000000000,"state":"active","ping":52},{"user_id":294,"name":"NooseNeck","steam_id":76561198202416199,"connected_time":336000000000,"state":"active","ping":82},{"user_id":271,"name":"Altruisticailuridae","steam_id":76561198335295596,"connected_time":2153000000000,"state":"active","ping":53},{"user_id":292,"name":"Uprightmoss7528","steam_id":76561199200138486,"connected_time":380000000000,"state":"active","ping":56},{"user_id":290,"name":"Cael Thavain","steam_id":76561198136789464,"connected_time":890000000000,"state":"active","ping":60},{"user_id":295,"name":"Soda","steam_id":76561198219209367,"connected_time":324000000000,"state":"active","ping":50},{"user_id":272,"name":"blank","steam_id":76561198105529673,"connected_time":2149000000000,"state":"active","ping":42},{"user_id":286,"name":"ang","steam_id":76561198435151254,"connected_time":1531000000000,"state":"active","ping":58},{"user_id":296,"name":"Grim","steam_id":76561198016978310,"connected_time":309000000000,"state":"active","ping":66},{"user_id":283,"name":"Dragonsalt","steam_id":76561198141927559,"connected_time":1823000000000,"state":"active","ping":76},{"user_id":289,"name":"So I got this new anime plot...","steam_id":76561199146635572,"connected_time":1220000000000,"state":"active","ping":122},{"user_id":291,"name":"Gazelle","steam_id":76561198336397088,"connected_time":710000000000,"state":"active","ping":58},{"user_id":256,"name":"10HourNaps","steam_id":76561199082304859,"connected_time":3371000000000,"state":"active","ping":89},{"user_id":270,"name":"yellow ᗜˬᗜ","steam_id":76561198366474647,"connected_time":2155000000000,"state":"active","ping":42},{"user_id":266,"name":"›› Melon","steam_id":76561198041266286,"connected_time":2921000000000,"state":"active","ping":45},{"user_id":275,"name":"_Ati","steam_id":76561198339777801,"connected_time":2142000000000,"state":"active","ping":70},{"user_id":278,"name":"EAT SPIT!","steam_id":76561198096836451,"connected_time":2084000000000,"state":"active","ping":60},{"user_id":274,"name":"jc71777","steam_id":76561199124210364,"connected_time":2142000000000,"state":"active","ping":56},{"user_id":287,"name":"Honesty","steam_id":76561198066094995,"connected_time":1519000000000,"state":"active","ping":31}]},{"server_id":25,"name":"Uncletopia | Los Angeles | 4 | Stopwatch Beta","name_short":"lax-4","host":"lax-1.us.uncletopia.com","port":27045,"enabled":true,"region":"us-west","cc":"us","latitude":33.94279,"longitude":-118.41004,"reserved":0,"last_update":"0001-01-01T00:00:00Z","name_a2s":"Uncletopia | Los Angeles | 4 | Stopwatch Beta","protocol":17,"map":"pl_upward","folder":"tf","game":"Team Fortress","app_id":440,"player_count":0,"max_players":24,"Bots":0,"server_type":"Dedicated","server_os":"Linux","password":true,"vac":true,"version":"7961495","steam_id":85568392924510199,"keywords":["nocrits","nodmgspread","payload","uncletopia"],"game_id":440,"stv_port":27046,"stv_name":"Uncletopia | Los Angeles | 4 | Stopwatch Beta | STV","players":null},{"server_id":11,"name":"Uncletopia | London | 1 | All Maps","name_short":"lon-1","host":"lon-1.uk.uncletopia.com","port":27015,"enabled":true,"region":"eu","cc":"gb","latitude":51.509865,"longitude":-0.118092,"reserved":0,"last_update":"0001-01-01T00:00:00Z","name_a2s":"Uncletopia | London | 1 | All Maps","protocol":17,"map":"cp_sunshine","folder":"tf","game":"Team Fortress","app_id":440,"player_count":24,"max_players":24,"Bots":0,"server_type":"Dedicated","server_os":"Linux","password":true,"vac":true,"version":"7961495","steam_id":85568392924367362,"keywords":["cp","nocrits","nodmgspread","uncletopia"],"game_id":440,"stv_port":27016,"stv_name":"Uncletopia | London | 1 | All Maps | STV","players":[{"user_id":660,"name":"NI","steam_id":76561198941142018,"connected_time":5066000000000,"state":"active","ping":142},{"user_id":690,"name":"Son Goku","steam_id":76561199383437138,"connected_time":1169000000000,"state":"active","ping":119},{"user_id":658,"name":"♂ Twink Hunter ♂","steam_id":76561198397024973,"connected_time":5134000000000,"state":"active","ping":34},{"user_id":676,"name":"hedon/","steam_id":76561198249832770,"connected_time":2139000000000,"state":"active","ping":45},{"user_id":668,"name":"Kahvi","steam_id":76561198723244199,"connected_time":4007000000000,"state":"active","ping":75},{"user_id":671,"name":"fence_","steam_id":76561198150386379,"connected_time":3590000000000,"state":"active","ping":46},{"user_id":674,"name":"Stunner (John Gaming)","steam_id":76561199085822219,"connected_time":2154000000000,"state":"active","ping":87},{"user_id":604,"name":"Kphi(i)","steam_id":76561198970587061,"connected_time":8954000000000,"state":"active","ping":57},{"user_id":675,"name":"Wikk","steam_id":76561199006349076,"connected_time":2154000000000,"state":"active","ping":56},{"user_id":691,"name":"wormson","steam_id":76561198836754631,"connected_time":655000000000,"state":"active","ping":60},{"user_id":670,"name":"flamingosaurus","steam_id":76561198051455397,"connected_time":3992000000000,"state":"active","ping":44},{"user_id":680,"name":"Asat","steam_id":76561198862727465,"connected_time":2007000000000,"state":"active","ping":55},{"user_id":685,"name":"Hydrone","steam_id":76561198046485365,"connected_time":1392000000000,"state":"active","ping":36},{"user_id":694,"name":"Aaron","steam_id":76561197990046953,"connected_time":137000000000,"state":"active","ping":59},{"user_id":681,"name":"MrHenry","steam_id":76561199249662743,"connected_time":1964000000000,"state":"active","ping":128},{"user_id":628,"name":"pharmacist","steam_id":76561198274424248,"connected_time":7362000000000,"state":"active","ping":100},{"user_id":693,"name":"ume_ybbuhc","steam_id":76561199482149729,"connected_time":482000000000,"state":"active","ping":118},{"user_id":629,"name":"static","steam_id":76561198836825741,"connected_time":7293000000000,"state":"active","ping":65},{"user_id":687,"name":"jonesy","steam_id":76561198073975078,"connected_time":1235000000000,"state":"active","ping":58},{"user_id":688,"name":"SOPHIIEE","steam_id":76561198443798981,"connected_time":1186000000000,"state":"active","ping":57},{"user_id":649,"name":"Dark ^^","steam_id":76561198036241064,"connected_time":5882000000000,"state":"active","ping":72},{"user_id":689,"name":"123","steam_id":76561198113733477,"connected_time":1185000000000,"state":"active","ping":59},{"user_id":682,"name":"Sixie","steam_id":76561198251675360,"connected_time":1511000000000,"state":"active","ping":50},{"user_id":684,"name":"halow","steam_id":76561198061505163,"connected_time":1469000000000,"state":"active","ping":101}]},{"server_id":114,"name":"Uncletopia | London | 2 | All Maps","name_short":"lon-2","host":"lon-1.uk.uncletopia.com","port":27025,"enabled":true,"region":"eu","cc":"gb","latitude":51.509865,"longitude":-0.118092,"reserved":0,"last_update":"0001-01-01T00:00:00Z","name_a2s":"Uncletopia | London | 2 | All Maps","protocol":17,"map":"pl_borneo","folder":"tf","game":"Team Fortress","app_id":440,"player_count":24,"max_players":24,"Bots":0,"server_type":"Dedicated","server_os":"Linux","password":true,"vac":true,"version":"7961495","steam_id":85568392924470941,"keywords":["nocrits","nodmgspread","payload","uncletopia"],"game_id":440,"stv_port":27026,"stv_name":"Uncletopia | London | 2 | All Maps | STV","players":[{"user_id":626,"name":"Aarquus","steam_id":76561198006689878,"connected_time":5119000000000,"state":"active","ping":61},{"user_id":674,"name":"Khrinde","steam_id":76561198036744526,"connected_time":876000000000,"state":"active","ping":94},{"user_id":666,"name":"Mr_Pulse_","steam_id":76561198095001602,"connected_time":1299000000000,"state":"active","ping":106},{"user_id":659,"name":"Neeeiks","steam_id":76561198009156801,"connected_time":1716000000000,"state":"active","ping":81},{"user_id":642,"name":"SynthBox3","steam_id":76561199094075745,"connected_time":3110000000000,"state":"active","ping":93},{"user_id":684,"name":"perry the platypus","steam_id":76561199379159771,"connected_time":555000000000,"state":"active","ping":146},{"user_id":681,"name":"Intimatt","steam_id":76561198066393546,"connected_time":678000000000,"state":"active","ping":58},{"user_id":652,"name":"msh","steam_id":76561198367669395,"connected_time":2499000000000,"state":"active","ping":41},{"user_id":670,"name":"tilgep","steam_id":76561198125585734,"connected_time":1115000000000,"state":"active","ping":46},{"user_id":664,"name":"Garth Marenghi","steam_id":76561198009830164,"connected_time":1385000000000,"state":"active","ping":51},{"user_id":663,"name":"GarGar","steam_id":76561198076716157,"connected_time":1460000000000,"state":"active","ping":59},{"user_id":685,"name":"kilo","steam_id":76561198015641339,"connected_time":221000000000,"state":"active","ping":82},{"user_id":641,"name":"ROX","steam_id":76561198272289320,"connected_time":3936000000000,"state":"active","ping":74},{"user_id":680,"name":"mr.resetti","steam_id":76561198974520642,"connected_time":741000000000,"state":"active","ping":73},{"user_id":644,"name":"=Xal=","steam_id":76561198052622095,"connected_time":3098000000000,"state":"active","ping":61},{"user_id":682,"name":"Jim Bob","steam_id":76561198285195028,"connected_time":609000000000,"state":"active","ping":67},{"user_id":687,"name":"FlukeY","steam_id":76561198026137327,"connected_time":132000000000,"state":"active","ping":58},{"user_id":676,"name":"Urfangonultasadana","steam_id":76561199389286151,"connected_time":819000000000,"state":"active","ping":100},{"user_id":631,"name":"Anri Okita's Massive Milkers","steam_id":76561199186352720,"connected_time":5024000000000,"state":"active","ping":72},{"user_id":688,"name":"Pierdu","steam_id":76561198028705770,"connected_time":83000000000,"state":"active","ping":73},{"user_id":683,"name":"jj","steam_id":76561198079200985,"connected_time":583000000000,"state":"active","ping":57},{"user_id":667,"name":"joachym","steam_id":76561198428579761,"connected_time":1289000000000,"state":"active","ping":73},{"user_id":646,"name":"Furno","steam_id":76561197999723047,"connected_time":3087000000000,"state":"active","ping":34},{"user_id":638,"name":"Fizz","steam_id":76561197994814990,"connected_time":4168000000000,"state":"active","ping":72}]},{"server_id":320,"name":"Uncletopia | London | 3 | All Maps","name_short":"lon-3","host":"lon-1.uk.uncletopia.com","port":27035,"enabled":true,"region":"eu","cc":"gb","latitude":51.509865,"longitude":-0.118092,"reserved":0,"last_update":"0001-01-01T00:00:00Z","name_a2s":"Uncletopia | London | 3 | All Maps","protocol":17,"map":"cp_dustbowl","folder":"tf","game":"Team Fortress","app_id":440,"player_count":24,"max_players":24,"Bots":0,"server_type":"Dedicated","server_os":"Linux","password":true,"vac":true,"version":"7961495","steam_id":85568392924510192,"keywords":["cp","nocrits","nodmgspread","uncletopia"],"game_id":440,"stv_port":27036,"stv_name":"Uncletopia | London | 3 | All Maps | STV","players":[{"user_id":401,"name":"RickRoller","steam_id":76561199221172552,"connected_time":2441000000000,"state":"active","ping":60},{"user_id":395,"name":"rets","steam_id":76561198061551392,"connected_time":2888000000000,"state":"active","ping":63},{"user_id":422,"name":"The Sunnyshot","steam_id":76561198086787499,"connected_time":141000000000,"state":"active","ping":69},{"user_id":412,"name":"sparcoro","steam_id":76561198986010546,"connected_time":781000000000,"state":"active","ping":63},{"user_id":423,"name":"puncake4you","steam_id":76561198366512937,"connected_time":140000000000,"state":"active","ping":69},{"user_id":402,"name":"Ωmega","steam_id":76561198142672787,"connected_time":2391000000000,"state":"active","ping":66},{"user_id":405,"name":"Xonrus","steam_id":76561198074717396,"connected_time":2301000000000,"state":"active","ping":70},{"user_id":364,"name":"ran is running","steam_id":76561199443185667,"connected_time":4680000000000,"state":"active","ping":146},{"user_id":414,"name":"Tower","steam_id":76561198090278447,"connected_time":699000000000,"state":"active","ping":59},{"user_id":406,"name":"s a i","steam_id":76561197970379754,"connected_time":2292000000000,"state":"active","ping":60},{"user_id":415,"name":"MEDiUM","steam_id":76561198112328561,"connected_time":676000000000,"state":"active","ping":77},{"user_id":377,"name":"FatAssHaver55","steam_id":76561199142022395,"connected_time":3562000000000,"state":"active","ping":83},{"user_id":392,"name":"highest noon","steam_id":76561199103959197,"connected_time":3078000000000,"state":"active","ping":102},{"user_id":416,"name":"AFairFew","steam_id":76561198194484645,"connected_time":670000000000,"state":"active","ping":55},{"user_id":409,"name":"Rofl","steam_id":76561198854136945,"connected_time":1598000000000,"state":"active","ping":52},{"user_id":398,"name":"Dr. Funkenstein","steam_id":76561197977816210,"connected_time":2714000000000,"state":"active","ping":65},{"user_id":386,"name":"The Power","steam_id":76561198060566884,"connected_time":3453000000000,"state":"active","ping":41},{"user_id":391,"name":"Eric Catman","steam_id":76561198802117294,"connected_time":3315000000000,"state":"active","ping":95},{"user_id":257,"name":"After8","steam_id":76561198090750865,"connected_time":12955000000000,"state":"active","ping":72},{"user_id":408,"name":"Neonlemurs","steam_id":76561198161147186,"connected_time":1893000000000,"state":"active","ping":63},{"user_id":357,"name":"juicy","steam_id":76561198127264835,"connected_time":5320000000000,"state":"active","ping":45},{"user_id":410,"name":"aabracadabra","steam_id":76561198061248329,"connected_time":972000000000,"state":"active","ping":60},{"user_id":404,"name":"DaviX","steam_id":76561198345406679,"connected_time":2310000000000,"state":"active","ping":125},{"user_id":421,"name":"Alpaca","steam_id":76561198029839079,"connected_time":326000000000,"state":"active","ping":55}]},{"server_id":321,"name":"Uncletopia | London | 4 | All Maps","name_short":"lon-4","host":"lon-1.uk.uncletopia.com","port":27045,"enabled":true,"region":"eu","cc":"gb","latitude":51.509865,"longitude":-0.118092,"reserved":0,"last_update":"0001-01-01T00:00:00Z","name_a2s":"Uncletopia | London | 4 | All Maps","protocol":17,"map":"pl_pier","folder":"tf","game":"Team Fortress","app_id":440,"player_count":1,"max_players":24,"Bots":0,"server_type":"Dedicated","server_os":"Linux","password":true,"vac":true,"version":"7961495","steam_id":85568392924510193,"keywords":["nocrits","nodmgspread","payload","uncletopia"],"game_id":440,"stv_port":27046,"stv_name":"Uncletopia | London | 4 | All Maps | STV","players":[{"user_id":263,"name":"Orpheus","steam_id":76561198442035906,"connected_time":938000000000,"state":"active","ping":61}]},{"server_id":21,"name":"Uncletopia | London | 5 | All Maps","name_short":"lon-5","host":"lon-1.uk.uncletopia.com","port":27055,"enabled":true,"region":"eu","cc":"gb","latitude":51.509865,"longitude":-0.118092,"reserved":0,"last_update":"0001-01-01T00:00:00Z","name_a2s":"Uncletopia | London | 5 | All Maps","protocol":17,"map":"pl_frontier_final","folder":"tf","game":"Team Fortress","app_id":440,"player_count":24,"max_players":24,"Bots":0,"server_type":"Dedicated","server_os":"Linux","password":true,"vac":true,"version":"7961495","steam_id":85568392924742829,"keywords":["nocrits","nodmgspread","payload","uncletopia"],"game_id":440,"stv_port":27056,"stv_name":"Uncletopia | London | 5 | All Maps | STV","players":[{"user_id":683,"name":"PingouinPoilu","steam_id":76561198025089253,"connected_time":218000000000,"state":"active","ping":56},{"user_id":658,"name":"Eltonius","steam_id":76561198157560715,"connected_time":1907000000000,"state":"active","ping":83},{"user_id":671,"name":"mr slamjam","steam_id":76561198448523433,"connected_time":1498000000000,"state":"active","ping":63},{"user_id":635,"name":"arcSolver","steam_id":76561198212013944,"connected_time":3292000000000,"state":"active","ping":47},{"user_id":663,"name":"Guuse","steam_id":76561198030956814,"connected_time":1725000000000,"state":"active","ping":43},{"user_id":627,"name":"kill pyro main with rock","steam_id":76561198072320671,"connected_time":3539000000000,"state":"active","ping":34},{"user_id":661,"name":"omnibombulator","steam_id":76561198025858897,"connected_time":1842000000000,"state":"active","ping":47},{"user_id":654,"name":"Jonno","steam_id":76561198023443744,"connected_time":2450000000000,"state":"active","ping":53},{"user_id":606,"name":"autistic guitar","steam_id":76561198122814249,"connected_time":4772000000000,"state":"active","ping":47},{"user_id":681,"name":"etc","steam_id":76561197998394797,"connected_time":409000000000,"state":"active","ping":49},{"user_id":678,"name":"Silver","steam_id":76561198175238807,"connected_time":562000000000,"state":"active","ping":50},{"user_id":649,"name":"SWAY","steam_id":76561198865753833,"connected_time":2930000000000,"state":"active","ping":52},{"user_id":662,"name":"Dewotter","steam_id":76561198007653168,"connected_time":1834000000000,"state":"active","ping":59},{"user_id":670,"name":"D4NTheProtogen","steam_id":76561198206460789,"connected_time":1564000000000,"state":"active","ping":57},{"user_id":638,"name":"padillacampos","steam_id":76561198161923970,"connected_time":3241000000000,"state":"active","ping":78},{"user_id":666,"name":"Lorenzo Lovers","steam_id":76561198073973581,"connected_time":1688000000000,"state":"active","ping":86},{"user_id":655,"name":"Nox Equites","steam_id":76561198115438449,"connected_time":2300000000000,"state":"active","ping":86},{"user_id":672,"name":"JUST","steam_id":76561198069064885,"connected_time":1485000000000,"state":"active","ping":54},{"user_id":675,"name":"盾子ールジャー","steam_id":76561198248239796,"connected_time":1389000000000,"state":"active","ping":57},{"user_id":656,"name":"jóni","steam_id":76561197997323419,"connected_time":2232000000000,"state":"active","ping":79},{"user_id":677,"name":"mangoface","steam_id":76561199028760996,"connected_time":908000000000,"state":"active","ping":79},{"user_id":641,"name":"I.C. Wiener","steam_id":76561197999912254,"connected_time":3208000000000,"state":"active","ping":98},{"user_id":673,"name":"Flippy","steam_id":76561197970181048,"connected_time":1482000000000,"state":"active","ping":53},{"user_id":680,"name":"randompixel","steam_id":76561198003941207,"connected_time":480000000000,"state":"active","ping":58}]},{"server_id":22,"name":"Uncletopia | London | 6 | All Maps","name_short":"lon-6","host":"lon-1.uk.uncletopia.com","port":27065,"enabled":true,"region":"eu","cc":"gb","latitude":51.509865,"longitude":-0.118092,"reserved":0,"last_update":"0001-01-01T00:00:00Z","name_a2s":"Uncletopia | London | 6 | All Maps","protocol":17,"map":"pl_swiftwater_final1","folder":"tf","game":"Team Fortress","app_id":440,"player_count":0,"max_players":24,"Bots":0,"server_type":"Dedicated","server_os":"Linux","password":true,"vac":true,"version":"7961495","steam_id":85568392924742830,"keywords":["nocrits","nodmgspread","payload","uncletopia"],"game_id":440,"stv_port":27066,"stv_name":"Uncletopia | London | 6 | All Maps | STV","players":null},{"server_id":40,"name":"Uncletopia | London | 7 | No Payload","name_short":"lon-7","host":"lon-1.uk.uncletopia.com","port":27075,"enabled":true,"region":"eu","cc":"gb","latitude":51.509865,"longitude":-0.118092,"reserved":0,"last_update":"0001-01-01T00:00:00Z","name_a2s":"Uncletopia | London | 7 | No Payload","protocol":17,"map":"koth_sawmill","folder":"tf","game":"Team Fortress","app_id":440,"player_count":3,"max_players":24,"Bots":0,"server_type":"Dedicated","server_os":"Linux","password":true,"vac":true,"version":"7961495","steam_id":85568392924964314,"keywords":["cp","nocrits","nodmgspread","uncletopia"],"game_id":440,"stv_port":27076,"stv_name":"Uncletopia | London | 7 | No Payload | STV","players":[{"user_id":54,"name":"Dr ADHD MD","steam_id":76561198025252995,"connected_time":1036000000000,"state":"active","ping":77},{"user_id":48,"name":"Tx_madmash","steam_id":76561198924656512,"connected_time":2839000000000,"state":"active","ping":383},{"user_id":55,"name":"UglyTwinYgor","steam_id":76561198132718039,"connected_time":954000000000,"state":"active","ping":83}]},{"server_id":41,"name":"Uncletopia | London | 8 | Community","name_short":"lon-8","host":"lon-1.uk.uncletopia.com","port":27085,"enabled":true,"region":"eu","cc":"gb","latitude":51.509865,"longitude":-0.118092,"reserved":0,"last_update":"0001-01-01T00:00:00Z","name_a2s":"Uncletopia | London | 8 | Community","protocol":17,"map":"workshop/koth_synthetic_rc6a.ugc1549817316","folder":"tf","game":"Team Fortress","app_id":440,"player_count":0,"max_players":24,"Bots":0,"server_type":"Dedicated","server_os":"Linux","password":true,"vac":true,"version":"7961495","steam_id":85568392924964315,"keywords":["cp","nocrits","nodmgspread","uncletopia"],"game_id":440,"stv_port":27086,"stv_name":"Uncletopia | London | 8 | Community | STV","players":null},{"server_id":300,"name":"Uncletopia | Montréal | 1 | All Maps","name_short":"mtl-1","host":"mtl-1.ca.uncletopia.com","port":27015,"enabled":true,"region":"us-east","cc":"ca","latitude":45.50889,"longitude":-73.56167,"reserved":0,"last_update":"0001-01-01T00:00:00Z","name_a2s":"","protocol":0,"map":"","folder":"","game":"","app_id":0,"player_count":5,"max_players":0,"Bots":0,"server_type":"","server_os":"","password":false,"vac":false,"version":"","steam_id":0,"keywords":null,"game_id":0,"stv_port":0,"stv_name":"","players":[{"user_id":439,"name":"Charcoal","steam_id":76561198268638706,"connected_time":2514000000000,"state":"active","ping":114},{"user_id":441,"name":"ellis left 4 dead 2","steam_id":76561198364645366,"connected_time":320000000000,"state":"active","ping":101},{"user_id":442,"name":"marshmellowguy","steam_id":76561199008710694,"connected_time":295000000000,"state":"active","ping":85},{"user_id":443,"name":"Alabit","steam_id":76561198065578560,"connected_time":75000000000,"state":"active","ping":107},{"user_id":436,"name":"manbearswineflu","steam_id":76561198083945137,"connected_time":2895000000000,"state":"active","ping":75}]},{"server_id":301,"name":"Uncletopia | Montréal | 2 | All Maps","name_short":"mtl-2","host":"mtl-1.ca.uncletopia.com","port":27025,"enabled":true,"region":"us-east","cc":"ca","latitude":45.50889,"longitude":-73.56167,"reserved":0,"last_update":"0001-01-01T00:00:00Z","name_a2s":"","protocol":0,"map":"","folder":"","game":"","app_id":0,"player_count":0,"max_players":0,"Bots":0,"server_type":"","server_os":"","password":false,"vac":false,"version":"","steam_id":0,"keywords":null,"game_id":0,"stv_port":0,"stv_name":"","players":null},{"server_id":302,"name":"Uncletopia | Montréal | 3 | All Maps","name_short":"mtl-3","host":"mtl-1.ca.uncletopia.com","port":27035,"enabled":true,"region":"us-east","cc":"ca","latitude":45.50889,"longitude":-73.56167,"reserved":0,"last_update":"0001-01-01T00:00:00Z","name_a2s":"","protocol":0,"map":"","folder":"","game":"","app_id":0,"player_count":0,"max_players":0,"Bots":0,"server_type":"","server_os":"","password":false,"vac":false,"version":"","steam_id":0,"keywords":null,"game_id":0,"stv_port":0,"stv_name":"","players":null},{"server_id":303,"name":"Uncletopia | Montréal | 4 | No Payload","name_short":"mtl-4","host":"mtl-1.ca.uncletopia.com","port":27045,"enabled":true,"region":"us-east","cc":"ca","latitude":45.50889,"longitude":-73.56167,"reserved":0,"last_update":"0001-01-01T00:00:00Z","name_a2s":"","protocol":0,"map":"","folder":"","game":"","app_id":0,"player_count":10,"max_players":0,"Bots":0,"server_type":"","server_os":"","password":false,"vac":false,"version":"","steam_id":0,"keywords":null,"game_id":0,"stv_port":0,"stv_name":"","players":[{"user_id":4,"name":"doamgeo468","steam_id":76561199485287045,"connected_time":3096000000000,"state":"active","ping":82},{"user_id":6,"name":"cpg","steam_id":76561198853515541,"connected_time":3015000000000,"state":"active","ping":96},{"user_id":7,"name":"kdhbuilder","steam_id":76561199058095193,"connected_time":2497000000000,"state":"active","ping":83},{"user_id":8,"name":"TinyGrunt16","steam_id":76561199064951235,"connected_time":2344000000000,"state":"active","ping":62},{"user_id":9,"name":"Your Local NPR Station","steam_id":76561198143830279,"connected_time":1175000000000,"state":"active","ping":60},{"user_id":10,"name":"Osteo-Oligarch","steam_id":76561198164731896,"connected_time":1044000000000,"state":"active","ping":61},{"user_id":16,"name":"Pepperest ((\u003eω\u003c ))","steam_id":76561199200969139,"connected_time":426000000000,"state":"active","ping":132},{"user_id":12,"name":"Eray-Arda-67","steam_id":76561199135796906,"connected_time":627000000000,"state":"active","ping":141},{"user_id":13,"name":"Congcrab","steam_id":76561198078687685,"connected_time":594000000000,"state":"active","ping":86},{"user_id":14,"name":"Tarnish DeBoot","steam_id":76561198148031251,"connected_time":585000000000,"state":"active","ping":71}]},{"server_id":13,"name":"Uncletopia | New York City | 1 | All Maps","name_short":"nyc-1","host":"nyc-1.us.uncletopia.com","port":27015,"enabled":true,"region":"us-east","cc":"us","latitude":40.73061,"longitude":-73.93524,"reserved":0,"last_update":"0001-01-01T00:00:00Z","name_a2s":"Uncletopia | New York City | 1 | All Maps","protocol":17,"map":"pl_upward","folder":"tf","game":"Team Fortress","app_id":440,"player_count":23,"max_players":24,"Bots":0,"server_type":"Dedicated","server_os":"Linux","password":true,"vac":true,"version":"7961495","steam_id":85568392924469993,"keywords":["nocrits","nodmgspread","payload","uncletopia"],"game_id":440,"stv_port":27016,"stv_name":"Uncletopia | New York City | 1 | All Maps | STV","players":[{"user_id":400,"name":"ThatOneKaiser","steam_id":76561198799231254,"connected_time":159000000000,"state":"active","ping":60},{"user_id":373,"name":"Modest!","steam_id":76561198020945438,"connected_time":2426000000000,"state":"active","ping":58},{"user_id":382,"name":"TopHatWearingKoala","steam_id":76561198068192599,"connected_time":2018000000000,"state":"active","ping":70},{"user_id":397,"name":"Cube","steam_id":76561199021614213,"connected_time":400000000000,"state":"active","ping":162},{"user_id":363,"name":"Dr. Sex (fake)","steam_id":76561198329591401,"connected_time":3069000000000,"state":"active","ping":71},{"user_id":398,"name":"Nothing▲","steam_id":76561198071152906,"connected_time":208000000000,"state":"active","ping":101},{"user_id":401,"name":"Dr.Puperitto","steam_id":76561198807887297,"connected_time":151000000000,"state":"active","ping":177},{"user_id":371,"name":"Polite Frog","steam_id":76561198296968646,"connected_time":2467000000000,"state":"active","ping":82},{"user_id":402,"name":"Elixir","steam_id":76561198154415647,"connected_time":144000000000,"state":"active","ping":63},{"user_id":369,"name":"_JoeCool_","steam_id":76561198027390902,"connected_time":2675000000000,"state":"active","ping":43},{"user_id":368,"name":"I only pocket snipers","steam_id":76561198104086771,"connected_time":3043000000000,"state":"active","ping":106},{"user_id":381,"name":"tyrone from backyardigans","steam_id":76561198315945189,"connected_time":2048000000000,"state":"active","ping":92},{"user_id":394,"name":"Crouching Noob Hidden Sniper","steam_id":76561197971328473,"connected_time":848000000000,"state":"active","ping":87},{"user_id":392,"name":"capeeKo","steam_id":76561197970346623,"connected_time":1061000000000,"state":"active","ping":60},{"user_id":361,"name":"Panie Paździoch","steam_id":76561198050941625,"connected_time":3087000000000,"state":"active","ping":145},{"user_id":389,"name":"Lobotany","steam_id":76561198151256694,"connected_time":1144000000000,"state":"active","ping":56},{"user_id":377,"name":"Nerrrd_","steam_id":76561198870129960,"connected_time":2175000000000,"state":"active","ping":39},{"user_id":378,"name":"Jamendithas","steam_id":76561198119537716,"connected_time":2068000000000,"state":"active","ping":66},{"user_id":395,"name":"skent6621","steam_id":76561199210134404,"connected_time":817000000000,"state":"active","ping":86},{"user_id":290,"name":"solipsism","steam_id":76561198063457494,"connected_time":8482000000000,"state":"active","ping":63},{"user_id":391,"name":"Gir Gaming","steam_id":76561198156782359,"connected_time":1107000000000,"state":"active","ping":56},{"user_id":396,"name":"Ellis McGruber","steam_id":76561198060739536,"connected_time":765000000000,"state":"active","ping":56},{"user_id":388,"name":"space man","steam_id":76561198066333670,"connected_time":1152000000000,"state":"active","ping":70}]},{"server_id":14,"name":"Uncletopia | New York City | 2 | All Maps","name_short":"nyc-2","host":"nyc-1.us.uncletopia.com","port":27025,"enabled":true,"region":"us-east","cc":"us","latitude":40.73061,"longitude":-73.93524,"reserved":0,"last_update":"0001-01-01T00:00:00Z","name_a2s":"Uncletopia | New York City | 2 | All Maps","protocol":17,"map":"ctf_2fort","folder":"tf","game":"Team Fortress","app_id":440,"player_count":21,"max_players":24,"Bots":0,"server_type":"Dedicated","server_os":"Linux","password":true,"vac":true,"version":"7961495","steam_id":85568392924469994,"keywords":["ctf","nocrits","nodmgspread","uncletopia"],"game_id":440,"stv_port":27026,"stv_name":"Uncletopia | New York City | 2 | All Maps | STV","players":[{"user_id":379,"name":"BeakerofSalt","steam_id":76561198986000125,"connected_time":1081000000000,"state":"active","ping":67},{"user_id":338,"name":"OKAY","steam_id":76561198091980659,"connected_time":2850000000000,"state":"active","ping":56},{"user_id":393,"name":"vastrobotmax","steam_id":76561198417110724,"connected_time":223000000000,"state":"active","ping":68},{"user_id":336,"name":"Green Mario","steam_id":76561198922644496,"connected_time":3156000000000,"state":"active","ping":88},{"user_id":319,"name":"Infinity","steam_id":76561199134919099,"connected_time":4175000000000,"state":"active","ping":60},{"user_id":212,"name":"Comfy!","steam_id":76561198008818346,"connected_time":13785000000000,"state":"active","ping":43},{"user_id":384,"name":"JustLooking","steam_id":76561198207877387,"connected_time":626000000000,"state":"active","ping":33},{"user_id":394,"name":"Bing Soy is best ARG #savetf2","steam_id":76561199162653647,"connected_time":154000000000,"state":"active","ping":83},{"user_id":373,"name":"Jrock","steam_id":76561198045715996,"connected_time":1513000000000,"state":"active","ping":77},{"user_id":380,"name":"BU   O","steam_id":76561198871738546,"connected_time":1070000000000,"state":"active","ping":61},{"user_id":386,"name":"eaglesfan609","steam_id":76561198151032242,"connected_time":593000000000,"state":"active","ping":40},{"user_id":349,"name":"The","steam_id":76561198359311605,"connected_time":2572000000000,"state":"active","ping":135},{"user_id":278,"name":"Non Critical Thinker","steam_id":76561198123401597,"connected_time":8190000000000,"state":"active","ping":74},{"user_id":372,"name":"FrostStorm","steam_id":76561198142685151,"connected_time":1549000000000,"state":"active","ping":71},{"user_id":368,"name":"The Potato Romancer","steam_id":76561198204197648,"connected_time":1692000000000,"state":"active","ping":119},{"user_id":389,"name":"wool","steam_id":76561198869689933,"connected_time":562000000000,"state":"active","ping":49},{"user_id":370,"name":"emseaeye","steam_id":76561198161499803,"connected_time":1603000000000,"state":"active","ping":64},{"user_id":189,"name":"Okpar","steam_id":76561199221067945,"connected_time":16377000000000,"state":"active","ping":95},{"user_id":332,"name":"J-Booty Rasengan","steam_id":76561198088854411,"connected_time":3284000000000,"state":"active","ping":59},{"user_id":391,"name":"Plieop","steam_id":76561198199493917,"connected_time":475000000000,"state":"active","ping":39},{"user_id":397,"name":"Sergeant Radovan [T.H.W.U]","steam_id":76561198287779085,"connected_time":88000000000,"state":"active","ping":107}]},{"server_id":15,"name":"Uncletopia | New York City | 3 | Stopwatch Beta","name_short":"nyc-3","host":"nyc-1.us.uncletopia.com","port":27035,"enabled":true,"region":"us-east","cc":"us","latitude":40.73061,"longitude":-73.93524,"reserved":0,"last_update":"0001-01-01T00:00:00Z","name_a2s":"Uncletopia | New York City | 3 | Stopwatch Beta","protocol":17,"map":"workshop/koth_product_final.ugc454272353","folder":"tf","game":"Team Fortress","app_id":440,"player_count":0,"max_players":24,"Bots":0,"server_type":"Dedicated","server_os":"Linux","password":true,"vac":true,"version":"7961495","steam_id":85568392924742820,"keywords":["cp","nocrits","nodmgspread","uncletopia"],"game_id":440,"stv_port":27036,"stv_name":"Uncletopia | New York City | 3 | Stopwatch Beta | STV","players":null},{"server_id":16,"name":"Uncletopia | New York City | 4 | Community","name_short":"nyc-4","host":"nyc-1.us.uncletopia.com","port":27045,"enabled":true,"region":"us-east","cc":"us","latitude":40.73061,"longitude":-73.93524,"reserved":0,"last_update":"0001-01-01T00:00:00Z","name_a2s":"Uncletopia | New York City | 4 | Community","protocol":17,"map":"koth_lakeside_final","folder":"tf","game":"Team Fortress","app_id":440,"player_count":0,"max_players":24,"Bots":0,"server_type":"Dedicated","server_os":"Linux","password":true,"vac":true,"version":"7961495","steam_id":85568392924742821,"keywords":["cp","nocrits","nodmgspread","uncletopia"],"game_id":440,"stv_port":27046,"stv_name":"Uncletopia | New York City | 4 | Community | STV","players":null},{"server_id":142,"name":"Uncletopia | São Paulo | 1 | All Maps","name_short":"sao-1","host":"sao-1.br.uncletopia.com","port":27015,"enabled":true,"region":"sa","cc":"br","latitude":-23.533773,"longitude":-46.62529,"reserved":0,"last_update":"0001-01-01T00:00:00Z","name_a2s":"Uncletopia | São Paulo | 1 | All Maps","protocol":17,"map":"koth_highpass","folder":"tf","game":"Team Fortress","app_id":440,"player_count":0,"max_players":24,"Bots":0,"server_type":"Dedicated","server_os":"Linux","password":true,"vac":true,"version":"7961495","steam_id":85568392924469996,"keywords":["cp","nocrits","nodmgspread","uncletopia"],"game_id":440,"stv_port":27016,"stv_name":"Uncletopia | São Paulo | 1 | All Maps | STV","players":null},{"server_id":143,"name":"Uncletopia | São Paulo | 2 | Community","name_short":"sao-2","host":"sao-2.br.uncletopia.com","port":27015,"enabled":true,"region":"sa","cc":"br","latitude":-23.533773,"longitude":-46.62529,"reserved":0,"last_update":"0001-01-01T00:00:00Z","name_a2s":"Uncletopia | São Paulo | 2 | Community","protocol":17,"map":"workshop/cp_glassworks_rc6a.ugc454118349","folder":"tf","game":"Team Fortress","app_id":440,"player_count":23,"max_players":24,"Bots":0,"server_type":"Dedicated","server_os":"Linux","password":true,"vac":true,"version":"7961495","steam_id":85568392924485349,"keywords":["cp","nocrits","nodmgspread","uncletopia"],"game_id":440,"stv_port":27016,"stv_name":"Uncletopia | São Paulo | 2 | Community | STV","players":[{"user_id":113,"name":"Phalanx","steam_id":76561198043563282,"connected_time":2430000000000,"state":"active","ping":45},{"user_id":97,"name":"Lan","steam_id":76561198263163492,"connected_time":4494000000000,"state":"active","ping":64},{"user_id":130,"name":"mg11a3","steam_id":76561198872798175,"connected_time":1142000000000,"state":"active","ping":49},{"user_id":133,"name":"BelaakGames","steam_id":76561198800385847,"connected_time":751000000000,"state":"active","ping":98},{"user_id":70,"name":"matheus whatsapp","steam_id":76561199359501901,"connected_time":7756000000000,"state":"active","ping":44},{"user_id":106,"name":"MortiElEnamorado","steam_id":76561198269032078,"connected_time":3706000000000,"state":"active","ping":84},{"user_id":110,"name":"Blob","steam_id":76561198403876902,"connected_time":3009000000000,"state":"active","ping":112},{"user_id":134,"name":"Sam","steam_id":76561198845065988,"connected_time":680000000000,"state":"active","ping":74},{"user_id":132,"name":"valter negro","steam_id":76561198317090330,"connected_time":848000000000,"state":"active","ping":60},{"user_id":128,"name":".fnord","steam_id":76561198119754613,"connected_time":1211000000000,"state":"active","ping":49},{"user_id":135,"name":"guarda-chuva","steam_id":76561198078694330,"connected_time":672000000000,"state":"active","ping":59},{"user_id":103,"name":"My wife left me","steam_id":76561199093912386,"connected_time":3859000000000,"state":"active","ping":53},{"user_id":107,"name":"serialnumber435","steam_id":76561199466187650,"connected_time":3529000000000,"state":"active","ping":86},{"user_id":126,"name":"Kibetsuban","steam_id":76561198056480228,"connected_time":1609000000000,"state":"active","ping":58},{"user_id":115,"name":"Eiden","steam_id":76561198033798246,"connected_time":2328000000000,"state":"active","ping":62},{"user_id":123,"name":"walas","steam_id":76561198146455756,"connected_time":1731000000000,"state":"active","ping":75},{"user_id":136,"name":"sushi","steam_id":76561198909080333,"connected_time":510000000000,"state":"active","ping":79},{"user_id":137,"name":"Burilo","steam_id":76561198014445055,"connected_time":442000000000,"state":"active","ping":57},{"user_id":138,"name":"Skelly","steam_id":76561198844514989,"connected_time":399000000000,"state":"active","ping":80},{"user_id":139,"name":"Poc Poc","steam_id":76561199002899258,"connected_time":222000000000,"state":"active","ping":73},{"user_id":140,"name":"🜏Krakken🜏","steam_id":76561198314953336,"connected_time":65000000000,"state":"active","ping":102},{"user_id":141,"name":"델리셔스","steam_id":76561198143438576,"connected_time":39000000000,"state":"active","ping":44},{"user_id":142,"name":"Gb20X","steam_id":76561199472338260,"connected_time":18000000000,"state":"spawning","ping":106}]},{"server_id":7,"name":"Uncletopia | Seattle | 1 | All Maps","name_short":"sea-1","host":"sea-1.us.uncletopia.com","port":27015,"enabled":true,"region":"us-west","cc":"us","latitude":47.608013,"longitude":-122.33517,"reserved":0,"last_update":"0001-01-01T00:00:00Z","name_a2s":"Uncletopia | Seattle | 1 | All Maps","protocol":17,"map":"pl_badwater","folder":"tf","game":"Team Fortress","app_id":440,"player_count":24,"max_players":24,"Bots":0,"server_type":"Dedicated","server_os":"Linux","password":true,"vac":true,"version":"7961495","steam_id":85568392924469997,"keywords":["nocrits","nodmgspread","payload","uncletopia"],"game_id":440,"stv_port":27016,"stv_name":"Uncletopia | Seattle | 1 | All Maps | STV","players":[{"user_id":122,"name":"Alphaarmy01","steam_id":76561198818913025,"connected_time":8384000000000,"state":"active","ping":165},{"user_id":88,"name":"InterplanetaryGentlemann","steam_id":76561198146559390,"connected_time":10627000000000,"state":"active","ping":45},{"user_id":220,"name":"cream team","steam_id":76561198139043953,"connected_time":1413000000000,"state":"active","ping":104},{"user_id":233,"name":"greens beans","steam_id":76561198153611491,"connected_time":366000000000,"state":"active","ping":41},{"user_id":225,"name":"rad killl raccoon","steam_id":76561198980975595,"connected_time":975000000000,"state":"active","ping":65},{"user_id":181,"name":"Manchurian Bandit","steam_id":76561198072410042,"connected_time":3394000000000,"state":"active","ping":82},{"user_id":227,"name":"CPTforever","steam_id":76561198237767198,"connected_time":936000000000,"state":"active","ping":60},{"user_id":222,"name":"Joker","steam_id":76561198108480348,"connected_time":1359000000000,"state":"active","ping":82},{"user_id":223,"name":"DOMO_MR_ROBOTO","steam_id":76561198077108345,"connected_time":1356000000000,"state":"active","ping":129},{"user_id":210,"name":"☢(XJ)","steam_id":76561198102189618,"connected_time":2049000000000,"state":"active","ping":64},{"user_id":234,"name":"porfer","steam_id":76561199118049168,"connected_time":201000000000,"state":"active","ping":73},{"user_id":158,"name":"WaffleWithNoToppings","steam_id":76561199088280111,"connected_time":5566000000000,"state":"active","ping":48},{"user_id":114,"name":"Immunityframes","steam_id":76561198318250550,"connected_time":8935000000000,"state":"active","ping":56},{"user_id":180,"name":"CashGordon","steam_id":76561197975594096,"connected_time":3529000000000,"state":"active","ping":40},{"user_id":171,"name":"[COS]SonneyDonkeh","steam_id":76561198091284496,"connected_time":3925000000000,"state":"active","ping":82},{"user_id":142,"name":"Chase","steam_id":76561198142160728,"connected_time":7238000000000,"state":"active","ping":60},{"user_id":224,"name":"KayDragon","steam_id":76561198085506604,"connected_time":1305000000000,"state":"active","ping":56},{"user_id":214,"name":"♥ President Shitfart ♥","steam_id":76561198141819053,"connected_time":1945000000000,"state":"active","ping":86},{"user_id":231,"name":"Skabbety","steam_id":76561198168044257,"connected_time":397000000000,"state":"active","ping":43},{"user_id":229,"name":"Scarecrow","steam_id":76561198114391664,"connected_time":729000000000,"state":"active","ping":62},{"user_id":204,"name":"keithykeithers","steam_id":76561197995552615,"connected_time":2602000000000,"state":"active","ping":45},{"user_id":153,"name":"River Rat","steam_id":76561198116383976,"connected_time":5896000000000,"state":"active","ping":68},{"user_id":217,"name":"Dr. Karl, the AUS Science Guy","steam_id":76561198031278747,"connected_time":1773000000000,"state":"active","ping":54},{"user_id":232,"name":"BolognaWithOlives","steam_id":76561198101262668,"connected_time":396000000000,"state":"active","ping":87}]},{"server_id":119,"name":"Uncletopia | Seattle | 2 | All Maps","name_short":"sea-2","host":"sea-1.us.uncletopia.com","port":27025,"enabled":true,"region":"us-west","cc":"us","latitude":47.608013,"longitude":-122.33517,"reserved":0,"last_update":"0001-01-01T00:00:00Z","name_a2s":"Uncletopia | Seattle | 2 | All Maps","protocol":17,"map":"cp_coldfront","folder":"tf","game":"Team Fortress","app_id":440,"player_count":24,"max_players":24,"Bots":0,"server_type":"Dedicated","server_os":"Linux","password":true,"vac":true,"version":"7961495","steam_id":85568392924469998,"keywords":["cp","nocrits","nodmgspread","uncletopia"],"game_id":440,"stv_port":27026,"stv_name":"Uncletopia | Seattle | 2 | All Maps | STV","players":[{"user_id":115,"name":"FliturbiousRex","steam_id":76561199217583334,"connected_time":326000000000,"state":"active","ping":114},{"user_id":119,"name":"SuperbSunnyD","steam_id":76561198057531269,"connected_time":198000000000,"state":"active","ping":74},{"user_id":101,"name":"SearingGustav #tG","steam_id":76561198040560786,"connected_time":1246000000000,"state":"active","ping":69},{"user_id":111,"name":"GaySkitarii","steam_id":76561198403829714,"connected_time":424000000000,"state":"active","ping":45},{"user_id":91,"name":"some nerd","steam_id":76561198297272878,"connected_time":2001000000000,"state":"active","ping":68},{"user_id":117,"name":"Red Metal","steam_id":76561198362722560,"connected_time":237000000000,"state":"active","ping":44},{"user_id":79,"name":"mm","steam_id":76561198088163909,"connected_time":3124000000000,"state":"active","ping":46},{"user_id":33,"name":"Robert E Lee","steam_id":76561199109422781,"connected_time":4963000000000,"state":"active","ping":71},{"user_id":113,"name":"Ddonut gamer","steam_id":76561198858852245,"connected_time":376000000000,"state":"active","ping":80},{"user_id":90,"name":"OHGODBEES!","steam_id":76561198000653374,"connected_time":2294000000000,"state":"active","ping":99},{"user_id":40,"name":"SteveHarp","steam_id":76561198339530814,"connected_time":4783000000000,"state":"active","ping":60},{"user_id":110,"name":"BIGWELDFROMROBOTS","steam_id":76561199275349806,"connected_time":475000000000,"state":"active","ping":71},{"user_id":104,"name":"JawnyMac","steam_id":76561198179529599,"connected_time":1082000000000,"state":"active","ping":76},{"user_id":120,"name":"Crustacean Daddy","steam_id":76561198993807061,"connected_time":178000000000,"state":"active","ping":73},{"user_id":44,"name":"Gamekiller839","steam_id":76561199475400469,"connected_time":4729000000000,"state":"active","ping":46},{"user_id":106,"name":"sirvidame","steam_id":76561198149866101,"connected_time":1032000000000,"state":"active","ping":82},{"user_id":46,"name":"dougrocks421","steam_id":76561198165063918,"connected_time":4709000000000,"state":"active","ping":40},{"user_id":96,"name":"BlazedBunny","steam_id":76561198243610560,"connected_time":1577000000000,"state":"active","ping":76},{"user_id":77,"name":"Pop-Tart Eater","steam_id":76561198080822164,"connected_time":3220000000000,"state":"active","ping":51},{"user_id":93,"name":"Eurobeat too loud, can't hear :","steam_id":76561198330743199,"connected_time":1737000000000,"state":"active","ping":75},{"user_id":118,"name":"Mocha Josie","steam_id":76561198066452726,"connected_time":233000000000,"state":"active","ping":76},{"user_id":108,"name":"Master Etherium","steam_id":76561198305037146,"connected_time":906000000000,"state":"active","ping":101},{"user_id":65,"name":"Grunt","steam_id":76561198200758903,"connected_time":3860000000000,"state":"active","ping":91},{"user_id":92,"name":"slushy :))","steam_id":76561198135281802,"connected_time":1780000000000,"state":"active","ping":43}]},{"server_id":406,"name":"Uncletopia | Seattle | 3 | Stopwatch Beta","name_short":"sea-3","host":"sea-1.us.uncletopia.com","port":27035,"enabled":true,"region":"us-west","cc":"us","latitude":47.608013,"longitude":-122.33517,"reserved":0,"last_update":"0001-01-01T00:00:00Z","name_a2s":"Uncletopia | Seattle | 3 | Stopwatch Beta","protocol":17,"map":"workshop/pl_vigil_rc9.ugc1266210012","folder":"tf","game":"Team Fortress","app_id":440,"player_count":0,"max_players":24,"Bots":0,"server_type":"Dedicated","server_os":"Linux","password":true,"vac":true,"version":"7961495","steam_id":85568392924515217,"keywords":["nocrits","nodmgspread","payload","uncletopia"],"game_id":440,"stv_port":27036,"stv_name":"Uncletopia | Seattle | 3 | Stopwatch Beta | STV","players":null},{"server_id":17,"name":"Uncletopia | San Francisco | 1 | All Maps","name_short":"sfo-1","host":"sfo-1.us.uncletopia.com","port":27015,"enabled":true,"region":"us-west","cc":"us","latitude":37.77397,"longitude":-122.4313,"reserved":0,"last_update":"0001-01-01T00:00:00Z","name_a2s":"Uncletopia | San Francisco | 1 | All Maps","protocol":17,"map":"cp_altitude","folder":"tf","game":"Team Fortress","app_id":440,"player_count":0,"max_players":24,"Bots":0,"server_type":"Dedicated","server_os":"Linux","password":true,"vac":true,"version":"7961495","steam_id":85568392924469999,"keywords":["cp","nocrits","nodmgspread","uncletopia"],"game_id":440,"stv_port":27016,"stv_name":"Uncletopia | San Francisco | 1 | All Maps | STV","players":null},{"server_id":18,"name":"Uncletopia | San Francisco | 2 | All Maps","name_short":"sfo-2","host":"sfo-1.us.uncletopia.com","port":27025,"enabled":true,"region":"us-west","cc":"us","latitude":37.77397,"longitude":-122.4313,"reserved":0,"last_update":"0001-01-01T00:00:00Z","name_a2s":"Uncletopia | San Francisco | 2 | All Maps","protocol":17,"map":"cp_dustbowl","folder":"tf","game":"Team Fortress","app_id":440,"player_count":18,"max_players":24,"Bots":0,"server_type":"Dedicated","server_os":"Linux","password":true,"vac":true,"version":"7961495","steam_id":85568392924470000,"keywords":["cp","nocrits","nodmgspread","uncletopia"],"game_id":440,"stv_port":27026,"stv_name":"Uncletopia | San Francisco | 2 | All Maps | STV","players":[{"user_id":406,"name":"TheStonkorFart","steam_id":76561199334136586,"connected_time":232000000000,"state":"active","ping":130},{"user_id":381,"name":"BYS ShadowFenix","steam_id":76561198186807115,"connected_time":1803000000000,"state":"active","ping":43},{"user_id":210,"name":"DIO Gaming","steam_id":76561198096858233,"connected_time":11738000000000,"state":"active","ping":118},{"user_id":391,"name":"CrackedSanity","steam_id":76561198279841251,"connected_time":1297000000000,"state":"active","ping":64},{"user_id":402,"name":"JXDkid","steam_id":76561198067949673,"connected_time":671000000000,"state":"active","ping":88},{"user_id":364,"name":"16 tons of wheat","steam_id":76561198294080628,"connected_time":2863000000000,"state":"active","ping":100},{"user_id":393,"name":"Zorlovo","steam_id":76561198006443283,"connected_time":1140000000000,"state":"active","ping":79},{"user_id":407,"name":"Kermon","steam_id":76561198128027743,"connected_time":150000000000,"state":"active","ping":79},{"user_id":408,"name":"Radiation Bacon","steam_id":76561198322885903,"connected_time":134000000000,"state":"active","ping":55},{"user_id":377,"name":"da chronic","steam_id":76561198806800054,"connected_time":1919000000000,"state":"active","ping":76},{"user_id":403,"name":"JACK BRUNO","steam_id":76561198027957690,"connected_time":659000000000,"state":"active","ping":56},{"user_id":409,"name":"Chaplin the grinch that stole c","steam_id":76561198160369788,"connected_time":86000000000,"state":"active","ping":81},{"user_id":321,"name":"GH578","steam_id":76561199493262585,"connected_time":6277000000000,"state":"active","ping":74},{"user_id":386,"name":"asm_ghost","steam_id":76561199205363547,"connected_time":1704000000000,"state":"active","ping":72},{"user_id":404,"name":"MORE BOUNCE TO THE OUNCE","steam_id":76561198243399336,"connected_time":484000000000,"state":"active","ping":60},{"user_id":207,"name":"Blind_Deuce","steam_id":76561198155697762,"connected_time":11846000000000,"state":"active","ping":60},{"user_id":346,"name":"Lord Brocktree","steam_id":76561198415527061,"connected_time":4046000000000,"state":"active","ping":70},{"user_id":390,"name":"WaWaSkittleTits","steam_id":76561198411234398,"connected_time":1468000000000,"state":"active","ping":90}]},{"server_id":19,"name":"Uncletopia | San Francisco | 3 | Stopwatch Beta","name_short":"sfo-3","host":"sfo-1.us.uncletopia.com","port":27035,"enabled":true,"region":"us-west","cc":"us","latitude":37.77397,"longitude":-122.4313,"reserved":0,"last_update":"0001-01-01T00:00:00Z","name_a2s":"Uncletopia | San Francisco | 3 | Stopwatch Beta","protocol":17,"map":"pl_borneo","folder":"tf","game":"Team Fortress","app_id":440,"player_count":0,"max_players":24,"Bots":0,"server_type":"Dedicated","server_os":"Linux","password":true,"vac":true,"version":"7961495","steam_id":85568392924742824,"keywords":["nocrits","nodmgspread","payload","uncletopia"],"game_id":440,"stv_port":27036,"stv_name":"Uncletopia | San Francisco | 3 | Stopwatch Beta | STV","players":null},{"server_id":20,"name":"Uncletopia | San Francisco | 4 | Community","name_short":"sfo-4","host":"sfo-1.us.uncletopia.com","port":27045,"enabled":true,"region":"us-west","cc":"us","latitude":37.77397,"longitude":-122.4313,"reserved":0,"last_update":"0001-01-01T00:00:00Z","name_a2s":"Uncletopia | San Francisco | 4 | Community","protocol":17,"map":"koth_viaduct","folder":"tf","game":"Team Fortress","app_id":440,"player_count":0,"max_players":24,"Bots":0,"server_type":"Dedicated","server_os":"Linux","password":true,"vac":true,"version":"7961495","steam_id":85568392924742826,"keywords":["cp","nocrits","nodmgspread","uncletopia"],"game_id":440,"stv_port":27046,"stv_name":"Uncletopia | San Francisco | 4 | Community | STV","players":null},{"server_id":141,"name":"Uncletopia | Sydney | 1 | All Maps","name_short":"syd-1","host":"syd-1.au.uncletopia.com","port":27015,"enabled":true,"region":"au","cc":"au","latitude":-33.865143,"longitude":151.2099,"reserved":0,"last_update":"0001-01-01T00:00:00Z","name_a2s":"Uncletopia | Sydney | 1 | All Maps","protocol":17,"map":"cp_snakewater_final1","folder":"tf","game":"Team Fortress","app_id":440,"player_count":0,"max_players":24,"Bots":0,"server_type":"Dedicated","server_os":"Linux","password":true,"vac":true,"version":"7961495","steam_id":85568392924470001,"keywords":["cp","nocrits","nodmgspread","uncletopia"],"game_id":440,"stv_port":27016,"stv_name":"Uncletopia | Sydney | 1 | All Maps | STV","players":null},{"server_id":123,"name":"Uncletopia | Sydney | 2 | All Maps","name_short":"syd-2","host":"syd-1.au.uncletopia.com","port":27025,"enabled":true,"region":"au","cc":"au","latitude":-33.865143,"longitude":151.2099,"reserved":0,"last_update":"0001-01-01T00:00:00Z","name_a2s":"Uncletopia | Sydney | 2 | All Maps","protocol":17,"map":"pl_snowycoast","folder":"tf","game":"Team Fortress","app_id":440,"player_count":0,"max_players":24,"Bots":0,"server_type":"Dedicated","server_os":"Linux","password":true,"vac":true,"version":"7961495","steam_id":85568392924470002,"keywords":["nocrits","nodmgspread","payload","uncletopia"],"game_id":440,"stv_port":27026,"stv_name":"Uncletopia | Sydney | 2 | All Maps | STV","players":null},{"server_id":395,"name":"Uncletopia | Sydney | 3 | All Maps","name_short":"syd-3","host":"syd-1.au.uncletopia.com","port":27035,"enabled":true,"region":"au","cc":"au","latitude":-33.865143,"longitude":151.2099,"reserved":0,"last_update":"0001-01-01T00:00:00Z","name_a2s":"Uncletopia | Sydney | 3 | All Maps","protocol":17,"map":"cp_dustbowl","folder":"tf","game":"Team Fortress","app_id":440,"player_count":0,"max_players":24,"Bots":0,"server_type":"Dedicated","server_os":"Linux","password":true,"vac":true,"version":"7961495","steam_id":85568392925194467,"keywords":["cp","nocrits","nodmgspread","uncletopia"],"game_id":440,"stv_port":27036,"stv_name":"Uncletopia | Sydney | 3 | All Maps | STV","players":null},{"server_id":396,"name":"Uncletopia | Sydney | 4 | All Maps","name_short":"syd-4","host":"syd-1.au.uncletopia.com","port":27045,"enabled":true,"region":"au","cc":"au","latitude":-33.865143,"longitude":151.2099,"reserved":0,"last_update":"0001-01-01T00:00:00Z","name_a2s":"Uncletopia | Sydney | 4 | All Maps","protocol":17,"map":"cp_dustbowl","folder":"tf","game":"Team Fortress","app_id":440,"player_count":0,"max_players":24,"Bots":0,"server_type":"Dedicated","server_os":"Linux","password":true,"vac":true,"version":"7961495","steam_id":85568392925397958,"keywords":["cp","nocrits","nodmgspread","uncletopia"],"game_id":440,"stv_port":27046,"stv_name":"Uncletopia | Sydney | 4 | All Maps | STV","players":null},{"server_id":58,"name":"Uncletopia | Sydney | 5 | Stopwatch Beta","name_short":"syd-5","host":"syd-1.au.uncletopia.com","port":27055,"enabled":true,"region":"au","cc":"au","latitude":-33.865143,"longitude":151.2099,"reserved":0,"last_update":"0001-01-01T00:00:00Z","name_a2s":"Uncletopia | Sydney | 5 | Stopwatch Beta","protocol":17,"map":"koth_viaduct","folder":"tf","game":"Team Fortress","app_id":440,"player_count":0,"max_players":24,"Bots":0,"server_type":"Dedicated","server_os":"Linux","password":true,"vac":true,"version":"7961495","steam_id":85568392925397959,"keywords":["cp","nocrits","nodmgspread","uncletopia"],"game_id":440,"stv_port":27056,"stv_name":"Uncletopia | Sydney | 5 | Stopwatch Beta | STV","players":null},{"server_id":59,"name":"Uncletopia | Sydney | 6 | Community","name_short":"syd-6","host":"syd-1.au.uncletopia.com","port":27065,"enabled":true,"region":"au","cc":"au","latitude":-33.865143,"longitude":151.2099,"reserved":0,"last_update":"0001-01-01T00:00:00Z","name_a2s":"Uncletopia | Sydney | 6 | Community","protocol":17,"map":"koth_cascade","folder":"tf","game":"Team Fortress","app_id":440,"player_count":0,"max_players":24,"Bots":0,"server_type":"Dedicated","server_os":"Linux","password":true,"vac":true,"version":"7961495","steam_id":85568392925397960,"keywords":["cp","nocrits","nodmgspread","uncletopia"],"game_id":440,"stv_port":27066,"stv_name":"Uncletopia | Sydney | 6 | Community | STV","players":null},{"server_id":49,"name":"Uncletopia | Warsaw | 1 | All Maps","name_short":"waw-1","host":"waw-1.pl.uncletopia.com","port":27015,"enabled":true,"region":"eu","cc":"pl","latitude":52.2297,"longitude":21.017532,"reserved":0,"last_update":"0001-01-01T00:00:00Z","name_a2s":"Uncletopia | Warsaw | 1 | All Maps","protocol":17,"map":"cp_altitude","folder":"tf","game":"Team Fortress","app_id":440,"player_count":2,"max_players":24,"Bots":0,"server_type":"Dedicated","server_os":"Linux","password":true,"vac":true,"version":"7961495","steam_id":85568392925397850,"keywords":["cp","nocrits","nodmgspread","uncletopia"],"game_id":440,"stv_port":27016,"stv_name":"Uncletopia | Warsaw | 1 | All Maps | STV","players":[{"user_id":23,"name":"I FUCK MY HORSE","steam_id":76561197980803202,"connected_time":681000000000,"state":"active","ping":134},{"user_id":24,"name":"Look at my horse","steam_id":76561198086551316,"connected_time":618000000000,"state":"active","ping":87}]},{"server_id":50,"name":"Uncletopia | Warsaw | 2 | All Maps","name_short":"waw-2","host":"waw-1.pl.uncletopia.com","port":27025,"enabled":true,"region":"eu","cc":"pl","latitude":52.2297,"longitude":21.017532,"reserved":0,"last_update":"0001-01-01T00:00:00Z","name_a2s":"Uncletopia | Warsaw | 2 | All Maps","protocol":17,"map":"koth_lakeside_final","folder":"tf","game":"Team Fortress","app_id":440,"player_count":0,"max_players":24,"Bots":0,"server_type":"Dedicated","server_os":"Linux","password":true,"vac":true,"version":"7961495","steam_id":85568392925397851,"keywords":["cp","nocrits","nodmgspread","uncletopia"],"game_id":440,"stv_port":27026,"stv_name":"Uncletopia | Warsaw | 2 | All Maps | STV","players":null},{"server_id":51,"name":"Uncletopia | Warsaw | 3 | All Maps","name_short":"waw-3","host":"waw-1.pl.uncletopia.com","port":27035,"enabled":true,"region":"eu","cc":"pl","latitude":52.2297,"longitude":21.017532,"reserved":0,"last_update":"0001-01-01T00:00:00Z","name_a2s":"Uncletopia | Warsaw | 3 | All Maps","protocol":17,"map":"pl_badwater","folder":"tf","game":"Team Fortress","app_id":440,"player_count":3,"max_players":24,"Bots":0,"server_type":"Dedicated","server_os":"Linux","password":true,"vac":true,"version":"7961495","steam_id":85568392925397852,"keywords":["nocrits","nodmgspread","payload","uncletopia"],"game_id":440,"stv_port":27036,"stv_name":"Uncletopia | Warsaw | 3 | All Maps | STV","players":[{"user_id":34,"name":"Crunchye","steam_id":76561198171581429,"connected_time":102000000000,"state":"active","ping":50},{"user_id":35,"name":"yea","steam_id":76561198971325992,"connected_time":87000000000,"state":"active","ping":60},{"user_id":36,"name":"nakedpee","steam_id":76561198064345980,"connected_time":52000000000,"state":"active","ping":75}]},{"server_id":52,"name":"Uncletopia | Warsaw | 4 | All Maps","name_short":"waw-4","host":"waw-1.pl.uncletopia.com","port":27045,"enabled":true,"region":"eu","cc":"pl","latitude":52.2297,"longitude":21.017532,"reserved":0,"last_update":"0001-01-01T00:00:00Z","name_a2s":"Uncletopia | Warsaw | 4 | All Maps","protocol":17,"map":"koth_highpass","folder":"tf","game":"Team Fortress","app_id":440,"player_count":0,"max_players":24,"Bots":0,"server_type":"Dedicated","server_os":"Linux","password":true,"vac":true,"version":"7961495","steam_id":85568392925397853,"keywords":["cp","nocrits","nodmgspread","uncletopia"],"game_id":440,"stv_port":27046,"stv_name":"Uncletopia | Warsaw | 4 | All Maps | STV","players":null},{"server_id":53,"name":"Uncletopia | Warsaw | 5 | Stopwatch Beta","name_short":"waw-5","host":"waw-1.pl.uncletopia.com","port":27055,"enabled":true,"region":"eu","cc":"pl","latitude":52.2297,"longitude":21.017532,"reserved":0,"last_update":"0001-01-01T00:00:00Z","name_a2s":"Uncletopia | Warsaw | 5 | Stopwatch Beta","protocol":17,"map":"workshop/pl_badwater_pro_v12.ugc2142942074","folder":"tf","game":"Team Fortress","app_id":440,"player_count":0,"max_players":24,"Bots":0,"server_type":"Dedicated","server_os":"Linux","password":true,"vac":true,"version":"7961495","steam_id":85568392925397854,"keywords":["nocrits","nodmgspread","payload","uncletopia"],"game_id":440,"stv_port":27056,"stv_name":"Uncletopia | Warsaw | 5 | Stopwatch Beta | STV","players":null},{"server_id":54,"name":"Uncletopia | Warsaw | 6 | Community","name_short":"waw-6","host":"waw-1.pl.uncletopia.com","port":27065,"enabled":true,"region":"eu","cc":"pl","latitude":52.2297,"longitude":21.017532,"reserved":0,"last_update":"0001-01-01T00:00:00Z","name_a2s":"Uncletopia | Warsaw | 6 | Community","protocol":17,"map":"workshop/pl_boundary_final1.ugc456799153","folder":"tf","game":"Team Fortress","app_id":440,"player_count":0,"max_players":24,"Bots":0,"server_type":"Dedicated","server_os":"Linux","password":true,"vac":true,"version":"7961495","steam_id":85568392925397856,"keywords":["nocrits","nodmgspread","payload","uncletopia"],"game_id":440,"stv_port":27066,"stv_name":"Uncletopia | Warsaw | 6 | Community | STV","players":null}]}