{"status":true,"message":"","result":[{"server_id":9,"name":"Uncletopia | Atlanta | 1 | All Maps","name_short":"atl-1","host":"atl-1.us.uncletopia.com","port":27015,"enabled":true,"region":"us-east","cc":"us","latitude":33.753746,"longitude":-84.38633,"reserved":0,"last_update":"0001-01-01T00:00:00Z","name_a2s":"Uncletopia | Atlanta | 1 | All Maps","protocol":17,"map":"cp_process_final","folder":"tf","game":"Team Fortress","app_id":440,"player_count":24,"max_players":24,"Bots":0,"server_type":"Dedicated","server_os":"Linux","password":true,"vac":true,"version":"7708610","steam_id":85568392924469982,"keywords":["cp","nocrits","nodmgspread","uncletopia"],"game_id":440,"stv_port":27016,"stv_name":"Uncletopia | Atlanta | 1 | All Maps | STV","players":[{"user_id":777,"name":"nolife","steam_id":76561198414300607,"connected_time":381000000000,"state":"active","ping":107},{"user_id":763,"name":"NotaSimp","steam_id":76561197971394640,"connected_time":1159000000000,"state":"active","ping":84},{"user_id":775,"name":"DS8U","steam_id":76561198151554321,"connected_time":483000000000,"state":"active","ping":92},{"user_id":740,"name":"BIG HOG","steam_id":76561198079923652,"connected_time":2581000000000,"state":"active","ping":67},{"user_id":778,"name":"Bunt","steam_id":76561198124477567,"connected_time":277000000000,"state":"active","ping":37},{"user_id":767,"name":"Rex","steam_id":76561198138365053,"connected_time":902000000000,"state":"active","ping":110},{"user_id":761,"name":"KRELLAH","steam_id":76561198287045069,"connected_time":1370000000000,"state":"active","ping":74},{"user_id":782,"name":"I NEED EXOTIC CARTS","steam_id":76561198116224779,"connected_time":69000000000,"state":"active","ping":48},{"user_id":698,"name":"C papi","steam_id":76561198027779564,"connected_time":4661000000000,"state":"active","ping":47},{"user_id":745,"name":"FemboyNate","steam_id":76561198146636410,"connected_time":2370000000000,"state":"active","ping":60},{"user_id":779,"name":"teddysaurus","steam_id":76561198277979851,"connected_time":237000000000,"state":"active","ping":67},{"user_id":695,"name":"mommy claus","steam_id":76561199230929836,"connected_time":4785000000000,"state":"active","ping":83},{"user_id":686,"name":"Techo","steam_id":76561199169405285,"connected_time":6168000000000,"state":"active","ping":132},{"user_id":739,"name":"rose","steam_id":76561198048882285,"connected_time":2733000000000,"state":"active","ping":60},{"user_id":772,"name":"Henk_de_Patatman","steam_id":76561198070103191,"connected_time":716000000000,"state":"active","ping":140},{"user_id":773,"name":"big guapo","steam_id":76561198103228695,"connected_time":552000000000,"state":"active","ping":57},{"user_id":764,"name":"HALO 3","steam_id":76561198020825795,"connected_time":1053000000000,"state":"active","ping":61},{"user_id":774,"name":"Alley_YAMBO","steam_id":76561198055651850,"connected_time":507000000000,"state":"active","ping":87},{"user_id":780,"name":"twitch.tv/Yoshi21 | TF2Pugs.com","steam_id":76561198002516729,"connected_time":126000000000,"state":"active","ping":59},{"user_id":766,"name":"{[F.H]} Hydroida","steam_id":76561197999797274,"connected_time":1010000000000,"state":"active","ping":74},{"user_id":781,"name":"ryan","steam_id":76561198083851689,"connected_time":111000000000,"state":"active","ping":50},{"user_id":770,"name":"QueenKira","steam_id":76561198136543848,"connected_time":858000000000,"state":"active","ping":82},{"user_id":783,"name":"borzier","steam_id":76561198069190432,"connected_time":34000000000,"state":"active","ping":68},{"user_id":784,"name":"fingerbib","steam_id":76561198148132163,"connected_time":20000000000,"state":"active","ping":70}]},{"server_id":400,"name":"Uncletopia | Atlanta | 3 | All Maps","name_short":"atl-3","host":"atl-1.us.uncletopia.com","port":27035,"enabled":true,"region":"us-east","cc":"us","latitude":33.753746,"longitude":-84.38633,"reserved":0,"last_update":"0001-01-01T00:00:00Z","name_a2s":"Uncletopia | Atlanta | 3 | All Maps","protocol":17,"map":"cp_sunshine","folder":"tf","game":"Team Fortress","app_id":440,"player_count":0,"max_players":24,"Bots":0,"server_type":"Dedicated","server_os":"Linux","password":true,"vac":true,"version":"7708610","steam_id":85568392924515187,"keywords":["cp","nocrits","nodmgspread","uncletopia"],"game_id":440,"stv_port":27036,"stv_name":"Uncletopia | Atlanta | 3 | All Maps | STV","players":null},{"server_id":401,"name":"Uncletopia | Atlanta | 4 | No Payload","name_short":"atl-4","host":"atl-1.us.uncletopia.com","port":27045,"enabled":true,"region":"us-east","cc":"us","latitude":33.753746,"longitude":-84.38633,"reserved":0,"last_update":"0001-01-01T00:00:00Z","name_a2s":"Uncletopia | Atlanta | 4 | No Payload","protocol":17,"map":"plr_pipeline","folder":"tf","game":"Team Fortress","app_id":440,"player_count":0,"max_players":24,"Bots":0,"server_type":"Dedicated","server_os":"Linux","password":true,"vac":true,"version":"7708610","steam_id":85568392924515188,"keywords":["nocrits","nodmgspread","payload","uncletopia"],"game_id":440,"stv_port":27046,"stv_name":"Uncletopia | Atlanta | 4 | No Payload | STV","players":null},{"server_id":2,"name":"Uncletopia | Chicago | 1 | All Maps","name_short":"chi-1","host":"chi-1.us.uncletopia.com","port":27015,"enabled":true,"region":"us-central","cc":"us","latitude":41.881832,"longitude":-87.62318,"reserved":0,"last_update":"0001-01-01T00:00:00Z","name_a2s":"Uncletopia | Chicago | 1 | All Maps","protocol":17,"map":"pl_badwater","folder":"tf","game":"Team Fortress","app_id":440,"player_count":24,"max_players":24,"Bots":0,"server_type":"Dedicated","server_os":"Linux","password":true,"vac":true,"version":"7708610","steam_id":85568392924469984,"keywords":["nocrits","nodmgspread","payload","uncletopia"],"game_id":440,"stv_port":27016,"stv_name":"Uncletopia | Chicago | 1 | All Maps | STV","players":[{"user_id":935,"name":"☂Bliffenstimmers☂","steam_id":76561198059984896,"connected_time":1520000000000,"state":"active","ping":81},{"user_id":937,"name":"Redd","steam_id":76561198105237638,"connected_time":1037000000000,"state":"active","ping":111},{"user_id":936,"name":"tobrehto","steam_id":76561198097544038,"connected_time":1407000000000,"state":"active","ping":89},{"user_id":893,"name":"SlimGrady","steam_id":76561198451231329,"connected_time":2952000000000,"state":"active","ping":53},{"user_id":895,"name":"ApertureCity","steam_id":76561198004153607,"connected_time":2871000000000,"state":"active","ping":76},{"user_id":938,"name":"yuji","steam_id":76561198401572620,"connected_time":1034000000000,"state":"active","ping":63},{"user_id":945,"name":"Paradoxical_Wayfarer","steam_id":76561198043250942,"connected_time":835000000000,"state":"active","ping":59},{"user_id":898,"name":"q!k.glodfyeehs","steam_id":76561198086008437,"connected_time":2810000000000,"state":"active","ping":73},{"user_id":919,"name":"Discount","steam_id":76561198228825336,"connected_time":2270000000000,"state":"active","ping":89},{"user_id":939,"name":"AptSpark","steam_id":76561198159138347,"connected_time":1028000000000,"state":"active","ping":118},{"user_id":940,"name":"Krazzle","steam_id":76561198029782412,"connected_time":1019000000000,"state":"active","ping":66},{"user_id":947,"name":"Cam","steam_id":76561198139174433,"connected_time":261000000000,"state":"active","ping":88},{"user_id":856,"name":"dogen","steam_id":76561198803769563,"connected_time":6321000000000,"state":"active","ping":71},{"user_id":941,"name":"The Engie","steam_id":76561198049418537,"connected_time":1011000000000,"state":"active","ping":74},{"user_id":943,"name":"कोरोना","steam_id":76561198081183494,"connected_time":1000000000000,"state":"active","ping":131},{"user_id":886,"name":"Cleric","steam_id":76561198045887994,"connected_time":3818000000000,"state":"active","ping":46},{"user_id":946,"name":"ÒwÓ","steam_id":76561197997304387,"connected_time":568000000000,"state":"active","ping":74},{"user_id":914,"name":"Scorpsy","steam_id":76561198024477688,"connected_time":2347000000000,"state":"active","ping":64},{"user_id":942,"name":"McNamJam","steam_id":76561198028128686,"connected_time":1007000000000,"state":"active","ping":101},{"user_id":890,"name":"Yukon Cornelius","steam_id":76561198261512781,"connected_time":3247000000000,"state":"active","ping":61},{"user_id":905,"name":"Darwin Is Life","steam_id":76561198079114049,"connected_time":2593000000000,"state":"active","ping":93},{"user_id":841,"name":"Skbonesin","steam_id":76561198180513878,"connected_time":7297000000000,"state":"active","ping":88},{"user_id":944,"name":"{DeeZ} Slappy","steam_id":76561198305796877,"connected_time":936000000000,"state":"active","ping":84},{"user_id":908,"name":"Rubber","steam_id":76561198053832401,"connected_time":2531000000000,"state":"active","ping":121}]},{"server_id":106,"name":"Uncletopia | Chicago | 2 | All Maps","name_short":"chi-2","host":"chi-1.us.uncletopia.com","port":27025,"enabled":true,"region":"us-central","cc":"us","latitude":41.881832,"longitude":-87.62318,"reserved":0,"last_update":"0001-01-01T00:00:00Z","name_a2s":"Uncletopia | Chicago | 2 | All Maps","protocol":17,"map":"koth_highpass","folder":"tf","game":"Team Fortress","app_id":440,"player_count":0,"max_players":24,"Bots":0,"server_type":"Dedicated","server_os":"Linux","password":true,"vac":true,"version":"7708610","steam_id":85568392924469985,"keywords":["cp","nocrits","nodmgspread","uncletopia"],"game_id":440,"stv_port":27026,"stv_name":"Uncletopia | Chicago | 2 | All Maps | STV","players":null},{"server_id":402,"name":"Uncletopia | Chicago | 3 | All Maps","name_short":"chi-3","host":"chi-1.us.uncletopia.com","port":27035,"enabled":true,"region":"us-central","cc":"us","latitude":41.881832,"longitude":-87.62318,"reserved":0,"last_update":"0001-01-01T00:00:00Z","name_a2s":"Uncletopia | Chicago | 3 | All Maps","protocol":17,"map":"cp_snakewater_final1","folder":"tf","game":"Team Fortress","app_id":440,"player_count":16,"max_players":24,"Bots":0,"server_type":"Dedicated","server_os":"Linux","password":true,"vac":true,"version":"7708610","steam_id":85568392924515191,"keywords":["cp","nocrits","nodmgspread","uncletopia"],"game_id":440,"stv_port":27036,"stv_name":"Uncletopia | Chicago | 3 | All Maps | STV","players":[{"user_id":508,"name":"poobis-130 inbound","steam_id":76561198123287268,"connected_time":425000000000,"state":"active","ping":47},{"user_id":507,"name":"Joker's Skull","steam_id":76561199185320627,"connected_time":470000000000,"state":"active","ping":157},{"user_id":509,"name":"asianboy0122","steam_id":76561198798678408,"connected_time":394000000000,"state":"active","ping":62},{"user_id":447,"name":"Arcadletus","steam_id":76561198976009938,"connected_time":4585000000000,"state":"active","ping":91},{"user_id":513,"name":"Supermarine","steam_id":76561199067982366,"connected_time":69000000000,"state":"active","ping":209},{"user_id":498,"name":"WeaverReaver42","steam_id":76561198085744605,"connected_time":1613000000000,"state":"active","ping":89},{"user_id":511,"name":"Danmar33","steam_id":76561198056453091,"connected_time":273000000000,"state":"active","ping":52},{"user_id":512,"name":"Scramjet","steam_id":76561197963561836,"connected_time":109000000000,"state":"active","ping":48},{"user_id":503,"name":"Grognak","steam_id":76561198044710527,"connected_time":1387000000000,"state":"active","ping":88},{"user_id":471,"name":"Whorse","steam_id":76561198114141445,"connected_time":2920000000000,"state":"active","ping":59},{"user_id":481,"name":"Tirlby","steam_id":76561198045231233,"connected_time":2234000000000,"state":"active","ping":58},{"user_id":488,"name":"Fantastic","steam_id":76561198079088978,"connected_time":2025000000000,"state":"active","ping":44},{"user_id":475,"name":"FreakyPhineas","steam_id":76561197994289562,"connected_time":2531000000000,"state":"active","ping":58},{"user_id":489,"name":"Yeshie the Dragon Layer","steam_id":76561198080214214,"connected_time":2015000000000,"state":"active","ping":42},{"user_id":504,"name":"Evolution","steam_id":76561198144767370,"connected_time":1381000000000,"state":"active","ping":53},{"user_id":505,"name":"nelly modelo","steam_id":76561198044875206,"connected_time":1354000000000,"state":"active","ping":84}]},{"server_id":403,"name":"Uncletopia | Chicago | 4 | All Maps","name_short":"chi-4","host":"chi-1.us.uncletopia.com","port":27045,"enabled":true,"region":"us-central","cc":"us","latitude":41.881832,"longitude":-87.62318,"reserved":0,"last_update":"0001-01-01T00:00:00Z","name_a2s":"Uncletopia | Chicago | 4 | All Maps","protocol":17,"map":"koth_viaduct","folder":"tf","game":"Team Fortress","app_id":440,"player_count":0,"max_players":24,"Bots":0,"server_type":"Dedicated","server_os":"Linux","password":true,"vac":true,"version":"7708610","steam_id":85568392924515193,"keywords":["cp","nocrits","nodmgspread","uncletopia"],"game_id":440,"stv_port":27046,"stv_name":"Uncletopia | Chicago | 4 | All Maps | STV","players":null},{"server_id":36,"name":"Uncletopia | Chicago | 5 | All Maps","name_short":"chi-5","host":"chi-2.us.uncletopia.com","port":27015,"enabled":true,"region":"us-central","cc":"us","latitude":41.881832,"longitude":-87.62318,"reserved":0,"last_update":"0001-01-01T00:00:00Z","name_a2s":"Uncletopia | Chicago | 5 | All Maps","protocol":17,"map":"koth_cascade","folder":"tf","game":"Team Fortress","app_id":440,"player_count":0,"max_players":24,"Bots":0,"server_type":"Dedicated","server_os":"Linux","password":true,"vac":true,"version":"7708610","steam_id":85568392924866362,"keywords":["cp","nocrits","nodmgspread","uncletopia"],"game_id":440,"stv_port":27016,"stv_name":"Uncletopia | Chicago | 5 | All Maps | STV","players":null},{"server_id":37,"name":"Uncletopia | Chicago | 6 | All Maps","name_short":"chi-6","host":"chi-2.us.uncletopia.com","port":27025,"enabled":true,"region":"us-central","cc":"us","latitude":41.881832,"longitude":-87.62318,"reserved":0,"last_update":"0001-01-01T00:00:00Z","name_a2s":"Uncletopia | Chicago | 6 | All Maps","protocol":17,"map":"pl_swiftwater_final1","folder":"tf","game":"Team Fortress","app_id":440,"player_count":0,"max_players":24,"Bots":0,"server_type":"Dedicated","server_os":"Linux","password":true,"vac":true,"version":"7708610","steam_id":85568392924866363,"keywords":["nocrits","nodmgspread","payload","uncletopia"],"game_id":440,"stv_port":27026,"stv_name":"Uncletopia | Chicago | 6 | All Maps | STV","players":null},{"server_id":38,"name":"Uncletopia | Chicago | 7 | No Payload","name_short":"chi-7","host":"chi-2.us.uncletopia.com","port":27035,"enabled":true,"region":"us-central","cc":"us","latitude":41.881832,"longitude":-87.62318,"reserved":0,"last_update":"0001-01-01T00:00:00Z","name_a2s":"Uncletopia | Chicago | 7 | No Payload","protocol":17,"map":"koth_lakeside_final","folder":"tf","game":"Team Fortress","app_id":440,"player_count":0,"max_players":24,"Bots":0,"server_type":"Dedicated","server_os":"Linux","password":true,"vac":true,"version":"7708610","steam_id":85568392924866364,"keywords":["cp","nocrits","nodmgspread","uncletopia"],"game_id":440,"stv_port":27036,"stv_name":"Uncletopia | Chicago | 7 | No Payload | STV","players":null},{"server_id":39,"name":"Uncletopia | Chicago | 8 | Community","name_short":"chi-8","host":"chi-2.us.uncletopia.com","port":27045,"enabled":true,"region":"us-central","cc":"us","latitude":41.881832,"longitude":-87.62318,"reserved":0,"last_update":"0001-01-01T00:00:00Z","name_a2s":"Uncletopia | Chicago | 8 | Community","protocol":17,"map":"workshop/cp_reckoner_rc6.ugc674719999","folder":"tf","game":"Team Fortress","app_id":440,"player_count":0,"max_players":24,"Bots":0,"server_type":"Dedicated","server_os":"Linux","password":true,"vac":true,"version":"7708610","steam_id":85568392924866365,"keywords":["cp","nocrits","nodmgspread","uncletopia"],"game_id":440,"stv_port":27046,"stv_name":"Uncletopia | Chicago | 8 | Community | STV","players":null},{"server_id":8,"name":"Uncletopia | Dallas | 1 | All Maps","name_short":"dal-1","host":"dal-1.us.uncletopia.com","port":27015,"enabled":true,"region":"us-central","cc":"us","latitude":32.779167,"longitude":-96.80889,"reserved":0,"last_update":"0001-01-01T00:00:00Z","name_a2s":"Uncletopia | Dallas | 1 | All Maps","protocol":17,"map":"cp_steel","folder":"tf","game":"Team Fortress","app_id":440,"player_count":16,"max_players":24,"Bots":0,"server_type":"Dedicated","server_os":"Linux","password":true,"vac":true,"version":"7708610","steam_id":85568392924469986,"keywords":["cp","nocrits","nodmgspread","uncletopia"],"game_id":440,"stv_port":27016,"stv_name":"Uncletopia | Dallas | 1 | All Maps | STV","players":[{"user_id":751,"name":"Edwardo","steam_id":76561199229899766,"connected_time":1472000000000,"state":"active","ping":55},{"user_id":750,"name":"BlueRikoroo","steam_id":76561198031865740,"connected_time":1504000000000,"state":"active","ping":46},{"user_id":778,"name":"Mikidy","steam_id":76561197972958970,"connected_time":86000000000,"state":"active","ping":60},{"user_id":779,"name":"Mr. Sweet-and-Awful","steam_id":76561198352544325,"connected_time":61000000000,"state":"active","ping":66},{"user_id":780,"name":"Fake21","steam_id":76561198282065071,"connected_time":14000000000,"state":"spawning","ping":57},{"user_id":677,"name":"177013","steam_id":76561198072303290,"connected_time":9714000000000,"state":"active","ping":78},{"user_id":775,"name":"Tripp","steam_id":76561198411779080,"connected_time":373000000000,"state":"active","ping":84},{"user_id":771,"name":"Petey","steam_id":76561198007339151,"connected_time":747000000000,"state":"active","ping":64},{"user_id":774,"name":"Miragelol","steam_id":76561198310890987,"connected_time":672000000000,"state":"active","ping":77},{"user_id":756,"name":"N64Kanroji","steam_id":76561198045209288,"connected_time":1203000000000,"state":"active","ping":72},{"user_id":757,"name":"Ott","steam_id":76561199245601694,"connected_time":1196000000000,"state":"active","ping":85},{"user_id":746,"name":"SlightlyToasty","steam_id":76561198934455279,"connected_time":2309000000000,"state":"active","ping":110},{"user_id":749,"name":"The Caretaker","steam_id":76561198125241411,"connected_time":1530000000000,"state":"active","ping":98},{"user_id":772,"name":"Xonkk","steam_id":76561198046218088,"connected_time":720000000000,"state":"active","ping":77},{"user_id":759,"name":"The Janitor","steam_id":76561198370152780,"connected_time":1170000000000,"state":"active","ping":74},{"user_id":760,"name":"CSharp","steam_id":76561199185191710,"connected_time":1152000000000,"state":"active","ping":124}]},{"server_id":108,"name":"Uncletopia | Dallas | 2 | All Maps","name_short":"dal-2","host":"dal-1.us.uncletopia.com","port":27025,"enabled":true,"region":"us-central","cc":"us","latitude":32.779167,"longitude":-96.80889,"reserved":0,"last_update":"0001-01-01T00:00:00Z","name_a2s":"Uncletopia | Dallas | 2 | All Maps","protocol":17,"map":"plr_hightower","folder":"tf","game":"Team Fortress","app_id":440,"player_count":24,"max_players":24,"Bots":0,"server_type":"Dedicated","server_os":"Linux","password":true,"vac":true,"version":"7708610","steam_id":85568392924469988,"keywords":["nocrits","nodmgspread","payload","uncletopia"],"game_id":440,"stv_port":27026,"stv_name":"Uncletopia | Dallas | 2 | All Maps | STV","players":[{"user_id":277,"name":"MINI CRIT!999","steam_id":76561198027649268,"connected_time":749000000000,"state":"active","ping":69},{"user_id":276,"name":"I Swallowed Shampoo","steam_id":76561198075130050,"connected_time":912000000000,"state":"active","ping":75},{"user_id":291,"name":"Goombagrunt","steam_id":76561198272125947,"connected_time":170000000000,"state":"active","ping":78},{"user_id":292,"name":"Pinto","steam_id":76561199105386998,"connected_time":156000000000,"state":"active","ping":51},{"user_id":281,"name":"Mr. Pink","steam_id":76561198065858172,"connected_time":515000000000,"state":"active","ping":80},{"user_id":284,"name":"Throckmorton627","steam_id":76561199147734259,"connected_time":441000000000,"state":"active","ping":66},{"user_id":288,"name":"Farseer Ulwithy","steam_id":76561197965179245,"connected_time":328000000000,"state":"active","ping":97},{"user_id":176,"name":"Oscidor","steam_id":76561198362839738,"connected_time":6695000000000,"state":"active","ping":61},{"user_id":285,"name":"An00bissmas","steam_id":76561198044084508,"connected_time":431000000000,"state":"active","ping":65},{"user_id":195,"name":"TeriyakiDynamite","steam_id":76561198050049346,"connected_time":6026000000000,"state":"active","ping":90},{"user_id":286,"name":"LunarMan","steam_id":76561198149531499,"connected_time":407000000000,"state":"active","ping":53},{"user_id":228,"name":"just the worst","steam_id":76561198102567402,"connected_time":3615000000000,"state":"active","ping":78},{"user_id":256,"name":"gabe(stew)","steam_id":76561199067882406,"connected_time":1707000000000,"state":"active","ping":104},{"user_id":252,"name":"Weegeee","steam_id":76561198049000586,"connected_time":1871000000000,"state":"active","ping":69},{"user_id":294,"name":"LIMBS","steam_id":76561198101220604,"connected_time":49000000000,"state":"active","ping":80},{"user_id":295,"name":"STANISLAV","steam_id":76561198007394937,"connected_time":45000000000,"state":"active","ping":195},{"user_id":253,"name":"john trevolta","steam_id":76561197998867160,"connected_time":1853000000000,"state":"active","ping":104},{"user_id":280,"name":"PirateJet","steam_id":76561198050858744,"connected_time":699000000000,"state":"active","ping":82},{"user_id":244,"name":"Bomb Squirtle™","steam_id":76561197998931145,"connected_time":2324000000000,"state":"active","ping":99},{"user_id":275,"name":"LilDreamer","steam_id":76561198804054102,"connected_time":999000000000,"state":"active","ping":70},{"user_id":289,"name":"grafield lober","steam_id":76561198150507510,"connected_time":326000000000,"state":"active","ping":61},{"user_id":230,"name":"Western_dragon","steam_id":76561198130456105,"connected_time":3565000000000,"state":"active","ping":78},{"user_id":293,"name":"HarqObispal","steam_id":76561197963907351,"connected_time":135000000000,"state":"active","ping":80},{"user_id":262,"name":"PookieSmoker#1","steam_id":76561198171707453,"connected_time":1578000000000,"state":"active","ping":62}]},{"server_id":5,"name":"Uncletopia | Frankfurt | 1 | All Maps","name_short":"frk-1","host":"frk-1.de.uncletopia.com","port":27015,"enabled":true,"region":"eu","cc":"de","latitude":50.110924,"longitude":8.682127,"reserved":0,"last_update":"0001-01-01T00:00:00Z","name_a2s":"Uncletopia | Frankfurt | 1 | All Maps","protocol":17,"map":"pl_swiftwater_final1","folder":"tf","game":"Team Fortress","app_id":440,"player_count":0,"max_players":24,"Bots":0,"server_type":"Dedicated","server_os":"Linux","password":true,"vac":true,"version":"7708610","steam_id":85568392924469989,"keywords":["nocrits","nodmgspread","payload","uncletopia"],"game_id":440,"stv_port":27016,"stv_name":"Uncletopia | Frankfurt | 1 | All Maps | STV","players":null},{"server_id":110,"name":"Uncletopia | Frankfurt | 2 | All Maps","name_short":"frk-2","host":"frk-1.de.uncletopia.com","port":27025,"enabled":true,"region":"eu","cc":"de","latitude":50.110924,"longitude":8.682127,"reserved":0,"last_update":"0001-01-01T00:00:00Z","name_a2s":"Uncletopia | Frankfurt | 2 | All Maps","protocol":17,"map":"koth_lakeside_final","folder":"tf","game":"Team Fortress","app_id":440,"player_count":0,"max_players":24,"Bots":0,"server_type":"Dedicated","server_os":"Linux","password":true,"vac":true,"version":"7708610","steam_id":85568392924469990,"keywords":["cp","nocrits","nodmgspread","uncletopia"],"game_id":440,"stv_port":27026,"stv_name":"Uncletopia | Frankfurt | 2 | All Maps | STV","players":null},{"server_id":308,"name":"Uncletopia | Frankfurt | 3 | All Maps","name_short":"frk-3","host":"frk-1.de.uncletopia.com","port":27035,"enabled":true,"region":"eu","cc":"de","latitude":50.110924,"longitude":8.682127,"reserved":0,"last_update":"0001-01-01T00:00:00Z","name_a2s":"Uncletopia | Frankfurt | 3 | All Maps","protocol":17,"map":"koth_cascade","folder":"tf","game":"Team Fortress","app_id":440,"player_count":0,"max_players":24,"Bots":0,"server_type":"Dedicated","server_os":"Linux","password":true,"vac":true,"version":"7708610","steam_id":85568392924504274,"keywords":["cp","nocrits","nodmgspread","uncletopia"],"game_id":440,"stv_port":0,"stv_name":"","players":null},{"server_id":309,"name":"Uncletopia | Frankfurt | 4 | All Maps","name_short":"frk-4","host":"frk-1.de.uncletopia.com","port":27045,"enabled":true,"region":"eu","cc":"de","latitude":50.110924,"longitude":8.682127,"reserved":0,"last_update":"0001-01-01T00:00:00Z","name_a2s":"Uncletopia | Frankfurt | 4 | All Maps","protocol":17,"map":"pl_borneo","folder":"tf","game":"Team Fortress","app_id":440,"player_count":15,"max_players":24,"Bots":0,"server_type":"Dedicated","server_os":"Linux","password":true,"vac":true,"version":"7708610","steam_id":85568392924504275,"keywords":["nocrits","nodmgspread","payload","uncletopia"],"game_id":440,"stv_port":27046,"stv_name":"Uncletopia | Frankfurt | 4 | All Maps | STV","players":[{"user_id":2,"name":"pl_zławoda","steam_id":76561198040588109,"connected_time":2740000000000,"state":"active","ping":69},{"user_id":9,"name":"pl_badwater","steam_id":76561198152184280,"connected_time":1450000000000,"state":"active","ping":68},{"user_id":10,"name":"weed fairy","steam_id":76561197998843096,"connected_time":1181000000000,"state":"active","ping":74},{"user_id":5,"name":"Jozsika (E-Girl)","steam_id":76561199401478121,"connected_time":2180000000000,"state":"active","ping":57},{"user_id":6,"name":"worry about it","steam_id":76561199414716848,"connected_time":2010000000000,"state":"active","ping":60},{"user_id":7,"name":"the femscout enjoyer","steam_id":76561198808125985,"connected_time":1794000000000,"state":"active","ping":103},{"user_id":26,"name":"LukeCherry","steam_id":76561198398941047,"connected_time":236000000000,"state":"active","ping":111},{"user_id":23,"name":"Gencay","steam_id":76561198973232202,"connected_time":367000000000,"state":"active","ping":92},{"user_id":27,"name":"Dimethaltryptamine","steam_id":76561198043841068,"connected_time":150000000000,"state":"active","ping":110},{"user_id":21,"name":"Cloudy","steam_id":76561198082293402,"connected_time":607000000000,"state":"active","ping":50},{"user_id":14,"name":"DeleteTrickster","steam_id":76561198397120242,"connected_time":941000000000,"state":"active","ping":76},{"user_id":30,"name":"E1s","steam_id":76561198894958917,"connected_time":10000000000,"state":"spawning","ping":68},{"user_id":17,"name":"Juno4","steam_id":76561198034518616,"connected_time":866000000000,"state":"active","ping":75},{"user_id":25,"name":"Small Goodman","steam_id":76561198881753718,"connected_time":314000000000,"state":"active","ping":61},{"user_id":29,"name":"Big Benn","steam_id":76561199024168373,"connected_time":99000000000,"state":"active","ping":74}]},{"server_id":310,"name":"Uncletopia | Frankfurt | 5 | All Maps","name_short":"frk-5","host":"frk-1.de.uncletopia.com","port":27055,"enabled":true,"region":"eu","cc":"de","latitude":50.110924,"longitude":8.682127,"reserved":0,"last_update":"0001-01-01T00:00:00Z","name_a2s":"Uncletopia | Frankfurt | 5 | All Maps","protocol":17,"map":"koth_cascade","folder":"tf","game":"Team Fortress","app_id":440,"player_count":0,"max_players":24,"Bots":0,"server_type":"Dedicated","server_os":"Linux","password":true,"vac":true,"version":"7708610","steam_id":85568392924504277,"keywords":["cp","nocrits","nodmgspread","uncletopia"],"game_id":440,"stv_port":0,"stv_name":"","players":null},{"server_id":311,"name":"Uncletopia | Frankfurt | 6 | All Maps","name_short":"frk-6","host":"frk-1.de.uncletopia.com","port":27065,"enabled":true,"region":"eu","cc":"de","latitude":50.110924,"longitude":8.682127,"reserved":0,"last_update":"0001-01-01T00:00:00Z","name_a2s":"Uncletopia | Frankfurt | 6 | All Maps","protocol":17,"map":"koth_lakeside_final","folder":"tf","game":"Team Fortress","app_id":440,"player_count":0,"max_players":24,"Bots":0,"server_type":"Dedicated","server_os":"Linux","password":true,"vac":true,"version":"7708610","steam_id":85568392924504278,"keywords":["cp","nocrits","nodmgspread","uncletopia"],"game_id":440,"stv_port":0,"stv_name":"","players":null},{"server_id":23,"name":"Uncletopia | Frankfurt | 7 | No Payload","name_short":"frk-7","host":"frk-1.de.uncletopia.com","port":27075,"enabled":true,"region":"eu","cc":"de","latitude":50.110924,"longitude":8.682127,"reserved":0,"last_update":"0001-01-01T00:00:00Z","name_a2s":"Uncletopia | Frankfurt | 7 | No Payload","protocol":17,"map":"pl_frontier_final","folder":"tf","game":"Team Fortress","app_id":440,"player_count":0,"max_players":24,"Bots":0,"server_type":"Dedicated","server_os":"Linux","password":true,"vac":true,"version":"7708610","steam_id":85568392924742827,"keywords":["nocrits","nodmgspread","payload","uncletopia"],"game_id":440,"stv_port":0,"stv_name":"","players":null},{"server_id":24,"name":"Uncletopia | Frankfurt | 8 | Community","name_short":"frk-8","host":"frk-1.de.uncletopia.com","port":27085,"enabled":true,"region":"eu","cc":"de","latitude":50.110924,"longitude":8.682127,"reserved":0,"last_update":"0001-01-01T00:00:00Z","name_a2s":"Uncletopia | Frankfurt | 8 | Community","protocol":17,"map":"cp_mountainlab","folder":"tf","game":"Team Fortress","app_id":440,"player_count":0,"max_players":24,"Bots":0,"server_type":"Dedicated","server_os":"Linux","password":true,"vac":true,"version":"7708610","steam_id":85568392924742828,"keywords":["cp","nocrits","nodmgspread","uncletopia"],"game_id":440,"stv_port":0,"stv_name":"","players":null},{"server_id":202,"name":"Uncletopia | Hong Kong | 1 | All Maps","name_short":"hgk-1","host":"hgk-1.hk.uncletopia.com","port":27015,"enabled":true,"region":"asia","cc":"hk","latitude":22.302711,"longitude":114.177216,"reserved":0,"last_update":"0001-01-01T00:00:00Z","name_a2s":"Uncletopia | Hong Kong | 1 | All Maps","protocol":17,"map":"cp_dustbowl","folder":"tf","game":"Team Fortress","app_id":440,"player_count":24,"max_players":24,"Bots":0,"server_type":"Dedicated","server_os":"Linux","password":true,"vac":true,"version":"7708610","steam_id":85568392924494504,"keywords":["nocrits","nodmgspread","payload","uncletopia"],"game_id":440,"stv_port":27016,"stv_name":"Uncletopia | Hong Kong | 1 | All Maps | STV","players":[{"user_id":262,"name":"can we get much higher","steam_id":76561199390507975,"connected_time":4835000000000,"state":"spawning","ping":56},{"user_id":187,"name":"bonito borzoi","steam_id":76561198230213828,"connected_time":11487000000000,"state":"spawning","ping":82},{"user_id":244,"name":"Talkk More","steam_id":76561198305424433,"connected_time":7147000000000,"state":"connecting","ping":93},{"user_id":222,"name":"Lúd","steam_id":76561198828840546,"connected_time":8730000000000,"state":"spawning","ping":112},{"user_id":314,"name":"bakabazooka(merrychrismas)","steam_id":76561198061628689,"connected_time":1661000000000,"state":"spawning","ping":75},{"user_id":231,"name":"Michael Scott","steam_id":76561198023082794,"connected_time":8318000000000,"state":"spawning","ping":60},{"user_id":318,"name":"screaming sniper","steam_id":76561199085568674,"connected_time":1483000000000,"state":"connecting","ping":96},{"user_id":131,"name":"MS PowerPoint","steam_id":76561198369523192,"connected_time":15125000000000,"state":"connecting","ping":74},{"user_id":269,"name":"paga","steam_id":76561198296718007,"connected_time":4474000000000,"state":"spawning","ping":122},{"user_id":247,"name":"Noyour","steam_id":76561198323259830,"connected_time":7112000000000,"state":"connecting","ping":150},{"user_id":326,"name":"table","steam_id":76561198055553140,"connected_time":1123000000000,"state":"connecting","ping":94},{"user_id":321,"name":"єνєℓуи","steam_id":76561198334099003,"connected_time":1260000000000,"state":"spawning","ping":186},{"user_id":196,"name":"ogey","steam_id":76561198074339034,"connected_time":11143000000000,"state":"spawning","ping":98},{"user_id":243,"name":"UltraFat","steam_id":76561198253918132,"connected_time":7149000000000,"state":"connecting","ping":98},{"user_id":331,"name":"unchi","steam_id":76561197969873415,"connected_time":21000000000,"state":"connecting","ping":87},{"user_id":324,"name":"Light Rainbow","steam_id":76561198118966673,"connected_time":1134000000000,"state":"connecting","ping":84},{"user_id":327,"name":"TomProPlayer","steam_id":76561199223292521,"connected_time":761000000000,"state":"spawning","ping":80},{"user_id":232,"name":"Lu","steam_id":76561198320532821,"connected_time":8316000000000,"state":"connecting","ping":77},{"user_id":271,"name":"雪ノ下雪乃のoppai","steam_id":76561198008307645,"connected_time":4471000000000,"state":"connecting","ping":101},{"user_id":280,"name":"香辣火锅鸡","steam_id":76561198095119121,"connected_time":2202000000000,"state":"spawning","ping":95},{"user_id":313,"name":"\"SKS\"","steam_id":76561198187995386,"connected_time":1676000000000,"state":"spawning","ping":91},{"user_id":332,"name":"the big guy","steam_id":76561198412329672,"connected_time":14000000000,"state":"spawning","ping":101},{"user_id":259,"name":"Dr. Piss Rat","steam_id":76561199074809838,"connected_time":5565000000000,"state":"spawning","ping":70},{"user_id":333,"name":"Nimbus","steam_id":76561198877713016,"connected_time":14000000000,"state":"connecting","ping":104}]},{"server_id":1,"name":"Uncletopia | Los Angeles | 1 | All Maps","name_short":"lax-1","host":"lax-1.us.uncletopia.com","port":27015,"enabled":true,"region":"us-west","cc":"us","latitude":33.94279,"longitude":-118.41004,"reserved":0,"last_update":"0001-01-01T00:00:00Z","name_a2s":"Uncletopia | Los Angeles | 1 | All Maps","protocol":17,"map":"koth_viaduct","folder":"tf","game":"Team Fortress","app_id":440,"player_count":0,"max_players":24,"Bots":0,"server_type":"Dedicated","server_os":"Linux","password":true,"vac":true,"version":"7708610","steam_id":85568392924469991,"keywords":["cp","nocrits","nodmgspread","uncletopia"],"game_id":440,"stv_port":27016,"stv_name":"Uncletopia | Los Angeles | 1 | All Maps | STV","players":null},{"server_id":112,"name":"Uncletopia | Los Angeles | 2 | All Maps","name_short":"lax-2","host":"lax-1.us.uncletopia.com","port":27025,"enabled":true,"region":"us-west","cc":"us","latitude":33.94279,"longitude":-118.41004,"reserved":0,"last_update":"0001-01-01T00:00:00Z","name_a2s":"Uncletopia | Los Angeles | 2 | All Maps","protocol":17,"map":"cp_mountainlab","folder":"tf","game":"Team Fortress","app_id":440,"player_count":0,"max_players":24,"Bots":0,"server_type":"Dedicated","server_os":"Linux","password":true,"vac":true,"version":"7708610","steam_id":85568392924469992,"keywords":["cp","nocrits","nodmgspread","uncletopia"],"game_id":440,"stv_port":27026,"stv_name":"Uncletopia | Los Angeles | 2 | All Maps | STV","players":null},{"server_id":324,"name":"Uncletopia | Los Angeles | 3 | All Maps","name_short":"lax-3","host":"lax-1.us.uncletopia.com","port":27035,"enabled":true,"region":"us-west","cc":"us","latitude":33.94279,"longitude":-118.41004,"reserved":0,"last_update":"0001-01-01T00:00:00Z","name_a2s":"Uncletopia | Los Angeles | 3 | All Maps","protocol":17,"map":"pl_borneo","folder":"tf","game":"Team Fortress","app_id":440,"player_count":24,"max_players":24,"Bots":0,"server_type":"Dedicated","server_os":"Linux","password":true,"vac":true,"version":"7708610","steam_id":85568392924510198,"keywords":["nocrits","nodmgspread","payload","uncletopia"],"game_id":440,"stv_port":27036,"stv_name":"Uncletopia | Los Angeles | 3 | All Maps | STV","players":[{"user_id":54,"name":"Humus","steam_id":76561198175286355,"connected_time":7694000000000,"state":"active","ping":43},{"user_id":117,"name":"Frank Accardi","steam_id":76561198017275707,"connected_time":1758000000000,"state":"active","ping":60},{"user_id":87,"name":"El Doktor","steam_id":76561198413013439,"connected_time":4624000000000,"state":"active","ping":47},{"user_id":128,"name":"SesataPomang","steam_id":76561198145133059,"connected_time":206000000000,"state":"active","ping":90},{"user_id":59,"name":"Mom","steam_id":76561198207936000,"connected_time":7224000000000,"state":"active","ping":45},{"user_id":89,"name":"oil","steam_id":76561198099980149,"connected_time":4411000000000,"state":"active","ping":46},{"user_id":123,"name":"Ay I'm Walkin' Here!","steam_id":76561198023967485,"connected_time":1001000000000,"state":"active","ping":119},{"user_id":129,"name":"Cybertruck","steam_id":76561197993623674,"connected_time":205000000000,"state":"active","ping":75},{"user_id":116,"name":"dmitri","steam_id":76561198060559286,"connected_time":1997000000000,"state":"active","ping":60},{"user_id":93,"name":"Moyshen24","steam_id":76561199210510557,"connected_time":4224000000000,"state":"active","ping":64},{"user_id":130,"name":"Frongus","steam_id":76561197979056451,"connected_time":203000000000,"state":"active","ping":74},{"user_id":103,"name":"rasa","steam_id":76561198025784696,"connected_time":3700000000000,"state":"active","ping":76},{"user_id":63,"name":"Sun Sugar","steam_id":76561198385085005,"connected_time":7107000000000,"state":"active","ping":58},{"user_id":124,"name":"I eat cold Mac \u0026 Cheese","steam_id":76561198100385184,"connected_time":977000000000,"state":"active","ping":49},{"user_id":133,"name":"Dwayne \"The Crack Rock\" Johnson","steam_id":76561198073699764,"connected_time":113000000000,"state":"active","ping":47},{"user_id":94,"name":"ChoccyMiltank","steam_id":76561198981474284,"connected_time":4201000000000,"state":"active","ping":44},{"user_id":126,"name":"sweaterfan","steam_id":76561199389567214,"connected_time":405000000000,"state":"active","ping":99},{"user_id":114,"name":"❤ Alice","steam_id":76561198869945051,"connected_time":2195000000000,"state":"active","ping":93},{"user_id":127,"name":"CLINICALLY-A-BEAST","steam_id":76561198819545533,"connected_time":315000000000,"state":"active","ping":97},{"user_id":132,"name":"[Bandit]","steam_id":76561197986919852,"connected_time":174000000000,"state":"active","ping":75},{"user_id":115,"name":"goldhed","steam_id":76561198051751133,"connected_time":2088000000000,"state":"active","ping":83},{"user_id":110,"name":"PunishedCrab","steam_id":76561198079650017,"connected_time":3182000000000,"state":"active","ping":52},{"user_id":106,"name":"hypotenuse","steam_id":76561198062479158,"connected_time":3302000000000,"state":"active","ping":81},{"user_id":119,"name":"Star","steam_id":76561198422395239,"connected_time":1709000000000,"state":"active","ping":45}]},{"server_id":25,"name":"Uncletopia | Los Angeles | 4 | No Payload","name_short":"lax-4","host":"lax-1.us.uncletopia.com","port":27045,"enabled":true,"region":"us-west","cc":"us","latitude":33.94279,"longitude":-118.41004,"reserved":0,"last_update":"0001-01-01T00:00:00Z","name_a2s":"Uncletopia | Los Angeles | 4 | No Payload","protocol":17,"map":"koth_suijin","folder":"tf","game":"Team Fortress","app_id":440,"player_count":0,"max_players":24,"Bots":0,"server_type":"Dedicated","server_os":"Linux","password":true,"vac":true,"version":"7708610","steam_id":85568392924510199,"keywords":["cp","nocrits","nodmgspread","uncletopia"],"game_id":440,"stv_port":27046,"stv_name":"Uncletopia | Los Angeles | 4 | No Payload | STV","players":null},{"server_id":11,"name":"Uncletopia | London | 1 | All Maps","name_short":"lon-1","host":"lon-1.uk.uncletopia.com","port":27015,"enabled":true,"region":"eu","cc":"gb","latitude":51.509865,"longitude":-0.118092,"reserved":0,"last_update":"0001-01-01T00:00:00Z","name_a2s":"Uncletopia | London | 1 | All Maps","protocol":17,"map":"koth_viaduct","folder":"tf","game":"Team Fortress","app_id":440,"player_count":0,"max_players":24,"Bots":0,"server_type":"Dedicated","server_os":"Linux","password":true,"vac":true,"version":"7708610","steam_id":85568392924367362,"keywords":["cp","nocrits","nodmgspread","uncletopia"],"game_id":440,"stv_port":0,"stv_name":"","players":null},{"server_id":114,"name":"Uncletopia | London | 2 | All Maps","name_short":"lon-2","host":"lon-1.uk.uncletopia.com","port":27025,"enabled":true,"region":"eu","cc":"gb","latitude":51.509865,"longitude":-0.118092,"reserved":0,"last_update":"0001-01-01T00:00:00Z","name_a2s":"Uncletopia | London | 2 | All Maps","protocol":17,"map":"cp_mountainlab","folder":"tf","game":"Team Fortress","app_id":440,"player_count":0,"max_players":24,"Bots":0,"server_type":"Dedicated","server_os":"Linux","password":true,"vac":true,"version":"7708610","steam_id":85568392924470941,"keywords":["cp","nocrits","nodmgspread","uncletopia"],"game_id":440,"stv_port":27026,"stv_name":"Uncletopia | London | 2 | All Maps | STV","players":null},{"server_id":320,"name":"Uncletopia | London | 3 | All Maps","name_short":"lon-3","host":"lon-1.uk.uncletopia.com","port":27035,"enabled":true,"region":"eu","cc":"gb","latitude":51.509865,"longitude":-0.118092,"reserved":0,"last_update":"0001-01-01T00:00:00Z","name_a2s":"Uncletopia | London | 3 | All Maps","protocol":17,"map":"cp_altitude","folder":"tf","game":"Team Fortress","app_id":440,"player_count":0,"max_players":24,"Bots":0,"server_type":"Dedicated","server_os":"Linux","password":true,"vac":true,"version":"7708610","steam_id":85568392924510192,"keywords":["cp","nocrits","nodmgspread","uncletopia"],"game_id":440,"stv_port":0,"stv_name":"","players":null},{"server_id":321,"name":"Uncletopia | London | 4 | All Maps","name_short":"lon-4","host":"lon-1.uk.uncletopia.com","port":27045,"enabled":true,"region":"eu","cc":"gb","latitude":51.509865,"longitude":-0.118092,"reserved":0,"last_update":"0001-01-01T00:00:00Z","name_a2s":"Uncletopia | London | 4 | All Maps","protocol":17,"map":"koth_viaduct","folder":"tf","game":"Team Fortress","app_id":440,"player_count":0,"max_players":24,"Bots":0,"server_type":"Dedicated","server_os":"Linux","password":true,"vac":true,"version":"7708610","steam_id":85568392924510193,"keywords":["cp","nocrits","nodmgspread","uncletopia"],"game_id":440,"stv_port":0,"stv_name":"","players":null},{"server_id":21,"name":"Uncletopia | London | 5 | All Maps","name_short":"lon-5","host":"lon-1.uk.uncletopia.com","port":27055,"enabled":true,"region":"eu","cc":"gb","latitude":51.509865,"longitude":-0.118092,"reserved":0,"last_update":"0001-01-01T00:00:00Z","name_a2s":"Uncletopia | London | 5 | All Maps","protocol":17,"map":"koth_lakeside_final","folder":"tf","game":"Team Fortress","app_id":440,"player_count":0,"max_players":24,"Bots":0,"server_type":"Dedicated","server_os":"Linux","password":true,"vac":true,"version":"7708610","steam_id":85568392924742829,"keywords":["cp","nocrits","nodmgspread","uncletopia"],"game_id":440,"stv_port":0,"stv_name":"","players":null},{"server_id":22,"name":"Uncletopia | London | 6 | All Maps","name_short":"lon-6","host":"lon-1.uk.uncletopia.com","port":27065,"enabled":true,"region":"eu","cc":"gb","latitude":51.509865,"longitude":-0.118092,"reserved":0,"last_update":"0001-01-01T00:00:00Z","name_a2s":"Uncletopia | London | 6 | All Maps","protocol":17,"map":"koth_viaduct","folder":"tf","game":"Team Fortress","app_id":440,"player_count":0,"max_players":24,"Bots":0,"server_type":"Dedicated","server_os":"Linux","password":true,"vac":true,"version":"7708610","steam_id":85568392924742830,"keywords":["cp","nocrits","nodmgspread","uncletopia"],"game_id":440,"stv_port":0,"stv_name":"","players":null},{"server_id":40,"name":"Uncletopia | London | 7 | No Payload","name_short":"lon-7","host":"lon-1.uk.uncletopia.com","port":27075,"enabled":true,"region":"eu","cc":"gb","latitude":51.509865,"longitude":-0.118092,"reserved":0,"last_update":"0001-01-01T00:00:00Z","name_a2s":"Uncletopia | London | 7 | No Payload","protocol":17,"map":"cp_snakewater_final1","folder":"tf","game":"Team Fortress","app_id":440,"player_count":0,"max_players":24,"Bots":0,"server_type":"Dedicated","server_os":"Linux","password":true,"vac":true,"version":"7708610","steam_id":85568392924964314,"keywords":["cp","nocrits","nodmgspread","uncletopia"],"game_id":440,"stv_port":0,"stv_name":"","players":null},{"server_id":41,"name":"Uncletopia | London | 8 | Community","name_short":"lon-8","host":"lon-1.uk.uncletopia.com","port":27085,"enabled":true,"region":"eu","cc":"gb","latitude":51.509865,"longitude":-0.118092,"reserved":0,"last_update":"0001-01-01T00:00:00Z","name_a2s":"Uncletopia | London | 8 | Community","protocol":17,"map":"cp_snakewater_final1","folder":"tf","game":"Team Fortress","app_id":440,"player_count":0,"max_players":24,"Bots":0,"server_type":"Dedicated","server_os":"Linux","password":true,"vac":true,"version":"7708610","steam_id":85568392924964315,"keywords":["cp","nocrits","nodmgspread","uncletopia"],"game_id":440,"stv_port":0,"stv_name":"","players":null},{"server_id":300,"name":"Uncletopia | Montréal | 1 | All Maps","name_short":"mtl-1","host":"mtl-1.ca.uncletopia.com","port":27015,"enabled":true,"region":"us-east","cc":"ca","latitude":45.50889,"longitude":-73.56167,"reserved":0,"last_update":"0001-01-01T00:00:00Z","name_a2s":"Uncletopia | Montréal | 1 | All Maps","protocol":17,"map":"koth_cascade","folder":"tf","game":"Team Fortress","app_id":440,"player_count":0,"max_players":24,"Bots":0,"server_type":"Dedicated","server_os":"Linux","password":true,"vac":true,"version":"7708610","steam_id":85568392924500087,"keywords":["cp","nocrits","nodmgspread","uncletopia"],"game_id":440,"stv_port":27016,"stv_name":"Uncletopia | Montréal | 1 | All Maps | STV","players":null},{"server_id":301,"name":"Uncletopia | Montréal | 2 | All Maps","name_short":"mtl-2","host":"mtl-1.ca.uncletopia.com","port":27025,"enabled":true,"region":"us-east","cc":"ca","latitude":45.50889,"longitude":-73.56167,"reserved":0,"last_update":"0001-01-01T00:00:00Z","name_a2s":"Uncletopia | Montréal | 2 | All Maps","protocol":17,"map":"koth_viaduct","folder":"tf","game":"Team Fortress","app_id":440,"player_count":0,"max_players":24,"Bots":0,"server_type":"Dedicated","server_os":"Linux","password":true,"vac":true,"version":"7708610","steam_id":85568392924500088,"keywords":["cp","nocrits","nodmgspread","uncletopia"],"game_id":440,"stv_port":27026,"stv_name":"Uncletopia | Montréal | 2 | All Maps | STV","players":null},{"server_id":302,"name":"Uncletopia | Montréal | 3 | All Maps","name_short":"mtl-3","host":"mtl-1.ca.uncletopia.com","port":27035,"enabled":true,"region":"us-east","cc":"ca","latitude":45.50889,"longitude":-73.56167,"reserved":0,"last_update":"0001-01-01T00:00:00Z","name_a2s":"Uncletopia | Montréal | 3 | All Maps","protocol":17,"map":"koth_cascade","folder":"tf","game":"Team Fortress","app_id":440,"player_count":0,"max_players":24,"Bots":0,"server_type":"Dedicated","server_os":"Linux","password":true,"vac":true,"version":"7708610","steam_id":85568392924500089,"keywords":["cp","nocrits","nodmgspread","uncletopia"],"game_id":440,"stv_port":27036,"stv_name":"Uncletopia | Montréal | 3 | All Maps | STV","players":null},{"server_id":303,"name":"Uncletopia | Montréal | 4 | No Payload","name_short":"mtl-4","host":"mtl-1.ca.uncletopia.com","port":27045,"enabled":true,"region":"us-east","cc":"ca","latitude":45.50889,"longitude":-73.56167,"reserved":0,"last_update":"0001-01-01T00:00:00Z","name_a2s":"Uncletopia | Montréal | 4 | No Payload","protocol":17,"map":"pl_frontier_final","folder":"tf","game":"Team Fortress","app_id":440,"player_count":0,"max_players":24,"Bots":0,"server_type":"Dedicated","server_os":"Linux","password":true,"vac":true,"version":"7708610","steam_id":85568392924500090,"keywords":["nocrits","nodmgspread","payload","uncletopia"],"game_id":440,"stv_port":0,"stv_name":"","players":null},{"server_id":13,"name":"Uncletopia | New York City | 1 | All Maps","name_short":"nyc-1","host":"nyc-1.us.uncletopia.com","port":27015,"enabled":true,"region":"us-east","cc":"us","latitude":40.73061,"longitude":-73.93524,"reserved":0,"last_update":"0001-01-01T00:00:00Z","name_a2s":"Uncletopia | New York City | 1 | All Maps","protocol":17,"map":"koth_cascade","folder":"tf","game":"Team Fortress","app_id":440,"player_count":0,"max_players":24,"Bots":0,"server_type":"Dedicated","server_os":"Linux","password":true,"vac":true,"version":"7708610","steam_id":85568392924469993,"keywords":["cp","nocrits","nodmgspread","uncletopia"],"game_id":440,"stv_port":27016,"stv_name":"Uncletopia | New York City | 1 | All Maps | STV","players":null},{"server_id":14,"name":"Uncletopia | New York City | 2 | All Maps","name_short":"nyc-2","host":"nyc-1.us.uncletopia.com","port":27025,"enabled":true,"region":"us-east","cc":"us","latitude":40.73061,"longitude":-73.93524,"reserved":0,"last_update":"0001-01-01T00:00:00Z","name_a2s":"Uncletopia | New York City | 2 | All Maps","protocol":17,"map":"koth_highpass","folder":"tf","game":"Team Fortress","app_id":440,"player_count":0,"max_players":24,"Bots":0,"server_type":"Dedicated","server_os":"Linux","password":true,"vac":true,"version":"7708610","steam_id":85568392924469994,"keywords":["cp","nocrits","nodmgspread","uncletopia"],"game_id":440,"stv_port":27026,"stv_name":"Uncletopia | New York City | 2 | All Maps | STV","players":null},{"server_id":15,"name":"Uncletopia | New York City | 3 | All Maps","name_short":"nyc-3","host":"nyc-1.us.uncletopia.com","port":27035,"enabled":true,"region":"us-east","cc":"us","latitude":40.73061,"longitude":-73.93524,"reserved":0,"last_update":"0001-01-01T00:00:00Z","name_a2s":"Uncletopia | New York City | 3 | All Maps","protocol":17,"map":"pl_badwater","folder":"tf","game":"Team Fortress","app_id":440,"player_count":11,"max_players":24,"Bots":0,"server_type":"Dedicated","server_os":"Linux","password":true,"vac":true,"version":"7708610","steam_id":85568392924742820,"keywords":["nocrits","nodmgspread","payload","uncletopia"],"game_id":440,"stv_port":27036,"stv_name":"Uncletopia | New York City | 3 | All Maps | STV","players":[{"user_id":301,"name":"layabout","steam_id":76561198130892117,"connected_time":7469000000000,"state":"active","ping":42},{"user_id":347,"name":"puer delicatus","steam_id":76561198102681457,"connected_time":2900000000000,"state":"active","ping":75},{"user_id":371,"name":"gromit","steam_id":76561198037746805,"connected_time":395000000000,"state":"active","ping":51},{"user_id":372,"name":"Dr. Adolf Sponge","steam_id":76561198072573105,"connected_time":319000000000,"state":"active","ping":89},{"user_id":353,"name":"Maxxycat","steam_id":76561198194062681,"connected_time":1947000000000,"state":"active","ping":32},{"user_id":364,"name":"LynBoByn","steam_id":76561198052911142,"connected_time":1264000000000,"state":"active","ping":52},{"user_id":344,"name":"tonyb lft","steam_id":76561198131703086,"connected_time":3444000000000,"state":"active","ping":44},{"user_id":374,"name":"TYPICAL HUMAN","steam_id":76561198060914982,"connected_time":228000000000,"state":"active","ping":117},{"user_id":368,"name":"Kaz!","steam_id":76561198144003477,"connected_time":546000000000,"state":"active","ping":71},{"user_id":203,"name":"Wique","steam_id":76561198071217597,"connected_time":14706000000000,"state":"active","ping":63},{"user_id":351,"name":"Vaporeon","steam_id":76561198107058140,"connected_time":2315000000000,"state":"active","ping":53}]},{"server_id":16,"name":"Uncletopia | New York City | 4 | Community","name_short":"nyc-4","host":"nyc-1.us.uncletopia.com","port":27045,"enabled":true,"region":"us-east","cc":"us","latitude":40.73061,"longitude":-73.93524,"reserved":0,"last_update":"0001-01-01T00:00:00Z","name_a2s":"Uncletopia | New York City | 4 | Community","protocol":17,"map":"workshop/cp_sulfur_rc2.ugc619869471","folder":"tf","game":"Team Fortress","app_id":440,"player_count":0,"max_players":24,"Bots":0,"server_type":"Dedicated","server_os":"Linux","password":true,"vac":true,"version":"7708610","steam_id":85568392924742821,"keywords":["cp","nocrits","nodmgspread","uncletopia"],"game_id":440,"stv_port":27046,"stv_name":"Uncletopia | New York City | 4 | Community | STV","players":null},{"server_id":142,"name":"Uncletopia | São Paulo | 1 | All Maps","name_short":"sao-1","host":"sao-1.br.uncletopia.com","port":27015,"enabled":true,"region":"sa","cc":"br","latitude":-23.533773,"longitude":-46.62529,"reserved":0,"last_update":"0001-01-01T00:00:00Z","name_a2s":"Uncletopia | São Paulo | 1 | All Maps","protocol":17,"map":"koth_cascade","folder":"tf","game":"Team Fortress","app_id":440,"player_count":0,"max_players":24,"Bots":0,"server_type":"Dedicated","server_os":"Linux","password":true,"vac":true,"version":"7708610","steam_id":85568392924469996,"keywords":["cp","nocrits","nodmgspread","uncletopia"],"game_id":440,"stv_port":27016,"stv_name":"Uncletopia | São Paulo | 1 | All Maps | STV","players":null},{"server_id":143,"name":"Uncletopia | São Paulo | 2 | All Maps","name_short":"sao-2","host":"sao-2.br.uncletopia.com","port":27015,"enabled":true,"region":"sa","cc":"br","latitude":-23.533773,"longitude":-46.62529,"reserved":0,"last_update":"0001-01-01T00:00:00Z","name_a2s":"Uncletopia | São Paulo | 2 | All Maps","protocol":17,"map":"koth_viaduct","folder":"tf","game":"Team Fortress","app_id":440,"player_count":0,"max_players":24,"Bots":0,"server_type":"Dedicated","server_os":"Linux","password":true,"vac":true,"version":"7708610","steam_id":85568392924485349,"keywords":["cp","nocrits","nodmgspread","uncletopia"],"game_id":440,"stv_port":27016,"stv_name":"Uncletopia | São Paulo | 2 | All Maps | STV","players":null},{"server_id":7,"name":"Uncletopia | Seattle | 1 | All Maps","name_short":"sea-1","host":"sea-1.us.uncletopia.com","port":27015,"enabled":true,"region":"us-west","cc":"us","latitude":47.608013,"longitude":-122.33517,"reserved":0,"last_update":"0001-01-01T00:00:00Z","name_a2s":"Uncletopia | Seattle | 1 | All Maps","protocol":17,"map":"pl_coal_event","folder":"tf","game":"Team Fortress","app_id":440,"player_count":24,"max_players":24,"Bots":0,"server_type":"Dedicated","server_os":"Linux","password":true,"vac":true,"version":"7708610","steam_id":85568392924469997,"keywords":["nocrits","nodmgspread","payload","uncletopia"],"game_id":440,"stv_port":27016,"stv_name":"Uncletopia | Seattle | 1 | All Maps | STV","players":[{"user_id":436,"name":"lol","steam_id":76561198026491738,"connected_time":7468000000000,"state":"active","ping":73},{"user_id":495,"name":"Sun Taurus","steam_id":76561198050359027,"connected_time":94000000000,"state":"active","ping":265},{"user_id":437,"name":"Black Adam","steam_id":76561198066091050,"connected_time":7464000000000,"state":"active","ping":55},{"user_id":468,"name":"House","steam_id":76561198308405663,"connected_time":3940000000000,"state":"active","ping":52},{"user_id":414,"name":"Sniff","steam_id":76561198010270922,"connected_time":9512000000000,"state":"active","ping":44},{"user_id":489,"name":"Ed Brinkle","steam_id":76561198169301974,"connected_time":1069000000000,"state":"active","ping":63},{"user_id":455,"name":"Ayayahuasca","steam_id":76561199002906056,"connected_time":5037000000000,"state":"active","ping":51},{"user_id":388,"name":"Joy in A Box","steam_id":76561198156820753,"connected_time":12083000000000,"state":"active","ping":181},{"user_id":472,"name":"Exposed_Bigfoot","steam_id":76561198306193891,"connected_time":3442000000000,"state":"active","ping":64},{"user_id":478,"name":"mub","steam_id":76561197961943948,"connected_time":2757000000000,"state":"active","ping":39},{"user_id":494,"name":"tS | maxgb2000","steam_id":76561198079886300,"connected_time":200000000000,"state":"active","ping":83},{"user_id":359,"name":"Luca","steam_id":76561198125087140,"connected_time":13939000000000,"state":"active","ping":40},{"user_id":493,"name":"Seagoll","steam_id":76561198017953606,"connected_time":385000000000,"state":"active","ping":68},{"user_id":491,"name":"dP | I'm in a Wookie Suit","steam_id":76561198083307644,"connected_time":1028000000000,"state":"active","ping":58},{"user_id":483,"name":"Aardillo","steam_id":76561198042193578,"connected_time":2006000000000,"state":"active","ping":63},{"user_id":439,"name":"s4lmon","steam_id":76561198055882807,"connected_time":7330000000000,"state":"active","ping":46},{"user_id":465,"name":"Tom Skirrett","steam_id":76561198014600788,"connected_time":4158000000000,"state":"active","ping":66},{"user_id":453,"name":"Mapachito Lindo","steam_id":76561198031359995,"connected_time":5301000000000,"state":"active","ping":44},{"user_id":477,"name":"rat gets the cheese","steam_id":76561198031234032,"connected_time":3104000000000,"state":"active","ping":98},{"user_id":463,"name":"Spaghetti Cat","steam_id":76561198027168510,"connected_time":4392000000000,"state":"active","ping":71},{"user_id":457,"name":"shane","steam_id":76561198060491451,"connected_time":5007000000000,"state":"active","ping":97},{"user_id":393,"name":"Lambchop","steam_id":76561198043900363,"connected_time":11107000000000,"state":"active","ping":76},{"user_id":449,"name":"SolarusD","steam_id":76561198029279861,"connected_time":6551000000000,"state":"active","ping":66},{"user_id":485,"name":"lil raph","steam_id":76561198870682982,"connected_time":1996000000000,"state":"active","ping":53}]},{"server_id":119,"name":"Uncletopia | Seattle | 2 | All Maps","name_short":"sea-2","host":"sea-1.us.uncletopia.com","port":27025,"enabled":true,"region":"us-west","cc":"us","latitude":47.608013,"longitude":-122.33517,"reserved":0,"last_update":"0001-01-01T00:00:00Z","name_a2s":"Uncletopia | Seattle | 2 | All Maps","protocol":17,"map":"pl_swiftwater_final1","folder":"tf","game":"Team Fortress","app_id":440,"player_count":25,"max_players":24,"Bots":0,"server_type":"Dedicated","server_os":"Linux","password":true,"vac":true,"version":"7708610","steam_id":85568392924469998,"keywords":["nocrits","nodmgspread","payload","uncletopia"],"game_id":440,"stv_port":27026,"stv_name":"Uncletopia | Seattle | 2 | All Maps | STV","players":[{"user_id":460,"name":"Eggnog","steam_id":76561197968179862,"connected_time":4775000000000,"state":"active","ping":73},{"user_id":496,"name":"Squidward Tortellini","steam_id":76561199017850660,"connected_time":2235000000000,"state":"active","ping":105},{"user_id":418,"name":"Evanb","steam_id":76561198042057792,"connected_time":8401000000000,"state":"active","ping":49},{"user_id":525,"name":"xenolith","steam_id":76561198041496496,"connected_time":32000000000,"state":"active","ping":112},{"user_id":505,"name":"Starkiller","steam_id":76561198101643120,"connected_time":1299000000000,"state":"active","ping":55},{"user_id":437,"name":"JON","steam_id":76561198057971005,"connected_time":7090000000000,"state":"active","ping":41},{"user_id":520,"name":"squid game","steam_id":76561199248960166,"connected_time":196000000000,"state":"active","ping":37},{"user_id":506,"name":"Black Jesus","steam_id":76561198046543007,"connected_time":1296000000000,"state":"active","ping":114},{"user_id":526,"name":"O(n)","steam_id":76561198104675984,"connected_time":28000000000,"state":"active","ping":77},{"user_id":514,"name":"The Rizzard of Ozz","steam_id":76561198056329143,"connected_time":348000000000,"state":"active","ping":76},{"user_id":486,"name":"セイバー","steam_id":76561198169223408,"connected_time":3000000000000,"state":"active","ping":57},{"user_id":522,"name":"fig newton enjoyer","steam_id":76561198110046630,"connected_time":121000000000,"state":"active","ping":107},{"user_id":438,"name":"google","steam_id":76561198799673421,"connected_time":6967000000000,"state":"active","ping":67},{"user_id":507,"name":"im the biggest bird im the bi","steam_id":76561198143132686,"connected_time":1268000000000,"state":"active","ping":67},{"user_id":499,"name":"Lily Thorn","steam_id":76561198305488625,"connected_time":2163000000000,"state":"active","ping":62},{"user_id":489,"name":"R5-D4","steam_id":76561198025196439,"connected_time":2864000000000,"state":"active","ping":54},{"user_id":519,"name":"Mr Majesticals","steam_id":76561198015242706,"connected_time":218000000000,"state":"active","ping":82},{"user_id":521,"name":"kenZino","steam_id":76561197967971192,"connected_time":185000000000,"state":"active","ping":53},{"user_id":516,"name":"Tuna","steam_id":76561198129907971,"connected_time":321000000000,"state":"active","ping":85},{"user_id":495,"name":"KellyKapoor","steam_id":76561198040828123,"connected_time":2303000000000,"state":"active","ping":50},{"user_id":523,"name":"boo","steam_id":76561198046073848,"connected_time":104000000000,"state":"active","ping":51},{"user_id":524,"name":"Inadequate","steam_id":76561198108263810,"connected_time":101000000000,"state":"active","ping":123},{"user_id":527,"name":"WINNNNNIE","steam_id":76561198286650322,"connected_time":22000000000,"state":"active","ping":62},{"user_id":528,"name":"derpins","steam_id":76561198125261443,"connected_time":15000000000,"state":"spawning","ping":60},{"user_id":529,"name":"TaiDni","steam_id":76561198087750392,"connected_time":3000000000,"state":"spawning","ping":190}]},{"server_id":17,"name":"Uncletopia | San Francisco | 1 | All Maps","name_short":"sfo-1","host":"sfo-1.us.uncletopia.com","port":27015,"enabled":true,"region":"us-west","cc":"us","latitude":37.77397,"longitude":-122.4313,"reserved":0,"last_update":"0001-01-01T00:00:00Z","name_a2s":"Uncletopia | San Francisco | 1 | All Maps","protocol":17,"map":"pl_pier","folder":"tf","game":"Team Fortress","app_id":440,"player_count":24,"max_players":24,"Bots":0,"server_type":"Dedicated","server_os":"Linux","password":true,"vac":true,"version":"7708610","steam_id":85568392924469999,"keywords":["nocrits","nodmgspread","payload","uncletopia"],"game_id":440,"stv_port":27016,"stv_name":"Uncletopia | San Francisco | 1 | All Maps | STV","players":[{"user_id":341,"name":"bippard","steam_id":76561198002053047,"connected_time":2322000000000,"state":"active","ping":69},{"user_id":345,"name":"ppsmall","steam_id":76561198060169845,"connected_time":1487000000000,"state":"active","ping":60},{"user_id":353,"name":"ジゾン動物","steam_id":76561199087258663,"connected_time":1214000000000,"state":"active","ping":182},{"user_id":357,"name":"Stapler","steam_id":76561198099295077,"connected_time":515000000000,"state":"active","ping":47},{"user_id":295,"name":"fyoure","steam_id":76561198083694047,"connected_time":6067000000000,"state":"active","ping":45},{"user_id":342,"name":"Sir Galahad","steam_id":76561198195999859,"connected_time":2233000000000,"state":"active","ping":67},{"user_id":347,"name":"Nekrotic","steam_id":76561198309465586,"connected_time":1445000000000,"state":"active","ping":84},{"user_id":331,"name":"Mezden","steam_id":76561197991156264,"connected_time":3113000000000,"state":"active","ping":73},{"user_id":307,"name":"benglengler","steam_id":76561198150137369,"connected_time":4698000000000,"state":"active","ping":61},{"user_id":358,"name":"Raian","steam_id":76561199138048671,"connected_time":456000000000,"state":"active","ping":46},{"user_id":343,"name":"DSM-IVCE","steam_id":76561199438515797,"connected_time":1552000000000,"state":"active","ping":160},{"user_id":330,"name":"Branos","steam_id":76561198396414319,"connected_time":3170000000000,"state":"active","ping":60},{"user_id":363,"name":"O.G. C.E.O","steam_id":76561198063928325,"connected_time":129000000000,"state":"active","ping":108},{"user_id":366,"name":"Quietsharp","steam_id":76561198277968438,"connected_time":90000000000,"state":"active","ping":70},{"user_id":349,"name":"MoastyToasty","steam_id":76561197998979260,"connected_time":1429000000000,"state":"active","ping":54},{"user_id":350,"name":"Cockfight","steam_id":76561198160277649,"connected_time":1412000000000,"state":"active","ping":52},{"user_id":356,"name":"Amogous Supreme","steam_id":76561198025476774,"connected_time":786000000000,"state":"active","ping":55},{"user_id":324,"name":"VerSaKa","steam_id":76561198052392540,"connected_time":3911000000000,"state":"active","ping":123},{"user_id":296,"name":"huiei","steam_id":76561198073763735,"connected_time":5881000000000,"state":"active","ping":57},{"user_id":364,"name":"rip ghost mountain","steam_id":76561198357132470,"connected_time":116000000000,"state":"active","ping":70},{"user_id":336,"name":"Satori Komeiji","steam_id":76561198158211423,"connected_time":2646000000000,"state":"active","ping":45},{"user_id":359,"name":"♥","steam_id":76561198401455467,"connected_time":407000000000,"state":"active","ping":60},{"user_id":365,"name":"Atlas","steam_id":76561198127975050,"connected_time":113000000000,"state":"active","ping":97},{"user_id":361,"name":"walidov","steam_id":76561198079965605,"connected_time":360000000000,"state":"active","ping":98}]},{"server_id":18,"name":"Uncletopia | San Francisco | 2 | All Maps","name_short":"sfo-2","host":"sfo-1.us.uncletopia.com","port":27025,"enabled":true,"region":"us-west","cc":"us","latitude":37.77397,"longitude":-122.4313,"reserved":0,"last_update":"0001-01-01T00:00:00Z","name_a2s":"Uncletopia | San Francisco | 2 | All Maps","protocol":17,"map":"pl_badwater","folder":"tf","game":"Team Fortress","app_id":440,"player_count":0,"max_players":24,"Bots":0,"server_type":"Dedicated","server_os":"Linux","password":true,"vac":true,"version":"7708610","steam_id":85568392924470000,"keywords":["nocrits","nodmgspread","payload","uncletopia"],"game_id":440,"stv_port":27026,"stv_name":"Uncletopia | San Francisco | 2 | All Maps | STV","players":null},{"server_id":19,"name":"Uncletopia | San Francisco | 3 | No Payload","name_short":"sfo-3","host":"sfo-1.us.uncletopia.com","port":27035,"enabled":true,"region":"us-west","cc":"us","latitude":37.77397,"longitude":-122.4313,"reserved":0,"last_update":"0001-01-01T00:00:00Z","name_a2s":"Uncletopia | San Francisco | 3 | No Payload","protocol":17,"map":"plr_bananabay","folder":"tf","game":"Team Fortress","app_id":440,"player_count":0,"max_players":24,"Bots":0,"server_type":"Dedicated","server_os":"Linux","password":true,"vac":true,"version":"7708610","steam_id":85568392924742824,"keywords":["nocrits","nodmgspread","payload","uncletopia"],"game_id":440,"stv_port":27036,"stv_name":"Uncletopia | San Francisco | 3 | No Payload | STV","players":null},{"server_id":20,"name":"Uncletopia | San Francisco | 4 | Community","name_short":"sfo-4","host":"sfo-1.us.uncletopia.com","port":27045,"enabled":true,"region":"us-west","cc":"us","latitude":37.77397,"longitude":-122.4313,"reserved":0,"last_update":"0001-01-01T00:00:00Z","name_a2s":"Uncletopia | San Francisco | 4 | Community","protocol":17,"map":"workshop/koth_synthetic_rc6a.ugc1549817316","folder":"tf","game":"Team Fortress","app_id":440,"player_count":0,"max_players":24,"Bots":0,"server_type":"Dedicated","server_os":"Linux","password":true,"vac":true,"version":"7708610","steam_id":85568392924742826,"keywords":["cp","nocrits","nodmgspread","uncletopia"],"game_id":440,"stv_port":27046,"stv_name":"Uncletopia | San Francisco | 4 | Community | STV","players":null},{"server_id":141,"name":"Uncletopia | Sydney | 1 | All Maps","name_short":"syd-1","host":"syd-1.au.uncletopia.com","port":27015,"enabled":true,"region":"au","cc":"au","latitude":-33.865143,"longitude":151.2099,"reserved":0,"last_update":"0001-01-01T00:00:00Z","name_a2s":"Uncletopia | Sydney | 1 | All Maps","protocol":17,"map":"pl_pier","folder":"tf","game":"Team Fortress","app_id":440,"player_count":24,"max_players":24,"Bots":0,"server_type":"Dedicated","server_os":"Linux","password":true,"vac":true,"version":"7708610","steam_id":85568392924470001,"keywords":["nocrits","nodmgspread","payload","uncletopia"],"game_id":440,"stv_port":27016,"stv_name":"Uncletopia | Sydney | 1 | All Maps | STV","players":[{"user_id":539,"name":"Mr. Mann","steam_id":76561198379635302,"connected_time":1265000000000,"state":"active","ping":89},{"user_id":558,"name":"Booty Fingerer","steam_id":76561199159741578,"connected_time":223000000000,"state":"active","ping":59},{"user_id":552,"name":"Chrisy","steam_id":76561198092382473,"connected_time":429000000000,"state":"active","ping":84},{"user_id":532,"name":"Hally","steam_id":76561198045236233,"connected_time":1447000000000,"state":"active","ping":58},{"user_id":540,"name":"Ender","steam_id":76561198452134732,"connected_time":1191000000000,"state":"active","ping":56},{"user_id":527,"name":"clout","steam_id":76561198073310502,"connected_time":2197000000000,"state":"active","ping":74},{"user_id":374,"name":"ุbifcheg","steam_id":76561198319806610,"connected_time":12952000000000,"state":"active","ping":61},{"user_id":531,"name":"Marzell","steam_id":76561198151276153,"connected_time":1458000000000,"state":"active","ping":87},{"user_id":546,"name":"he tripped (hes drunk)","steam_id":76561199095999026,"connected_time":905000000000,"state":"active","ping":124},{"user_id":451,"name":"little raw meat boy","steam_id":76561199248254676,"connected_time":7388000000000,"state":"active","ping":56},{"user_id":553,"name":"Huski","steam_id":76561198108956967,"connected_time":355000000000,"state":"active","ping":62},{"user_id":556,"name":"john fitzgerald kennedy","steam_id":76561198998542066,"connected_time":251000000000,"state":"active","ping":54},{"user_id":497,"name":"ruben","steam_id":76561198025063982,"connected_time":4064000000000,"state":"active","ping":167},{"user_id":520,"name":"Charm","steam_id":76561198028891054,"connected_time":2867000000000,"state":"active","ping":66},{"user_id":501,"name":"floppinv2","steam_id":76561198213566569,"connected_time":3804000000000,"state":"active","ping":98},{"user_id":555,"name":"Billydog","steam_id":76561198060111437,"connected_time":324000000000,"state":"active","ping":94},{"user_id":543,"name":"Breakfast","steam_id":76561197971620881,"connected_time":965000000000,"state":"active","ping":52},{"user_id":557,"name":"Swiggityswooty","steam_id":76561198045060731,"connected_time":244000000000,"state":"active","ping":77},{"user_id":547,"name":"Doodgee1","steam_id":76561198212438803,"connected_time":898000000000,"state":"active","ping":59},{"user_id":550,"name":"PyroShark","steam_id":76561198199915279,"connected_time":505000000000,"state":"active","ping":72},{"user_id":495,"name":"no teles 4 u","steam_id":76561198018478297,"connected_time":4289000000000,"state":"active","ping":69},{"user_id":548,"name":"TigerThorn","steam_id":76561198930701873,"connected_time":832000000000,"state":"active","ping":56},{"user_id":466,"name":"Abyss (she/her)","steam_id":76561198049213583,"connected_time":6693000000000,"state":"active","ping":61},{"user_id":551,"name":"EpicGuy4227","steam_id":76561198094132328,"connected_time":499000000000,"state":"active","ping":54}]},{"server_id":123,"name":"Uncletopia | Sydney | 2 | All Maps","name_short":"syd-2","host":"syd-1.au.uncletopia.com","port":27025,"enabled":true,"region":"au","cc":"au","latitude":-33.865143,"longitude":151.2099,"reserved":0,"last_update":"0001-01-01T00:00:00Z","name_a2s":"Uncletopia | Sydney | 2 | All Maps","protocol":17,"map":"cp_mountainlab","folder":"tf","game":"Team Fortress","app_id":440,"player_count":3,"max_players":24,"Bots":0,"server_type":"Dedicated","server_os":"Linux","password":true,"vac":true,"version":"7708610","steam_id":85568392924470002,"keywords":["cp","nocrits","nodmgspread","uncletopia"],"game_id":440,"stv_port":27026,"stv_name":"Uncletopia | Sydney | 2 | All Maps | STV","players":[{"user_id":19,"name":"JayTheLlamaKing","steam_id":76561198836354249,"connected_time":1447000000000,"state":"active","ping":71},{"user_id":20,"name":"scout tf2","steam_id":76561198251386932,"connected_time":1443000000000,"state":"active","ping":61},{"user_id":21,"name":"a loaf of bread","steam_id":76561198206424961,"connected_time":1394000000000,"state":"active","ping":61}]},{"server_id":395,"name":"Uncletopia | Sydney | 3 | All Maps","name_short":"syd-3","host":"syd-1.au.uncletopia.com","port":27035,"enabled":true,"region":"au","cc":"au","latitude":-33.865143,"longitude":151.2099,"reserved":0,"last_update":"0001-01-01T00:00:00Z","name_a2s":"Uncletopia | Sydney | 3 | All Maps","protocol":17,"map":"cp_mountainlab","folder":"tf","game":"Team Fortress","app_id":440,"player_count":22,"max_players":24,"Bots":0,"server_type":"Dedicated","server_os":"Linux","password":true,"vac":true,"version":"7708610","steam_id":85568392925194467,"keywords":["cp","nocrits","nodmgspread","uncletopia"],"game_id":440,"stv_port":27036,"stv_name":"Uncletopia | Sydney | 3 | All Maps | STV","players":[{"user_id":223,"name":"cLoWn bOy Gaming","steam_id":76561198075767357,"connected_time":721000000000,"state":"active","ping":67},{"user_id":201,"name":"GTSW1FT","steam_id":76561198315785054,"connected_time":1883000000000,"state":"active","ping":75},{"user_id":228,"name":"VERY MERRY","steam_id":76561198063814949,"connected_time":264000000000,"state":"active","ping":57},{"user_id":222,"name":"poo monster","steam_id":76561198392777992,"connected_time":752000000000,"state":"active","ping":34},{"user_id":224,"name":"superbob event manager","steam_id":76561198272422193,"connected_time":656000000000,"state":"active","ping":61},{"user_id":200,"name":"Evojr","steam_id":76561198211512664,"connected_time":2002000000000,"state":"active","ping":44},{"user_id":225,"name":"Skeptikal01","steam_id":76561199064694137,"connected_time":643000000000,"state":"active","ping":150},{"user_id":226,"name":"xmas consumer","steam_id":76561198039705253,"connected_time":519000000000,"state":"active","ping":38},{"user_id":227,"name":"Jingle My Bells","steam_id":76561198090772853,"connected_time":501000000000,"state":"active","ping":48},{"user_id":229,"name":"Henry VI","steam_id":76561198024262242,"connected_time":234000000000,"state":"active","ping":62},{"user_id":230,"name":"wody","steam_id":76561198867007873,"connected_time":184000000000,"state":"active","ping":99},{"user_id":213,"name":"kimmybob47","steam_id":76561198850317251,"connected_time":1455000000000,"state":"active","ping":74},{"user_id":231,"name":"lukatha","steam_id":76561198134340160,"connected_time":176000000000,"state":"active","ping":39},{"user_id":215,"name":"Sprytt","steam_id":76561198153838550,"connected_time":1377000000000,"state":"active","ping":34},{"user_id":232,"name":"Fuzzy","steam_id":76561198081319798,"connected_time":158000000000,"state":"active","ping":51},{"user_id":212,"name":"Arteralis","steam_id":76561199005492252,"connected_time":1564000000000,"state":"active","ping":69},{"user_id":233,"name":"Selling Anti-Matter for $543","steam_id":76561198070708382,"connected_time":154000000000,"state":"active","ping":47},{"user_id":234,"name":"Insomniac01","steam_id":76561198805495898,"connected_time":142000000000,"state":"active","ping":125},{"user_id":235,"name":"Jokercard","steam_id":76561198026713997,"connected_time":82000000000,"state":"active","ping":63},{"user_id":236,"name":"Tricka •","steam_id":76561197968440123,"connected_time":41000000000,"state":"active","ping":47},{"user_id":237,"name":"kez","steam_id":76561198046177980,"connected_time":26000000000,"state":"spawning","ping":63},{"user_id":238,"name":"Flak","steam_id":76561198205833232,"connected_time":3000000000,"state":"spawning","ping":57}]},{"server_id":396,"name":"Uncletopia | Sydney | 4 | All Maps","name_short":"syd-4","host":"syd-1.au.uncletopia.com","port":27045,"enabled":true,"region":"au","cc":"au","latitude":-33.865143,"longitude":151.2099,"reserved":0,"last_update":"0001-01-01T00:00:00Z","name_a2s":"Uncletopia | Sydney | 4 | All Maps","protocol":17,"map":"koth_lakeside_final","folder":"tf","game":"Team Fortress","app_id":440,"player_count":0,"max_players":24,"Bots":0,"server_type":"Dedicated","server_os":"Linux","password":true,"vac":true,"version":"7708610","steam_id":85568392925397958,"keywords":["cp","nocrits","nodmgspread","uncletopia"],"game_id":440,"stv_port":0,"stv_name":"","players":null},{"server_id":58,"name":"Uncletopia | Sydney | 5 | No Payload","name_short":"syd-5","host":"syd-1.au.uncletopia.com","port":27055,"enabled":true,"region":"au","cc":"au","latitude":-33.865143,"longitude":151.2099,"reserved":0,"last_update":"0001-01-01T00:00:00Z","name_a2s":"Uncletopia | Sydney | 5 | No Payload","protocol":17,"map":"koth_cascade","folder":"tf","game":"Team Fortress","app_id":440,"player_count":0,"max_players":24,"Bots":0,"server_type":"Dedicated","server_os":"Linux","password":true,"vac":true,"version":"7708610","steam_id":85568392925397959,"keywords":["cp","nocrits","nodmgspread","uncletopia"],"game_id":440,"stv_port":0,"stv_name":"","players":null},{"server_id":59,"name":"Uncletopia | Sydney | 6 | Community","name_short":"syd-6","host":"syd-1.au.uncletopia.com","port":27065,"enabled":true,"region":"au","cc":"au","latitude":-33.865143,"longitude":151.2099,"reserved":0,"last_update":"0001-01-01T00:00:00Z","name_a2s":"Uncletopia | Sydney | 6 | Community","protocol":17,"map":"workshop/koth_synthetic_rc6a.ugc1549817316","folder":"tf","game":"Team Fortress","app_id":440,"player_count":0,"max_players":24,"Bots":0,"server_type":"Dedicated","server_os":"Linux","password":true,"vac":true,"version":"7708610","steam_id":85568392925397960,"keywords":["cp","nocrits","nodmgspread","uncletopia"],"game_id":440,"stv_port":27066,"stv_name":"Uncletopia | Sydney | 6 | Community | STV","players":null},{"server_id":49,"name":"Uncletopia | Warsaw | 1 | All Maps","name_short":"waw-1","host":"waw-1.pl.uncletopia.com","port":27015,"enabled":true,"region":"eu","cc":"pl","latitude":52.2297,"longitude":21.017532,"reserved":0,"last_update":"0001-01-01T00:00:00Z","name_a2s":"Uncletopia | Warsaw | 1 | All Maps","protocol":17,"map":"cp_mountainlab","folder":"tf","game":"Team Fortress","app_id":440,"player_count":0,"max_players":24,"Bots":0,"server_type":"Dedicated","server_os":"Linux","password":true,"vac":true,"version":"7708610","steam_id":85568392925397850,"keywords":["cp","nocrits","nodmgspread","uncletopia"],"game_id":440,"stv_port":0,"stv_name":"","players":null},{"server_id":50,"name":"Uncletopia | Warsaw | 2 | All Maps","name_short":"waw-2","host":"waw-1.pl.uncletopia.com","port":27025,"enabled":true,"region":"eu","cc":"pl","latitude":52.2297,"longitude":21.017532,"reserved":0,"last_update":"0001-01-01T00:00:00Z","name_a2s":"Uncletopia | Warsaw | 2 | All Maps","protocol":17,"map":"pl_badwater","folder":"tf","game":"Team Fortress","app_id":440,"player_count":0,"max_players":24,"Bots":0,"server_type":"Dedicated","server_os":"Linux","password":true,"vac":true,"version":"7708610","steam_id":85568392925397851,"keywords":["nocrits","nodmgspread","payload","uncletopia"],"game_id":440,"stv_port":0,"stv_name":"","players":null},{"server_id":51,"name":"Uncletopia | Warsaw | 3 | All Maps","name_short":"waw-3","host":"waw-1.pl.uncletopia.com","port":27035,"enabled":true,"region":"eu","cc":"pl","latitude":52.2297,"longitude":21.017532,"reserved":0,"last_update":"0001-01-01T00:00:00Z","name_a2s":"Uncletopia | Warsaw | 3 | All Maps","protocol":17,"map":"koth_cascade","folder":"tf","game":"Team Fortress","app_id":440,"player_count":0,"max_players":24,"Bots":0,"server_type":"Dedicated","server_os":"Linux","password":true,"vac":true,"version":"7708610","steam_id":85568392925397852,"keywords":["cp","nocrits","nodmgspread","uncletopia"],"game_id":440,"stv_port":0,"stv_name":"","players":null},{"server_id":52,"name":"Uncletopia | Warsaw | 4 | All Maps","name_short":"waw-4","host":"waw-1.pl.uncletopia.com","port":27045,"enabled":true,"region":"eu","cc":"pl","latitude":52.2297,"longitude":21.017532,"reserved":0,"last_update":"0001-01-01T00:00:00Z","name_a2s":"Uncletopia | Warsaw | 4 | All Maps","protocol":17,"map":"cp_mountainlab","folder":"tf","game":"Team Fortress","app_id":440,"player_count":0,"max_players":24,"Bots":0,"server_type":"Dedicated","server_os":"Linux","password":true,"vac":true,"version":"7708610","steam_id":85568392925397853,"keywords":["cp","nocrits","nodmgspread","uncletopia"],"game_id":440,"stv_port":0,"stv_name":"","players":null},{"server_id":53,"name":"Uncletopia | Warsaw | 5 | No Payload","name_short":"waw-5","host":"waw-1.pl.uncletopia.com","port":27055,"enabled":true,"region":"eu","cc":"pl","latitude":52.2297,"longitude":21.017532,"reserved":0,"last_update":"0001-01-01T00:00:00Z","name_a2s":"Uncletopia | Warsaw | 5 | No Payload","protocol":17,"map":"cp_dustbowl","folder":"tf","game":"Team Fortress","app_id":440,"player_count":0,"max_players":24,"Bots":0,"server_type":"Dedicated","server_os":"Linux","password":true,"vac":true,"version":"7708610","steam_id":85568392925397854,"keywords":["cp","nocrits","nodmgspread","uncletopia"],"game_id":440,"stv_port":0,"stv_name":"","players":null},{"server_id":54,"name":"Uncletopia | Warsaw | 6 | Community","name_short":"waw-6","host":"waw-1.pl.uncletopia.com","port":27065,"enabled":true,"region":"eu","cc":"pl","latitude":52.2297,"longitude":21.017532,"reserved":0,"last_update":"0001-01-01T00:00:00Z","name_a2s":"Uncletopia | Warsaw | 6 | Community","protocol":17,"map":"koth_highpass","folder":"tf","game":"Team Fortress","app_id":440,"player_count":0,"max_players":24,"Bots":0,"server_type":"Dedicated","server_os":"Linux","password":true,"vac":true,"version":"7708610","steam_id":85568392925397856,"keywords":["cp","nocrits","nodmgspread","uncletopia"],"game_id":440,"stv_port":0,"stv_name":"","players":null}]}