{"status":true,"message":"","result":[{"server_id":9,"name":"Uncletopia | Atlanta | 1 | All Maps","name_short":"atl-1","host":"atl-1.us.uncletopia.com","port":27015,"enabled":true,"region":"us-east","cc":"us","latitude":33.753746,"longitude":-84.38633,"reserved":0,"last_update":"0001-01-01T00:00:00Z","name_a2s":"Uncletopia | Atlanta | 1 | All Maps","protocol":17,"map":"pl_upward","folder":"tf","game":"Team Fortress","app_id":440,"player_count":24,"max_players":24,"Bots":0,"server_type":"Dedicated","server_os":"Linux","password":true,"vac":true,"version":"7742253","steam_id":85568392924469982,"keywords":["nocrits","nodmgspread","payload","uncletopia"],"game_id":440,"stv_port":27016,"stv_name":"Uncletopia | Atlanta | 1 | All Maps | STV","players":[{"user_id":336,"name":"CrankShaft","steam_id":76561197970750813,"connected_time":518000000000,"state":"active","ping":39},{"user_id":222,"name":"Mage","steam_id":76561198285026879,"connected_time":14027000000000,"state":"active","ping":74},{"user_id":325,"name":"festive femboy","steam_id":76561199105702683,"connected_time":2232000000000,"state":"active","ping":66},{"user_id":310,"name":"[GUT] RiDiK®","steam_id":76561197969756446,"connected_time":4240000000000,"state":"active","ping":76},{"user_id":316,"name":"floofy","steam_id":76561198389769098,"connected_time":3416000000000,"state":"active","ping":81},{"user_id":272,"name":"Intro Bonito","steam_id":76561198119478838,"connected_time":7561000000000,"state":"active","ping":58},{"user_id":335,"name":"Sharkvania","steam_id":76561198977931665,"connected_time":531000000000,"state":"active","ping":99},{"user_id":297,"name":"poey","steam_id":76561198865346767,"connected_time":5887000000000,"state":"active","ping":108},{"user_id":302,"name":"ATL1 | Kramer","steam_id":76561198083595936,"connected_time":5696000000000,"state":"active","ping":105},{"user_id":225,"name":"ATL1 | to4st","steam_id":76561198981009008,"connected_time":13408000000000,"state":"active","ping":77},{"user_id":339,"name":"Crescent","steam_id":76561198095124633,"connected_time":214000000000,"state":"active","ping":59},{"user_id":321,"name":"♡Alyx♡","steam_id":76561198024303978,"connected_time":2882000000000,"state":"active","ping":62},{"user_id":334,"name":"BotchyAlarm8","steam_id":76561198092682129,"connected_time":547000000000,"state":"active","ping":66},{"user_id":340,"name":"plutonium isotope","steam_id":76561198319442494,"connected_time":50000000000,"state":"active","ping":165},{"user_id":292,"name":"indi","steam_id":76561198045917538,"connected_time":6229000000000,"state":"active","ping":74},{"user_id":318,"name":"Memed2Much","steam_id":76561199032248010,"connected_time":3188000000000,"state":"active","ping":76},{"user_id":328,"name":"ATL1 | Psionic Box","steam_id":76561198151019322,"connected_time":1110000000000,"state":"active","ping":74},{"user_id":327,"name":"Stampdawg","steam_id":76561198050500060,"connected_time":2061000000000,"state":"active","ping":89},{"user_id":191,"name":"DFR Le4n!!!","steam_id":76561198045522596,"connected_time":16320000000000,"state":"active","ping":65},{"user_id":251,"name":"ATL1 | Mayhem","steam_id":76561199246637881,"connected_time":10413000000000,"state":"active","ping":59},{"user_id":320,"name":"Flint","steam_id":76561198066547582,"connected_time":2996000000000,"state":"active","ping":107},{"user_id":331,"name":"joe","steam_id":76561198045781320,"connected_time":909000000000,"state":"active","ping":67},{"user_id":323,"name":"ATL1 | BeastRyder","steam_id":76561198330281584,"connected_time":2768000000000,"state":"active","ping":92},{"user_id":333,"name":"bad username","steam_id":76561198397009880,"connected_time":903000000000,"state":"active","ping":52}]},{"server_id":400,"name":"Uncletopia | Atlanta | 3 | Stopwatch Beta","name_short":"atl-3","host":"atl-1.us.uncletopia.com","port":27035,"enabled":true,"region":"us-east","cc":"us","latitude":33.753746,"longitude":-84.38633,"reserved":0,"last_update":"0001-01-01T00:00:00Z","name_a2s":"Uncletopia | Atlanta | 3 | Stopwatch Beta","protocol":17,"map":"pl_pier","folder":"tf","game":"Team Fortress","app_id":440,"player_count":0,"max_players":24,"Bots":0,"server_type":"Dedicated","server_os":"Linux","password":true,"vac":true,"version":"7742253","steam_id":85568392924515187,"keywords":["nocrits","nodmgspread","payload","uncletopia"],"game_id":440,"stv_port":27036,"stv_name":"Uncletopia | Atlanta | 3 | Stopwatch Beta | STV","players":null},{"server_id":401,"name":"Uncletopia | Atlanta | 4 | No Payload","name_short":"atl-4","host":"atl-1.us.uncletopia.com","port":27045,"enabled":true,"region":"us-east","cc":"us","latitude":33.753746,"longitude":-84.38633,"reserved":0,"last_update":"0001-01-01T00:00:00Z","name_a2s":"Uncletopia | Atlanta | 4 | No Payload","protocol":17,"map":"pl_pier","folder":"tf","game":"Team Fortress","app_id":440,"player_count":0,"max_players":24,"Bots":0,"server_type":"Dedicated","server_os":"Linux","password":true,"vac":true,"version":"7723704","steam_id":85568392924515188,"keywords":["nocrits","nodmgspread","payload","uncletopia"],"game_id":440,"stv_port":27046,"stv_name":"Uncletopia | Atlanta | 4 | No Payload | STV","players":null},{"server_id":2,"name":"Uncletopia | Chicago | 1 | All Maps","name_short":"chi-1","host":"chi-1.us.uncletopia.com","port":27015,"enabled":true,"region":"us-central","cc":"us","latitude":41.881832,"longitude":-87.62318,"reserved":0,"last_update":"0001-01-01T00:00:00Z","name_a2s":"Uncletopia | Chicago | 1 | All Maps","protocol":17,"map":"pl_swiftwater_final1","folder":"tf","game":"Team Fortress","app_id":440,"player_count":24,"max_players":24,"Bots":0,"server_type":"Dedicated","server_os":"Linux","password":true,"vac":true,"version":"7742253","steam_id":85568392924469984,"keywords":["nocrits","nodmgspread","payload","uncletopia"],"game_id":440,"stv_port":27016,"stv_name":"Uncletopia | Chicago | 1 | All Maps | STV","players":[{"user_id":147,"name":"Garfield","steam_id":76561198037803087,"connected_time":6222000000000,"state":"active","ping":68},{"user_id":233,"name":"bushman","steam_id":76561197996548146,"connected_time":236000000000,"state":"active","ping":50},{"user_id":215,"name":"Risky","steam_id":76561198231029328,"connected_time":2226000000000,"state":"active","ping":85},{"user_id":232,"name":"thundermuffin","steam_id":76561198067770965,"connected_time":267000000000,"state":"active","ping":59},{"user_id":196,"name":"Zel \u003c3","steam_id":76561198886705498,"connected_time":3680000000000,"state":"active","ping":42},{"user_id":206,"name":"FreshlyBrewed","steam_id":76561198181099881,"connected_time":2967000000000,"state":"active","ping":55},{"user_id":229,"name":"JFK Gamer","steam_id":76561199229169396,"connected_time":759000000000,"state":"active","ping":70},{"user_id":169,"name":"Obnoxious Dinosaur","steam_id":76561198271077120,"connected_time":5533000000000,"state":"active","ping":58},{"user_id":151,"name":"TheToastingToaster","steam_id":76561198439391966,"connected_time":6195000000000,"state":"active","ping":49},{"user_id":198,"name":"fresco","steam_id":76561199101199477,"connected_time":3255000000000,"state":"active","ping":55},{"user_id":231,"name":"Minjisku","steam_id":76561198019534474,"connected_time":695000000000,"state":"active","ping":81},{"user_id":234,"name":"blanket","steam_id":76561198004481006,"connected_time":171000000000,"state":"active","ping":98},{"user_id":223,"name":"Theodore Roosevelt","steam_id":76561197993295656,"connected_time":1044000000000,"state":"active","ping":42},{"user_id":144,"name":"GREG","steam_id":76561198073021168,"connected_time":6395000000000,"state":"active","ping":75},{"user_id":225,"name":"Karrot","steam_id":76561198058970903,"connected_time":1027000000000,"state":"active","ping":74},{"user_id":207,"name":"ItzFluffyex","steam_id":76561198289521685,"connected_time":2749000000000,"state":"active","ping":55},{"user_id":202,"name":"vdub63","steam_id":76561198093443689,"connected_time":3170000000000,"state":"active","ping":60},{"user_id":205,"name":"suns","steam_id":76561198079583278,"connected_time":3114000000000,"state":"active","ping":61},{"user_id":203,"name":"Technically Trajan","steam_id":76561198057374871,"connected_time":3165000000000,"state":"active","ping":63},{"user_id":219,"name":"Ducter","steam_id":76561198085369908,"connected_time":1069000000000,"state":"active","ping":56},{"user_id":235,"name":"Falleax","steam_id":76561198021154908,"connected_time":5000000000,"state":"spawning","ping":98},{"user_id":170,"name":"♥ Femboy♥Ventily ♥","steam_id":76561198157260335,"connected_time":5484000000000,"state":"active","ping":53},{"user_id":216,"name":"Pousm","steam_id":76561198272377335,"connected_time":1991000000000,"state":"active","ping":105},{"user_id":221,"name":"Ras","steam_id":76561198123546775,"connected_time":1069000000000,"state":"active","ping":61}]},{"server_id":106,"name":"Uncletopia | Chicago | 2 | All Maps","name_short":"chi-2","host":"chi-1.us.uncletopia.com","port":27025,"enabled":true,"region":"us-central","cc":"us","latitude":41.881832,"longitude":-87.62318,"reserved":0,"last_update":"0001-01-01T00:00:00Z","name_a2s":"Uncletopia | Chicago | 2 | All Maps","protocol":17,"map":"ctf_2fort","folder":"tf","game":"Team Fortress","app_id":440,"player_count":24,"max_players":24,"Bots":0,"server_type":"Dedicated","server_os":"Linux","password":true,"vac":true,"version":"7742253","steam_id":85568392924469985,"keywords":["ctf","nocrits","nodmgspread","uncletopia"],"game_id":440,"stv_port":27026,"stv_name":"Uncletopia | Chicago | 2 | All Maps | STV","players":[{"user_id":472,"name":"randomperson88","steam_id":76561199228822173,"connected_time":6083000000000,"state":"active","ping":46},{"user_id":508,"name":"PikaG10","steam_id":76561198179817077,"connected_time":2799000000000,"state":"active","ping":61},{"user_id":535,"name":"jamalbob33","steam_id":76561198410281331,"connected_time":235000000000,"state":"active","ping":90},{"user_id":540,"name":"Aerox","steam_id":76561198871081935,"connected_time":194000000000,"state":"active","ping":47},{"user_id":480,"name":"stevemarshall","steam_id":76561198405982285,"connected_time":4921000000000,"state":"active","ping":45},{"user_id":517,"name":"Stressmelo","steam_id":76561199204445185,"connected_time":2357000000000,"state":"active","ping":67},{"user_id":521,"name":"Porsy","steam_id":76561198041850843,"connected_time":2301000000000,"state":"active","ping":50},{"user_id":523,"name":"The Muffin Man","steam_id":76561198890389201,"connected_time":2202000000000,"state":"active","ping":83},{"user_id":515,"name":"Final_MarioXD","steam_id":76561199184862419,"connected_time":2521000000000,"state":"active","ping":82},{"user_id":543,"name":"troitsa","steam_id":76561198115461538,"connected_time":152000000000,"state":"active","ping":100},{"user_id":537,"name":"Quakedad","steam_id":76561198055811307,"connected_time":214000000000,"state":"active","ping":123},{"user_id":538,"name":"ME GUSTA BERSERK SOY GUTS!!!","steam_id":76561198039909187,"connected_time":209000000000,"state":"active","ping":40},{"user_id":527,"name":"Loosecannon33","steam_id":76561198068462331,"connected_time":2018000000000,"state":"active","ping":64},{"user_id":464,"name":"Le","steam_id":76561198817754233,"connected_time":6503000000000,"state":"active","ping":61},{"user_id":518,"name":"JettskiZ","steam_id":76561198379542044,"connected_time":2349000000000,"state":"active","ping":97},{"user_id":507,"name":"Binky Den","steam_id":76561198164035863,"connected_time":2813000000000,"state":"active","ping":59},{"user_id":532,"name":"DADDY ESCANOR","steam_id":76561198075102565,"connected_time":743000000000,"state":"active","ping":56},{"user_id":539,"name":"meatBALL sub lova 38 (meatball)","steam_id":76561198965781031,"connected_time":208000000000,"state":"active","ping":67},{"user_id":528,"name":"no","steam_id":76561198248853140,"connected_time":1828000000000,"state":"active","ping":49},{"user_id":541,"name":"Kindagoodplayer","steam_id":76561198814625843,"connected_time":173000000000,"state":"active","ping":64},{"user_id":519,"name":"MasterGeek.MX","steam_id":76561198063355220,"connected_time":2348000000000,"state":"active","ping":121},{"user_id":520,"name":"*literally heresy*","steam_id":76561198129718241,"connected_time":2328000000000,"state":"active","ping":76},{"user_id":545,"name":"SomeFuckingGuy","steam_id":76561199239165015,"connected_time":72000000000,"state":"active","ping":89},{"user_id":544,"name":"Seal","steam_id":76561197970204043,"connected_time":141000000000,"state":"active","ping":88}]},{"server_id":402,"name":"Uncletopia | Chicago | 3 | All Maps","name_short":"chi-3","host":"chi-1.us.uncletopia.com","port":27035,"enabled":true,"region":"us-central","cc":"us","latitude":41.881832,"longitude":-87.62318,"reserved":0,"last_update":"0001-01-01T00:00:00Z","name_a2s":"Uncletopia | Chicago | 3 | All Maps","protocol":17,"map":"pl_snowycoast","folder":"tf","game":"Team Fortress","app_id":440,"player_count":24,"max_players":24,"Bots":0,"server_type":"Dedicated","server_os":"Linux","password":true,"vac":true,"version":"7742253","steam_id":85568392924515191,"keywords":["nocrits","nodmgspread","payload","uncletopia"],"game_id":440,"stv_port":27036,"stv_name":"Uncletopia | Chicago | 3 | All Maps | STV","players":[{"user_id":414,"name":"hunky dory","steam_id":76561198030422254,"connected_time":586000000000,"state":"active","ping":91},{"user_id":413,"name":"loco503","steam_id":76561198827495121,"connected_time":764000000000,"state":"active","ping":105},{"user_id":371,"name":"YOU","steam_id":76561198068538473,"connected_time":3823000000000,"state":"active","ping":75},{"user_id":318,"name":"Winter the Witchie","steam_id":76561198151971178,"connected_time":6558000000000,"state":"active","ping":57},{"user_id":397,"name":"MasterJunk","steam_id":76561198126924678,"connected_time":2154000000000,"state":"active","ping":101},{"user_id":364,"name":"Filthy Acts at Reasonable Price","steam_id":76561198354615890,"connected_time":4381000000000,"state":"active","ping":93},{"user_id":225,"name":"177013","steam_id":76561198072303290,"connected_time":12890000000000,"state":"active","ping":54},{"user_id":403,"name":"They could be starlings","steam_id":76561198441020995,"connected_time":1513000000000,"state":"active","ping":103},{"user_id":338,"name":"Cleric","steam_id":76561198045887994,"connected_time":5917000000000,"state":"active","ping":47},{"user_id":415,"name":"SpookieTheSkeleton","steam_id":76561198191112263,"connected_time":312000000000,"state":"active","ping":51},{"user_id":395,"name":"King Cotton","steam_id":76561198292444376,"connected_time":2454000000000,"state":"active","ping":78},{"user_id":410,"name":"groond","steam_id":76561198309426720,"connected_time":1066000000000,"state":"active","ping":63},{"user_id":408,"name":"Dude Named Bob","steam_id":76561198310448093,"connected_time":1202000000000,"state":"active","ping":58},{"user_id":404,"name":"Adalwolfa","steam_id":76561198194671218,"connected_time":1509000000000,"state":"active","ping":59},{"user_id":409,"name":"TimTam Tom","steam_id":76561198045988062,"connected_time":1132000000000,"state":"active","ping":76},{"user_id":368,"name":"FACTS \u0026 LQGIC","steam_id":76561197995211570,"connected_time":4289000000000,"state":"active","ping":69},{"user_id":358,"name":"Vit","steam_id":76561198044101991,"connected_time":5127000000000,"state":"active","ping":41},{"user_id":369,"name":"The Non-Toxic Gamer","steam_id":76561198867788618,"connected_time":4229000000000,"state":"active","ping":75},{"user_id":374,"name":"Fluffeline","steam_id":76561198352909489,"connected_time":3803000000000,"state":"active","ping":146},{"user_id":405,"name":"Bear™","steam_id":76561198151566207,"connected_time":1506000000000,"state":"active","ping":162},{"user_id":375,"name":"Twan","steam_id":76561197991064908,"connected_time":3770000000000,"state":"active","ping":71},{"user_id":282,"name":"MR.meeseeks","steam_id":76561198294943420,"connected_time":8224000000000,"state":"active","ping":75},{"user_id":412,"name":"Rornir","steam_id":76561198081829615,"connected_time":925000000000,"state":"active","ping":38},{"user_id":407,"name":"Totally_faraam","steam_id":76561199230162663,"connected_time":1342000000000,"state":"active","ping":77}]},{"server_id":403,"name":"Uncletopia | Chicago | 4 | All Maps","name_short":"chi-4","host":"chi-1.us.uncletopia.com","port":27045,"enabled":true,"region":"us-central","cc":"us","latitude":41.881832,"longitude":-87.62318,"reserved":0,"last_update":"0001-01-01T00:00:00Z","name_a2s":"Uncletopia | Chicago | 4 | All Maps","protocol":17,"map":"cp_snakewater_final1","folder":"tf","game":"Team Fortress","app_id":440,"player_count":22,"max_players":24,"Bots":0,"server_type":"Dedicated","server_os":"Linux","password":true,"vac":true,"version":"7742253","steam_id":85568392924515193,"keywords":["cp","nocrits","nodmgspread","uncletopia"],"game_id":440,"stv_port":27046,"stv_name":"Uncletopia | Chicago | 4 | All Maps | STV","players":[{"user_id":159,"name":"three three","steam_id":76561198177354155,"connected_time":1457000000000,"state":"active","ping":45},{"user_id":193,"name":"breakfast","steam_id":76561198043712978,"connected_time":25000000000,"state":"active","ping":105},{"user_id":151,"name":"The Fortress From Team Fortress","steam_id":76561198081422503,"connected_time":2174000000000,"state":"active","ping":69},{"user_id":188,"name":"Joan The Kisaragi Cat","steam_id":76561199370650064,"connected_time":264000000000,"state":"active","ping":293},{"user_id":182,"name":"Tiny Tektite","steam_id":76561198059853011,"connected_time":451000000000,"state":"active","ping":63},{"user_id":127,"name":"Super Noob","steam_id":76561199179611350,"connected_time":3122000000000,"state":"active","ping":53},{"user_id":189,"name":"tortoise","steam_id":76561198161809306,"connected_time":260000000000,"state":"active","ping":65},{"user_id":134,"name":"Nic0","steam_id":76561198305690218,"connected_time":3004000000000,"state":"active","ping":65},{"user_id":192,"name":"SuperFresh","steam_id":76561198200723198,"connected_time":157000000000,"state":"active","ping":50},{"user_id":172,"name":"caption cool","steam_id":76561197990612056,"connected_time":998000000000,"state":"active","ping":50},{"user_id":173,"name":"Ibrahim","steam_id":76561198028320625,"connected_time":996000000000,"state":"active","ping":60},{"user_id":131,"name":"Ⓑ⓪⓪ⓣⓨⓒⓐⓚⓔⓢ","steam_id":76561198088776421,"connected_time":3046000000000,"state":"active","ping":60},{"user_id":132,"name":"Sink","steam_id":76561198192420249,"connected_time":3046000000000,"state":"active","ping":52},{"user_id":183,"name":"Yarn","steam_id":76561199227148369,"connected_time":444000000000,"state":"active","ping":93},{"user_id":185,"name":"Money Collector","steam_id":76561198046249467,"connected_time":431000000000,"state":"active","ping":47},{"user_id":136,"name":"RyanDCB [Real]","steam_id":76561198040138739,"connected_time":2998000000000,"state":"active","ping":59},{"user_id":191,"name":"e","steam_id":76561198131245396,"connected_time":223000000000,"state":"active","ping":64},{"user_id":87,"name":"rude boi","steam_id":76561198006783260,"connected_time":6885000000000,"state":"active","ping":60},{"user_id":82,"name":"Weshmek","steam_id":76561198009950743,"connected_time":7312000000000,"state":"active","ping":62},{"user_id":174,"name":"Zwendel787","steam_id":76561198353523396,"connected_time":887000000000,"state":"active","ping":72},{"user_id":141,"name":"G0nard","steam_id":76561198010922454,"connected_time":2937000000000,"state":"active","ping":67},{"user_id":186,"name":"Rhewllyd","steam_id":76561198081993213,"connected_time":427000000000,"state":"active","ping":61}]},{"server_id":36,"name":"Uncletopia | Chicago | 5 | All Maps","name_short":"chi-5","host":"chi-2.us.uncletopia.com","port":27015,"enabled":true,"region":"us-central","cc":"us","latitude":41.881832,"longitude":-87.62318,"reserved":0,"last_update":"0001-01-01T00:00:00Z","name_a2s":"Uncletopia | Chicago | 5 | All Maps","protocol":17,"map":"pl_snowycoast","folder":"tf","game":"Team Fortress","app_id":440,"player_count":24,"max_players":24,"Bots":0,"server_type":"Dedicated","server_os":"Linux","password":true,"vac":true,"version":"7742253","steam_id":85568392924866362,"keywords":["nocrits","nodmgspread","payload","uncletopia"],"game_id":440,"stv_port":27016,"stv_name":"Uncletopia | Chicago | 5 | All Maps | STV","players":[{"user_id":327,"name":"ShitsandGiggles™","steam_id":76561198058708019,"connected_time":5935000000000,"state":"active","ping":50},{"user_id":370,"name":"stale bread boi","steam_id":76561198879238698,"connected_time":1264000000000,"state":"active","ping":53},{"user_id":339,"name":"daxter4hire","steam_id":76561198250722116,"connected_time":4955000000000,"state":"active","ping":66},{"user_id":362,"name":"cjip","steam_id":76561198261703372,"connected_time":2637000000000,"state":"active","ping":101},{"user_id":307,"name":"Vladikr1","steam_id":76561198401495362,"connected_time":7093000000000,"state":"active","ping":51},{"user_id":371,"name":"Psychosis","steam_id":76561198078659070,"connected_time":1262000000000,"state":"active","ping":92},{"user_id":380,"name":"Toygar","steam_id":76561198023679830,"connected_time":791000000000,"state":"active","ping":74},{"user_id":378,"name":"Abomination","steam_id":76561198167974713,"connected_time":1106000000000,"state":"active","ping":73},{"user_id":385,"name":"stop","steam_id":76561198268686419,"connected_time":139000000000,"state":"active","ping":59},{"user_id":310,"name":"average bling bling boy fan","steam_id":76561198198904457,"connected_time":7042000000000,"state":"active","ping":75},{"user_id":256,"name":"--_Cook_--","steam_id":76561198080855748,"connected_time":8487000000000,"state":"active","ping":76},{"user_id":311,"name":"Prepnoodles","steam_id":76561198254033291,"connected_time":7032000000000,"state":"active","ping":80},{"user_id":375,"name":"Soju","steam_id":76561198044130442,"connected_time":1156000000000,"state":"active","ping":67},{"user_id":376,"name":"Huntpk","steam_id":76561198340591674,"connected_time":1150000000000,"state":"active","ping":40},{"user_id":340,"name":"The Box Guy","steam_id":76561198176143711,"connected_time":4311000000000,"state":"active","ping":73},{"user_id":383,"name":"Gingersmurf","steam_id":76561198050313997,"connected_time":641000000000,"state":"active","ping":53},{"user_id":377,"name":"ꜱᴋʏᴇ","steam_id":76561198024477688,"connected_time":1143000000000,"state":"active","ping":62},{"user_id":318,"name":"chazsausage","steam_id":76561198047622343,"connected_time":6898000000000,"state":"active","ping":55},{"user_id":369,"name":"Tick","steam_id":76561198184161214,"connected_time":1562000000000,"state":"active","ping":45},{"user_id":384,"name":"Obamacare","steam_id":76561198018894553,"connected_time":231000000000,"state":"active","ping":87},{"user_id":361,"name":"Kommandant Milchshake","steam_id":76561198172569727,"connected_time":2801000000000,"state":"active","ping":75},{"user_id":358,"name":"Adam (Cursed Confetti Creature)","steam_id":76561198317690197,"connected_time":3355000000000,"state":"active","ping":47},{"user_id":386,"name":"Malaflub_55","steam_id":76561199112453790,"connected_time":116000000000,"state":"active","ping":60},{"user_id":359,"name":"Chrisscar","steam_id":76561198086298130,"connected_time":3352000000000,"state":"active","ping":105}]},{"server_id":37,"name":"Uncletopia | Chicago | 6 | All Maps","name_short":"chi-6","host":"chi-2.us.uncletopia.com","port":27025,"enabled":true,"region":"us-central","cc":"us","latitude":41.881832,"longitude":-87.62318,"reserved":0,"last_update":"0001-01-01T00:00:00Z","name_a2s":"Uncletopia | Chicago | 6 | All Maps","protocol":17,"map":"pl_badwater","folder":"tf","game":"Team Fortress","app_id":440,"player_count":24,"max_players":24,"Bots":0,"server_type":"Dedicated","server_os":"Linux","password":true,"vac":true,"version":"7742253","steam_id":85568392924866363,"keywords":["nocrits","nodmgspread","payload","uncletopia"],"game_id":440,"stv_port":27026,"stv_name":"Uncletopia | Chicago | 6 | All Maps | STV","players":[{"user_id":427,"name":"Billybob7712","steam_id":76561199000291076,"connected_time":5510000000000,"state":"active","ping":111},{"user_id":502,"name":"mintongryphon","steam_id":76561199427146067,"connected_time":954000000000,"state":"active","ping":70},{"user_id":508,"name":"RainbowTopHat76","steam_id":76561199047090455,"connected_time":357000000000,"state":"active","ping":84},{"user_id":485,"name":"lwyr","steam_id":76561198007982579,"connected_time":2046000000000,"state":"active","ping":58},{"user_id":486,"name":"Incomprehensible Gibberish","steam_id":76561198967650769,"connected_time":2046000000000,"state":"active","ping":86},{"user_id":478,"name":"the goop slinger","steam_id":76561198271710504,"connected_time":2726000000000,"state":"active","ping":49},{"user_id":505,"name":"wezeer","steam_id":76561198407577922,"connected_time":548000000000,"state":"active","ping":57},{"user_id":506,"name":"Level 1 Crook","steam_id":76561198441098132,"connected_time":525000000000,"state":"active","ping":56},{"user_id":457,"name":"Blue Collar","steam_id":76561198354781722,"connected_time":3934000000000,"state":"active","ping":94},{"user_id":384,"name":"Slug Johnson","steam_id":76561198062402220,"connected_time":9334000000000,"state":"active","ping":77},{"user_id":509,"name":"Theory-ZaZa","steam_id":76561198116419931,"connected_time":326000000000,"state":"active","ping":109},{"user_id":456,"name":"pencilneck","steam_id":76561198865971290,"connected_time":3982000000000,"state":"active","ping":94},{"user_id":483,"name":"火星 | Marsy","steam_id":76561198014979892,"connected_time":2179000000000,"state":"active","ping":78},{"user_id":488,"name":"totally not a pile of beans","steam_id":76561198119851931,"connected_time":2009000000000,"state":"active","ping":81},{"user_id":399,"name":"Master Of Whales","steam_id":76561198349104889,"connected_time":8076000000000,"state":"active","ping":99},{"user_id":511,"name":"frank","steam_id":76561198045436159,"connected_time":323000000000,"state":"active","ping":70},{"user_id":489,"name":"ReggieTheIdiot","steam_id":76561198288168746,"connected_time":2006000000000,"state":"active","ping":71},{"user_id":512,"name":"smack","steam_id":76561198802174727,"connected_time":306000000000,"state":"active","ping":65},{"user_id":465,"name":"Pepsi-Man","steam_id":76561198052061790,"connected_time":3849000000000,"state":"active","ping":66},{"user_id":477,"name":"DeckofDragons","steam_id":76561198057398213,"connected_time":2748000000000,"state":"active","ping":71},{"user_id":503,"name":"Cdesmondd","steam_id":76561198072774462,"connected_time":631000000000,"state":"active","ping":55},{"user_id":515,"name":"themankeys","steam_id":76561198149339536,"connected_time":244000000000,"state":"active","ping":58},{"user_id":514,"name":"bobbyreinman2009","steam_id":76561198804763186,"connected_time":287000000000,"state":"active","ping":63},{"user_id":516,"name":"floom","steam_id":76561198387571809,"connected_time":6000000000,"state":"spawning","ping":89}]},{"server_id":38,"name":"Uncletopia | Chicago | 7 | Stopwatch Beta","name_short":"chi-7","host":"chi-2.us.uncletopia.com","port":27035,"enabled":true,"region":"us-central","cc":"us","latitude":41.881832,"longitude":-87.62318,"reserved":0,"last_update":"0001-01-01T00:00:00Z","name_a2s":"Uncletopia | Chicago | 7 | Stopwatch Beta","protocol":17,"map":"workshop/koth_product_final.ugc454272353","folder":"tf","game":"Team Fortress","app_id":440,"player_count":0,"max_players":24,"Bots":0,"server_type":"Dedicated","server_os":"Linux","password":true,"vac":true,"version":"7742253","steam_id":85568392924866364,"keywords":["cp","nocrits","nodmgspread","uncletopia"],"game_id":440,"stv_port":27036,"stv_name":"Uncletopia | Chicago | 7 | Stopwatch Beta | STV","players":null},{"server_id":39,"name":"Uncletopia | Chicago | 8 | Community","name_short":"chi-8","host":"chi-2.us.uncletopia.com","port":27045,"enabled":true,"region":"us-central","cc":"us","latitude":41.881832,"longitude":-87.62318,"reserved":0,"last_update":"0001-01-01T00:00:00Z","name_a2s":"Uncletopia | Chicago | 8 | Community","protocol":17,"map":"koth_lakeside_final","folder":"tf","game":"Team Fortress","app_id":440,"player_count":0,"max_players":24,"Bots":0,"server_type":"Dedicated","server_os":"Linux","password":true,"vac":true,"version":"7742253","steam_id":85568392924866365,"keywords":["cp","nocrits","nodmgspread","uncletopia"],"game_id":440,"stv_port":27046,"stv_name":"Uncletopia | Chicago | 8 | Community | STV","players":null},{"server_id":8,"name":"Uncletopia | Dallas | 1 | All Maps","name_short":"dal-1","host":"dal-1.us.uncletopia.com","port":27015,"enabled":true,"region":"us-central","cc":"us","latitude":32.779167,"longitude":-96.80889,"reserved":0,"last_update":"0001-01-01T00:00:00Z","name_a2s":"Uncletopia | Dallas | 1 | All Maps","protocol":17,"map":"cp_sunshine","folder":"tf","game":"Team Fortress","app_id":440,"player_count":24,"max_players":24,"Bots":0,"server_type":"Dedicated","server_os":"Linux","password":true,"vac":true,"version":"7742253","steam_id":85568392924469986,"keywords":["cp","nocrits","nodmgspread","uncletopia"],"game_id":440,"stv_port":27016,"stv_name":"Uncletopia | Dallas | 1 | All Maps | STV","players":[{"user_id":292,"name":"Toxic Medic Main","steam_id":76561198009314845,"connected_time":1233000000000,"state":"active","ping":63},{"user_id":304,"name":"lag","steam_id":76561197963872739,"connected_time":285000000000,"state":"active","ping":70},{"user_id":228,"name":"crumbles","steam_id":76561198168707036,"connected_time":4620000000000,"state":"active","ping":88},{"user_id":301,"name":"Frost","steam_id":76561198272014381,"connected_time":432000000000,"state":"active","ping":80},{"user_id":275,"name":"The Squid Gamer™","steam_id":76561198340621517,"connected_time":2173000000000,"state":"active","ping":90},{"user_id":280,"name":"Krow","steam_id":76561198010392099,"connected_time":1693000000000,"state":"active","ping":58},{"user_id":300,"name":"Lord Heeb","steam_id":76561197974493959,"connected_time":715000000000,"state":"active","ping":84},{"user_id":294,"name":"Detective Pikachu","steam_id":76561198078998422,"connected_time":1193000000000,"state":"active","ping":104},{"user_id":212,"name":"BuhByeFalecia","steam_id":76561198364710587,"connected_time":6059000000000,"state":"active","ping":95},{"user_id":290,"name":"Red","steam_id":76561197998285162,"connected_time":1366000000000,"state":"active","ping":87},{"user_id":286,"name":"Rhutebeer","steam_id":76561198018302761,"connected_time":1469000000000,"state":"active","ping":82},{"user_id":296,"name":"cilo","steam_id":76561198046163502,"connected_time":942000000000,"state":"active","ping":60},{"user_id":273,"name":"Midgeotto","steam_id":76561198885495596,"connected_time":2462000000000,"state":"active","ping":126},{"user_id":257,"name":"G. Howard Dee","steam_id":76561198058382812,"connected_time":3646000000000,"state":"active","ping":64},{"user_id":298,"name":"ryan","steam_id":76561198083851689,"connected_time":908000000000,"state":"active","ping":35},{"user_id":287,"name":"omg","steam_id":76561198108685037,"connected_time":1452000000000,"state":"active","ping":69},{"user_id":305,"name":"ChipperGunslinger","steam_id":76561199100483140,"connected_time":42000000000,"state":"spawning","ping":84},{"user_id":266,"name":"limegrass619","steam_id":76561198167789909,"connected_time":3352000000000,"state":"active","ping":86},{"user_id":303,"name":"Artistic","steam_id":76561198118159566,"connected_time":364000000000,"state":"active","ping":79},{"user_id":284,"name":"Caruso","steam_id":76561198053340414,"connected_time":1478000000000,"state":"active","ping":65},{"user_id":285,"name":"John16Mark","steam_id":76561198119445407,"connected_time":1470000000000,"state":"active","ping":62},{"user_id":302,"name":"TrashVortex","steam_id":76561199229200288,"connected_time":392000000000,"state":"active","ping":61},{"user_id":157,"name":"Moonflower ✦","steam_id":76561198191782483,"connected_time":9590000000000,"state":"active","ping":63},{"user_id":291,"name":"Samsiel","steam_id":76561198094134951,"connected_time":1346000000000,"state":"active","ping":94}]},{"server_id":108,"name":"Uncletopia | Dallas | 2 | All Maps","name_short":"dal-2","host":"dal-1.us.uncletopia.com","port":27025,"enabled":true,"region":"us-central","cc":"us","latitude":32.779167,"longitude":-96.80889,"reserved":0,"last_update":"0001-01-01T00:00:00Z","name_a2s":"Uncletopia | Dallas | 2 | All Maps","protocol":17,"map":"pl_snowycoast","folder":"tf","game":"Team Fortress","app_id":440,"player_count":24,"max_players":24,"Bots":0,"server_type":"Dedicated","server_os":"Linux","password":true,"vac":true,"version":"7742253","steam_id":85568392924469988,"keywords":["nocrits","nodmgspread","payload","uncletopia"],"game_id":440,"stv_port":27026,"stv_name":"Uncletopia | Dallas | 2 | All Maps | STV","players":[{"user_id":82,"name":"Too Sexy (Oh Yeah)","steam_id":76561198367439523,"connected_time":687000000000,"state":"active","ping":77},{"user_id":63,"name":"uncle barry","steam_id":76561199125982967,"connected_time":1656000000000,"state":"active","ping":90},{"user_id":77,"name":"plastiquemonk","steam_id":76561198126035719,"connected_time":1206000000000,"state":"active","ping":76},{"user_id":87,"name":"dresh","steam_id":76561198028321347,"connected_time":380000000000,"state":"active","ping":177},{"user_id":88,"name":"Esther","steam_id":76561198163120788,"connected_time":374000000000,"state":"active","ping":71},{"user_id":55,"name":"Epicpie11","steam_id":76561198156707703,"connected_time":2873000000000,"state":"active","ping":59},{"user_id":23,"name":"Feel the bern","steam_id":76561198078824519,"connected_time":3997000000000,"state":"active","ping":76},{"user_id":48,"name":"HanakoToast","steam_id":76561198045233131,"connected_time":3282000000000,"state":"active","ping":76},{"user_id":92,"name":"Jack from Jack in The Box","steam_id":76561199083594971,"connected_time":26000000000,"state":"active","ping":69},{"user_id":89,"name":"The Hoagie Hero","steam_id":76561198057569298,"connected_time":369000000000,"state":"active","ping":115},{"user_id":72,"name":"Owen","steam_id":76561198025446908,"connected_time":1415000000000,"state":"active","ping":85},{"user_id":73,"name":"Subxo","steam_id":76561198341198154,"connected_time":1401000000000,"state":"active","ping":90},{"user_id":85,"name":"Flying Emu","steam_id":76561198121632924,"connected_time":417000000000,"state":"active","ping":48},{"user_id":86,"name":"bear","steam_id":76561198313696546,"connected_time":413000000000,"state":"active","ping":90},{"user_id":90,"name":"angong","steam_id":76561198401712305,"connected_time":364000000000,"state":"active","ping":87},{"user_id":61,"name":"minion from minions","steam_id":76561199001464827,"connected_time":1735000000000,"state":"active","ping":70},{"user_id":36,"name":"rainingmudkips","steam_id":76561198018010854,"connected_time":3584000000000,"state":"active","ping":91},{"user_id":78,"name":"vinta","steam_id":76561198078562885,"connected_time":1165000000000,"state":"active","ping":71},{"user_id":80,"name":"||:♩♩♩♪:|| Opplydead","steam_id":76561198028630334,"connected_time":1057000000000,"state":"active","ping":75},{"user_id":68,"name":"Sone","steam_id":76561198069601032,"connected_time":1564000000000,"state":"active","ping":100},{"user_id":91,"name":"SekksualJackal","steam_id":76561198079243835,"connected_time":361000000000,"state":"active","ping":93},{"user_id":84,"name":"Sparse","steam_id":76561198865084441,"connected_time":642000000000,"state":"active","ping":53},{"user_id":70,"name":"joethefool","steam_id":76561199015436319,"connected_time":1559000000000,"state":"active","ping":96},{"user_id":71,"name":"Crackhead","steam_id":76561198883918047,"connected_time":1494000000000,"state":"active","ping":109}]},{"server_id":5,"name":"Uncletopia | Frankfurt | 1 | All Maps","name_short":"frk-1","host":"frk-1.de.uncletopia.com","port":27015,"enabled":true,"region":"eu","cc":"de","latitude":50.110924,"longitude":8.682127,"reserved":0,"last_update":"0001-01-01T00:00:00Z","name_a2s":"Uncletopia | Frankfurt | 1 | All Maps","protocol":17,"map":"pl_goldrush","folder":"tf","game":"Team Fortress","app_id":440,"player_count":23,"max_players":24,"Bots":0,"server_type":"Dedicated","server_os":"Linux","password":true,"vac":true,"version":"7742253","steam_id":85568392924469989,"keywords":["nocrits","nodmgspread","payload","uncletopia"],"game_id":440,"stv_port":27016,"stv_name":"Uncletopia | Frankfurt | 1 | All Maps | STV","players":[{"user_id":751,"name":"Salih","steam_id":76561198287934839,"connected_time":1613000000000,"state":"active","ping":53},{"user_id":780,"name":"Dolphin2011","steam_id":76561197997323419,"connected_time":712000000000,"state":"active","ping":90},{"user_id":787,"name":"Alexei","steam_id":76561197987169026,"connected_time":534000000000,"state":"active","ping":61},{"user_id":778,"name":"super idol的笑容都没你的","steam_id":76561198103181033,"connected_time":777000000000,"state":"active","ping":61},{"user_id":735,"name":"Michał","steam_id":76561198320346362,"connected_time":3738000000000,"state":"active","ping":60},{"user_id":777,"name":"wilhelmbenjamin064","steam_id":76561199466027654,"connected_time":800000000000,"state":"active","ping":72},{"user_id":661,"name":"Keelan","steam_id":76561198013665543,"connected_time":7626000000000,"state":"active","ping":75},{"user_id":779,"name":"Dubious Little Creature","steam_id":76561198167986695,"connected_time":715000000000,"state":"active","ping":47},{"user_id":782,"name":"ThatGuyHarvey","steam_id":76561198113776826,"connected_time":659000000000,"state":"active","ping":64},{"user_id":755,"name":"Joe mama","steam_id":76561198806718750,"connected_time":1476000000000,"state":"active","ping":61},{"user_id":783,"name":"vietnam","steam_id":76561199214237088,"connected_time":653000000000,"state":"active","ping":46},{"user_id":744,"name":"cyde","steam_id":76561198257786254,"connected_time":2165000000000,"state":"active","ping":87},{"user_id":791,"name":"alma","steam_id":76561198857712172,"connected_time":31000000000,"state":"active","ping":60},{"user_id":785,"name":"Rex","steam_id":76561199032874487,"connected_time":602000000000,"state":"active","ping":51},{"user_id":737,"name":"Eep","steam_id":76561198356840051,"connected_time":3615000000000,"state":"active","ping":78},{"user_id":738,"name":"Scuutte","steam_id":76561198105496293,"connected_time":3314000000000,"state":"active","ping":75},{"user_id":771,"name":"MomoInTheBox","steam_id":76561197994150695,"connected_time":941000000000,"state":"active","ping":78},{"user_id":740,"name":"「◆Raku• 」","steam_id":76561198059283183,"connected_time":2776000000000,"state":"active","ping":78},{"user_id":761,"name":"GazerBazer","steam_id":76561198879107565,"connected_time":1438000000000,"state":"active","ping":64},{"user_id":763,"name":"Abdirahim","steam_id":76561198050369473,"connected_time":1426000000000,"state":"active","ping":57},{"user_id":765,"name":"Mini-Khabib","steam_id":76561198058310970,"connected_time":1406000000000,"state":"active","ping":68},{"user_id":790,"name":"Malabar","steam_id":76561198026857959,"connected_time":161000000000,"state":"active","ping":64},{"user_id":745,"name":"MAKENTAKEN","steam_id":76561199127359587,"connected_time":2164000000000,"state":"active","ping":98}]},{"server_id":110,"name":"Uncletopia | Frankfurt | 2 | All Maps","name_short":"frk-2","host":"frk-1.de.uncletopia.com","port":27025,"enabled":true,"region":"eu","cc":"de","latitude":50.110924,"longitude":8.682127,"reserved":0,"last_update":"0001-01-01T00:00:00Z","name_a2s":"Uncletopia | Frankfurt | 2 | All Maps","protocol":17,"map":"cp_process_final","folder":"tf","game":"Team Fortress","app_id":440,"player_count":0,"max_players":24,"Bots":0,"server_type":"Dedicated","server_os":"Linux","password":true,"vac":true,"version":"7742253","steam_id":85568392924469990,"keywords":["cp","nocrits","nodmgspread","uncletopia"],"game_id":440,"stv_port":27026,"stv_name":"Uncletopia | Frankfurt | 2 | All Maps | STV","players":null},{"server_id":308,"name":"Uncletopia | Frankfurt | 3 | All Maps","name_short":"frk-3","host":"frk-1.de.uncletopia.com","port":27035,"enabled":true,"region":"eu","cc":"de","latitude":50.110924,"longitude":8.682127,"reserved":0,"last_update":"0001-01-01T00:00:00Z","name_a2s":"Uncletopia | Frankfurt | 3 | All Maps","protocol":17,"map":"koth_highpass","folder":"tf","game":"Team Fortress","app_id":440,"player_count":24,"max_players":24,"Bots":0,"server_type":"Dedicated","server_os":"Linux","password":true,"vac":true,"version":"7742253","steam_id":85568392924504274,"keywords":["cp","nocrits","nodmgspread","uncletopia"],"game_id":440,"stv_port":27036,"stv_name":"Uncletopia | Frankfurt | 3 | All Maps | STV","players":[{"user_id":504,"name":"Goliath","steam_id":76561198088583638,"connected_time":4446000000000,"state":"active","ping":46},{"user_id":544,"name":"IKARUS","steam_id":76561198850898422,"connected_time":2331000000000,"state":"active","ping":59},{"user_id":577,"name":"Rumblers","steam_id":76561198342993279,"connected_time":330000000000,"state":"active","ping":92},{"user_id":524,"name":"Dinges360","steam_id":76561198042032834,"connected_time":3736000000000,"state":"active","ping":46},{"user_id":570,"name":"xepnfogon","steam_id":76561198107127340,"connected_time":594000000000,"state":"active","ping":60},{"user_id":540,"name":"ViciousVinnyD","steam_id":76561198053822329,"connected_time":2566000000000,"state":"active","ping":62},{"user_id":509,"name":"MrPOW","steam_id":76561197978597654,"connected_time":4191000000000,"state":"active","ping":55},{"user_id":519,"name":"EchoBN","steam_id":76561198287127380,"connected_time":3947000000000,"state":"active","ping":61},{"user_id":554,"name":"Filleman","steam_id":76561198159386946,"connected_time":1826000000000,"state":"active","ping":55},{"user_id":580,"name":"Dicktator","steam_id":76561198042196910,"connected_time":304000000000,"state":"active","ping":55},{"user_id":585,"name":"pizzahawaiiEnjoyerwithbigdick","steam_id":76561198079752629,"connected_time":179000000000,"state":"active","ping":70},{"user_id":567,"name":"paprika","steam_id":76561198029771708,"connected_time":674000000000,"state":"active","ping":65},{"user_id":586,"name":"paguro","steam_id":76561198119560871,"connected_time":179000000000,"state":"active","ping":74},{"user_id":576,"name":"high priest","steam_id":76561198344887031,"connected_time":366000000000,"state":"active","ping":60},{"user_id":528,"name":"The Wolf Leader","steam_id":76561198038007462,"connected_time":3549000000000,"state":"active","ping":62},{"user_id":571,"name":"Saint","steam_id":76561198303326214,"connected_time":590000000000,"state":"active","ping":75},{"user_id":572,"name":"Darconnoisseur","steam_id":76561198007618821,"connected_time":569000000000,"state":"active","ping":81},{"user_id":588,"name":"f0x","steam_id":76561198072921704,"connected_time":92000000000,"state":"active","ping":65},{"user_id":573,"name":"viktor","steam_id":76561198153583735,"connected_time":516000000000,"state":"active","ping":97},{"user_id":574,"name":"SoulDipper","steam_id":76561199099298530,"connected_time":486000000000,"state":"active","ping":153},{"user_id":579,"name":"nixonic123","steam_id":76561198868320600,"connected_time":324000000000,"state":"active","ping":72},{"user_id":516,"name":"a sticky situation","steam_id":76561198011692496,"connected_time":4002000000000,"state":"active","ping":63},{"user_id":581,"name":"M J Daniell","steam_id":76561198246739302,"connected_time":292000000000,"state":"active","ping":216},{"user_id":582,"name":"Stinker_05","steam_id":76561198058320327,"connected_time":291000000000,"state":"active","ping":90}]},{"server_id":309,"name":"Uncletopia | Frankfurt | 4 | All Maps","name_short":"frk-4","host":"frk-1.de.uncletopia.com","port":27045,"enabled":true,"region":"eu","cc":"de","latitude":50.110924,"longitude":8.682127,"reserved":0,"last_update":"0001-01-01T00:00:00Z","name_a2s":"Uncletopia | Frankfurt | 4 | All Maps","protocol":17,"map":"pl_borneo","folder":"tf","game":"Team Fortress","app_id":440,"player_count":6,"max_players":24,"Bots":0,"server_type":"Dedicated","server_os":"Linux","password":true,"vac":true,"version":"7742253","steam_id":85568392924504275,"keywords":["nocrits","nodmgspread","payload","uncletopia"],"game_id":440,"stv_port":27046,"stv_name":"Uncletopia | Frankfurt | 4 | All Maps | STV","players":[{"user_id":566,"name":"Frank","steam_id":76561198086672774,"connected_time":547000000000,"state":"active","ping":47},{"user_id":561,"name":"IKERIUS","steam_id":76561198274164589,"connected_time":789000000000,"state":"active","ping":46},{"user_id":564,"name":"root beer enjoyer","steam_id":76561198061448925,"connected_time":712000000000,"state":"active","ping":68},{"user_id":565,"name":"Redz","steam_id":76561198145707214,"connected_time":710000000000,"state":"active","ping":144},{"user_id":572,"name":"CK","steam_id":76561199025946948,"connected_time":96000000000,"state":"active","ping":142},{"user_id":567,"name":"Idiot (real)","steam_id":76561199130181622,"connected_time":398000000000,"state":"active","ping":135}]},{"server_id":310,"name":"Uncletopia | Frankfurt | 5 | All Maps","name_short":"frk-5","host":"frk-1.de.uncletopia.com","port":27055,"enabled":true,"region":"eu","cc":"de","latitude":50.110924,"longitude":8.682127,"reserved":0,"last_update":"0001-01-01T00:00:00Z","name_a2s":"Uncletopia | Frankfurt | 5 | All Maps","protocol":17,"map":"cp_process_final","folder":"tf","game":"Team Fortress","app_id":440,"player_count":24,"max_players":24,"Bots":0,"server_type":"Dedicated","server_os":"Linux","password":true,"vac":true,"version":"7742253","steam_id":85568392924504277,"keywords":["cp","nocrits","nodmgspread","uncletopia"],"game_id":440,"stv_port":27056,"stv_name":"Uncletopia | Frankfurt | 5 | All Maps | STV","players":[{"user_id":635,"name":"Makoto","steam_id":76561198018624840,"connected_time":1381000000000,"state":"active","ping":64},{"user_id":648,"name":"Sylbar","steam_id":76561198065379590,"connected_time":696000000000,"state":"active","ping":61},{"user_id":638,"name":"light brandon","steam_id":76561198272804994,"connected_time":1306000000000,"state":"active","ping":83},{"user_id":653,"name":"Frazzle","steam_id":76561198262577951,"connected_time":263000000000,"state":"active","ping":68},{"user_id":633,"name":"o_o","steam_id":76561198113045011,"connected_time":1429000000000,"state":"active","ping":88},{"user_id":646,"name":"Aydin Channel","steam_id":76561198138031624,"connected_time":987000000000,"state":"active","ping":120},{"user_id":608,"name":"JC","steam_id":76561198029213352,"connected_time":2814000000000,"state":"active","ping":58},{"user_id":609,"name":"RollerMobster","steam_id":76561197993508562,"connected_time":2809000000000,"state":"active","ping":64},{"user_id":637,"name":"ricorno","steam_id":76561199441603388,"connected_time":1327000000000,"state":"active","ping":81},{"user_id":650,"name":"cereals","steam_id":76561198058656179,"connected_time":478000000000,"state":"active","ping":59},{"user_id":651,"name":"Cosmetic brain","steam_id":76561198055936410,"connected_time":477000000000,"state":"active","ping":88},{"user_id":654,"name":"Johnny","steam_id":76561198880265246,"connected_time":224000000000,"state":"active","ping":81},{"user_id":641,"name":"THE WI5E IDIOT","steam_id":76561199221005056,"connected_time":1209000000000,"state":"active","ping":130},{"user_id":649,"name":"Mavrick","steam_id":76561198096066778,"connected_time":560000000000,"state":"active","ping":68},{"user_id":642,"name":"MrBeast Official","steam_id":76561198081369150,"connected_time":1176000000000,"state":"active","ping":95},{"user_id":643,"name":"tikitaki","steam_id":76561199154384606,"connected_time":1143000000000,"state":"active","ping":72},{"user_id":548,"name":"Sneakykindaham","steam_id":76561198158743287,"connected_time":8343000000000,"state":"active","ping":60},{"user_id":644,"name":"BurntBrioche","steam_id":76561199134307289,"connected_time":1104000000000,"state":"active","ping":158},{"user_id":627,"name":"JOÃO MIGUEL","steam_id":76561198066297489,"connected_time":2021000000000,"state":"active","ping":76},{"user_id":597,"name":"etc","steam_id":76561197998394797,"connected_time":3570000000000,"state":"active","ping":56},{"user_id":645,"name":"coffee","steam_id":76561198382387303,"connected_time":1097000000000,"state":"active","ping":77},{"user_id":583,"name":"Alienketchup","steam_id":76561197970585162,"connected_time":4492000000000,"state":"active","ping":78},{"user_id":652,"name":"obscure","steam_id":76561198119532381,"connected_time":418000000000,"state":"active","ping":60},{"user_id":619,"name":"toothpaste vaper","steam_id":76561198078458780,"connected_time":2534000000000,"state":"active","ping":49}]},{"server_id":311,"name":"Uncletopia | Frankfurt | 6 | All Maps","name_short":"frk-6","host":"frk-1.de.uncletopia.com","port":27065,"enabled":true,"region":"eu","cc":"de","latitude":50.110924,"longitude":8.682127,"reserved":0,"last_update":"0001-01-01T00:00:00Z","name_a2s":"Uncletopia | Frankfurt | 6 | All Maps","protocol":17,"map":"pl_swiftwater_final1","folder":"tf","game":"Team Fortress","app_id":440,"player_count":24,"max_players":24,"Bots":0,"server_type":"Dedicated","server_os":"Linux","password":true,"vac":true,"version":"7742253","steam_id":85568392924504278,"keywords":["nocrits","nodmgspread","payload","uncletopia"],"game_id":440,"stv_port":27066,"stv_name":"Uncletopia | Frankfurt | 6 | All Maps | STV","players":[{"user_id":416,"name":"Finn","steam_id":76561198179960193,"connected_time":368000000000,"state":"active","ping":58},{"user_id":348,"name":"lanzer","steam_id":76561198049983016,"connected_time":3795000000000,"state":"active","ping":100},{"user_id":409,"name":"Kek meister 8 mil","steam_id":76561197989904384,"connected_time":699000000000,"state":"active","ping":69},{"user_id":350,"name":"eple","steam_id":76561198017686306,"connected_time":3760000000000,"state":"active","ping":60},{"user_id":217,"name":"nytronytronytro","steam_id":76561198080496833,"connected_time":12859000000000,"state":"active","ping":91},{"user_id":410,"name":"B4R10N","steam_id":76561198047167954,"connected_time":691000000000,"state":"active","ping":59},{"user_id":392,"name":"Totally Something","steam_id":76561198916824935,"connected_time":1494000000000,"state":"active","ping":72},{"user_id":415,"name":"Salami lid (don't fit)","steam_id":76561197988616343,"connected_time":553000000000,"state":"active","ping":76},{"user_id":373,"name":"Gary the plumber","steam_id":76561198345249841,"connected_time":2589000000000,"state":"active","ping":74},{"user_id":372,"name":"Drsoldier","steam_id":76561198165504766,"connected_time":2616000000000,"state":"active","ping":66},{"user_id":393,"name":"Videogamer","steam_id":76561198106012909,"connected_time":1493000000000,"state":"active","ping":63},{"user_id":396,"name":"Segra blw.tf","steam_id":76561198441974031,"connected_time":1430000000000,"state":"active","ping":71},{"user_id":375,"name":"ChesseKnight","steam_id":76561198102476339,"connected_time":2551000000000,"state":"active","ping":82},{"user_id":417,"name":"Freecell4370","steam_id":76561198077483524,"connected_time":367000000000,"state":"active","ping":55},{"user_id":406,"name":"Carrot","steam_id":76561198119340863,"connected_time":776000000000,"state":"active","ping":58},{"user_id":412,"name":"snazzyyy","steam_id":76561198143529110,"connected_time":646000000000,"state":"active","ping":87},{"user_id":421,"name":"Ducky[WADZ]🐤","steam_id":76561198060341245,"connected_time":25000000000,"state":"active","ping":43},{"user_id":413,"name":"bro.","steam_id":76561198053394831,"connected_time":642000000000,"state":"active","ping":61},{"user_id":398,"name":"Handy","steam_id":76561198125055365,"connected_time":1383000000000,"state":"active","ping":76},{"user_id":414,"name":"the joy of recycling","steam_id":76561198138509827,"connected_time":630000000000,"state":"active","ping":85},{"user_id":419,"name":"Bob.","steam_id":76561198330093822,"connected_time":324000000000,"state":"active","ping":73},{"user_id":420,"name":"Adopted?","steam_id":76561198118667043,"connected_time":306000000000,"state":"active","ping":60},{"user_id":402,"name":"Miss Asstickles","steam_id":76561198030286622,"connected_time":1141000000000,"state":"active","ping":45},{"user_id":418,"name":"Sarii","steam_id":76561199155102111,"connected_time":361000000000,"state":"active","ping":76}]},{"server_id":23,"name":"Uncletopia | Frankfurt | 7 | Stopwatch Beta","name_short":"frk-7","host":"frk-1.de.uncletopia.com","port":27075,"enabled":true,"region":"eu","cc":"de","latitude":50.110924,"longitude":8.682127,"reserved":0,"last_update":"0001-01-01T00:00:00Z","name_a2s":"Uncletopia | Frankfurt | 7 | Stopwatch Beta","protocol":17,"map":"workshop/koth_ashville_final.ugc2130459942","folder":"tf","game":"Team Fortress","app_id":440,"player_count":22,"max_players":24,"Bots":0,"server_type":"Dedicated","server_os":"Linux","password":true,"vac":true,"version":"7742253","steam_id":85568392924742827,"keywords":["cp","nocrits","nodmgspread","uncletopia"],"game_id":440,"stv_port":27076,"stv_name":"Uncletopia | Frankfurt | 7 | Stopwatch Beta | STV","players":[{"user_id":425,"name":"Gloteran","steam_id":76561199092623161,"connected_time":940000000000,"state":"active","ping":62},{"user_id":427,"name":"TheKingFromClashRoyale (real)","steam_id":76561198962400711,"connected_time":740000000000,"state":"active","ping":73},{"user_id":432,"name":"Jesse Fatcoc","steam_id":76561199004942770,"connected_time":477000000000,"state":"active","ping":53},{"user_id":429,"name":"foolproof","steam_id":76561198115801132,"connected_time":671000000000,"state":"active","ping":49},{"user_id":395,"name":"LemonLeCitron","steam_id":76561198215545267,"connected_time":3042000000000,"state":"active","ping":66},{"user_id":336,"name":"lisivi","steam_id":76561198365503306,"connected_time":7107000000000,"state":"active","ping":57},{"user_id":390,"name":"Pyrolander","steam_id":76561198050785450,"connected_time":3935000000000,"state":"active","ping":52},{"user_id":431,"name":"gyorizo","steam_id":76561198167742654,"connected_time":617000000000,"state":"active","ping":64},{"user_id":415,"name":"Banana Dispenser","steam_id":76561198446549451,"connected_time":1517000000000,"state":"active","ping":67},{"user_id":437,"name":"Demo-Ktosiu","steam_id":76561198890628396,"connected_time":144000000000,"state":"active","ping":85},{"user_id":434,"name":"brokenphilip","steam_id":76561198080960604,"connected_time":389000000000,"state":"active","ping":77},{"user_id":438,"name":"zen","steam_id":76561198358006442,"connected_time":113000000000,"state":"active","ping":57},{"user_id":409,"name":"Valfezant","steam_id":76561199063983797,"connected_time":1974000000000,"state":"active","ping":67},{"user_id":439,"name":"HedgehogdudeⅢ","steam_id":76561198305290568,"connected_time":112000000000,"state":"active","ping":97},{"user_id":440,"name":"Dr. Le Quack","steam_id":76561197995711176,"connected_time":103000000000,"state":"active","ping":76},{"user_id":416,"name":"иван","steam_id":76561198072730591,"connected_time":1500000000000,"state":"active","ping":79},{"user_id":441,"name":"heinrich salian","steam_id":76561199062586342,"connected_time":90000000000,"state":"active","ping":80},{"user_id":417,"name":"Brat mi kurshuma","steam_id":76561198444986506,"connected_time":1495000000000,"state":"active","ping":60},{"user_id":398,"name":"engie?","steam_id":76561198331852832,"connected_time":2726000000000,"state":"active","ping":88},{"user_id":442,"name":"Femboy Gaming","steam_id":76561198174108515,"connected_time":73000000000,"state":"active","ping":51},{"user_id":361,"name":"Estyle","steam_id":76561198157804700,"connected_time":5852000000000,"state":"active","ping":88},{"user_id":443,"name":"fallingpencil","steam_id":76561199230233148,"connected_time":28000000000,"state":"active","ping":64}]},{"server_id":24,"name":"Uncletopia | Frankfurt | 8 | Community","name_short":"frk-8","host":"frk-1.de.uncletopia.com","port":27085,"enabled":true,"region":"eu","cc":"de","latitude":50.110924,"longitude":8.682127,"reserved":0,"last_update":"0001-01-01T00:00:00Z","name_a2s":"Uncletopia | Frankfurt | 8 | Community","protocol":17,"map":"workshop/koth_bagel_rc5.ugc2514036946","folder":"tf","game":"Team Fortress","app_id":440,"player_count":0,"max_players":24,"Bots":0,"server_type":"Dedicated","server_os":"Linux","password":true,"vac":true,"version":"7742253","steam_id":85568392924742828,"keywords":["cp","nocrits","nodmgspread","uncletopia"],"game_id":440,"stv_port":27086,"stv_name":"Uncletopia | Frankfurt | 8 | Community | STV","players":null},{"server_id":202,"name":"Uncletopia | Hong Kong | 1 | All Maps","name_short":"hgk-1","host":"hgk-1.hk.uncletopia.com","port":27015,"enabled":true,"region":"asia","cc":"hk","latitude":22.302711,"longitude":114.177216,"reserved":0,"last_update":"0001-01-01T00:00:00Z","name_a2s":"Uncletopia | Hong Kong | 1 | All Maps","protocol":17,"map":"pl_badwater","folder":"tf","game":"Team Fortress","app_id":440,"player_count":0,"max_players":24,"Bots":0,"server_type":"Dedicated","server_os":"Linux","password":true,"vac":true,"version":"7742253","steam_id":85568392924494504,"keywords":["nocrits","nodmgspread","payload","uncletopia"],"game_id":440,"stv_port":27016,"stv_name":"Uncletopia | Hong Kong | 1 | All Maps | STV","players":null},{"server_id":1,"name":"Uncletopia | Los Angeles | 1 | All Maps","name_short":"lax-1","host":"lax-1.us.uncletopia.com","port":27015,"enabled":true,"region":"us-west","cc":"us","latitude":33.94279,"longitude":-118.41004,"reserved":0,"last_update":"0001-01-01T00:00:00Z","name_a2s":"Uncletopia | Los Angeles | 1 | All Maps","protocol":17,"map":"koth_highpass","folder":"tf","game":"Team Fortress","app_id":440,"player_count":22,"max_players":24,"Bots":0,"server_type":"Dedicated","server_os":"Linux","password":true,"vac":true,"version":"7742253","steam_id":85568392924469991,"keywords":["cp","nocrits","nodmgspread","uncletopia"],"game_id":440,"stv_port":27016,"stv_name":"Uncletopia | Los Angeles | 1 | All Maps | STV","players":[{"user_id":68,"name":"azureglxy","steam_id":76561198861388315,"connected_time":3864000000000,"state":"active","ping":48},{"user_id":104,"name":"Nerdy Noob","steam_id":76561198044524600,"connected_time":1052000000000,"state":"active","ping":46},{"user_id":57,"name":"Noxus","steam_id":76561199009820852,"connected_time":4401000000000,"state":"active","ping":54},{"user_id":70,"name":"jungus","steam_id":76561198129862008,"connected_time":3863000000000,"state":"active","ping":45},{"user_id":64,"name":"Nibotshooter","steam_id":76561199284825579,"connected_time":4279000000000,"state":"active","ping":54},{"user_id":111,"name":"hoboholden","steam_id":76561198799370303,"connected_time":958000000000,"state":"active","ping":49},{"user_id":39,"name":"Cog","steam_id":76561198106174067,"connected_time":4770000000000,"state":"active","ping":120},{"user_id":105,"name":"Glitchybyte","steam_id":76561199124805880,"connected_time":1051000000000,"state":"active","ping":65},{"user_id":40,"name":"Gamemage","steam_id":76561198278493913,"connected_time":4759000000000,"state":"active","ping":120},{"user_id":41,"name":"That Guy","steam_id":76561198119864567,"connected_time":4758000000000,"state":"active","ping":113},{"user_id":106,"name":"how do i control my guy?","steam_id":76561198158855211,"connected_time":1039000000000,"state":"active","ping":72},{"user_id":115,"name":"neurotic","steam_id":76561198081545480,"connected_time":812000000000,"state":"active","ping":59},{"user_id":103,"name":"blatgotyahat","steam_id":76561198186630357,"connected_time":1056000000000,"state":"active","ping":56},{"user_id":107,"name":"Gimmick","steam_id":76561198065873462,"connected_time":1026000000000,"state":"active","ping":44},{"user_id":98,"name":"Zebitron","steam_id":76561198162360436,"connected_time":1922000000000,"state":"active","ping":69},{"user_id":108,"name":"Sloppy Joe (Extra Sauce)","steam_id":76561198359703432,"connected_time":1022000000000,"state":"active","ping":48},{"user_id":118,"name":"Tanner The Fish Man","steam_id":76561198372696640,"connected_time":240000000000,"state":"active","ping":50},{"user_id":112,"name":"2luck_charm2","steam_id":76561199239710666,"connected_time":950000000000,"state":"active","ping":60},{"user_id":113,"name":"Phat_nibba29","steam_id":76561198165661855,"connected_time":947000000000,"state":"active","ping":91},{"user_id":67,"name":"Mignyanne :3","steam_id":76561198048754056,"connected_time":3934000000000,"state":"active","ping":60},{"user_id":60,"name":"Manx","steam_id":76561197977134062,"connected_time":4389000000000,"state":"active","ping":70},{"user_id":114,"name":"i ate atomic bomb","steam_id":76561198150406851,"connected_time":932000000000,"state":"active","ping":60}]},{"server_id":112,"name":"Uncletopia | Los Angeles | 2 | All Maps","name_short":"lax-2","host":"lax-1.us.uncletopia.com","port":27025,"enabled":true,"region":"us-west","cc":"us","latitude":33.94279,"longitude":-118.41004,"reserved":0,"last_update":"0001-01-01T00:00:00Z","name_a2s":"Uncletopia | Los Angeles | 2 | All Maps","protocol":17,"map":"pl_swiftwater_final1","folder":"tf","game":"Team Fortress","app_id":440,"player_count":0,"max_players":24,"Bots":0,"server_type":"Dedicated","server_os":"Linux","password":true,"vac":true,"version":"7742253","steam_id":85568392924469992,"keywords":["nocrits","nodmgspread","payload","uncletopia"],"game_id":440,"stv_port":27026,"stv_name":"Uncletopia | Los Angeles | 2 | All Maps | STV","players":null},{"server_id":324,"name":"Uncletopia | Los Angeles | 3 | All Maps","name_short":"lax-3","host":"lax-1.us.uncletopia.com","port":27035,"enabled":true,"region":"us-west","cc":"us","latitude":33.94279,"longitude":-118.41004,"reserved":0,"last_update":"0001-01-01T00:00:00Z","name_a2s":"Uncletopia | Los Angeles | 3 | All Maps","protocol":17,"map":"koth_highpass","folder":"tf","game":"Team Fortress","app_id":440,"player_count":0,"max_players":24,"Bots":0,"server_type":"Dedicated","server_os":"Linux","password":true,"vac":true,"version":"7742253","steam_id":85568392924510198,"keywords":["cp","nocrits","nodmgspread","uncletopia"],"game_id":440,"stv_port":27036,"stv_name":"Uncletopia | Los Angeles | 3 | All Maps | STV","players":null},{"server_id":25,"name":"Uncletopia | Los Angeles | 4 | Stopwatch Beta","name_short":"lax-4","host":"lax-1.us.uncletopia.com","port":27045,"enabled":true,"region":"us-west","cc":"us","latitude":33.94279,"longitude":-118.41004,"reserved":0,"last_update":"0001-01-01T00:00:00Z","name_a2s":"Uncletopia | Los Angeles | 4 | Stopwatch Beta","protocol":17,"map":"pl_borneo","folder":"tf","game":"Team Fortress","app_id":440,"player_count":0,"max_players":24,"Bots":0,"server_type":"Dedicated","server_os":"Linux","password":true,"vac":true,"version":"7742253","steam_id":85568392924510199,"keywords":["nocrits","nodmgspread","payload","uncletopia"],"game_id":440,"stv_port":27046,"stv_name":"Uncletopia | Los Angeles | 4 | Stopwatch Beta | STV","players":null},{"server_id":11,"name":"Uncletopia | London | 1 | All Maps","name_short":"lon-1","host":"lon-1.uk.uncletopia.com","port":27015,"enabled":true,"region":"eu","cc":"gb","latitude":51.509865,"longitude":-0.118092,"reserved":0,"last_update":"0001-01-01T00:00:00Z","name_a2s":"Uncletopia | London | 1 | All Maps","protocol":17,"map":"pl_swiftwater_final1","folder":"tf","game":"Team Fortress","app_id":440,"player_count":24,"max_players":24,"Bots":0,"server_type":"Dedicated","server_os":"Linux","password":true,"vac":true,"version":"7742253","steam_id":85568392924367362,"keywords":["nocrits","nodmgspread","payload","uncletopia"],"game_id":440,"stv_port":27016,"stv_name":"Uncletopia | London | 1 | All Maps | STV","players":[{"user_id":579,"name":"pAftAq","steam_id":76561198359966356,"connected_time":2911000000000,"state":"active","ping":96},{"user_id":582,"name":"Great recession of 2008","steam_id":76561198881151562,"connected_time":2591000000000,"state":"active","ping":77},{"user_id":616,"name":"Aaron","steam_id":76561197990046953,"connected_time":155000000000,"state":"active","ping":71},{"user_id":604,"name":"Fred","steam_id":76561198107137362,"connected_time":584000000000,"state":"active","ping":51},{"user_id":615,"name":"Jack","steam_id":76561198325505238,"connected_time":272000000000,"state":"active","ping":77},{"user_id":597,"name":"sigma female","steam_id":76561198298576765,"connected_time":992000000000,"state":"active","ping":63},{"user_id":614,"name":"Boil em mash em","steam_id":76561198026508026,"connected_time":286000000000,"state":"active","ping":52},{"user_id":603,"name":"thebestperson1010","steam_id":76561199103241008,"connected_time":670000000000,"state":"active","ping":167},{"user_id":607,"name":"Pepsi Man","steam_id":76561198414175953,"connected_time":483000000000,"state":"active","ping":67},{"user_id":608,"name":"guyinatophat51","steam_id":76561198180230694,"connected_time":471000000000,"state":"active","ping":154},{"user_id":591,"name":"Uncle Owen","steam_id":76561198157999291,"connected_time":2005000000000,"state":"active","ping":88},{"user_id":609,"name":"PepsiMan","steam_id":76561198996766357,"connected_time":464000000000,"state":"active","ping":46},{"user_id":561,"name":"Dieu-Sama","steam_id":76561198002075862,"connected_time":4168000000000,"state":"active","ping":48},{"user_id":598,"name":"ground-to-air slunge","steam_id":76561198041966915,"connected_time":983000000000,"state":"active","ping":71},{"user_id":610,"name":"jupiter jazz","steam_id":76561198101983930,"connected_time":437000000000,"state":"active","ping":44},{"user_id":611,"name":"CheekSlammer","steam_id":76561199020104238,"connected_time":417000000000,"state":"active","ping":149},{"user_id":574,"name":"русорез","steam_id":76561198113126186,"connected_time":3574000000000,"state":"active","ping":101},{"user_id":593,"name":"FroggNuggets69","steam_id":76561198230148868,"connected_time":1952000000000,"state":"active","ping":87},{"user_id":600,"name":"Slav-matros","steam_id":76561198251977912,"connected_time":898000000000,"state":"active","ping":60},{"user_id":612,"name":"Scipionemiliano","steam_id":76561198027646559,"connected_time":415000000000,"state":"active","ping":108},{"user_id":578,"name":"chrissy","steam_id":76561198096547662,"connected_time":3339000000000,"state":"active","ping":53},{"user_id":576,"name":"gnarly business","steam_id":76561198832688767,"connected_time":3509000000000,"state":"active","ping":47},{"user_id":563,"name":"KPhii","steam_id":76561198970587061,"connected_time":4038000000000,"state":"active","ping":61},{"user_id":613,"name":"Aeglos","steam_id":76561198248698294,"connected_time":410000000000,"state":"active","ping":62}]},{"server_id":114,"name":"Uncletopia | London | 2 | All Maps","name_short":"lon-2","host":"lon-1.uk.uncletopia.com","port":27025,"enabled":true,"region":"eu","cc":"gb","latitude":51.509865,"longitude":-0.118092,"reserved":0,"last_update":"0001-01-01T00:00:00Z","name_a2s":"Uncletopia | London | 2 | All Maps","protocol":17,"map":"pl_borneo","folder":"tf","game":"Team Fortress","app_id":440,"player_count":15,"max_players":24,"Bots":0,"server_type":"Dedicated","server_os":"Linux","password":true,"vac":true,"version":"7742253","steam_id":85568392924470941,"keywords":["nocrits","nodmgspread","payload","uncletopia"],"game_id":440,"stv_port":27026,"stv_name":"Uncletopia | London | 2 | All Maps | STV","players":[{"user_id":449,"name":"lil_loggy03","steam_id":76561198383155448,"connected_time":250000000000,"state":"active","ping":146},{"user_id":379,"name":"Thesis","steam_id":76561199308784371,"connected_time":4573000000000,"state":"active","ping":52},{"user_id":451,"name":"parrot","steam_id":76561198029873185,"connected_time":136000000000,"state":"active","ping":59},{"user_id":452,"name":"☭Mr.Potato☭","steam_id":76561198186741717,"connected_time":131000000000,"state":"active","ping":47},{"user_id":457,"name":"garlic bread","steam_id":76561199154064816,"connected_time":43000000000,"state":"active","ping":118},{"user_id":456,"name":"Schmidtstone","steam_id":76561198088178630,"connected_time":57000000000,"state":"active","ping":63},{"user_id":430,"name":"Sulayman","steam_id":76561198112309670,"connected_time":1577000000000,"state":"active","ping":119},{"user_id":386,"name":"Dr Sex","steam_id":76561198029044617,"connected_time":3909000000000,"state":"active","ping":54},{"user_id":447,"name":"meriones","steam_id":76561198034234373,"connected_time":324000000000,"state":"active","ping":37},{"user_id":454,"name":"Just a parrot","steam_id":76561198064845712,"connected_time":89000000000,"state":"active","ping":48},{"user_id":448,"name":"Phonetics God","steam_id":76561198078780040,"connected_time":293000000000,"state":"active","ping":60},{"user_id":455,"name":"Asfreild","steam_id":76561198055901120,"connected_time":80000000000,"state":"active","ping":68},{"user_id":458,"name":"willo","steam_id":76561198034442999,"connected_time":38000000000,"state":"active","ping":47},{"user_id":443,"name":"Nartle","steam_id":76561198157104714,"connected_time":368000000000,"state":"active","ping":39},{"user_id":414,"name":"Sgreff","steam_id":76561198036304365,"connected_time":2958000000000,"state":"active","ping":39}]},{"server_id":320,"name":"Uncletopia | London | 3 | All Maps","name_short":"lon-3","host":"lon-1.uk.uncletopia.com","port":27035,"enabled":true,"region":"eu","cc":"gb","latitude":51.509865,"longitude":-0.118092,"reserved":0,"last_update":"0001-01-01T00:00:00Z","name_a2s":"Uncletopia | London | 3 | All Maps","protocol":17,"map":"pl_borneo","folder":"tf","game":"Team Fortress","app_id":440,"player_count":24,"max_players":24,"Bots":0,"server_type":"Dedicated","server_os":"Linux","password":true,"vac":true,"version":"7742253","steam_id":85568392924510192,"keywords":["nocrits","nodmgspread","payload","uncletopia"],"game_id":440,"stv_port":27036,"stv_name":"Uncletopia | London | 3 | All Maps | STV","players":[{"user_id":784,"name":"ChickyCoop","steam_id":76561199072983488,"connected_time":5903000000000,"state":"active","ping":90},{"user_id":837,"name":"ultralex","steam_id":76561198024910383,"connected_time":1475000000000,"state":"active","ping":43},{"user_id":813,"name":"Psychicpie","steam_id":76561198126065206,"connected_time":2706000000000,"state":"active","ping":52},{"user_id":819,"name":"kevin","steam_id":76561197996149548,"connected_time":2530000000000,"state":"active","ping":53},{"user_id":793,"name":"risco1bolota","steam_id":76561198323074603,"connected_time":4592000000000,"state":"active","ping":82},{"user_id":794,"name":"tactical783","steam_id":76561199051688560,"connected_time":4504000000000,"state":"active","ping":64},{"user_id":828,"name":"Solrack","steam_id":76561199125165263,"connected_time":2091000000000,"state":"active","ping":185},{"user_id":820,"name":"EmberedStar","steam_id":76561198328715224,"connected_time":2502000000000,"state":"active","ping":116},{"user_id":823,"name":"Joy","steam_id":76561198155314925,"connected_time":2268000000000,"state":"active","ping":56},{"user_id":824,"name":"Drdarlekzzz","steam_id":76561198160141785,"connected_time":2255000000000,"state":"active","ping":44},{"user_id":831,"name":"Laura ❤","steam_id":76561198975652501,"connected_time":1794000000000,"state":"active","ping":82},{"user_id":835,"name":"kira","steam_id":76561198054979849,"connected_time":1516000000000,"state":"active","ping":45},{"user_id":829,"name":"dispenser (vibegoose)","steam_id":76561199065362078,"connected_time":2075000000000,"state":"active","ping":60},{"user_id":852,"name":"The cost of living in the UK","steam_id":76561199000520747,"connected_time":377000000000,"state":"active","ping":45},{"user_id":849,"name":"76561198802687883","steam_id":76561198802687883,"connected_time":933000000000,"state":"active","ping":46},{"user_id":836,"name":"viora ✨","steam_id":76561198894722441,"connected_time":1506000000000,"state":"active","ping":44},{"user_id":838,"name":"moon","steam_id":76561199212557251,"connected_time":1465000000000,"state":"active","ping":109},{"user_id":839,"name":"TheKindleTheory","steam_id":76561198010230101,"connected_time":1397000000000,"state":"active","ping":49},{"user_id":850,"name":"spy gaming","steam_id":76561198410955546,"connected_time":849000000000,"state":"active","ping":85},{"user_id":847,"name":"Snokie Boi","steam_id":76561198081126247,"connected_time":1105000000000,"state":"active","ping":74},{"user_id":843,"name":"Trigger","steam_id":76561198118000526,"connected_time":1319000000000,"state":"active","ping":51},{"user_id":851,"name":"Tort","steam_id":76561198329646769,"connected_time":540000000000,"state":"active","ping":50},{"user_id":845,"name":"Ruben Zo","steam_id":76561198063855616,"connected_time":1302000000000,"state":"active","ping":75},{"user_id":846,"name":"Baba","steam_id":76561198434089142,"connected_time":1284000000000,"state":"active","ping":47}]},{"server_id":321,"name":"Uncletopia | London | 4 | All Maps","name_short":"lon-4","host":"lon-1.uk.uncletopia.com","port":27045,"enabled":true,"region":"eu","cc":"gb","latitude":51.509865,"longitude":-0.118092,"reserved":0,"last_update":"0001-01-01T00:00:00Z","name_a2s":"Uncletopia | London | 4 | All Maps","protocol":17,"map":"pl_barnblitz","folder":"tf","game":"Team Fortress","app_id":440,"player_count":0,"max_players":24,"Bots":0,"server_type":"Dedicated","server_os":"Linux","password":true,"vac":true,"version":"7742253","steam_id":85568392924510193,"keywords":["nocrits","nodmgspread","payload","uncletopia"],"game_id":440,"stv_port":27046,"stv_name":"Uncletopia | London | 4 | All Maps | STV","players":null},{"server_id":21,"name":"Uncletopia | London | 5 | All Maps","name_short":"lon-5","host":"lon-1.uk.uncletopia.com","port":27055,"enabled":true,"region":"eu","cc":"gb","latitude":51.509865,"longitude":-0.118092,"reserved":0,"last_update":"0001-01-01T00:00:00Z","name_a2s":"Uncletopia | London | 5 | All Maps","protocol":17,"map":"pl_borneo","folder":"tf","game":"Team Fortress","app_id":440,"player_count":24,"max_players":24,"Bots":0,"server_type":"Dedicated","server_os":"Linux","password":true,"vac":true,"version":"7742253","steam_id":85568392924742829,"keywords":["nocrits","nodmgspread","payload","uncletopia"],"game_id":440,"stv_port":27056,"stv_name":"Uncletopia | London | 5 | All Maps | STV","players":[{"user_id":633,"name":"big al","steam_id":76561198800662675,"connected_time":9341000000000,"state":"active","ping":63},{"user_id":721,"name":"Doogie","steam_id":76561198846924693,"connected_time":1564000000000,"state":"active","ping":53},{"user_id":712,"name":".bRdyyy","steam_id":76561198057256978,"connected_time":1888000000000,"state":"active","ping":54},{"user_id":722,"name":"bkktrans","steam_id":76561198264393359,"connected_time":1505000000000,"state":"active","ping":41},{"user_id":717,"name":"Shynii","steam_id":76561198194682105,"connected_time":1659000000000,"state":"active","ping":61},{"user_id":728,"name":"Nomakh | #SaveTF2","steam_id":76561198096414653,"connected_time":1279000000000,"state":"active","ping":80},{"user_id":729,"name":"Chillrend","steam_id":76561198452963141,"connected_time":1274000000000,"state":"active","ping":90},{"user_id":742,"name":"☣ cat fock ☣","steam_id":76561198264641620,"connected_time":393000000000,"state":"active","ping":107},{"user_id":708,"name":"Vershal Smershal","steam_id":76561198116223995,"connected_time":2261000000000,"state":"active","ping":53},{"user_id":679,"name":"Old Man Winter","steam_id":76561198007653168,"connected_time":5085000000000,"state":"active","ping":56},{"user_id":745,"name":"Salesman","steam_id":76561198045527771,"connected_time":214000000000,"state":"active","ping":64},{"user_id":709,"name":"Standingo","steam_id":76561198035642311,"connected_time":2246000000000,"state":"active","ping":95},{"user_id":743,"name":"AWP Bodyshot :) ❤","steam_id":76561198029928533,"connected_time":298000000000,"state":"active","ping":57},{"user_id":731,"name":"Nemium","steam_id":76561198070757635,"connected_time":1203000000000,"state":"active","ping":68},{"user_id":732,"name":"900lbs of spanish mackerel","steam_id":76561198188642265,"connected_time":1105000000000,"state":"active","ping":50},{"user_id":697,"name":"omnibombulator","steam_id":76561198025858897,"connected_time":3700000000000,"state":"active","ping":47},{"user_id":746,"name":"dripstein","steam_id":76561198059598696,"connected_time":128000000000,"state":"active","ping":60},{"user_id":734,"name":"Marioalexsan","steam_id":76561198125512367,"connected_time":1052000000000,"state":"active","ping":71},{"user_id":695,"name":"And Hit It!","steam_id":76561198030956814,"connected_time":4236000000000,"state":"active","ping":41},{"user_id":736,"name":"Explosive Poptart","steam_id":76561198023918830,"connected_time":1041000000000,"state":"active","ping":45},{"user_id":737,"name":"BING CHILLING","steam_id":76561198065438030,"connected_time":1027000000000,"state":"active","ping":123},{"user_id":739,"name":"Yangus","steam_id":76561198147796010,"connected_time":752000000000,"state":"active","ping":75},{"user_id":741,"name":"specialist","steam_id":76561198058012525,"connected_time":568000000000,"state":"active","ping":85}]},{"server_id":22,"name":"Uncletopia | London | 6 | All Maps","name_short":"lon-6","host":"lon-1.uk.uncletopia.com","port":27065,"enabled":true,"region":"eu","cc":"gb","latitude":51.509865,"longitude":-0.118092,"reserved":0,"last_update":"0001-01-01T00:00:00Z","name_a2s":"Uncletopia | London | 6 | All Maps","protocol":17,"map":"pl_pier","folder":"tf","game":"Team Fortress","app_id":440,"player_count":24,"max_players":24,"Bots":0,"server_type":"Dedicated","server_os":"Linux","password":true,"vac":true,"version":"7742253","steam_id":85568392924742830,"keywords":["nocrits","nodmgspread","payload","uncletopia"],"game_id":440,"stv_port":27066,"stv_name":"Uncletopia | London | 6 | All Maps | STV","players":[{"user_id":397,"name":"Shumo","steam_id":76561198256223196,"connected_time":239000000000,"state":"active","ping":89},{"user_id":391,"name":"alex.difoux","steam_id":76561198370369778,"connected_time":906000000000,"state":"active","ping":62},{"user_id":370,"name":"Redkiller","steam_id":76561199453655288,"connected_time":2266000000000,"state":"active","ping":127},{"user_id":371,"name":"Dungus","steam_id":76561198042774930,"connected_time":2253000000000,"state":"active","ping":60},{"user_id":385,"name":"Enigmus","steam_id":76561197994063627,"connected_time":1309000000000,"state":"active","ping":90},{"user_id":324,"name":"KillerQueen (he/they/she)","steam_id":76561199019399725,"connected_time":5020000000000,"state":"active","ping":52},{"user_id":377,"name":"kret","steam_id":76561198435353837,"connected_time":1770000000000,"state":"active","ping":60},{"user_id":374,"name":"I'm too high for this","steam_id":76561198080053422,"connected_time":2024000000000,"state":"active","ping":60},{"user_id":375,"name":"Atlas","steam_id":76561198866802561,"connected_time":1816000000000,"state":"active","ping":39},{"user_id":382,"name":"trailbreakertv","steam_id":76561199122167294,"connected_time":1526000000000,"state":"active","ping":41},{"user_id":383,"name":"_BackBone_","steam_id":76561198816315720,"connected_time":1488000000000,"state":"active","ping":49},{"user_id":363,"name":"ViktorYoshi","steam_id":76561199157555246,"connected_time":2901000000000,"state":"active","ping":66},{"user_id":396,"name":"rummy","steam_id":76561197997573379,"connected_time":248000000000,"state":"active","ping":47},{"user_id":351,"name":"demonsese[UD]","steam_id":76561198025932324,"connected_time":3788000000000,"state":"active","ping":114},{"user_id":398,"name":"snowii","steam_id":76561198836246326,"connected_time":229000000000,"state":"active","ping":58},{"user_id":392,"name":"Crowbar","steam_id":76561198338116047,"connected_time":884000000000,"state":"active","ping":47},{"user_id":388,"name":"Keizer Ei","steam_id":76561199065419715,"connected_time":1165000000000,"state":"active","ping":46},{"user_id":344,"name":"Stinky64","steam_id":76561198389725889,"connected_time":4019000000000,"state":"active","ping":63},{"user_id":399,"name":"SirKaelan","steam_id":76561198123193384,"connected_time":192000000000,"state":"active","ping":83},{"user_id":401,"name":"ivanmixo","steam_id":76561198160213989,"connected_time":165000000000,"state":"active","ping":76},{"user_id":393,"name":"aura","steam_id":76561197991687793,"connected_time":821000000000,"state":"active","ping":74},{"user_id":340,"name":":)","steam_id":76561198103988618,"connected_time":4244000000000,"state":"active","ping":59},{"user_id":394,"name":"snowi","steam_id":76561198006502679,"connected_time":808000000000,"state":"active","ping":55},{"user_id":395,"name":"okay","steam_id":76561198339165488,"connected_time":732000000000,"state":"active","ping":63}]},{"server_id":40,"name":"Uncletopia | London | 7 | No Payload","name_short":"lon-7","host":"lon-1.uk.uncletopia.com","port":27075,"enabled":true,"region":"eu","cc":"gb","latitude":51.509865,"longitude":-0.118092,"reserved":0,"last_update":"0001-01-01T00:00:00Z","name_a2s":"Uncletopia | London | 7 | No Payload","protocol":17,"map":"cp_sunshine","folder":"tf","game":"Team Fortress","app_id":440,"player_count":6,"max_players":24,"Bots":0,"server_type":"Dedicated","server_os":"Linux","password":true,"vac":true,"version":"7742253","steam_id":85568392924964314,"keywords":["cp","nocrits","nodmgspread","uncletopia"],"game_id":440,"stv_port":27076,"stv_name":"Uncletopia | London | 7 | No Payload | STV","players":[{"user_id":383,"name":"Luka","steam_id":76561198092521203,"connected_time":4722000000000,"state":"active","ping":55},{"user_id":411,"name":"Dunte","steam_id":76561199100863648,"connected_time":99000000000,"state":"active","ping":92},{"user_id":407,"name":"Sanctified","steam_id":76561198057092208,"connected_time":941000000000,"state":"active","ping":75},{"user_id":382,"name":"snurm","steam_id":76561198095014762,"connected_time":4769000000000,"state":"active","ping":56},{"user_id":387,"name":"TheFox.tf","steam_id":76561197996851702,"connected_time":3999000000000,"state":"active","ping":68},{"user_id":239,"name":"Mono","steam_id":76561198114569493,"connected_time":13475000000000,"state":"active","ping":46}]},{"server_id":41,"name":"Uncletopia | London | 8 | Community","name_short":"lon-8","host":"lon-1.uk.uncletopia.com","port":27085,"enabled":true,"region":"eu","cc":"gb","latitude":51.509865,"longitude":-0.118092,"reserved":0,"last_update":"0001-01-01T00:00:00Z","name_a2s":"Uncletopia | London | 8 | Community","protocol":17,"map":"workshop/koth_ramjam_rc1.ugc459778887","folder":"tf","game":"Team Fortress","app_id":440,"player_count":0,"max_players":24,"Bots":0,"server_type":"Dedicated","server_os":"Linux","password":true,"vac":true,"version":"7742253","steam_id":85568392924964315,"keywords":["cp","nocrits","nodmgspread","uncletopia"],"game_id":440,"stv_port":27086,"stv_name":"Uncletopia | London | 8 | Community | STV","players":null},{"server_id":300,"name":"Uncletopia | Montréal | 1 | All Maps","name_short":"mtl-1","host":"mtl-1.ca.uncletopia.com","port":27015,"enabled":true,"region":"us-east","cc":"ca","latitude":45.50889,"longitude":-73.56167,"reserved":0,"last_update":"0001-01-01T00:00:00Z","name_a2s":"Uncletopia | Montréal | 1 | All Maps","protocol":17,"map":"pl_frontier_final","folder":"tf","game":"Team Fortress","app_id":440,"player_count":0,"max_players":24,"Bots":0,"server_type":"Dedicated","server_os":"Linux","password":true,"vac":true,"version":"7742253","steam_id":85568392924500087,"keywords":["nocrits","nodmgspread","payload","uncletopia"],"game_id":440,"stv_port":27016,"stv_name":"Uncletopia | Montréal | 1 | All Maps | STV","players":null},{"server_id":301,"name":"Uncletopia | Montréal | 2 | All Maps","name_short":"mtl-2","host":"mtl-1.ca.uncletopia.com","port":27025,"enabled":true,"region":"us-east","cc":"ca","latitude":45.50889,"longitude":-73.56167,"reserved":0,"last_update":"0001-01-01T00:00:00Z","name_a2s":"Uncletopia | Montréal | 2 | All Maps","protocol":17,"map":"koth_highpass","folder":"tf","game":"Team Fortress","app_id":440,"player_count":0,"max_players":24,"Bots":0,"server_type":"Dedicated","server_os":"Linux","password":true,"vac":true,"version":"7742253","steam_id":85568392924500088,"keywords":["cp","nocrits","nodmgspread","uncletopia"],"game_id":440,"stv_port":27026,"stv_name":"Uncletopia | Montréal | 2 | All Maps | STV","players":null},{"server_id":302,"name":"Uncletopia | Montréal | 3 | All Maps","name_short":"mtl-3","host":"mtl-1.ca.uncletopia.com","port":27035,"enabled":true,"region":"us-east","cc":"ca","latitude":45.50889,"longitude":-73.56167,"reserved":0,"last_update":"0001-01-01T00:00:00Z","name_a2s":"Uncletopia | Montréal | 3 | All Maps","protocol":17,"map":"koth_viaduct","folder":"tf","game":"Team Fortress","app_id":440,"player_count":0,"max_players":24,"Bots":0,"server_type":"Dedicated","server_os":"Linux","password":true,"vac":true,"version":"7742253","steam_id":85568392924500089,"keywords":["cp","nocrits","nodmgspread","uncletopia"],"game_id":440,"stv_port":27036,"stv_name":"Uncletopia | Montréal | 3 | All Maps | STV","players":null},{"server_id":303,"name":"Uncletopia | Montréal | 4 | No Payload","name_short":"mtl-4","host":"mtl-1.ca.uncletopia.com","port":27045,"enabled":true,"region":"us-east","cc":"ca","latitude":45.50889,"longitude":-73.56167,"reserved":0,"last_update":"0001-01-01T00:00:00Z","name_a2s":"Uncletopia | Montréal | 4 | No Payload","protocol":17,"map":"plr_pipeline","folder":"tf","game":"Team Fortress","app_id":440,"player_count":0,"max_players":24,"Bots":0,"server_type":"Dedicated","server_os":"Linux","password":true,"vac":true,"version":"7742253","steam_id":85568392924500090,"keywords":["nocrits","nodmgspread","payload","uncletopia"],"game_id":440,"stv_port":27046,"stv_name":"Uncletopia | Montréal | 4 | No Payload | STV","players":null},{"server_id":13,"name":"Uncletopia | New York City | 1 | All Maps","name_short":"nyc-1","host":"nyc-1.us.uncletopia.com","port":27015,"enabled":true,"region":"us-east","cc":"us","latitude":40.73061,"longitude":-73.93524,"reserved":0,"last_update":"0001-01-01T00:00:00Z","name_a2s":"Uncletopia | New York City | 1 | All Maps","protocol":17,"map":"pl_upward","folder":"tf","game":"Team Fortress","app_id":440,"player_count":24,"max_players":24,"Bots":0,"server_type":"Dedicated","server_os":"Linux","password":true,"vac":true,"version":"7742253","steam_id":85568392924469993,"keywords":["nocrits","nodmgspread","payload","uncletopia"],"game_id":440,"stv_port":27016,"stv_name":"Uncletopia | New York City | 1 | All Maps | STV","players":[{"user_id":214,"name":"Murshed Poturdurrs","steam_id":76561198043177191,"connected_time":5349000000000,"state":"active","ping":53},{"user_id":272,"name":"flobutt","steam_id":76561199066749192,"connected_time":712000000000,"state":"active","ping":75},{"user_id":225,"name":"wowisthatleo","steam_id":76561199020860911,"connected_time":4049000000000,"state":"active","ping":178},{"user_id":253,"name":"Bush.exe","steam_id":76561198124385307,"connected_time":2386000000000,"state":"active","ping":67},{"user_id":264,"name":"FEARSUM ENDJINN","steam_id":76561197984273698,"connected_time":1460000000000,"state":"active","ping":63},{"user_id":247,"name":"Don Quixote de La Mancha","steam_id":76561198322479866,"connected_time":2445000000000,"state":"active","ping":40},{"user_id":103,"name":"ThatGhastyBoi","steam_id":76561199243666311,"connected_time":13193000000000,"state":"active","ping":47},{"user_id":275,"name":"[chef] iron","steam_id":76561197970888616,"connected_time":39000000000,"state":"active","ping":61},{"user_id":266,"name":"Halcyon","steam_id":76561197999409268,"connected_time":788000000000,"state":"active","ping":70},{"user_id":276,"name":"SH4DOWS20","steam_id":76561198969659568,"connected_time":13000000000,"state":"active","ping":82},{"user_id":250,"name":"BlueSpy","steam_id":76561198134707089,"connected_time":2423000000000,"state":"active","ping":89},{"user_id":257,"name":"The Land Admiral","steam_id":76561198159356609,"connected_time":2079000000000,"state":"active","ping":49},{"user_id":246,"name":"FunnyUsernameWow","steam_id":76561198324177635,"connected_time":2897000000000,"state":"active","ping":48},{"user_id":277,"name":"Kiwimpediment","steam_id":76561198322781400,"connected_time":13000000000,"state":"active","ping":74},{"user_id":223,"name":"Tink","steam_id":76561198088778979,"connected_time":4266000000000,"state":"active","ping":118},{"user_id":268,"name":"Regi","steam_id":76561198271508598,"connected_time":772000000000,"state":"active","ping":66},{"user_id":269,"name":"average girl in red listener","steam_id":76561198326083509,"connected_time":757000000000,"state":"active","ping":90},{"user_id":273,"name":"Bobble Hat Kujo","steam_id":76561198364283803,"connected_time":543000000000,"state":"active","ping":95},{"user_id":252,"name":"frid","steam_id":76561198005806915,"connected_time":2411000000000,"state":"active","ping":73},{"user_id":274,"name":"Brown_Dream","steam_id":76561198975766145,"connected_time":120000000000,"state":"active","ping":74},{"user_id":251,"name":"vortexgamer","steam_id":76561197999435527,"connected_time":2418000000000,"state":"active","ping":65},{"user_id":245,"name":"Morb + Ref","steam_id":76561199013410944,"connected_time":3132000000000,"state":"active","ping":114},{"user_id":259,"name":"Kasane","steam_id":76561198209006780,"connected_time":1977000000000,"state":"active","ping":81},{"user_id":263,"name":"Jude","steam_id":76561198041832304,"connected_time":1514000000000,"state":"active","ping":59}]},{"server_id":14,"name":"Uncletopia | New York City | 2 | All Maps","name_short":"nyc-2","host":"nyc-1.us.uncletopia.com","port":27025,"enabled":true,"region":"us-east","cc":"us","latitude":40.73061,"longitude":-73.93524,"reserved":0,"last_update":"0001-01-01T00:00:00Z","name_a2s":"Uncletopia | New York City | 2 | All Maps","protocol":17,"map":"pl_borneo","folder":"tf","game":"Team Fortress","app_id":440,"player_count":24,"max_players":24,"Bots":0,"server_type":"Dedicated","server_os":"Linux","password":true,"vac":true,"version":"7742253","steam_id":85568392924469994,"keywords":["nocrits","nodmgspread","payload","uncletopia"],"game_id":440,"stv_port":27026,"stv_name":"Uncletopia | New York City | 2 | All Maps | STV","players":[{"user_id":596,"name":"Peepster","steam_id":76561198297854733,"connected_time":103000000000,"state":"active","ping":79},{"user_id":592,"name":"Ronin Grinch","steam_id":76561198041439581,"connected_time":519000000000,"state":"active","ping":59},{"user_id":534,"name":"Goon Event #3349 (5hrs 22mins)","steam_id":76561198062410522,"connected_time":7385000000000,"state":"active","ping":38},{"user_id":568,"name":"CBTgaeming","steam_id":76561199089290128,"connected_time":4260000000000,"state":"active","ping":165},{"user_id":580,"name":"drukqs","steam_id":76561198253172399,"connected_time":2360000000000,"state":"active","ping":67},{"user_id":581,"name":"piper","steam_id":76561198413930183,"connected_time":2323000000000,"state":"active","ping":45},{"user_id":533,"name":"kairOs.fk","steam_id":76561197972421260,"connected_time":7413000000000,"state":"active","ping":43},{"user_id":594,"name":"John Brown's Body","steam_id":76561198079448289,"connected_time":124000000000,"state":"active","ping":62},{"user_id":565,"name":"Xavibite","steam_id":76561198209380493,"connected_time":4981000000000,"state":"active","ping":44},{"user_id":552,"name":"healthy boundaries","steam_id":76561198025760608,"connected_time":6064000000000,"state":"active","ping":57},{"user_id":587,"name":"-W3E- grim10465","steam_id":76561198045698581,"connected_time":1734000000000,"state":"active","ping":31},{"user_id":583,"name":"AAAAAAAAAAAAAAAAAAAAAAAAAAAAAAA","steam_id":76561198817866879,"connected_time":2261000000000,"state":"active","ping":55},{"user_id":585,"name":"Nikofreaker","steam_id":76561198320604061,"connected_time":2126000000000,"state":"active","ping":85},{"user_id":570,"name":"ed cook","steam_id":76561198043987486,"connected_time":3703000000000,"state":"active","ping":42},{"user_id":550,"name":"❤ Ashley ❤","steam_id":76561198056428303,"connected_time":6325000000000,"state":"active","ping":106},{"user_id":574,"name":"Yayifications","steam_id":76561198066227208,"connected_time":3072000000000,"state":"active","ping":53},{"user_id":586,"name":"2fort lesbian","steam_id":76561198055490517,"connected_time":1868000000000,"state":"active","ping":58},{"user_id":584,"name":"ndvr","steam_id":76561199379200102,"connected_time":2224000000000,"state":"active","ping":48},{"user_id":170,"name":"Elias","steam_id":76561198106431732,"connected_time":20309000000000,"state":"active","ping":78},{"user_id":569,"name":"potato pat","steam_id":76561198025489194,"connected_time":4147000000000,"state":"active","ping":89},{"user_id":588,"name":"THRILLHO","steam_id":76561198371663047,"connected_time":1731000000000,"state":"active","ping":45},{"user_id":595,"name":"Spoofle","steam_id":76561199003655066,"connected_time":124000000000,"state":"active","ping":114},{"user_id":590,"name":"Only One Jhakobi","steam_id":76561197993641141,"connected_time":1705000000000,"state":"active","ping":68},{"user_id":591,"name":"cornealvase9152","steam_id":76561198851958868,"connected_time":1679000000000,"state":"active","ping":135}]},{"server_id":15,"name":"Uncletopia | New York City | 3 | Stopwatch Beta","name_short":"nyc-3","host":"nyc-1.us.uncletopia.com","port":27035,"enabled":true,"region":"us-east","cc":"us","latitude":40.73061,"longitude":-73.93524,"reserved":0,"last_update":"0001-01-01T00:00:00Z","name_a2s":"Uncletopia | New York City | 3 | Stopwatch Beta","protocol":17,"map":"cp_metalworks","folder":"tf","game":"Team Fortress","app_id":440,"player_count":23,"max_players":24,"Bots":0,"server_type":"Dedicated","server_os":"Linux","password":true,"vac":true,"version":"7742253","steam_id":85568392924742820,"keywords":["cp","nocrits","nodmgspread","uncletopia"],"game_id":440,"stv_port":27036,"stv_name":"Uncletopia | New York City | 3 | Stopwatch Beta | STV","players":[{"user_id":138,"name":"biggus dickus","steam_id":76561198330096760,"connected_time":160000000000,"state":"active","ping":115},{"user_id":139,"name":"Uhonlapjontetzika","steam_id":76561199431280503,"connected_time":134000000000,"state":"active","ping":57},{"user_id":140,"name":"Beanbag","steam_id":76561198121061559,"connected_time":131000000000,"state":"active","ping":71},{"user_id":141,"name":"Liar","steam_id":76561198053046161,"connected_time":69000000000,"state":"active","ping":47},{"user_id":142,"name":"Wetman","steam_id":76561197998443325,"connected_time":20000000000,"state":"active","ping":110},{"user_id":120,"name":"The Muffin Man","steam_id":76561199088286427,"connected_time":955000000000,"state":"active","ping":112},{"user_id":101,"name":"Ellis","steam_id":76561199210977804,"connected_time":1708000000000,"state":"active","ping":47},{"user_id":121,"name":"Snazzi","steam_id":76561198085208276,"connected_time":952000000000,"state":"active","ping":73},{"user_id":125,"name":"Inevitable","steam_id":76561198210050169,"connected_time":759000000000,"state":"active","ping":46},{"user_id":102,"name":"its ben okay","steam_id":76561198254708420,"connected_time":1691000000000,"state":"active","ping":86},{"user_id":135,"name":"Scunt_Bot.exe","steam_id":76561198325350546,"connected_time":557000000000,"state":"active","ping":87},{"user_id":143,"name":"TheTrashMann","steam_id":76561199174242639,"connected_time":11000000000,"state":"active","ping":100},{"user_id":27,"name":"slothful jeremiah","steam_id":76561198170276601,"connected_time":7187000000000,"state":"active","ping":128},{"user_id":124,"name":"Abraxas_001","steam_id":76561198841754876,"connected_time":774000000000,"state":"active","ping":85},{"user_id":108,"name":"PHCGamer","steam_id":76561198322864401,"connected_time":1605000000000,"state":"active","ping":44},{"user_id":126,"name":"ThatguyZach","steam_id":76561198872157635,"connected_time":756000000000,"state":"active","ping":45},{"user_id":137,"name":"Jax_Senn","steam_id":76561199092522972,"connected_time":175000000000,"state":"active","ping":50},{"user_id":128,"name":"blob","steam_id":76561198122375328,"connected_time":741000000000,"state":"active","ping":67},{"user_id":47,"name":"MEGAFARTBLAST","steam_id":76561198166982558,"connected_time":6028000000000,"state":"active","ping":131},{"user_id":113,"name":"ChillyJones","steam_id":76561198017658702,"connected_time":1491000000000,"state":"active","ping":74},{"user_id":129,"name":"Metal Silver","steam_id":76561198422159570,"connected_time":728000000000,"state":"active","ping":97},{"user_id":130,"name":"Decepticon","steam_id":76561198047168548,"connected_time":667000000000,"state":"active","ping":112},{"user_id":132,"name":"SpeedrunnerNick#SaveTF2","steam_id":76561199251809758,"connected_time":640000000000,"state":"active","ping":85}]},{"server_id":16,"name":"Uncletopia | New York City | 4 | Community","name_short":"nyc-4","host":"nyc-1.us.uncletopia.com","port":27045,"enabled":true,"region":"us-east","cc":"us","latitude":40.73061,"longitude":-73.93524,"reserved":0,"last_update":"0001-01-01T00:00:00Z","name_a2s":"Uncletopia | New York City | 4 | Community","protocol":17,"map":"workshop/pl_fifthcurve_rc1.ugc648227046","folder":"tf","game":"Team Fortress","app_id":440,"player_count":24,"max_players":24,"Bots":0,"server_type":"Dedicated","server_os":"Linux","password":true,"vac":true,"version":"7742253","steam_id":85568392924742821,"keywords":["nocrits","nodmgspread","payload","uncletopia"],"game_id":440,"stv_port":27046,"stv_name":"Uncletopia | New York City | 4 | Community | STV","players":[{"user_id":76,"name":"reis","steam_id":76561199232952016,"connected_time":5754000000000,"state":"active","ping":168},{"user_id":85,"name":"ShinyOrion (She/Her)","steam_id":76561198408378321,"connected_time":5041000000000,"state":"active","ping":58},{"user_id":104,"name":"Crazd","steam_id":76561198125848198,"connected_time":3966000000000,"state":"active","ping":55},{"user_id":141,"name":"bloafyt","steam_id":76561199160422863,"connected_time":442000000000,"state":"active","ping":117},{"user_id":21,"name":"Shuzzilay","steam_id":76561197969138678,"connected_time":9307000000000,"state":"active","ping":68},{"user_id":112,"name":"redbrite","steam_id":76561198389370871,"connected_time":2979000000000,"state":"active","ping":134},{"user_id":144,"name":"leumas","steam_id":76561198240408540,"connected_time":334000000000,"state":"active","ping":61},{"user_id":22,"name":"BigSchwif","steam_id":76561198007976941,"connected_time":9299000000000,"state":"active","ping":65},{"user_id":128,"name":"Diesel","steam_id":76561198448815852,"connected_time":1129000000000,"state":"active","ping":102},{"user_id":148,"name":"Pizza_Pie_","steam_id":76561199018878356,"connected_time":145000000000,"state":"active","ping":50},{"user_id":131,"name":"Lawnmower","steam_id":76561198186680197,"connected_time":1046000000000,"state":"active","ping":102},{"user_id":143,"name":"Lucretiel","steam_id":76561197983490423,"connected_time":361000000000,"state":"active","ping":58},{"user_id":29,"name":"Shaw","steam_id":76561198019915537,"connected_time":9132000000000,"state":"active","ping":62},{"user_id":102,"name":"Monsterjessy","steam_id":76561198035630985,"connected_time":4098000000000,"state":"active","ping":59},{"user_id":134,"name":"The Power","steam_id":76561198060566884,"connected_time":868000000000,"state":"active","ping":127},{"user_id":135,"name":"fLock","steam_id":76561198091578187,"connected_time":812000000000,"state":"active","ping":52},{"user_id":142,"name":"FlameShake","steam_id":76561198084021005,"connected_time":433000000000,"state":"active","ping":82},{"user_id":97,"name":"Blankenship_Baltimore","steam_id":76561198027058754,"connected_time":4499000000000,"state":"active","ping":60},{"user_id":129,"name":"Tombola Master of Hats","steam_id":76561198033985855,"connected_time":1125000000000,"state":"active","ping":123},{"user_id":149,"name":"Kindrick","steam_id":76561199014184981,"connected_time":106000000000,"state":"active","ping":88},{"user_id":138,"name":"AmericanCheese","steam_id":76561199079574989,"connected_time":640000000000,"state":"active","ping":76},{"user_id":116,"name":"Mr War Crimes","steam_id":76561199115766913,"connected_time":2897000000000,"state":"active","ping":148},{"user_id":84,"name":"NyanHorses","steam_id":76561198161584966,"connected_time":5141000000000,"state":"active","ping":87},{"user_id":127,"name":"Syrix","steam_id":76561198017328672,"connected_time":1910000000000,"state":"active","ping":97}]},{"server_id":142,"name":"Uncletopia | São Paulo | 1 | All Maps","name_short":"sao-1","host":"sao-1.br.uncletopia.com","port":27015,"enabled":true,"region":"sa","cc":"br","latitude":-23.533773,"longitude":-46.62529,"reserved":0,"last_update":"0001-01-01T00:00:00Z","name_a2s":"Uncletopia | São Paulo | 1 | All Maps","protocol":17,"map":"cp_steel","folder":"tf","game":"Team Fortress","app_id":440,"player_count":15,"max_players":24,"Bots":0,"server_type":"Dedicated","server_os":"Linux","password":true,"vac":true,"version":"7742253","steam_id":85568392924469996,"keywords":["cp","nocrits","nodmgspread","uncletopia"],"game_id":440,"stv_port":27016,"stv_name":"Uncletopia | São Paulo | 1 | All Maps | STV","players":[{"user_id":105,"name":"Pruski","steam_id":76561198974515340,"connected_time":4116000000000,"state":"active","ping":85},{"user_id":107,"name":"matheus_lanches","steam_id":76561199359501901,"connected_time":3667000000000,"state":"active","ping":36},{"user_id":108,"name":"skelemafia","steam_id":76561199150927856,"connected_time":3093000000000,"state":"active","ping":50},{"user_id":109,"name":"jr_rusty","steam_id":76561198313937899,"connected_time":2806000000000,"state":"active","ping":45},{"user_id":122,"name":"Cabeleira","steam_id":76561198323253534,"connected_time":1381000000000,"state":"active","ping":45},{"user_id":133,"name":"The Red Baron","steam_id":76561199063025354,"connected_time":216000000000,"state":"active","ping":105},{"user_id":134,"name":"Helena ❤","steam_id":76561198049092323,"connected_time":54000000000,"state":"spawning","ping":79},{"user_id":128,"name":"keith.","steam_id":76561198984228021,"connected_time":427000000000,"state":"active","ping":155},{"user_id":121,"name":"Gâmbito","steam_id":76561198073449644,"connected_time":1724000000000,"state":"active","ping":87},{"user_id":115,"name":"Phalanx","steam_id":76561198043563282,"connected_time":2056000000000,"state":"active","ping":44},{"user_id":126,"name":"Zodd","steam_id":76561198940541282,"connected_time":603000000000,"state":"active","ping":68},{"user_id":129,"name":"shad__ng","steam_id":76561199014256667,"connected_time":415000000000,"state":"active","ping":208},{"user_id":130,"name":"pequeno pedrinho","steam_id":76561198994253286,"connected_time":357000000000,"state":"active","ping":34},{"user_id":135,"name":"gerdielpop","steam_id":76561199101518496,"connected_time":48000000000,"state":"active","ping":54},{"user_id":136,"name":"whereismybread","steam_id":76561197995625136,"connected_time":34000000000,"state":"spawning","ping":48}]},{"server_id":143,"name":"Uncletopia | São Paulo | 2 | All Maps","name_short":"sao-2","host":"sao-2.br.uncletopia.com","port":27015,"enabled":true,"region":"sa","cc":"br","latitude":-23.533773,"longitude":-46.62529,"reserved":0,"last_update":"0001-01-01T00:00:00Z","name_a2s":"Uncletopia | São Paulo | 2 | All Maps","protocol":17,"map":"koth_viaduct","folder":"tf","game":"Team Fortress","app_id":440,"player_count":0,"max_players":24,"Bots":0,"server_type":"Dedicated","server_os":"Linux","password":true,"vac":true,"version":"7742253","steam_id":85568392924485349,"keywords":["cp","nocrits","nodmgspread","uncletopia"],"game_id":440,"stv_port":27016,"stv_name":"Uncletopia | São Paulo | 2 | All Maps | STV","players":null},{"server_id":7,"name":"Uncletopia | Seattle | 1 | All Maps","name_short":"sea-1","host":"sea-1.us.uncletopia.com","port":27015,"enabled":true,"region":"us-west","cc":"us","latitude":47.608013,"longitude":-122.33517,"reserved":0,"last_update":"0001-01-01T00:00:00Z","name_a2s":"Uncletopia | Seattle | 1 | All Maps","protocol":17,"map":"pl_borneo","folder":"tf","game":"Team Fortress","app_id":440,"player_count":23,"max_players":24,"Bots":0,"server_type":"Dedicated","server_os":"Linux","password":true,"vac":true,"version":"7742253","steam_id":85568392924469997,"keywords":["nocrits","nodmgspread","payload","uncletopia"],"game_id":440,"stv_port":27016,"stv_name":"Uncletopia | Seattle | 1 | All Maps | STV","players":[{"user_id":198,"name":"resting neutral face","steam_id":76561197999259502,"connected_time":1016000000000,"state":"active","ping":60},{"user_id":199,"name":"RexCreeper456","steam_id":76561199319578396,"connected_time":1006000000000,"state":"active","ping":107},{"user_id":202,"name":"suspiciouslyBee","steam_id":76561198165933984,"connected_time":713000000000,"state":"active","ping":42},{"user_id":175,"name":"PopcornBucketGames","steam_id":76561199089562026,"connected_time":2593000000000,"state":"active","ping":41},{"user_id":197,"name":"Wavelengths","steam_id":76561197997621320,"connected_time":1027000000000,"state":"active","ping":94},{"user_id":194,"name":"MonteJT","steam_id":76561198055409360,"connected_time":1044000000000,"state":"active","ping":70},{"user_id":149,"name":"Julien","steam_id":76561199389584938,"connected_time":5414000000000,"state":"active","ping":42},{"user_id":189,"name":"BEASTxGODx420","steam_id":76561198184814466,"connected_time":1138000000000,"state":"active","ping":41},{"user_id":160,"name":"KingTinkerer","steam_id":76561198226856548,"connected_time":4230000000000,"state":"active","ping":60},{"user_id":170,"name":"HUIEI","steam_id":76561198073763735,"connected_time":3784000000000,"state":"active","ping":67},{"user_id":200,"name":"another breloom","steam_id":76561198006938024,"connected_time":958000000000,"state":"active","ping":75},{"user_id":166,"name":"Google","steam_id":76561198857237473,"connected_time":4002000000000,"state":"active","ping":52},{"user_id":205,"name":"Yokogaijin Jr.","steam_id":76561199124647094,"connected_time":110000000000,"state":"active","ping":64},{"user_id":172,"name":"some nerd","steam_id":76561198297272878,"connected_time":3712000000000,"state":"active","ping":75},{"user_id":206,"name":"Greskrendtregk","steam_id":76561197969553142,"connected_time":98000000000,"state":"active","ping":50},{"user_id":182,"name":"Pneumo.","steam_id":76561197987911883,"connected_time":1842000000000,"state":"active","ping":65},{"user_id":203,"name":"vartion","steam_id":76561198272996824,"connected_time":598000000000,"state":"active","ping":46},{"user_id":176,"name":"p9 iloveeatingshit93","steam_id":76561198043558709,"connected_time":2311000000000,"state":"active","ping":46},{"user_id":173,"name":"Sylain","steam_id":76561198043958855,"connected_time":3706000000000,"state":"active","ping":68},{"user_id":204,"name":"Im Tired and hungry","steam_id":76561198851536991,"connected_time":457000000000,"state":"active","ping":89},{"user_id":207,"name":"water whitee","steam_id":76561198293556549,"connected_time":94000000000,"state":"active","ping":49},{"user_id":38,"name":"Gary, 40, soul sucking 9-5","steam_id":76561198073812888,"connected_time":13693000000000,"state":"active","ping":44},{"user_id":191,"name":"Vagrant","steam_id":76561198242536886,"connected_time":1064000000000,"state":"active","ping":63}]},{"server_id":119,"name":"Uncletopia | Seattle | 2 | All Maps","name_short":"sea-2","host":"sea-1.us.uncletopia.com","port":27025,"enabled":true,"region":"us-west","cc":"us","latitude":47.608013,"longitude":-122.33517,"reserved":0,"last_update":"0001-01-01T00:00:00Z","name_a2s":"Uncletopia | Seattle | 2 | All Maps","protocol":17,"map":"koth_cascade","folder":"tf","game":"Team Fortress","app_id":440,"player_count":0,"max_players":24,"Bots":0,"server_type":"Dedicated","server_os":"Linux","password":true,"vac":true,"version":"7742253","steam_id":85568392924469998,"keywords":["cp","nocrits","nodmgspread","uncletopia"],"game_id":440,"stv_port":27026,"stv_name":"Uncletopia | Seattle | 2 | All Maps | STV","players":null},{"server_id":406,"name":"Uncletopia | Seattle | 3 | Stopwatch Beta","name_short":"sea-3","host":"sea-1.us.uncletopia.com","port":27035,"enabled":true,"region":"us-west","cc":"us","latitude":47.608013,"longitude":-122.33517,"reserved":0,"last_update":"0001-01-01T00:00:00Z","name_a2s":"Uncletopia | Seattle | 3 | Stopwatch Beta","protocol":17,"map":"cp_metalworks","folder":"tf","game":"Team Fortress","app_id":440,"player_count":0,"max_players":24,"Bots":0,"server_type":"Dedicated","server_os":"Linux","password":true,"vac":true,"version":"7742253","steam_id":85568392924515217,"keywords":["cp","nocrits","nodmgspread","uncletopia"],"game_id":440,"stv_port":27036,"stv_name":"Uncletopia | Seattle | 3 | Stopwatch Beta | STV","players":null},{"server_id":17,"name":"Uncletopia | San Francisco | 1 | All Maps","name_short":"sfo-1","host":"sfo-1.us.uncletopia.com","port":27015,"enabled":true,"region":"us-west","cc":"us","latitude":37.77397,"longitude":-122.4313,"reserved":0,"last_update":"0001-01-01T00:00:00Z","name_a2s":"Uncletopia | San Francisco | 1 | All Maps","protocol":17,"map":"koth_cascade","folder":"tf","game":"Team Fortress","app_id":440,"player_count":0,"max_players":24,"Bots":0,"server_type":"Dedicated","server_os":"Linux","password":true,"vac":true,"version":"7742253","steam_id":85568392924469999,"keywords":["cp","nocrits","nodmgspread","uncletopia"],"game_id":440,"stv_port":27016,"stv_name":"Uncletopia | San Francisco | 1 | All Maps | STV","players":null},{"server_id":18,"name":"Uncletopia | San Francisco | 2 | All Maps","name_short":"sfo-2","host":"sfo-1.us.uncletopia.com","port":27025,"enabled":true,"region":"us-west","cc":"us","latitude":37.77397,"longitude":-122.4313,"reserved":0,"last_update":"0001-01-01T00:00:00Z","name_a2s":"Uncletopia | San Francisco | 2 | All Maps","protocol":17,"map":"cp_altitude","folder":"tf","game":"Team Fortress","app_id":440,"player_count":0,"max_players":24,"Bots":0,"server_type":"Dedicated","server_os":"Linux","password":true,"vac":true,"version":"7742253","steam_id":85568392924470000,"keywords":["cp","nocrits","nodmgspread","uncletopia"],"game_id":440,"stv_port":27026,"stv_name":"Uncletopia | San Francisco | 2 | All Maps | STV","players":null},{"server_id":19,"name":"Uncletopia | San Francisco | 3 | Stopwatch Beta","name_short":"sfo-3","host":"sfo-1.us.uncletopia.com","port":27035,"enabled":true,"region":"us-west","cc":"us","latitude":37.77397,"longitude":-122.4313,"reserved":0,"last_update":"0001-01-01T00:00:00Z","name_a2s":"Uncletopia | San Francisco | 3 | Stopwatch Beta","protocol":17,"map":"pl_swiftwater_final1","folder":"tf","game":"Team Fortress","app_id":440,"player_count":0,"max_players":24,"Bots":0,"server_type":"Dedicated","server_os":"Linux","password":true,"vac":true,"version":"7742253","steam_id":85568392924742824,"keywords":["nocrits","nodmgspread","payload","uncletopia"],"game_id":440,"stv_port":27036,"stv_name":"Uncletopia | San Francisco | 3 | Stopwatch Beta | STV","players":null},{"server_id":20,"name":"Uncletopia | San Francisco | 4 | Community","name_short":"sfo-4","host":"sfo-1.us.uncletopia.com","port":27045,"enabled":true,"region":"us-west","cc":"us","latitude":37.77397,"longitude":-122.4313,"reserved":0,"last_update":"0001-01-01T00:00:00Z","name_a2s":"Uncletopia | San Francisco | 4 | Community","protocol":17,"map":"workshop/koth_slaughter_rc1.ugc1712845210","folder":"tf","game":"Team Fortress","app_id":440,"player_count":0,"max_players":24,"Bots":0,"server_type":"Dedicated","server_os":"Linux","password":true,"vac":true,"version":"7742253","steam_id":85568392924742826,"keywords":["cp","nocrits","nodmgspread","uncletopia"],"game_id":440,"stv_port":27046,"stv_name":"Uncletopia | San Francisco | 4 | Community | STV","players":null},{"server_id":141,"name":"Uncletopia | Sydney | 1 | All Maps","name_short":"syd-1","host":"syd-1.au.uncletopia.com","port":27015,"enabled":true,"region":"au","cc":"au","latitude":-33.865143,"longitude":151.2099,"reserved":0,"last_update":"0001-01-01T00:00:00Z","name_a2s":"Uncletopia | Sydney | 1 | All Maps","protocol":17,"map":"koth_lakeside_final","folder":"tf","game":"Team Fortress","app_id":440,"player_count":8,"max_players":24,"Bots":0,"server_type":"Dedicated","server_os":"Linux","password":true,"vac":true,"version":"7742253","steam_id":85568392924470001,"keywords":["cp","nocrits","nodmgspread","uncletopia"],"game_id":440,"stv_port":27016,"stv_name":"Uncletopia | Sydney | 1 | All Maps | STV","players":[{"user_id":9,"name":"squrrel","steam_id":76561198083429611,"connected_time":959000000000,"state":"active","ping":70},{"user_id":7,"name":"internetkittenz13","steam_id":76561198881042979,"connected_time":1546000000000,"state":"active","ping":73},{"user_id":13,"name":"tzvndere fqn 1488 (spy main)","steam_id":76561197975953955,"connected_time":446000000000,"state":"active","ping":38},{"user_id":12,"name":"perturb","steam_id":76561198085124297,"connected_time":565000000000,"state":"active","ping":56},{"user_id":17,"name":"RedEyes","steam_id":76561197973698135,"connected_time":18000000000,"state":"spawning","ping":111},{"user_id":15,"name":"Mr.Beast thereal","steam_id":76561199120129588,"connected_time":270000000000,"state":"active","ping":256},{"user_id":16,"name":"maximind123","steam_id":76561199237473824,"connected_time":102000000000,"state":"active","ping":49},{"user_id":18,"name":"blaze","steam_id":76561198241303512,"connected_time":2000000000,"state":"spawning","ping":52}]},{"server_id":123,"name":"Uncletopia | Sydney | 2 | All Maps","name_short":"syd-2","host":"syd-1.au.uncletopia.com","port":27025,"enabled":true,"region":"au","cc":"au","latitude":-33.865143,"longitude":151.2099,"reserved":0,"last_update":"0001-01-01T00:00:00Z","name_a2s":"Uncletopia | Sydney | 2 | All Maps","protocol":17,"map":"pl_badwater","folder":"tf","game":"Team Fortress","app_id":440,"player_count":0,"max_players":24,"Bots":0,"server_type":"Dedicated","server_os":"Linux","password":true,"vac":true,"version":"7742253","steam_id":85568392924470002,"keywords":["nocrits","nodmgspread","payload","uncletopia"],"game_id":440,"stv_port":27026,"stv_name":"Uncletopia | Sydney | 2 | All Maps | STV","players":null},{"server_id":395,"name":"Uncletopia | Sydney | 3 | All Maps","name_short":"syd-3","host":"syd-1.au.uncletopia.com","port":27035,"enabled":true,"region":"au","cc":"au","latitude":-33.865143,"longitude":151.2099,"reserved":0,"last_update":"0001-01-01T00:00:00Z","name_a2s":"Uncletopia | Sydney | 3 | All Maps","protocol":17,"map":"koth_viaduct","folder":"tf","game":"Team Fortress","app_id":440,"player_count":0,"max_players":24,"Bots":0,"server_type":"Dedicated","server_os":"Linux","password":true,"vac":true,"version":"7742253","steam_id":85568392925194467,"keywords":["cp","nocrits","nodmgspread","uncletopia"],"game_id":440,"stv_port":27036,"stv_name":"Uncletopia | Sydney | 3 | All Maps | STV","players":null},{"server_id":396,"name":"Uncletopia | Sydney | 4 | All Maps","name_short":"syd-4","host":"syd-1.au.uncletopia.com","port":27045,"enabled":true,"region":"au","cc":"au","latitude":-33.865143,"longitude":151.2099,"reserved":0,"last_update":"0001-01-01T00:00:00Z","name_a2s":"Uncletopia | Sydney | 4 | All Maps","protocol":17,"map":"pl_frontier_final","folder":"tf","game":"Team Fortress","app_id":440,"player_count":0,"max_players":24,"Bots":0,"server_type":"Dedicated","server_os":"Linux","password":true,"vac":true,"version":"7742253","steam_id":85568392925397958,"keywords":["nocrits","nodmgspread","payload","uncletopia"],"game_id":440,"stv_port":27046,"stv_name":"Uncletopia | Sydney | 4 | All Maps | STV","players":null},{"server_id":58,"name":"Uncletopia | Sydney | 5 | Stopwatch Beta","name_short":"syd-5","host":"syd-1.au.uncletopia.com","port":27055,"enabled":true,"region":"au","cc":"au","latitude":-33.865143,"longitude":151.2099,"reserved":0,"last_update":"0001-01-01T00:00:00Z","name_a2s":"Uncletopia | Sydney | 5 | Stopwatch Beta","protocol":17,"map":"cp_sunshine","folder":"tf","game":"Team Fortress","app_id":440,"player_count":0,"max_players":24,"Bots":0,"server_type":"Dedicated","server_os":"Linux","password":true,"vac":true,"version":"7742253","steam_id":85568392925397959,"keywords":["cp","nocrits","nodmgspread","uncletopia"],"game_id":440,"stv_port":27056,"stv_name":"Uncletopia | Sydney | 5 | Stopwatch Beta | STV","players":null},{"server_id":59,"name":"Uncletopia | Sydney | 6 | Community","name_short":"syd-6","host":"syd-1.au.uncletopia.com","port":27065,"enabled":true,"region":"au","cc":"au","latitude":-33.865143,"longitude":151.2099,"reserved":0,"last_update":"0001-01-01T00:00:00Z","name_a2s":"Uncletopia | Sydney | 6 | Community","protocol":17,"map":"cp_dustbowl","folder":"tf","game":"Team Fortress","app_id":440,"player_count":0,"max_players":24,"Bots":0,"server_type":"Dedicated","server_os":"Linux","password":true,"vac":true,"version":"7742253","steam_id":85568392925397960,"keywords":["cp","nocrits","nodmgspread","uncletopia"],"game_id":440,"stv_port":27066,"stv_name":"Uncletopia | Sydney | 6 | Community | STV","players":null},{"server_id":49,"name":"Uncletopia | Warsaw | 1 | All Maps","name_short":"waw-1","host":"waw-1.pl.uncletopia.com","port":27015,"enabled":true,"region":"eu","cc":"pl","latitude":52.2297,"longitude":21.017532,"reserved":0,"last_update":"0001-01-01T00:00:00Z","name_a2s":"","protocol":0,"map":"","folder":"","game":"","app_id":0,"player_count":0,"max_players":0,"Bots":0,"server_type":"","server_os":"","password":false,"vac":false,"version":"","steam_id":0,"keywords":null,"game_id":0,"stv_port":0,"stv_name":"","players":null},{"server_id":50,"name":"Uncletopia | Warsaw | 2 | All Maps","name_short":"waw-2","host":"waw-1.pl.uncletopia.com","port":27025,"enabled":true,"region":"eu","cc":"pl","latitude":52.2297,"longitude":21.017532,"reserved":0,"last_update":"0001-01-01T00:00:00Z","name_a2s":"Uncletopia | Warsaw | 2 | All Maps","protocol":17,"map":"pl_snowycoast","folder":"tf","game":"Team Fortress","app_id":440,"player_count":0,"max_players":24,"Bots":0,"server_type":"Dedicated","server_os":"Linux","password":true,"vac":true,"version":"7742253","steam_id":85568392925397851,"keywords":["nocrits","nodmgspread","payload","uncletopia"],"game_id":440,"stv_port":27026,"stv_name":"Uncletopia | Warsaw | 2 | All Maps | STV","players":null},{"server_id":51,"name":"Uncletopia | Warsaw | 3 | All Maps","name_short":"waw-3","host":"waw-1.pl.uncletopia.com","port":27035,"enabled":true,"region":"eu","cc":"pl","latitude":52.2297,"longitude":21.017532,"reserved":0,"last_update":"0001-01-01T00:00:00Z","name_a2s":"Uncletopia | Warsaw | 3 | All Maps","protocol":17,"map":"cp_process_final","folder":"tf","game":"Team Fortress","app_id":440,"player_count":0,"max_players":24,"Bots":0,"server_type":"Dedicated","server_os":"Linux","password":true,"vac":true,"version":"7742253","steam_id":85568392925397852,"keywords":["cp","nocrits","nodmgspread","uncletopia"],"game_id":440,"stv_port":27036,"stv_name":"Uncletopia | Warsaw | 3 | All Maps | STV","players":null},{"server_id":52,"name":"Uncletopia | Warsaw | 4 | All Maps","name_short":"waw-4","host":"waw-1.pl.uncletopia.com","port":27045,"enabled":true,"region":"eu","cc":"pl","latitude":52.2297,"longitude":21.017532,"reserved":0,"last_update":"0001-01-01T00:00:00Z","name_a2s":"Uncletopia | Warsaw | 4 | All Maps","protocol":17,"map":"koth_highpass","folder":"tf","game":"Team Fortress","app_id":440,"player_count":0,"max_players":24,"Bots":0,"server_type":"Dedicated","server_os":"Linux","password":true,"vac":true,"version":"7742253","steam_id":85568392925397853,"keywords":["cp","nocrits","nodmgspread","uncletopia"],"game_id":440,"stv_port":27046,"stv_name":"Uncletopia | Warsaw | 4 | All Maps | STV","players":null},{"server_id":53,"name":"Uncletopia | Warsaw | 5 | Stopwatch Beta","name_short":"waw-5","host":"waw-1.pl.uncletopia.com","port":27055,"enabled":true,"region":"eu","cc":"pl","latitude":52.2297,"longitude":21.017532,"reserved":0,"last_update":"0001-01-01T00:00:00Z","name_a2s":"Uncletopia | Warsaw | 5 | Stopwatch Beta","protocol":17,"map":"koth_lakeside_final","folder":"tf","game":"Team Fortress","app_id":440,"player_count":0,"max_players":24,"Bots":0,"server_type":"Dedicated","server_os":"Linux","password":true,"vac":true,"version":"7742253","steam_id":85568392925397854,"keywords":["cp","nocrits","nodmgspread","uncletopia"],"game_id":440,"stv_port":27056,"stv_name":"Uncletopia | Warsaw | 5 | Stopwatch Beta | STV","players":null},{"server_id":54,"name":"Uncletopia | Warsaw | 6 | Community","name_short":"waw-6","host":"waw-1.pl.uncletopia.com","port":27065,"enabled":true,"region":"eu","cc":"pl","latitude":52.2297,"longitude":21.017532,"reserved":0,"last_update":"0001-01-01T00:00:00Z","name_a2s":"Uncletopia | Warsaw | 6 | Community","protocol":17,"map":"koth_highpass","folder":"tf","game":"Team Fortress","app_id":440,"player_count":0,"max_players":24,"Bots":0,"server_type":"Dedicated","server_os":"Linux","password":true,"vac":true,"version":"7742253","steam_id":85568392925397856,"keywords":["cp","nocrits","nodmgspread","uncletopia"],"game_id":440,"stv_port":27066,"stv_name":"Uncletopia | Warsaw | 6 | Community | STV","players":null}]}